,current_time,x_pos,y_pos,z_pos,roll,pitch,yaw,vel,x_traj,y_traj,z_traj,roll_traj,pitch_traj,yaw_traj,x_cmd,y_cmd,z_cmd,roll_cmd,pitch_cmd,yaw_cmd,vel_cmd,effector_dmg,effector_x,effector_y,effector_z,cost,time_solution
0,2.7490856647491455,-212.7817840576172,-29.321430206298828,49.97997283935547,0.6323167681694031,0.03639869764447199,0.15403790871170536,23.528671476896314,"array('d', [-29.722707748413086, -29.287311276027264, -28.924684399021274, -28.637321228528272, -28.42740072721037, -28.29688354961923, -28.247520586074646, -28.280851666480896, -28.398204566104965, -28.600694700543524, -28.889225468129407, -29.26094673124029, -29.699932672538953, -30.18890635701333, -30.713785154431875, -31.264236071186325])","array('d', [-216.52108764648438, -214.06022023852157, -211.5868346099188, -209.10350705227967, -206.61243968655666, -204.11595697759827, -201.61655639583284, -199.11689456108644, -196.61977016678927, -194.1281075415382, -191.64494039527045, -189.17283265721832, -186.7117363841986, -184.26005432357064, -181.815791182029, -179.37716032384756])","array('d', [-49.9841194152832, -49.92156723873249, -49.90648360543407, -49.90937203901573, -49.90934604316452, -49.910121361668445, -49.91066776856493, -49.91127310215797, -49.911857554308355, -49.912444445459805, -49.91302801075471, -49.91361082583565, -49.914193039564324, -49.91477522461642, -49.915357494601565, -49.91071658740956])","array('d', [0.6307012438774108, 0.6454225904308651, 0.658743016842217, 0.6707958381741094, 0.6817016828942524, 0.6915697001632223, 0.7004986522333274, 0.70857790289086, 0.7158883118314159, 0.7225030439039151, 0.7284883011783421, 0.6085926281790497, 0.4759369818471148, 0.35590518192521325, 0.24729594535848692, 0.22202228045826186])","array('d', [-0.03516819328069681, -0.015212509673980214, 0.002844140664635923, -0.0004779727505978377, 0.00044183189545935646, 0.0001827449985482576, 0.0002532051029862166, 0.00023142510508731247, 0.0002360593070842542, 0.0002334963686088772, 0.00023335817227794524, 0.00023290151006593495, 0.0002328699981139843, 0.00023287791111007022, 0.0002329370893533104, -0.0038771059338945824])","array('d', [0.18959541718033338, 0.16048927034113458, 0.1305220783183356, 0.09975975193830569, 0.06826421793949289, 0.0360935192236115, 0.0033019277589998166, -0.03005992962306756, -0.06394493350759069, -0.09830932397794268, -0.13311254464066, -0.1641045911319415, -0.18773566904505806, -0.20504564789774835, -0.21722711036129103, -0.22659974511187533])",-28.924684399021274,-211.5868346099188,-49.90648360543407,0.658743016842217,0.002844140664635923,0.1305220783183356,25.000000249984307,-1.0,[],[],[],10000000000.0,0.04915452003479004
1,2.79994797706604,-211.84475708007812,-29.24172019958496,49.977420806884766,0.63331139087677,0.03651083633303629,0.14558847347763587,23.53041166601341,"array('d', [-29.55712890625, -29.154302702827305, -28.82436619212934, -28.56978718825204, -28.392719729470716, -28.295095514039406, -28.278634298511772, -28.344842644858574, -28.495013149394246, -28.730224351488378, -29.051341288098378, -29.454842078739645, -29.922686295671507, -30.437745456038552, -30.986469257827274, -31.558878514067686])","array('d', [-215.1206512451172, -212.65430418338147, -210.17636016803894, -207.68945650728583, -205.19583847669932, -202.69785318250408, -200.19801934011159, -197.6990121485128, -195.20364624786868, -192.71485923785255, -190.2356954325969, -187.7685711049223, -185.3127911954783, -182.86645281395866, -180.42743000215648, -177.99385832663395])","array('d', [-49.98402786254883, -49.91912077819681, -49.90190567456578, -49.90410548419245, -49.904313603818395, -49.90506733552338, -49.905663316666086, -49.906298390094996, -49.90691826504789, -49.90753912239448, -49.90815727518324, -49.90877475028, -49.90939185097378, -49.910009044721264, -49.91062641307559, -49.90601873358467])","array('d', [0.6304758787155149, 0.6452186715810084, 0.6585585034196352, 0.6706288835096622, 0.6815506160523029, 0.6914330092182103, 0.7003749691374462, 0.7084659897805111, 0.7157870486305715, 0.722411417054364, 0.7284053877124785, 0.5843480575331557, 0.4539995835044999, 0.3360553988854564, 0.2293351045472179, 0.20591225760959952])","array('d', [-0.0361583828926085, -0.016108470364322072, 0.0020334420524005807, -0.00023573929144691505, 0.0003917669398019999, 0.00021418091658909058, 0.00026180945844478805, 0.0002465046005808725, 0.0002493479294684592, 0.00024737092825687096, 0.00024715490652002964, 0.0002468305813641747, 0.000246849655542019, 0.00024690442879177427, 0.00024698884650206583, -0.0038645505364447094])","array('d', [0.17637260357407109, 0.1472794983064981, 0.1173243584765576, 0.0865731535928441, 0.05508786770267407, 0.02292659946893291, -0.009856325116028805, -0.04321022711708123, -0.07708793709776848, -0.11144564733371637, -0.1462427557295284, -0.17647899601537784, -0.1988891749620513, -0.2152271699528154, -0.22659932610269365, -0.23526867616464797])",-28.82436619212934,-210.17636016803894,-49.90190567456578,0.6585585034196352,0.0020334420524005807,0.1173243584765576,25.000000249984353,-1.0,[],[],[],10000000000.0,0.04911065101623535
2,2.8520052433013916,-210.4451141357422,-29.138113021850586,49.97357940673828,0.6346392631530762,0.036470729857683064,0.1326770345356802,23.53024487008715,"array('d', [-29.45667839050293, -29.076252401873887, -28.7688641956404, -28.53695575265842, -28.38265797034972, -28.307877910860654, -28.314309251590238, -28.403431143764106, -28.576507600399008, -28.834587558345813, -29.176560582671783, -29.592049718322748, -30.063589193425198, -30.575873554692617, -31.11651449551436, -31.67630934660604])","array('d', [-214.18577575683594, -211.71589236585865, -209.23505485093312, -206.74593458641888, -204.25080423760735, -201.75203084362644, -199.25215117337467, -196.75385628897163, -194.25997451979998, -191.77345497740637, -189.29706599730807, -186.83190891821766, -184.3768226235443, -181.92989390230886, -179.48906220079652, -177.05255491936654])","array('d', [-49.98286437988281, -49.91728509046942, -49.899461554359476, -49.90146966779088, -49.901752911819116, -49.90250791846891, -49.90312580288966, -49.903777123343005, -49.904414969714466, -49.90505346800905, -49.90568957285776, -49.90632515149928, -49.90696044906874, -49.907595827838385, -49.90823134171395, -49.90364080054128])","array('d', [0.6308236718177793, 0.6455333678220586, 0.658843252379465, 0.6708865350463146, 0.6817837488241157, 0.6916439564917528, 0.7005658421393328, 0.7086386988263845, 0.7159433222405197, 0.7225528192239465, 0.6608624137815688, 0.5232326420180452, 0.39870006399758984, 0.2860183206610818, 0.18405968514851556, 0.165286922072392])","array('d', [-0.03644103556871405, -0.01636422510444688, 0.0018020256074150786, -0.00016275793919800574, 0.0003802939753686078, 0.00022628059804071695, 0.00026734195350388575, 0.00025393801425607293, 0.00025629968596141184, 0.00025452849710763133, 0.00025435822277803543, 0.0002541088508587732, 0.0002541288711201643, 0.0002541734021200191, 0.0002542366437324907, -0.0038580747247148146])","array('d', [0.16730816761520878, 0.1381949342999983, 0.10822119351569454, 0.07745282418209691, 0.04595172187896602, 0.01377589919222032, -0.019020401279600772, -0.05238658102943136, -0.08627554783213728, -0.12064356775054984, -0.15312599876165045, -0.17951153979486587, -0.1989810296013808, -0.21294113449399266, -0.2223111133638933, -0.22922974278408034])",-28.7688641956404,-209.23505485093312,-49.899461554359476,0.658843252379465,0.0018020256074150786,0.10822119351569454,25.000000249984378,-1.0,[],[],[],10000000000.0,0.04780268669128418
3,2.9006693363189697,-209.510498046875,-29.079421997070312,49.97072982788086,0.6358521580696103,0.035768251866102094,0.12407322327164201,23.53331791830955,"array('d', [-29.321430206298828, -28.97392090941982, -28.69979577438975, -28.501446112903686, -28.380957911293578, -28.340192505714185, -28.3807959438492, -28.50419807026753, -28.71161215823023, -29.004035207641728, -29.3781003865961, -29.815974345671886, -30.30065988085383, -30.81867789682453, -31.358849011573316, -31.912806368930386])","array('d', [-212.7817840576172, -210.30705258936146, -207.82231950413453, -205.33030104145593, -202.83331013020006, -200.33375085234272, -197.83419307134977, -195.3373570542976, -192.8460964494537, -190.3633818368402, -187.8916212340291, -185.4303197366389, -182.97778216733914, -180.53205338985535, -178.0911134976636, -175.65326975898603])","array('d', [-49.97997283935547, -49.91449423775847, -49.89676183734768, -49.89881181490113, -49.89910627280321, -49.8998812744807, -49.90051689214356, -49.901186824618875, -49.90184330073802, -49.90250072178128, -49.90315601428056, -49.90381104110257, -49.90446590998935, -49.90512088342129, -49.9057759712508, -49.90120392694305])","array('d', [0.6323167681694031, 0.6468843773919054, 0.6600656965007856, 0.6719926483283887, 0.6827846016000152, 0.6925495656135053, 0.7013852712290048, 0.7093801489848274, 0.7166142141106675, 0.7231598670280258, 0.5796017140197149, 0.44970491337211493, 0.33216941779044873, 0.22581889725224172, 0.12958899153053033, 0.1163878977229988])","array('d', [-0.03639869764447199, -0.016325916162980098, 0.0018366889707298255, -0.00016334198198437802, 0.0003896827509387818, 0.00023293348531429515, 0.00027486120750748564, 0.00026131082123238326, 0.0002638280819483591, 0.00026213696466419846, 0.00026209769069297973, 0.00026192662144151744, 0.0002619678017630947, 0.0002620102366507303, 0.00026205921072857265, -0.0038510858715448348])","array('d', [0.15403790871170536, 0.12483815199077662, 0.09478445935908619, 0.06394231902300414, 0.03237324507342189, 0.00013487900622901407, -0.032718896006869176, -0.06613782800805237, -0.10007515737016864, -0.13448746791597507, -0.1644112834758845, -0.186586287003115, -0.20273601839188957, -0.21395080142858086, -0.2209713779475127, -0.22581761377747248])",-28.69979577438975,-207.82231950413453,-49.89676183734768,0.6600656965007856,0.0018366889707298255,0.09478445935908619,25.000000249984414,-1.0,[],[],[],10000000000.0,0.04672050476074219
4,2.9477667808532715,-208.10638427734375,-29.007829666137695,49.966678619384766,0.6382563114166256,0.032405178993940256,0.10964138905075567,23.542795363302567,"array('d', [-29.24172019958496, -28.915206591177007, -28.662296622968196, -28.485349156944334, -28.386421019729667, -28.367343636746003, -28.429731990740777, -28.574983840312004, -28.80427950740375, -29.118002730421154, -29.510685647766323, -29.96466423992657, -30.463503720846425, -30.994085828714066, -31.545478640013695, -32.10949120068968])","array('d', [-211.84475708007812, -209.36717550907815, -206.88019557970856, -204.38656626748113, -201.88862857012444, -199.3888099702545, -196.88970131108644, -194.3940413127669, -191.90469956593594, -189.42458183332604, -186.95570339285007, -184.49731735618735, -182.04761710477675, -179.60458185426492, -177.16615163348118, -174.7306147678418])","array('d', [-49.977420806884766, -49.91167551785291, -49.89370172940618, -49.89568478802115, -49.89602451558648, -49.89681376794307, -49.89747232776509, -49.898162874225996, -49.89884074843781, -49.89951952255326, -49.900196389968066, -49.90087310082871, -49.901549733853926, -49.90222651712674, -49.90290343898119, -49.89835205359429])","array('d', [0.63331139087677, 0.6477843493110077, 0.660880024835251, 0.6727294831325444, 0.683451317346156, 0.6931528349953641, 0.7019311319367847, 0.7098740641048491, 0.7170611266290332, 0.7036678516667578, 0.5619646079856201, 0.43374619958528715, 0.3177293774573416, 0.21275301440024552, 0.11776654429179069, 0.10577223575796436])","array('d', [-0.03651083633303629, -0.016427383503789937, 0.001744877008146735, -0.0001271997604300564, 0.00039034808509586313, 0.00024350346559350866, 0.00028269067223524863, 0.0002699588894893103, 0.0002723014033908735, 0.0002707438729199961, 0.0002707499586040591, 0.00027062088432962733, 0.0002706844762015087, 0.000270741197037558, 0.00027079538379039134, -0.0038432802677784306])","array('d', [0.14558847347763587, 0.11633097778197662, 0.0862239379689852, 0.05533258032837898, 0.0237181632882396, -0.008561920266392901, -0.04145402787295868, -0.07490813957015638, -0.10887771829660162, -0.14262375449595868, -0.17140731842765994, -0.1927188837558327, -0.2081745601808942, -0.21880745635728147, -0.2253250695206663, -0.22972533742367557])",-28.662296622968196,-206.88019557970856,-49.89370172940618,0.660880024835251,0.001744877008146735,0.0862239379689852,25.0000002499571,-1.0,[],[],[],10000000000.0,0.045623064041137695
5,3.000157594680786,-207.16888427734375,-28.97187042236328,49.96480941772461,0.640533924102783,0.028766835108399367,0.09901531139877831,23.551804141685764,"array('d', [-29.138113021850586, -28.843711703127664, -28.623214648454944, -28.478931352709928, -28.412874979078584, -28.426832577343156, -28.522372982621707, -28.70084625239859, -28.963383689325646, -29.307513423514095, -29.718067857511766, -30.1780594510697, -30.67351005537729, -31.192899278943422, -31.726396366510027, -32.26660542581753])","array('d', [-210.4451141357422, -207.96350987676752, -205.473446706567, -202.9777148447752, -200.47869222476703, -197.97884018026284, -195.4807796049762, -192.98727553572692, -190.5012201525436, -188.02511725764683, -185.55911728287748, -183.10183176939665, -180.65143361240226, -178.2059884583498, -175.7635775311964, -173.32264829579307])","array('d', [-49.97357940673828, -49.907929498596225, -49.89004204322276, -49.892069712012116, -49.8924284158523, -49.89324399960268, -49.89392700543331, -49.89464275917898, -49.89534588565127, -49.896050249200336, -49.896752993906496, -49.897455726497284, -49.898158382947486, -49.898861141042374, -49.899563970338406, -49.895037056944396])","array('d', [0.6346392631530762, 0.6489858579462909, 0.6619671949112768, 0.6737131953953248, 0.6843414171047748, 0.6939582306589858, 0.7026598841784112, 0.710533466554619, 0.7176577789827736, 0.6026897689554166, 0.47059585110629415, 0.35107232088699086, 0.2429229495910563, 0.14506534693455644, 0.05652015829387166, 0.05076790662531701])","array('d', [-0.036470729857683064, -0.016391093610480724, 0.0017777139820103701, -0.0001238565558705905, 0.00040204651881897084, 0.0002529084078190196, 0.00029283028169785097, 0.00027998696897214056, 0.0002824727429924309, 0.00028104196628192545, 0.00028115196542347293, 0.0002810360428116826, 0.0002810882482405928, 0.0002811177375086746, 0.0002811452422684594, -0.003834033107430024])","array('d', [0.1326770345356802, 0.10334232715914933, 0.07316395670679429, 0.04220679772284489, 0.010531765378905681, -0.021804081123265803, -0.054747422289180746, -0.08824854932985356, -0.12226122362094698, -0.1527204350908115, -0.17605116006704494, -0.1931228594320278, -0.20510641840515512, -0.21278886374813152, -0.21673077553595885, -0.21883590774558886])",-28.623214648454944,-205.473446706567,-49.89004204322276,0.6619671949112768,0.0017777139820103701,0.07316395670679429,25.00000024998446,-1.0,[],[],[],10000000000.0,0.048241376876831055
6,3.0507216453552246,-205.76678466796875,-28.937849044799805,49.96678924560547,0.6446482539176939,0.021658960729837372,0.08173723618057764,23.562872551978934,"array('d', [-29.079421997070312, -28.806466670396276, -28.60765912852399, -28.485269327380294, -28.44127670340393, -28.477435223130765, -28.595279532244316, -28.7961245841454, -29.081065824713054, -29.446861246013757, -29.875874874745215, -30.351246332663873, -30.859579438100276, -31.389747952392945, -31.932202365160027, -32.47975599793704])","array('d', [-209.510498046875, -207.02640001878302, -204.53450114381852, -202.03760107433752, -199.53809306967793, -197.03846393081304, -194.54135645709192, -192.04955489688143, -189.56596789980642, -187.0929680780292, -184.63010570565385, -182.1757451941633, -179.72798477719383, -177.28485264367887, -174.84441494177952, -172.4051225844331])","array('d', [-49.97072982788086, -49.90675056159095, -49.890375247915, -49.89290382117529, -49.893117929927605, -49.89396838549824, -49.89463652921456, -49.895351637783385, -49.896050400574396, -49.89675174184638, -49.89745132738517, -49.89815110294418, -49.898850829531476, -49.89955068935178, -49.900250622199614, -49.895720968150336])","array('d', [0.6358521580696103, 0.6500833307501013, 0.6629602294590143, 0.6746117302922356, 0.6851544451732309, 0.6946938889409117, 0.7033255353709882, 0.7111357726838154, 0.7182027677931331, 0.5751163439914829, 0.445646381839273, 0.3284971052273727, 0.22249604752742713, 0.12658231905670353, 0.0397960156908477, 0.03574628090526834])","array('d', [-0.035768251866102094, -0.01575546518244285, 0.002352854324923113, -0.00028597388165034054, 0.00044506568977329916, 0.00023874068619204417, 0.000294838465286363, 0.0002775370145135077, 0.00028140863366528856, 0.00027969300576171334, 0.0002799707929415601, 0.0002798516436276461, 0.00027992834833078786, 0.00027995899832730127, 0.0002799868175790024, -0.0038350693442646584])","array('d', [0.12407322327164201, 0.09466786218535202, 0.06442422770969881, 0.03340687100647576, 0.0016763917630326342, -0.03071045739625493, -0.0637006535962039, -0.09724477372071476, -0.1312968530045139, -0.16092762973823282, -0.182881501719112, -0.19885390810173836, -0.20992028014479652, -0.21681273616400115, -0.2200581061168972, -0.22153962674455255])",-28.60765912852399,-204.53450114381852,-49.890375247915,0.6629602294590143,0.002352854324923113,0.06442422770969881,25.00000024998448,-1.0,[],[],[],10000000000.0,0.04842376708984375
7,3.098552703857422,-204.83050537109375,-28.929105758666992,49.97219467163086,0.6474094390869141,0.016212273389100886,0.06970985332993064,23.570228690694982,"array('d', [-29.007829666137695, -28.770909897826176, -28.608596044683015, -28.523078956617884, -28.516275851483638, -28.589880822070466, -28.745366920435885, -28.98398614609555, -29.304620473759176, -29.696415213459492, -30.142282031596952, -30.627325432952034, -31.13941559290033, -31.66829394227208, -32.20503443303342, -32.74292195143624])","array('d', [-208.10638427734375, -205.6183974588739, -203.12382023119372, -200.62538936685942, -198.1255043471997, -195.62669822205012, -193.1316523298944, -190.64318458659042, -188.16393635577617, -185.694897322757, -183.2350160243201, -180.7825403072087, -178.33555835000203, -175.8921441012748, -173.45044241381237, -171.00900088382227])","array('d', [-49.966678619384766, -49.910697843043, -49.89996808402593, -49.903764307302524, -49.90353730826469, -49.90442201603183, -49.90499277354572, -49.90564816818279, -49.90627735389692, -49.90691258130007, -49.90754547225884, -49.90817888476397, -49.90881218383984, -49.90944560848972, -49.91007906152353, -49.90548650936971])","array('d', [0.6382563114166256, 0.652258698847658, 0.6649285840803216, 0.676392771351838, 0.6867659978876718, 0.6961520822225696, 0.7046449632273736, 0.7123296401316173, 0.6430771385566678, 0.5071398582378527, 0.3841387094331105, 0.2728426583380469, 0.17213782039934555, 0.08101631760635837, -0.0014337268299051572, -0.0012878430901659772])","array('d', [-0.032405178993940256, -0.012712430811229379, 0.003852165400618921, -0.0007385997972895248, 0.0005357419961464393, 0.0001779922079445438, 0.00027696277658605285, 0.00024783878011100743, 0.0002553839234558578, 0.00025284042998908535, 0.0002534619688660088, 0.00025327121770336587, 0.00025336645460669705, 0.0002533731538964334, 0.000253389009025626, -0.003858838250810643])","array('d', [0.10964138905075567, 0.08009561879821231, 0.049722309250478255, 0.01858536457541392, -0.013255246454634934, -0.04574338400282721, -0.07882661775008322, -0.11245609494327087, -0.1440227641886313, -0.16945106898516674, -0.18817535085675727, -0.2015247394814388, -0.21037551244168037, -0.21534231706332221, -0.21687841381359294, -0.21682506428250586])",-28.608596044683015,-203.12382023119372,-49.89996808402593,0.6649285840803216,0.003852165400618921,0.049722309250478255,25.000000249957303,-1.0,[],[],[],10000000000.0,0.044672250747680664
8,3.149013042449951,-203.42445373535156,-28.938007354736328,49.98807907104492,0.6515217423439027,0.007602918427437466,0.05127711693314118,23.575114765805168,"array('d', [-28.97187042236328, -28.76155390718544, -28.626243884216205, -28.568065060945887, -28.588884116248508, -28.690345073269462, -28.873870047176354, -29.140659320993194, -29.48759850430297, -29.89723593945553, -30.352833768259554, -30.841066385502234, -31.35084969175028, -31.87265980060374, -32.398109416272455, -32.920902979783556])","array('d', [-207.16888427734375, -204.6783274641984, -202.18211721956956, -199.68289890015453, -197.18309192561293, -194.68526239088595, -192.19212270116898, -189.70651783255107, -187.23080046924167, -184.76464030706654, -182.30653185609688, -179.85468269254886, -177.4072155730496, -174.962280460234, -172.51812383086826, -170.07340610479375])","array('d', [-49.96480941772461, -49.91748246935078, -49.909602463456174, -49.91253476760585, -49.91247128803068, -49.913235195016796, -49.91376499589881, -49.914357657456684, -49.91493075752122, -49.91550842945635, -49.916084417004086, -49.916660812082426, -49.91723712337616, -49.917813516085495, -49.918389911996094, -49.91374337471071])","array('d', [0.640533924102783, 0.654319568215682, 0.6667933359656247, 0.678080068783176, 0.6882927278718703, 0.6975335247524195, 0.7058949441967556, 0.7134606695993368, 0.5708255205404758, 0.4417638849182302, 0.32498407741784086, 0.21931732945436144, 0.12370609671715975, 0.03719348165323434, -0.04108623948814156, -0.036905178944598084])","array('d', [-0.028766835108399367, -0.009420320852394274, 0.0029105607852346364, -0.0005076925068394498, 0.00044108140653507005, 0.00017449143911391898, 0.0002481209781932369, 0.00022637109911038435, 0.00023201480371860797, 0.0002301537893093334, 0.0002306283320324967, 0.0002304900371507638, 0.00023055786579393405, 0.0002305563268262953, 0.00023056033428310447, -0.0038792383748600875])","array('d', [0.09901531139877831, 0.06933607526988532, 0.03883953198057774, 0.007588965271407051, -0.024356260736412352, -0.056940593084453234, -0.09011216854628254, -0.12382267982434739, -0.153175100793973, -0.17491842961962428, -0.1907217286259835, -0.2016464033942983, -0.20841643171404917, -0.21155360622678426, -0.2114515691491546, -0.20992196843120736])",-28.626243884216205,-202.18211721956956,-49.909602463456174,0.6667933359656247,0.0029105607852346364,0.03883953198057774,25.000000249957363,-1.0,[],[],[],10000000000.0,0.04859757423400879
9,3.1972672939300537,-202.4865264892578,-28.95905303955078,50.00396728515625,0.6542601585388182,0.001986108487471823,0.038361863293920044,23.577387831625956,"array('d', [-28.937849044799805, -28.77088133207185, -28.67960606813995, -28.666040908867792, -28.73196580521692, -28.87893777171824, -29.108290666167015, -29.419087776826196, -29.800914409302873, -30.236789894194782, -30.71182394179449, -31.213887041465014, -31.73271840639765, -32.25938851938963, -32.785956354080845, -33.30648360766212])","array('d', [-205.76678466796875, -203.27268194501383, -200.77444984143312, -198.27459007763426, -195.77556700961023, -193.28000286659434, -190.79066184045104, -188.31016013248754, -185.83955975023832, -183.3778882801814, -180.9234540549598, -178.47439504495782, -176.02882766648725, -173.58493398713193, -171.14101822389523, -168.69581707524992])","array('d', [-49.96678924560547, -49.93637000020781, -49.934031973734406, -49.935235019024056, -49.935454975261614, -49.93594509792613, -49.936357643954416, -49.93679028174407, -49.937216264114106, -49.93764368133984, -49.9380705484407, -49.93849757685857, -49.93892460293744, -49.93935166694502, -49.93977872655355, -49.934990920491295])","array('d', [0.6446482539176939, 0.6580423681256211, 0.6701618649378459, 0.6811280401302486, 0.6910506466666524, 0.7000289931350588, 0.7081529376178993, 0.6425598605332018, 0.5066718045404056, 0.38371519566429085, 0.2724594452321573, 0.17179107055195036, 0.08070255123983198, -0.001717752010550609, -0.0762946842280789, -0.06852851956159595])","array('d', [-0.021658960729837372, -0.00298884952815224, 0.0010510334822604467, -6.98978055034433e-05, 0.0002406817099218619, 0.00015288110926947707, 0.00017675740736660566, 0.00016947431903801397, 0.00017128142904192982, 0.00017066267189866024, 0.0001708282449432066, 0.00017079504149838658, 0.00017082531482353792, 0.00017082588005343856, 0.00017082187187911387, -0.003932620203072513])","array('d', [0.08173723618057764, 0.05181579072328012, 0.021095679502086413, -0.010360953456672496, -0.04249585381409662, -0.07525454473282925, -0.1085862017736923, -0.14000119053623122, -0.16540197502282972, -0.184104749079625, -0.1974364632803634, -0.20627218032953032, -0.21122581765940157, -0.21275017031803325, -0.21119362803273767, -0.20834975930596625])",-28.67960606813995,-200.77444984143312,-49.934031973734406,0.6701618649378459,0.0010510334822604467,0.021095679502086413,25.000000249984573,-1.0,[],[],[],10000000000.0,0.046807050704956055
10,3.2523069381713867,-201.0848846435547,-29.014562606811523,50.038658142089844,0.657876968383789,-0.006306781899184027,0.01928193966415896,23.57542249316475,"array('d', [-28.929105758666992, -28.79234604675427, -28.7317230027061, -28.74918604955443, -28.84645555659493, -29.025027951408063, -29.286175665653598, -29.62687637230434, -30.029825296199597, -30.47838719042686, -30.95929910020346, -31.46151737732928, -31.975545394274032, -32.49301492336736, -33.006412623882206, -33.510152942201344])","array('d', [-204.83050537109375, -202.33443874127875, -199.8352743977915, -197.3354393639681, -194.83744083442932, -192.34393943825017, -189.85773355419667, -187.38114852996426, -184.9138858714347, -182.45448324957005, -180.00118736558187, -177.5521565224994, -175.10557334762467, -172.65971471317383, -170.2129991170853, -167.7642859047221])","array('d', [-49.97219467163086, -49.95473262374267, -49.95662389135035, -49.956473247935406, -49.95688558275896, -49.957139841380375, -49.957436827301244, -49.957720906220274, -49.95800812088718, -49.958294243945275, -49.95858062747009, -49.958866944036615, -49.959153301918086, -49.95943965923298, -49.95972601084076, -49.954805105993245])","array('d', [0.6474094390869141, 0.6605407920106219, 0.672422532558901, 0.6831735769668662, 0.6929015250996263, 0.7017037373362857, 0.7096683089048891, 0.5673940460123892, 0.4386589568583128, 0.3221746206577764, 0.2167752253017578, 0.1214059004233911, 0.03511216045068987, -0.04296964492387154, -0.11362092179101936, -0.102049608062589])","array('d', [-0.016212273389100886, 0.0019395171993536126, -0.0003876803438468148, 0.0002564207223551116, 7.644941492229024e-05, 0.000126128730638657, 0.00011170069264339639, 0.00011549907619823641, 0.00011429277897134489, 0.00011460053178562058, 0.0001145078326864555, 0.00011454480201991927, 0.00011454155552618809, 0.00011454424965617767, 0.00011453715316723041, -0.003982914802201139])","array('d', [0.06970985332993064, 0.039625045396141215, 0.008754197990220348, -0.022841323805794397, -0.05510402340283892, -0.08798015793867209, -0.12141961069196888, -0.15055079116049105, -0.17212643571294145, -0.1877948609253571, -0.19860640852019892, -0.20527862124144527, -0.2083293036271354, -0.20814950286340442, -0.2050463402542362, -0.20080218723819643])",-28.7317230027061,-199.8352743977915,-49.95662389135035,0.672422532558901,-0.0003876803438468148,0.008754197990220348,25.000000249984595,-1.0,[],[],[],10000000000.0,0.05213522911071777
11,3.298553943634033,-200.1503448486328,-29.066770553588867,50.06788635253906,0.6600661873817443,-0.010994690470397646,0.007133797803197285,23.57207275664376,"array('d', [-28.938007354736328, -28.847583758765715, -28.83393187952653, -28.89890602456782, -29.044134724194002, -29.2710210865933, -29.5784846100251, -29.955465020613623, -30.385151238497873, -30.85292391368645, -31.346829390107857, -31.85672736319346, -32.37377453776008, -32.89009399975854, -33.39855474327719, -33.89389558986705])","array('d', [-203.42445373535156, -200.92620406251214, -198.4263435357592, -195.92729342798887, -193.4316251223948, -190.9420560994376, -188.46113571768794, -185.9897878354634, -183.52702651075987, -181.07119687429693, -178.62047900033264, -176.17303307498509, -173.7270852979498, -171.28098392653544, -168.83323877381778, -166.38281511894044])","array('d', [-49.98807907104492, -49.981476122706766, -49.98344232382959, -49.98304294362548, -49.9832976519469, -49.983370074848516, -49.983492918926366, -49.9836013698823, -49.983713759123745, -49.983824989478606, -49.983936548096395, -49.9840480197166, -49.98415952403148, -49.98427101980053, -49.9843825112718, -49.979296210975114])","array('d', [0.6515217423439027, 0.6642617581966176, 0.6757894022799255, 0.6862200469107792, 0.6956580852658754, 0.7041979760846684, 0.6307110540758201, 0.4959505606393219, 0.3740142125902972, 0.26368163251006244, 0.16384857720335178, 0.07351588655050696, -0.008220514840719284, -0.08217865552650551, -0.14909853306602147, -0.13390421725258822])","array('d', [-0.007602918427437466, 0.002157705371018256, -0.0005397449912628479, 0.00020777077060441104, -5.292555460095803e-07, 5.749954040402091e-05, 4.105012985910362e-05, 4.5634163244068095e-05, 4.429949398147836e-05, 4.4678467019932216e-05, 4.457023192494069e-05, 4.4606459040767345e-05, 4.459714733923526e-05, 4.459942897568457e-05, 4.4593840407586294e-05, -0.00404541361322949])","array('d', [0.05127711693314118, 0.02094778430768377, -0.010148607394264899, -0.04195187482652919, -0.07440566979012048, -0.10745736052716107, -0.1383668681564385, -0.16314206772115714, -0.1813546808381512, -0.19428286935297792, -0.20277439540975267, -0.20742673405069392, -0.20868222101605535, -0.20688230877251257, -0.20230038347544166, -0.19671547078127816])",-28.83393187952653,-198.4263435357592,-49.98344232382959,0.6757894022799255,-0.0005397449912628479,-0.010148607394264899,25.00000024995763,-1.0,[],[],[],10000000000.0,0.043413639068603516
12,3.34531831741333,-198.749267578125,-29.167062759399414,50.119869232177734,0.6639007329940793,-0.01688811369240298,-0.01093117793532824,23.564936755125068,"array('d', [-28.95905303955078, -28.901108327765456, -28.9203432979852, -29.018548637720063, -29.197288778895754, -29.45790179529819, -29.797451796253092, -30.19878039192342, -30.645357421165325, -31.123986004392048, -31.62366669740058, -32.13493390029536, -32.64944206258099, -33.15969504265873, -33.65886285144969, -34.14194784796241])","array('d', [-202.4865264892578, -199.98729619768113, -197.48747193539552, -194.98950784693128, -192.49601644223335, -190.00975254736102, -187.53300810788966, -185.06548057779983, -182.60571630159419, -180.15197364790257, -177.70242363920715, -175.25526196822344, -172.80877865643154, -170.36140533841058, -167.91174956466202, -165.4588814516795])","array('d', [-50.00396728515625, -50.002211939379066, -50.00267410402081, -50.002524339613075, -50.00254409552028, -50.0025168291526, -50.0025027368346, -50.00248498005927, -50.002468268781804, -50.00245126363965, -50.00243434227958, -50.00241739545371, -50.002400455456076, -50.00238351383342, -50.00236657318484, -49.99715879565961])","array('d', [0.6542601585388182, 0.6667395798703681, 0.6780314282643853, 0.6882487161243642, 0.6974937012961628, 0.7058589103807336, 0.563947158629567, 0.43554008374545333, 0.3193525471528848, 0.21422170712802474, 0.11909538093679929, 0.033021514435688314, -0.04486134563161895, -0.11533266798247288, -0.1790976444807647, -0.16083335120860554])","array('d', [-0.001986108487471823, 0.0005396959317355391, -0.0001583199178259668, 3.527878076357941e-05, -1.8575655907604506e-05, -3.4891116275416396e-06, -7.71425878892589e-06, -6.511230243669424e-06, -6.852105125313753e-06, -6.7536508778402675e-06, -6.782948305475355e-06, -6.774650677197939e-06, -6.777303047348845e-06, -6.776016407691053e-06, -6.77649434971427e-06, -0.00409131561748392])","array('d', [0.038361863293920044, 0.007868877778292961, -0.023378409001062226, -0.055320615396907614, -0.08790217144555794, -0.12107119749125154, -0.14998134942464925, -0.17138916824642653, -0.18692243715448653, -0.19762051897315175, -0.20419455898210598, -0.2071583916408171, -0.20690048062381786, -0.20372620214169204, -0.19788402789463466, -0.19115556437652492])",-28.9203432979852,-197.48747193539552,-50.00267410402081,0.6780314282643853,-0.0001583199178259668,-0.023378409001062226,25.000000249984648,-1.0,[],[],[],10000000000.0,0.04260063171386719
13,3.3903708457946777,-197.81597900390625,-29.24818229675293,50.159061431884766,0.6662380099296571,-0.0201295614242555,-0.022525354227747606,23.559679556075682,"array('d', [-29.014562606811523, -29.004585930997273, -29.07230714363513, -29.21942721533976, -29.447418937117344, -29.755020934658567, -30.13040382342865, -30.556938492249746, -31.020313013032023, -31.508775693684473, -32.01232625074417, -32.522222775280134, -33.030664593649, -33.53058009280689, -34.01548073950317, -34.48067742208074])","array('d', [-201.0848846435547, -198.5850154759429, -196.08603708036017, -193.59047737863384, -191.10100730309122, -188.62010053999336, -186.14850578114613, -183.6851945211875, -181.228529971988, -178.77672077139104, -176.3279606894859, -173.88051218892014, -171.43276138314081, -168.9832569772579, -166.53073934809103, -164.0744183095059])","array('d', [-50.038658142089844, -50.04401020860156, -50.04216942024806, -50.04231625597315, -50.04191407749895, -50.04166554144459, -50.04137475872564, -50.041096123590165, -50.04081416396549, -50.04053316336403, -50.04025187314474, -50.03997065308447, -50.03968941179422, -50.0394081891868, -50.039126976131904, -50.03366923445612])","array('d', [0.657876968383789, 0.6700122050464201, 0.6809926222427514, 0.6909281154692428, 0.6999181222527734, 0.616955020950858, 0.48350358538705823, 0.3627517220309464, 0.2534909079366243, 0.1546276262264129, 0.06517242193878336, -0.01577000045918898, -0.08900973596693179, -0.15527977312765934, -0.2152429536350551, -0.19326967830247688])","array('d', [0.006306781899184027, -0.0018884011035563398, 0.00037796252013408427, -0.00025001797391416665, -7.465028627484801e-05, -0.00012336588242178927, -0.00010949173927381256, -0.00011335197098503903, -0.00011223437077358826, -0.00011256066537952323, -0.00011247297118902746, -0.00011250258130374092, -0.0001124906481872508, -0.00011248748868282592, -0.00011248302787304658, -0.0041857683684146125])","array('d', [0.01928193966415896, -0.011428212401513512, -0.042875667616933476, -0.07500212184966544, -0.10775305000702388, -0.13809383104908268, -0.16215394920507667, -0.17980334701652023, -0.19226615108557116, -0.20035965541740186, -0.20466288174139785, -0.20560637745983737, -0.20352375096845315, -0.19868299551700205, -0.19130640452170422, -0.18318518462616393])",-29.07230714363513,-196.08603708036017,-50.04216942024806,0.6809926222427514,0.00037796252013408427,-0.042875667616933476,25.000000249984662,-1.0,[],[],[],10000000000.0,0.04386186599731445
14,3.435616970062256,-196.4217987060547,-29.3902587890625,50.224395751953125,0.6691130995750426,-0.023882506415248028,-0.03908948501082866,23.550550434371548,"array('d', [-29.066770553588867, -29.087329890653805, -29.185886997929195, -29.364085861263938, -29.623341131417504, -29.960817614068016, -30.35952645315894, -30.803059131188544, -31.278295182883156, -31.774286183849167, -32.28160224986884, -32.7919238584046, -33.29777455928874, -33.79233983251921, -34.27032490468265, -34.73099678250358])","array('d', [-200.1503448486328, -197.65056715589338, -195.15261814267245, -192.65908581109872, -190.17267789954553, -187.6956485279038, -185.22769549509616, -182.76737997783837, -180.31297775408277, -177.86267787045472, -175.414694030387, -172.96733405804898, -170.51904714439684, -168.06845815563923, -165.61458299193905, -163.1574083259099])","array('d', [-50.06788635253906, -50.0772136870173, -50.07400048415981, -50.074253056573184, -50.073547910841896, -50.073110574915134, -50.07259933357522, -50.07210917644831, -50.07161316650768, -50.071118812725636, -50.07062395379052, -50.07012922517397, -50.06963446791, -50.06913974681383, -50.06864503820257, -50.06298535884182])","array('d', [0.6600661873817443, 0.6719930924893684, 0.6827850034793135, 0.6925499292096264, 0.7013856000074785, 0.5598995395400943, 0.4318776461556358, 0.31603863622064543, 0.21122315615397066, 0.11638217940014653, 0.030566507548307524, -0.04708272913287481, -0.1173426650092341, -0.1809164438850973, -0.1809125602276321, -0.1624623130108274])","array('d', [0.010994690470397646, -0.003294370039169219, 0.000657874049874831, -0.0004375423824193915, -0.00013167665607485238, -0.0002167725153401546, -0.00019262341051588236, -0.00019938941910797886, -0.00019745087087413542, -0.000198022615544408, -0.00019786712506305462, -0.00019791496867830612, -0.0001978912370141658, -0.00019788573040885218, -0.00019788123227025282, -0.004262073733166813])","array('d', [0.007133797803197285, -0.023708372183022897, -0.05527747344934229, -0.0875158646483463, -0.1203696627463709, -0.1490217863082791, -0.17023330354079305, -0.18560826953278695, -0.19617332449447122, -0.20263218522429696, -0.2054940693783674, -0.205144432909527, -0.2018866198558907, -0.19596768707098788, -0.18879012463656508, -0.18199214062104593])",-29.185886997929195,-195.15261814267245,-50.07400048415981,0.6827850034793135,0.000657874049874831,-0.05527747344934229,25.00000024998467,-1.0,[],[],[],10000000000.0,0.04115438461303711
15,3.4778153896331787,-195.49322509765625,-29.498064041137695,50.27070999145508,0.6707233786582945,-0.0254149232059719,-0.04980938037368257,23.543812138921513,"array('d', [-29.167062759399414, -29.233067946661905, -29.377581972845398, -29.602154327837102, -29.905756715834766, -30.277190342297967, -30.69993226584362, -31.159639879668195, -31.644540089033946, -32.14461680925976, -32.65111595810148, -33.15622718539968, -33.652871008079444, -34.1359766783498, -34.60751527867992, -35.073582550477326])","array('d', [-198.749267578125, -196.25033091370315, -193.75462559793067, -191.26484286264568, -188.7834430384412, -186.31125214206847, -183.8472874975032, -181.38993438072396, -178.93741833706696, -176.48794664739975, -174.03979294733057, -171.59135280667118, -169.14118307722683, -166.6883089115413, -164.23318293896483, -161.7770224465618])","array('d', [-50.119869232177734, -50.134126662838725, -50.12907593526121, -50.129362734509996, -50.12817391918807, -50.12739741310572, -50.12650670400279, -50.12564838043308, -50.12478097442891, -50.12391611106992, -50.123050480200604, -50.12218506980344, -50.12131962916, -50.12045423884794, -50.11958885155146, -50.11357855809551])","array('d', [0.6639007329940793, 0.6754627331241433, 0.685924464371537, 0.69539063095119, 0.6182269053971547, 0.48465443453344836, 0.36379305384832156, 0.2544331444394611, 0.15548019775493016, 0.06594386164115801, -0.015071970856477594, -0.08837812721183952, -0.1547082441011538, -0.13042054637114484, -0.04327149522069773, -0.03886800134102327])","array('d', [0.01688811369240298, -0.0051148168342928955, 0.0009726741819730098, -0.000715079659299084, -0.00024383395030647226, -0.000375179809321481, -0.00033800758769277344, -0.00034847663023012765, -0.000345497871714991, -0.0003463781377721965, -0.00034613069247283016, -0.0003461965337996402, -0.00034615665315661026, -0.00034615562062685997, -0.0003461542463970933, -0.0043945571668506656])","array('d', [-0.01093117793532824, -0.04200563093411322, -0.07378869472944419, -0.10622390863731536, -0.1364619233945241, -0.16058766672609023, -0.17828888259036987, -0.190794580238174, -0.19892481702627207, -0.2032602929056831, -0.20423262958107802, -0.20217615147384443, -0.1973593447782046, -0.19173473645820444, -0.1883448552388955, -0.1867338112851144])",-29.377581972845398,-193.75462559793067,-50.12907593526121,0.685924464371537,0.0009726741819730098,-0.07378869472944419,25.000000249957733,-1.0,[],[],[],10000000000.0,0.04148221015930176
16,3.5217649936676025,-194.56556701660156,-29.615894317626953,50.31857681274414,0.6722834110260006,-0.026245262473821796,-0.059910102686609894,23.536489889010767,"array('d', [-29.24818229675293, -29.34333446188509, -29.51729378653957, -29.771548666200104, -30.103360940065677, -30.495900730615976, -30.932871985732163, -31.401223897034637, -31.89005365505829, -32.38996260606633, -32.89265345163666, -33.39066619011315, -33.87778760437994, -34.352533679098606, -34.8215358656843, -35.291319282579046])","array('d', [-197.81597900390625, -195.31802153362642, -192.82420063562117, -190.33727470616446, -187.8594791990519, -185.3905367618212, -182.92904715141964, -180.47332191494345, -178.02158340046088, -175.5720763577731, -173.12313785175212, -170.67324484780985, -168.22116471148738, -165.76665758505544, -163.31104471207615, -160.85559256514668])","array('d', [-50.159061431884766, -50.17598344570578, -50.169843649853334, -50.17008016230547, -50.16855335909304, -50.16751901170289, -50.16634796200082, -50.16521554765413, -50.164072246909996, -50.16293199073326, -50.161790834573345, -50.16064995837722, -50.15950904567707, -50.15836817534887, -50.15722730086031, -50.15095643940196])","array('d', [0.6662380099296571, 0.6775775889343693, 0.6878380651904911, 0.6971221286021464, 0.5560417926144718, 0.42838701257308975, 0.3128801805329048, 0.20836526761408536, 0.11379625561809036, 0.02822666850372155, -0.04919989887071101, -0.11925834105604771, -0.14756485740095218, -0.05878208692883776, 0.02155015547645242, 0.01935732799604537])","array('d', [0.0201295614242555, -0.006152998690511861, 0.0011198208896586299, -0.0008969668562909859, -0.00033386938088438635, -0.0004909875042477917, -0.00044659287322866304, -0.00045912949031829407, -0.00045557049878976386, -0.00045661700726097127, -0.00045631301445503024, -0.00045638673519455154, -0.00045634415776625147, -0.0004563519965883758, -0.00045634768869353884, -0.004493014533160097])","array('d', [-0.022525354227747606, -0.053742050572661404, -0.08565609350006728, -0.11821175461754435, -0.14661946160546951, -0.1676446532881927, -0.18286914827618167, -0.19330762896666037, -0.19965681546820563, -0.20242157015780607, -0.20198450829162046, -0.1986470531491783, -0.1933709089774603, -0.18933461369216503, -0.1886299463539016, -0.18943194608121625])",-29.51729378653957,-192.82420063562117,-50.169843649853334,0.6878380651904911,0.0011198208896586299,-0.08565609350006728,25.000000249957708,-1.0,[],[],[],10000000000.0,0.04077720642089844
17,3.5698752403259277,-193.63890075683594,-29.74335289001465,50.36748504638672,0.6745020151138303,-0.026252198964357522,-0.06937329371901946,23.53042702355867,"array('d', [-29.340227127075195, -29.46329858366227, -29.665417458067925, -29.94700416241548, -30.30165323694047, -30.712738907684944, -31.16488080564094, -31.645622676300096, -32.14447237475985, -32.65232882523172, -33.16111899689927, -33.66355772644022, -34.15335666809006, -34.62833832916345, -35.0951884001893, -35.56067490469608])","array('d', [-196.88636779785156, -194.38967975729503, -191.89797752856853, -189.41399041726476, -186.9393490231661, -184.4734203868096, -182.01466854172483, -179.56133669773578, -177.11161630632145, -174.66374443421628, -172.21606613743668, -169.76707768981842, -167.3155322223549, -164.8610718710724, -162.40504936159653, -159.94877931313434])","array('d', [-50.20196533203125, -50.22450107715462, -50.21976859644453, -50.219188419114154, -50.21746131716372, -50.216055309447654, -50.214560367456734, -50.213090556610815, -50.21161359310284, -50.21013857382386, -50.208662969410916, -50.2071875828394, -50.205712218861244, -50.20423690730811, -50.20276159497627, -50.19617440163456])","array('d', [0.6682173609733578, 0.6793685800094539, 0.6894586211158786, 0.6621776392365609, 0.5244227061525385, 0.39977687686269503, 0.2869926563321541, 0.18494126426300506, 0.09260133795317711, 0.009048710265555255, -0.0665528393322678, -0.13495995081889342, -0.1747472502979554, -0.08337749691043327, -0.0007031205849151369, -0.0006315770750575931])","array('d', [0.02278129383921635, -0.004300115912428991, 0.00043513213453415115, -0.0008773787353539635, -0.0005104244569906613, -0.0006126760049627915, -0.0005837600232864385, -0.0005919520501167557, -0.0005896570975598502, -0.0005903468754235495, -0.0005901401600994107, -0.0005901686780821026, -0.0005901233178578608, -0.0005901259376496373, -0.0005901240165752608, -0.004612541677109295])","array('d', [-0.03364436229201742, -0.06498191344193632, -0.0970072134853795, -0.12845714535004765, -0.1549143437681189, -0.1744393920964376, -0.18844489803990205, -0.19785339398476592, -0.20330718577526122, -0.20527703098999175, -0.2041231825351168, -0.20013187796034954, -0.193992210384769, -0.18892628140681955, -0.18730180821919132, -0.18727564484690631])",-29.665417458067925,-191.89797752856853,-50.21976859644453,0.6894586211158786,0.00043513213453415115,-0.0970072134853795,25.00000024998465,-1.0,[],[],[],10000000000.0,0.0452728271484375
18,3.6295905113220215,-192.25294494628906,-29.951045989990234,50.44266128540039,0.6782351732254028,-0.02570098824799081,-0.08302585681411258,23.524030589976125,"array('d', [-29.44288444519043, -29.59332660711074, -29.823016236653533, -30.130697805981374, -30.504289894513068, -30.92745643121745, -31.38619109079273, -31.868944247790484, -32.36585641852159, -32.86828809670195, -33.368515929952636, -33.85952878845915, -34.33740630251853, -34.80830642365345, -35.27952037250614, -35.75467871040685])","array('d', [-195.95741271972656, -193.462272042069, -190.97295666959144, -188.49205570351538, -186.0201867092329, -183.55629311170412, -181.09875734680165, -178.64581753563112, -176.19570208195717, -173.7467108424457, -171.2972690054211, -168.84596545202024, -166.39206698442618, -163.9368178764563, -161.48162881086026, -159.02721230018662])","array('d', [-50.24740219116211, -50.274550571355725, -50.27113177310956, -50.26974648651989, -50.26780141989967, -50.26601397164766, -50.26418314474097, -50.2623646106234, -50.26054253986675, -50.258721408264385, -50.25690001308818, -50.25507876263821, -50.253257536399424, -50.251436326360704, -50.249615120182625, -50.24270077123934])","array('d', [0.6699721217155455, 0.6809563533283564, 0.6908952979422317, 0.6028010627377859, 0.4706965531704512, 0.3511634389661642, 0.24300539478879835, 0.14513994060958524, 0.0565876079885059, -0.02353786253906085, -0.09603839019411788, -0.1616395628408061, -0.07151725066155053, 0.010028575296452286, 0.04793619723074831, 0.043057862267176734])","array('d', [0.02472029998898519, -0.002545630584598907, -0.00022807096933874412, -0.000869458741660205, -0.0006895951804235382, -0.0007395305081617921, -0.0007253674022874623, -0.0007293928529851555, -0.0007282823915145205, -0.0007286174157876352, -0.0007285007851472964, -0.0007284997071149626, -0.0007284816986389218, -0.0007284863687338201, -0.0007284788140618037, -0.004736157777142805])","array('d', [-0.04455689986678596, -0.07600189736741216, -0.1081260897792737, -0.13774684376272467, -0.16108321280951124, -0.1781593948037546, -0.1901466797438186, -0.19783232536970408, -0.20177705212369107, -0.20239966301094794, -0.2000259243419359, -0.19491842674115248, -0.19034978492100435, -0.18916903990424339, -0.19031918194379246, -0.19210412272946054])",-29.823016236653533,-190.97295666959144,-50.27113177310956,0.6908952979422317,-0.00022807096933874412,-0.1081260897792737,25.00000024998463,-1.0,[],[],[],10000000000.0,0.051939964294433594
19,3.671299457550049,-191.33082580566406,-30.100263595581055,50.4921989440918,0.6807247996330259,-0.025200771167874465,-0.09179560740920492,23.51698742911324,"array('d', [-29.615894317626953, -29.804801975633097, -30.073003370323626, -30.417114995544203, -30.820519261035276, -31.267230325455085, -31.744399131435692, -32.241262833299565, -32.74852475745556, -33.25796490554355, -33.76218382684307, -34.25447731065552, -34.731344646423054, -35.1992329004018, -35.66622861517323, -36.13838587204444])","array('d', [-194.56556701660156, -192.07308736266157, -189.58762408092142, -187.11150340212416, -184.64431154920112, -182.184570406644, -179.7305432342103, -177.28042068274277, -174.8324264766501, -172.3848839625298, -169.93626173887048, -167.48521668416882, -165.0311230814709, -162.5752989389882, -160.11930460103113, -157.6643110208025])","array('d', [-50.31857681274414, -50.34935280692475, -50.34681005826923, -50.34452620203179, -50.34217419393866, -50.33984258195602, -50.33750561903905, -50.33517008148691, -50.33283398859272, -50.33049798741609, -50.32816202127666, -50.325826186744564, -50.323490428664854, -50.32115468097539, -50.31881894157611, -50.311417935676815])","array('d', [0.6722834110260006, 0.6830476945360381, 0.685732652379887, 0.5457361653234795, 0.41906209394382676, 0.30444264390287484, 0.20073066733096992, 0.10688818184414568, 0.02197598214509465, -0.05485575960209491, -0.12437599735338348, -0.18438235975928347, -0.09209565374500824, -0.008591235811246467, 0.06696585196679893, 0.06014990707746308])","array('d', [0.026245262473821796, -0.0011657873893118835, -0.0008732912901762418, -0.0009524730270690408, -0.0009295166640766888, -0.0009356705153110874, -0.0009339291217645198, -0.000934491786672643, -0.0009343845705506094, -0.0009344160980651895, -0.0009343580353228687, -0.0009343106343023787, -0.0009342963214096176, -0.0009343019887970797, -0.00093428998407021, -0.004920040669664955])","array('d', [-0.059910102686609894, -0.09149706337430599, -0.12351637217992113, -0.15127819537905743, -0.1718092352719643, -0.18663366547954127, -0.19673500853917228, -0.2027916841744117, -0.20529713129760802, -0.20462649817571882, -0.2010761496815941, -0.19494771987885687, -0.18951521956027736, -0.1875643153049285, -0.188735250676543, -0.1912303969669])",-30.073003370323626,-189.58762408092142,-50.34681005826923,0.685732652379887,-0.0008732912901762418,-0.12351637217992113,25.000000249984602,-1.0,[],[],[],10000000000.0,0.044966936111450195
20,3.71205997467041,-190.87014770507812,-30.17808723449707,50.51679611206055,0.6818687915802,-0.024860095232725213,-0.09606759150954704,23.51420460275534,"array('d', [-29.74335289001465, -29.956011103095694, -30.24682687588612, -30.607417759233417, -31.02142363072521, -31.47408350908288, -31.953346036540054, -32.448999412695635, -32.95214566790471, -33.4548646769326, -33.94999043151901, -34.43249914957188, -34.90474113071818, -35.374018460546765, -35.84555614101705, -36.316273573286075])","array('d', [-193.63890075683594, -191.1483361884573, -188.6654078278075, -186.19161845186653, -183.72617508031033, -181.26751696348012, -178.8138952477689, -176.36352642196073, -173.91468284905494, -171.46575157444244, -169.015275594774, -166.5622847206683, -164.10729487072973, -161.6517356931696, -159.19660954249574, -156.7413399443424])","array('d', [-50.36748504638672, -50.398277541091105, -50.39552343708749, -50.39287144697778, -50.3901944107833, -50.3875255762383, -50.384854713273825, -50.38218433015169, -50.379513688611134, -50.3768430994366, -50.37417258751993, -50.37150217429524, -50.368831793060394, -50.366161414686765, -50.363491040460396, -50.35577351631226])","array('d', [0.6745020151138303, 0.6850551707029074, 0.6364136325910325, 0.5011104667905469, 0.37868308847971166, 0.2679062055871042, 0.16767112788960478, 0.07697467094172017, -0.005090884009471438, -0.0793468742866206, -0.14653647200780828, -0.11581023604753442, -0.030049130703639043, 0.04754340073919586, -0.019760643468436694, -0.01774991713495932])","array('d', [0.026252198964357522, -0.0011595109952435931, -0.0010456716986211032, -0.0010754244310859325, -0.001066356188708253, -0.001068673179457802, -0.0010680283345129737, -0.001068274442502202, -0.0010682397536140953, -0.0010682320986814136, -0.001068178710216871, -0.001068152688518997, -0.0010681526843042432, -0.001068150436970381, -0.0010681493471903071, -0.005039635565735941])","array('d', [-0.06937329371901946, -0.10109699853383308, -0.13158171456613107, -0.15665685601007645, -0.17510477996990845, -0.18822686254857832, -0.19688388015745256, -0.20168115670295161, -0.20306602580322508, -0.2013832568114318, -0.19690850569698065, -0.191741352325068, -0.1889009510958833, -0.18926976935493472, -0.189793075608011, -0.18905768971470993])",-30.24682687588612,-188.6654078278075,-50.39552343708749,0.6364136325910325,-0.0010456716986211032,-0.13158171456613107,25.00000024998457,-1.0,[],[],[],10000000000.0,0.03788185119628906
21,3.758669376373291,-189.0299072265625,-30.51029396057129,50.612770080566406,0.6859856247901914,-0.023592697456479066,-0.11290983756515013,23.509112336627993,"array('d', [-29.81053924560547, -30.034720518013664, -30.336513158462797, -30.705144859572513, -31.124355917109618, -31.579945978474058, -32.060235231830674, -32.555272043411215, -33.056348802330035, -33.55568996454949, -34.04624309110594, -34.52401802030246, -34.99500668318858, -35.46577707534894, -35.93716151077167, -36.40817371632385])","array('d', [-193.1759490966797, -190.68639191050585, -188.20476965231225, -185.7321591487285, -183.2675918002031, -180.8094728634918, -178.35605082784645, -175.90555694341933, -173.4562891256871, -171.0066672627534, -168.5552724594871, -166.10135486402277, -163.64612369081183, -161.19085034232086, -158.73569479914428, -156.28048184315247])","array('d', [-50.392608642578125, -50.4230931434608, -50.420126368457595, -50.417316864385626, -50.41446680335096, -50.41162915159521, -50.40878825060741, -50.40594816782631, -50.40310774841314, -50.40026742576197, -50.397427176714054, -50.3945870100908, -50.39174685889645, -50.3889067077653, -50.3860665621148, -50.37818846680701])","array('d', [0.6756676435470579, 0.6861098750146901, 0.6116619700754458, 0.4787142343813712, 0.3584181375581287, 0.2495697180852921, 0.15107958642485034, 0.06196202213157582, -0.018674891398248163, -0.09163819273472999, -0.15765811183746867, -0.06990682807995152, 0.011485563852648265, 0.00838322745832099, -0.006337752543756647, -0.00569287556597244])","array('d', [0.026122724637389263, -0.0012766642204177707, -0.0010997082957956144, -0.0011471047454508323, -0.00113317689761423, -0.0011368831441785927, -0.0011358552596272696, -0.0011362055870846094, -0.0011361316431441524, -0.001136127021013105, -0.001136073574985075, -0.0011360604092833352, -0.0011360610023350925, -0.001136060379013011, -0.0011360566693132395, -0.0051003058334352265])","array('d', [-0.07396428187819935, -0.10576001765901201, -0.13550491597091727, -0.15929298231717537, -0.17672728648763614, -0.18901187712915468, -0.19695266334735595, -0.20112174295615567, -0.20194522640620846, -0.19975376264701755, -0.19481330767174643, -0.19035528088016795, -0.18923475593447947, -0.18962357925791032, -0.18965889402066566, -0.18942306119493077])",-30.336513158462797,-188.20476965231225,-50.420126368457595,0.6116619700754458,-0.0010997082957956144,-0.13550491597091727,25.000000249984552,-1.0,[],[],[],10000000000.0,0.04085230827331543
22,3.7962558269500732,-188.57054138183594,-30.59856414794922,50.636112213134766,0.6867203712463378,-0.023336518555879752,-0.11712328990432237,23.5073947628651,"array('d', [-30.100263595581055, -30.368901571389504, -30.71268062572121, -31.11506096763733, -31.560205440659306, -32.03536032561034, -32.52982748413366, -33.03435634419203, -33.54076106158705, -34.04166842625245, -34.530742170889404, -35.00582709419036, -35.4735427255205, -35.94134555484654, -36.412151849700564, -36.88160171838884])","array('d', [-191.33082580566406, -188.84564605020375, -186.3694797606635, -183.90212077471486, -181.44209647459658, -178.98767957869183, -176.53707346354494, -174.0885158443264, -171.64034490598291, -169.1910445828441, -166.73935598084935, -164.28491733012356, -161.82906147402798, -159.37322203676493, -156.91795662844973, -154.46244686770726])","array('d', [-50.4921989440918, -50.52049028636538, -50.51635914893263, -50.51301965674787, -50.50946263186724, -50.505966705118276, -50.5024536060807, -50.498945118798005, -50.495435243782595, -50.49192585655291, -50.48841652413267, -50.4849073206938, -50.48139811984321, -50.477888923863915, -50.47437973319082, -50.4658688445457])","array('d', [0.6807247996330259, 0.6800022054207248, 0.5405510420128996, 0.41437039992094493, 0.3001974232007605, 0.19688943242693505, 0.10341248842868456, 0.018831044351130533, -0.057701417377061824, -0.12695085564846584, -0.16608210188708192, -0.07553689181857993, 0.00639174939571058, 0.05219142222157336, -0.027458497338080836, -0.02466441415398438])","array('d', [0.025200771167874465, -0.002110882279079758, -0.0012090732218935718, -0.0014583626564565373, -0.001388424881644749, -0.0014079909992739158, -0.0014025794038546192, -0.0014041845387260585, -0.0014037240498306826, -0.0014037856010970164, -0.0014036829415911673, -0.001403680740066323, -0.0014036808326909176, -0.0014036769100177048, -0.0014036765286576229, -0.005339400316021])","array('d', [-0.09179560740920492, -0.12355068872970945, -0.15099133292916517, -0.17127568677709354, -0.18589985702203296, -0.1958321090309186, -0.2017418653304523, -0.20411693150225352, -0.20332876500903127, -0.19967122601372617, -0.1938665775306588, -0.18912956641916107, -0.18779848194665102, -0.18896341799491723, -0.18942288646444388, -0.18840091719614138])",-30.71268062572121,-186.3694797606635,-50.51635914893263,0.5405510420128996,-0.0012090732218935718,-0.15099133292916517,25.000000249984488,-1.0,[],[],[],10000000000.0,0.03764200210571289
23,3.834639310836792,-187.65444946289062,-30.780658721923828,50.68178939819336,0.6878682374954221,-0.022763807326555363,-0.12553863128158052,23.503351328580127,"array('d', [-30.17808723449707, -30.456811740037224, -30.80797136941527, -31.215136520210823, -31.66301680729188, -32.13921343606714, -32.63327276277515, -33.13612073915973, -33.63970403554468, -34.136752423118104, -34.6216333689208, -35.094631330644035, -35.56272608299394, -36.032149528119774, -36.502707819887775, -36.972541510219564])","array('d', [-190.87014770507812, -188.38606541074157, -185.91092893355477, -183.44435127856272, -180.98482157695034, -178.53060550214298, -176.0799167005045, -173.63101334183438, -171.18226081523, -168.73217502361683, -166.27965350730346, -163.8248110885256, -161.3690275154893, -158.91349745953391, -156.45818455983635, -154.00274859371618])","array('d', [-50.51679611206055, -50.54427704279436, -50.53976942631604, -50.53632502388267, -50.532587565798885, -50.52893217145333, -50.52525373505017, -50.52158157802397, -50.51790759121556, -50.514234236930236, -50.51056088255957, -50.50688763846798, -50.503214387502815, -50.499541141914435, -50.49586790182664, -50.48720185972234])","array('d', [0.6818687915802, 0.658415593735081, 0.5210186662753199, 0.39669677390169067, 0.28420566363282806, 0.18241948870204402, 0.09031954076528982, 0.006984054411858539, -0.06842101786703793, -0.13665035084753688, -0.13796514500654916, -0.050095636516249015, 0.02941181713825785, 0.013521473583400615, -0.011809649123396812, -0.01060798939924745])","array('d', [0.024860095232725213, -0.00241913863375394, -0.0012071746618732288, -0.0015427500758411518, -0.0014487850007143255, -0.0014750926249996344, -0.0014677795269649294, -0.0014699115545384787, -0.0014692893011947583, -0.0014693934182199318, -0.0014692927851145021, -0.0014693033400236665, -0.0014692985401279371, -0.0014692989516654972, -0.001469294225370417, -0.005398022782819436])","array('d', [-0.09606759150954704, -0.12715456187242535, -0.15340711692504597, -0.1727734140231193, -0.1866491438319148, -0.19594750903930266, -0.20130525580282874, -0.20318963323059164, -0.20195858167226244, -0.1978967617893354, -0.19247424868646973, -0.18880018361604356, -0.18842016405331452, -0.18925745911364683, -0.18928275599641078, -0.1888432965531043])",-30.80797136941527,-185.91092893355477,-50.53976942631604,0.5210186662753199,-0.0012071746618732288,-0.15340711692504597,25.000000249984467,-1.0,[],[],[],10000000000.0,0.03634452819824219
