,current_time,x_pos,y_pos,z_pos,roll,pitch,yaw,vel,x_traj,y_traj,z_traj,roll_traj,pitch_traj,yaw_traj,x_cmd,y_cmd,z_cmd,roll_cmd,pitch_cmd,yaw_cmd,vel_cmd,effector_dmg,effector_x,effector_y,effector_z,cost,time_solution
0,20.494170904159546,-122.94322967529297,36.61703872680664,50.00373840332031,0.6322721242904664,0.03782445937395093,-0.9016772945735118,23.425242235228566,"array('d', [38.9113655090332, 36.97120818638003, 34.997129624038436, 32.999395730099685, 30.98571316333082, 28.962357321943372, 26.93468462479899, 24.907417017787857, 22.88483199053837, 20.870894751712893, 18.869352047571418, 16.883799635430815, 14.917730854383164, 12.97457119910065, 11.057702237605138, 9.169433897469375])","array('d', [-124.61363983154297, -123.03852237573555, -121.50478274715753, -120.00179819441739, -118.52023053003147, -117.05189204903479, -115.58951682165453, -114.1265802775273, -112.6571796816278, -111.17595394119256, -109.67802891755218, -108.15897984722355, -106.6148053092649, -105.04190898382343, -103.43708656834468, -101.79871912343013])","array('d', [-50.00502395629883, -49.939772981230355, -49.92224661130488, -49.92435607251931, -49.92462724499061, -49.92541611158486, -49.92606187287871, -49.926748138722935, -49.927421646339255, -49.92809603115565, -49.928766141249234, -49.92943234566841, -49.93009359167982, -49.93074940654848, -49.931399309554706, -49.92681935199212])","array('d', [0.6316662430763244, 0.49681485054658514, 0.37479625365932057, 0.2643892514994395, 0.16448885568405236, 0.0740952312874507, -0.007696309824623886, -0.08170436340125001, -0.14866962557235763, -0.20926230596989848, -0.26408883539567585, -0.3136979351631707, -0.3585861088318171, -0.3992026111023962, -0.4359539399214209, -0.39088874163738946])","array('d', [-0.03630298376083372, -0.016239310726797452, 0.0019150519743618769, -0.0001923272184634405, 0.00039939410678283325, 0.00023445075703149327, 0.00028137548084449616, 0.00026786261741383236, 0.00027089292520289743, 0.00026865230703592677, 0.000267455730178718, 0.0002655397682050803, 0.0002634912157413569, 0.0002611989200183806, 0.00025876410322987206, -0.003854126527266478])","array('d', [-0.8758372505519053, -0.9006625451779119, -0.9189144972096117, -0.9318751229472478, -0.94039434847779, -0.9450709552528229, -0.9463481114694415, -0.9445678220560684, -0.9400038476257572, -0.9328825388463553, -0.9233964961919424, -0.9117137659375361, -0.8979841483202424, -0.8823435765002173, -0.8649171737564953, -0.8477164763791706])",34.997129624038436,-121.50478274715753,-49.92224661130488,0.37479625365932057,0.0019150519743618769,-0.9189144972096117,25.00000024994673,-1.0,[],[],[],10000000000.0,0.028701305389404297
1,20.52602243423462,-122.39942932128906,35.84210205078125,50.002655029296875,0.632608950138092,0.0383878089487552,-0.9099587639186043,23.43086148878848,"array('d', [38.533843994140625, 36.586928422761936, 34.60625805786773, 32.60205980338757, 30.58200412025579, 28.552331044785614, 26.51836576170415, 24.484802125586324, 22.455892194200366, 20.435578058242232, 18.427585432308714, 16.43549096991977, 14.46277072527704, 12.5128346507302, 10.58905046004554, 8.693720758622609])","array('d', [-124.3323974609375, -122.76566849744448, -121.24045803478526, -119.74610400526176, -118.27323766512119, -116.81364389893805, -115.3600335409704, -113.90586154224043, -112.44520662907809, -110.97269052681102, -109.48342286396962, -107.97296329883038, -106.43729527532936, -104.87280763104935, -103.27628140930861, -101.64608734283331])","array('d', [-50.00498580932617, -49.939086986304005, -49.92097422970402, -49.922898739450815, -49.92324118609802, -49.92402986179297, -49.924695526735015, -49.92539605606046, -49.92608537416779, -49.92677503323804, -49.927460428960494, -49.92814173343318, -49.92881791687678, -49.929488470730966, -49.93015290300135, -49.925586582750505])","array('d', [0.6316986083984374, 0.4968441359018468, 0.37482275214452376, 0.2644132283194025, 0.16451055080581267, 0.07411486184183078, -0.007678547370078093, -0.08168829127628649, -0.14865508292549082, -0.20924914725998706, -0.2640769289388258, -0.313687161825027, -0.35857636087306605, -0.3991937913113336, -0.43594596352925946, -0.39088162175719104])","array('d', [-0.03657539561390876, -0.016485799119961977, 0.001692020803722642, -0.0001221486939720619, 0.0003876023502419839, 0.000245705335181145, 0.000286151890378073, 0.0002744665071670239, 0.000276946607169047, 0.00027481619011145153, 0.0002735219792476891, 0.00027155442295456365, 0.00026942780926942126, 0.0002670548606546767, 0.0002645330258297285, -0.003848974677898737])","array('d', [-0.8801469047877452, -0.9049738978402946, -0.9232271833536183, -0.9361889084686839, -0.944709072707045, -0.9493865018454, -0.9506643923236218, -0.9488847678248892, -0.9443214018261498, -0.9372006540535633, -0.9277151315053809, -0.9160328852551896, -0.9023037191448644, -0.8866635691008224, -0.8692375605048838, -0.8520372188963771])",34.60625805786773,-121.24045803478526,-49.92097422970402,0.37482275214452376,0.001692020803722642,-0.9232271833536183,25.0000002499806,-1.0,[],[],[],10000000000.0,0.030211925506591797
2,20.557126760482788,-122.39942932128906,35.84210205078125,50.002655029296875,0.632608950138092,0.0383878089487552,-0.9099587639186043,23.43086148878848,"array('d', [37.7721061706543, 35.811368460188056, 33.817220273907886, 31.7998065408562, 29.76672231579845, 27.724134753489334, 25.67730451760041, 23.630867385945002, 21.589022801322937, 19.555664996973757, 17.5344761222894, 15.528993234167356, 13.542656536274386, 11.578843720890408, 9.640893721245313, 7.731094552281843])","array('d', [-123.7726821899414, -122.22333661918897, -120.71580389547213, -119.23933906228113, -117.78450962784378, -116.34304412600765, -114.90760559547466, -113.4716068859393, -112.02908862146933, -110.57463721601607, -109.10332893223833, -107.6106913976859, -106.09267692261561, -104.54564379617001, -102.96634288306268, -101.35312410635755])","array('d', [-50.004730224609375, -49.937667953114804, -49.91850211486192, -49.92009626236524, -49.920569736455924, -49.92136077390877, -49.922065000703746, -49.92279393395004, -49.92351443091519, -49.92423428170078, -49.924949859261616, -49.92566097314774, -49.92636662807307, -49.92706624581157, -49.927759306751064, -49.923219846766386])","array('d', [0.6318122744560243, 0.49694698521321157, 0.3749158140582739, 0.2644974342287572, 0.16458674347028165, 0.07418380382181854, -0.0076161660813270325, -0.08163184634701907, -0.1486040094369413, -0.2092029340525049, -0.2640351134960633, -0.31364932564503384, -0.3585421252801809, -0.39916281366848094, -0.43591793383906624, -0.39085660190133387])","array('d', [-0.03706461563706396, -0.016928463741586974, 0.0012914813054748996, 5.293041938438673e-06, 0.0003674448183356836, 0.00026705977093203885, 0.0002958415298271019, 0.0002874451381779291, 0.00028892770400600076, 0.0002869853293392499, 0.0002855014750733351, 0.0002834242874380825, 0.0002811377978714444, 0.0002785987509952786, 0.0002758951043773818, -0.0038388281860103355])","array('d', [-0.8890308578822277, -0.9138638162896704, -0.9321217852285123, -0.9450873714721899, -0.9536108325005551, -0.9582911497890073, -0.9595716189821746, -0.9577943296395749, -0.9532331004223582, -0.946114322873946, -0.9366306269094414, -0.9249500804600717, -0.9112225000381177, -0.8955838313220578, -0.8781592074057009, -0.8609601062179018])",33.817220273907886,-120.71580389547213,-49.91850211486192,0.3749158140582739,0.0012914813054748996,-0.9321217852285123,25.000000249980452,-1.0,[],[],[],10000000000.0,0.02914571762084961
3,20.588240385055542,-121.59728240966797,34.672386169433594,50.00027847290039,0.6326434016227721,0.03909553959965697,-0.9221805771205087,23.437789407516213,"array('d', [37.00304412841797, 35.0290854820257, 33.02204099034943, 30.991977383617296, 28.946417588620044, 26.891458976642834, 24.8323001111066, 22.77352068493728, 20.719269197101195, 18.673393441911667, 16.639533214566363, 14.621187010368045, 12.621760064183094, 10.644598553563672, 8.693013253141496, 6.769277745584504])","array('d', [-123.21784973144531, -121.68542951163823, -120.19512182508265, -118.73609833616332, -117.29886310434402, -115.87508931533621, -114.4573931238572, -113.0391461535703, -111.61435176341574, -110.1775618564269, -108.72382009499427, -107.24862280923593, -105.7478918791455, -104.21795572114688, -102.65553567119632, -101.0589609248589])","array('d', [-50.004146575927734, -49.93606063362336, -49.91596822370722, -49.91727453914606, -49.91786810404671, -49.918665504864585, -49.91940812241858, -49.92016646454976, -49.92091881143132, -49.92166961314097, -49.92241609539845, -49.9231577370803, -49.92389356480678, -49.924622931588964, -49.925345287648526, -49.92083330872793])","array('d', [0.6320999860763549, 0.49720731747645663, 0.3751513724524974, 0.264710576297264, 0.16477960240665984, 0.07435830981961822, -0.007458266510604609, -0.08148897289428206, -0.14847473217927754, -0.20908595914207218, -0.26392927021088214, -0.31355355467212764, -0.35845546811399936, -0.39908440301991915, -0.43584698498355146, -0.3907932714223199])","array('d', [-0.03749506548047066, -0.01731795090091976, 0.0009390587522033246, 0.00011966282148837116, 0.0003513245213404447, 0.00028765821822262697, 0.00030612771971244, 0.00030063757501812163, 0.000301230049638189, 0.0002994411632899347, 0.0002977724825107637, 0.00029557748271419765, 0.00029312560331066785, 0.000290413075252096, 0.00028752003631785143, -0.003828447095566408])","array('d', [-0.8976172645899914, -0.92246532620234, -0.9407351517581478, -0.9537105123139857, -0.9622423186986847, -0.9669299467018431, -0.9682169431920283, -0.96644556454397, -0.9618897438317304, -0.9547759531618786, -0.9452968804745511, -0.9336206363829418, -0.9198970694786294, -0.904262150129894, -0.8868410309560144, -0.8696450709118502])",33.02204099034943,-120.19512182508265,-49.91596822370722,0.3751513724524974,0.0009390587522033246,-0.9407351517581478,25.000000249980303,-1.0,[],[],[],10000000000.0,0.029936790466308594
4,20.619673013687134,-121.33348846435547,34.280487060546875,49.99922180175781,0.6316766738891602,0.03893661871552462,-0.9261917312953137,23.441935947708632,"array('d', [36.61703872680664, 34.63688461892578, 32.62379191561367, 30.587793494153324, 28.536380315487182, 26.47561675597739, 24.410672014540676, 22.346099215163928, 20.286022700646612, 18.23426822301975, 16.194455456691323, 14.170064562449362, 12.164484135045099, 10.181045342626645, 8.223045536416393, 6.292751488583253])","array('d', [-122.94322967529297, -121.41885898496835, -119.93674134896963, -118.48601087624414, -117.05714285718398, -115.64178416565208, -114.23252872657449, -112.82272862551845, -111.40636957338036, -109.97798713345821, -108.53260953376035, -107.0657182842438, -105.57322085068063, -104.05143149318634, -102.4970575472914, -100.90841839087427])","array('d', [-50.00373840332031, -49.93486912340445, -49.91406767334367, -49.915152579451906, -49.91583605064021, -49.916636508283425, -49.91740662565461, -49.91818560903457, -49.918960473160475, -49.91973312768072, -49.92050145879501, -49.9212647009676, -49.92202190454791, -49.922772375967895, -49.9235155472917, -49.919023111480115])","array('d', [0.6322721242904664, 0.4973630745877604, 0.3752923073276873, 0.26483809945738146, 0.16489499014403686, 0.07446271697141615, -0.007363795004418035, -0.0814034915328428, -0.14839738543795475, -0.2090159729101119, -0.26386594404387603, -0.3134962547817876, -0.35840362102517054, -0.39903748983199866, -0.4358045361901192, -0.3907553806263141])","array('d', [-0.03782445937395093, -0.017615998847321086, 0.0006693738155340353, 0.00020627648314919982, 0.0003382980859950279, 0.0003026625055945165, 0.00031325469610980734, 0.00030998653121675043, 0.0003099061147379159, 0.0003082452122767911, 0.00030644963646764484, 0.0003041819347609043, 0.0003016236106378736, 0.0002988006214509446, 0.0002957867183180104, -0.0038210644837713185])","array('d', [-0.9016772945735118, -0.9265343949852515, -0.9448113156907046, -0.9577925249291647, -0.966329324706562, -0.971021326874858, -0.9723122286902957, -0.9705443863806424, -0.9659918015025699, -0.9588809943823713, -0.949404687688886, -0.9377310175801261, -0.9240098518461813, -0.908377175630852, -0.8909581532379254, -0.8737640715094739])",32.62379191561367,-119.93674134896963,-49.91406767334367,0.3752923073276873,0.0006693738155340353,-0.9448113156907046,25.00000024998023,-1.0,[],[],[],10000000000.0,0.02979731559753418
5,20.65011191368103,-121.06959533691406,33.88473129272461,49.997196197509766,0.6293334960937498,0.0385651066899299,-0.9304072101924081,23.44937338284889,"array('d', [36.23005294799805, 34.24364220518395, 32.224445230184145, 30.182458792287726, 28.12514032711213, 26.058520698238734, 23.98773922789906, 21.91732200813218, 19.851368800011155, 17.79368292190257, 15.74786356600801, 13.717372224725729, 11.70558054454367, 9.71580440058961, 7.751327460776538, 5.814409545935732])","array('d', [-122.6704330444336, -121.1542531780398, -119.68047094863981, -118.23818102449458, -116.81782880357638, -115.41103459218257, -114.01036984444342, -112.60916690363098, -111.20139364933004, -109.78156913564763, -108.34470599408209, -106.886270755379, -105.40215631195112, -103.88866260616707, -102.34248280786234, -100.76192634738395])","array('d', [-50.00321960449219, -49.93372519912748, -49.91235791187746, -49.913267803115126, -49.91402586502242, -49.91483130429684, -49.91562601171787, -49.91642408582075, -49.91721953549498, -49.91801222482119, -49.91880056198949, -49.919583578834185, -49.92036033903968, -49.92113010693993, -49.921892296214175, -49.91741770912076])","array('d', [0.6324514746665955, 0.49752535753371374, 0.3754391470227869, 0.26497096551998406, 0.16501521233994126, 0.07457149852258198, -0.007265365377643311, -0.08131442871546571, -0.14831679806099454, -0.2089430544295026, -0.2637999646683323, -0.3134365541688659, -0.3583496016725189, -0.3989886110982986, -0.43576030889705236, -0.3907159022300572])","array('d', [-0.03808732703328125, -0.017853851362520427, 0.00045415595538754276, 0.0002767170783071315, 0.00032886256034786275, 0.0003157083031036481, 0.0003199862730090645, 0.00031849784371954036, 0.00031787233477360843, 0.00031630527220802404, 0.00031439631184149755, 0.0003120562055247946, 0.0003093963346045252, 0.00030646685865265134, 0.0003033367800508106, -0.003814322040801609])","array('d', [-0.9057969292018079, -0.9306634491351148, -0.948947763312178, -0.9619350668360876, -0.9704770695004659, -0.9751736292245702, -0.9764686000170001, -0.9747044421798341, -0.9701552286448867, -0.9630475299933541, -0.9535741050875868, -0.9419031167071674, -0.9281844526493876, -0.9125541134554701, -0.8951372756050909, -0.8779451508319308])",32.224445230184145,-119.68047094863981,-49.91235791187746,0.3754391470227869,0.00045415595538754276,-0.948947763312178,25.00000024998015,-1.0,[],[],[],10000000000.0,0.029079437255859375
6,20.681472301483154,-120.28955078125,32.691707611083984,49.99196243286133,0.611916124820709,0.03554087132215496,-0.9441887577387947,23.471764776833385,"array('d', [35.84210205078125, 33.84940795534537, 31.824082433690627, 29.776085966532868, 27.712842391851105, 25.640348469596095, 23.563713160586268, 21.487435107934907, 19.415589131789513, 17.35195580055251, 15.300113542717312, 13.263504929270157, 11.245484429528757, 9.249352417563953, 7.278378688419433, 5.334815990284724])","array('d', [-122.39942932128906, -120.8915504722302, -119.42621148903434, -117.99246828877729, -116.58073691424309, -115.1826111840436, -113.79064014373051, -112.39813644012425, -110.9990501591944, -109.58788387527044, -108.1596346454121, -106.70975403599432, -105.23412037375726, -103.72901928380847, -102.19112976351279, -100.61875129947018])","array('d', [-50.002655029296875, -49.93244605343786, -49.9104319636192, -49.91114147630721, -49.91198424540391, -49.91279487198853, -49.91361716458029, -49.914436540871264, -49.91525500253502, -49.91607007863622, -49.916880775552016, -49.9176858952207, -49.91848451795181, -49.91927586117083, -49.92005931853562, -49.91560469410253])","array('d', [0.632608950138092, 0.4976678472456468, 0.37556807705749884, 0.2650876262502557, 0.1651207713434528, 0.07466701226740119, -0.007178940959593457, -0.08123622866113782, -0.14824603971939437, -0.20887902962867497, -0.2637420326277663, -0.31338413508640406, -0.3583021709216774, -0.3989456939785633, -0.43572147589565463, -0.3906812388560476])","array('d', [-0.0383878089487552, -0.018125738667147312, 0.00020814214168773042, 0.0003569850156491838, 0.00031788257436756096, 0.00033040972047524743, 0.00032747334283879506, 0.00032801859916071146, 0.0003267715404172861, 0.0003253136658277431, 0.0003232778334322014, 0.0003208582693575858, 0.00031808616424095924, 0.0003150392439182849, 0.0003117810058118258, -0.003806781010660064])","array('d', [-0.9099587639186043, -0.9348335561984051, -0.9531243629707022, -0.9661170179451436, -0.9746635891524963, -0.9793641506635143, -0.9806626941741861, -0.9789017713989405, -0.974355517958888, -0.967250548573201, -0.9577796538915267, -0.946111020073514, -0.9323945524870643, -0.9167662651952261, -0.8993513453699786, -0.8821609388133046])",31.824082433690627,-119.42621148903434,-49.9104319636192,0.37556807705749884,0.00020814214168773042,-0.9531243629707022,25.000000249980076,-1.0,[],[],[],10000000000.0,0.02992415428161621
7,20.711955308914185,-120.03350067138672,32.29195022583008,49.99095916748047,0.6023388504981995,0.033796407282352364,-0.9489237507197519,23.47920892242617,"array('d', [34.672386169433594, 32.66144963725244, 30.618374570456925, 28.553003155752474, 26.472653450636532, 24.383219088622365, 22.289717790303953, 20.196566187050983, 18.107764902309807, 16.02702705232681, 13.957869658699698, 11.903679439544469, 9.867760227010715, 7.853366735828746, 5.863727909762469, 3.9010756734063525])","array('d', [-121.59728240966797, -120.11390045515411, -118.67343681924535, -117.26483822296804, -115.8784385047172, -114.50575842027291, -113.13928494377318, -111.77227602784751, -110.39863224142623, -109.01281021112656, -107.60976349440435, -106.18490179319055, -104.73406262105951, -103.2534914250161, -101.73982737179392, -100.19134252323782])","array('d', [-50.00027847290039, -49.92838647893085, -49.90484896907718, -49.90509481884241, -49.90615112174465, -49.906986474184436, -49.90788674399634, -49.908769162642365, -49.90965468252168, -49.91053524746735, -49.911411252641635, -49.91228092535938, -49.9131433613341, -49.91399764662513, -49.914843111505235, -49.91044667060978])","array('d', [0.6326434016227721, 0.4976990202408958, 0.3755962835525614, 0.26511314854469825, 0.16514386487250665, 0.07468790815843844, -0.007160033573865764, -0.08121912054961497, -0.14823055965869658, -0.20886502268950666, -0.26372935862437674, -0.3133726671736879, -0.35829179432613123, -0.3989363048521913, -0.4357129803123454, -0.39067365546424526])","array('d', [-0.03909553959965697, -0.018766119898818646, -0.0003712987820456038, 0.0005525666833941568, 0.00029674330087012653, 0.0003703113945603978, 0.0003502393057540762, 0.0003556060900130849, 0.0003528557030992332, 0.0003516169262258614, 0.0003492270877975654, 0.00034655565824682046, 0.0003434450199566445, 0.00034004002149247935, 0.00033639273277081064, -0.003784802244767922])","array('d', [-0.9221805771205087, -0.9470571793837788, -0.9653494066754085, -0.9783432324647877, -0.9868908031787641, -0.9915922401883654, -0.9928915653186511, -0.9911313502866185, -0.986585744430586, -0.9794813721275132, -0.9700110309822896, -0.9583429122701761, -0.9446269252034847, -0.9289990868036638, -0.9115845865810144, -0.8943945540015695])",30.618374570456925,-118.67343681924535,-49.90484896907718,0.3755962835525614,-0.0003712987820456038,-0.9653494066754085,25.000000249979838,-1.0,[],[],[],10000000000.0,0.029481172561645508
8,20.74449634552002,-119.77947235107422,31.89111328125,49.99053192138672,0.5909820795059202,0.03175288438796992,-0.9538087089869637,23.486263432348096,"array('d', [34.280487060546875, 32.26364679173976, 30.21490973564127, 28.14405530971629, 26.05835116670114, 23.963651387970444, 21.864940097850347, 19.766604811042846, 17.672620520810447, 15.586677569069431, 13.512272623987522, 11.452774169800366, 9.411469709055016, 7.3915993746119035, 5.396379159428117, 3.4280336977480768])","array('d', [-121.33348846435547, -119.8581244632372, -118.42571924554147, -117.02519378867689, -115.64686232664621, -114.28223069021527, -112.9237725959895, -111.56473396978986, -110.19900421761302, -108.82102941078081, -107.42575296153059, -106.00857468903959, -104.56532237571733, -103.09223180763422, -101.58593250312501, -100.0446905914886])","array('d', [-49.99922180175781, -49.9277077265771, -49.90451229985256, -49.90487569154081, -49.905906826500086, -49.90675699838732, -49.907660911367465, -49.90855010714779, -49.90944146964896, -49.910328057707844, -49.91120991734169, -49.912085348313205, -49.91295340162979, -49.91381315676985, -49.914663930083826, -49.910272430314095])","array('d', [0.6316766738891602, 0.49682428873522816, 0.37480479368379443, 0.264396978830558, 0.1644958476587753, 0.07410155788279149, -0.007690585291430144, -0.08169918363939001, -0.14866493874474007, -0.20925806517585135, -0.2640849982052451, -0.31369446320319233, -0.3585829674415613, -0.39919976920795974, -0.4359513727565519, -0.39088645013718004])","array('d', [-0.03893661871552462, -0.0186223223237855, -0.00024118535077823162, 0.0005192137352716637, 0.00030919773393012006, 0.000369926702151895, 0.0003534780861622209, 0.00035780634205399847, 0.0003553250595907056, 0.00035396803319183434, 0.0003515598546774907, 0.00034883046155774266, 0.00034566500484862155, 0.00034219696764344976, 0.00033848363565253396, -0.00378293606349467])","array('d', [-0.9261917312953137, -0.9510175732889894, -0.9692699550760276, -0.9822309351227853, -0.9907504631821809, -0.9954273349906201, -0.9967047278471155, -0.9949246527242464, -0.9903608743807084, -0.9832397464034712, -0.9737538713688842, -0.9620712970977167, -0.9483418249868615, -0.9327013890804515, -0.9152751132673637, -0.8980745344756883])",30.21490973564127,-118.42571924554147,-49.90451229985256,0.37480479368379443,-0.00024118535077823162,-0.9692699550760276,25.000000249979756,-1.0,[],[],[],10000000000.0,0.03096747398376465
9,20.777944326400757,-119.27755737304688,31.086223602294922,49.992408752441406,0.5637032985687256,0.02707402780652036,-0.964054270586695,23.497370955751997,"array('d', [33.88473129272461, 31.861762792734552, 29.80724526322429, 27.730867348862198, 25.639828237461238, 23.53993299572634, 21.43612577853818, 19.33276071822796, 17.233784322520055, 15.142862298236768, 13.063469803327589, 10.998956432869155, 8.952593056832287, 6.927605162959026, 4.927195882591597, 2.9535825572880734])","array('d', [-121.06959533691406, -119.60260127112902, -118.17848579848332, -116.78616205284739, -115.41593740298521, -114.05931406103055, -112.70876130691028, -111.35752028924712, -109.99947543049335, -108.6290677007609, -107.24123531943141, -105.83137282680836, -104.39530263363811, -102.92925505096414, -101.42985400798332, -99.89536420475125])","array('d', [-49.997196197509766, -49.92656559588977, -49.90416986439437, -49.904802208933, -49.905764610978416, -49.9066405434305, -49.9075437262402, -49.908439608355074, -49.909335492161524, -49.910227115805704, -49.911113735620056, -49.911993854664765, -49.91286644546908, -49.91373059475476, -49.91458560437323, -49.91019803596454])","array('d', [0.6293334960937498, 0.49470409359676887, 0.37288636161519223, 0.2626611095536752, 0.16292516804194174, 0.07268034806497832, -0.008976549229978493, -0.08286277203466862, -0.14971779715940087, -0.21021073095170198, -0.2649470059243288, -0.3144744401129531, -0.3592887197992153, -0.39983836040876, -0.43652919403694757, -0.3914022183724801])","array('d', [-0.0385651066899299, -0.018286164312270422, 6.298300700123732e-05, 0.0004366589680130549, 0.0003349592340533463, 0.0003652809090514012, 0.00035739686869952806, 0.0003592774593773132, 0.00035745991423159903, 0.0003558656053499698, 0.00035347021380908463, 0.0003506717140121083, 0.00034745460442656346, 0.000343923732943492, 0.0003401469722217734, -0.003781451750224367])","array('d', [-0.9304072101924081, -0.9551102657521706, -0.9732661981680211, -0.986147634293223, -0.9945992266481247, -0.9992165719082498, -1.0004408082203122, -0.9986125920364809, -0.9940047588210003, -0.9868430076426756, -0.9773194695620883, -0.9656018454885608, -0.9518396760241963, -0.936168694439864, -0.9187138657922036, -0.901487709200674])",29.80724526322429,-118.17848579848332,-49.90416986439437,0.37288636161519223,6.298300700123732e-05,-0.9732661981680211,25.00000024997967,-1.0,[],[],[],10000000000.0,0.03136730194091797
10,20.811158895492554,-118.78385925292969,30.277080535888672,49.999122619628906,0.5325748324394225,0.021664980798959666,-0.9747828682276866,23.506775382904845,"array('d', [33.090396881103516, 31.054423793276992, 28.987981622229967, 26.900473016422357, 24.798894717558014, 22.6889210422419, 20.575393977661044, 18.462586158247454, 16.354377412854056, 14.254378022255587, 12.166016478344964, 10.092602735936483, 8.037373783799941, 6.003526042350239, 3.994237665084508, 2.0117092213697476])","array('d', [-120.54759979248047, -119.09851342880238, -117.69170033427923, -116.31612078664556, -114.96211494939944, -113.62122006618115, -112.28592935415718, -110.94950141071816, -109.60583373777341, -108.24937746854083, -106.87507894640437, -105.47833937518976, -104.05498674096472, -102.60125608347386, -101.11377536692386, -99.59082139772636])","array('d', [-49.99343490600586, -49.926797094298365, -49.908015451928826, -49.9098244543865, -49.910410418446695, -49.91134399630346, -49.912182861830104, -49.9130485547885, -49.91390450097805, -49.91475891544267, -49.91560756517496, -49.91645001017157, -49.91728496624633, -49.91811163930879, -49.91892933268464, -49.91450655735793])","array('d', [0.6195538640022276, 0.48585511574415013, 0.3648794746174633, 0.25541617793985266, 0.15636968223279815, 0.06674869867411724, -0.014343728035724273, -0.08771919668737387, -0.15411207230118434, -0.214186835885449, -0.2685447347725623, -0.3177298000901345, -0.36223429158365356, -0.40250362422184127, -0.4389408247103553, -0.39355472897810756])","array('d', [-0.03688613325357432, -0.01676696619014083, 0.001437610316902873, 3.302319250612719e-05, 0.0004291400404623638, 0.00031955042817263124, 0.0003510170727641254, 0.00034169284752199724, 0.00034304161058812014, 0.0003405318356232574, 0.0003384231338100475, 0.000335580293732642, 0.00033243700807241707, 0.00032895945976833384, 0.00032525701027771387, -0.003794753460634013])","array('d', [-0.9395293434474129, -0.9637236589655668, -0.9814789917548606, -0.9940294693964592, -1.0021980437641005, -1.0065671716805031, -1.007569598963923, -1.0055403988078764, -1.0007485714661895, -0.993417112030781, -0.9837362018240978, -0.9718721059703582, -0.9579732846637754, -0.9421746385137187, -0.9246004730304246, -0.9072674441812965])",28.987981622229967,-117.69170033427923,-49.908015451928826,0.3648794746174633,0.001437610316902873,-0.9814789917548606,25.000000249979475,-1.0,[],[],[],10000000000.0,0.032436370849609375
11,20.844616651535034,-118.5387954711914,29.8685359954834,50.005123138427734,0.5162785649299622,0.01873600296676156,-0.9802564819667005,23.51254762960113,"array('d', [32.29195022583008, 30.24295567626165, 28.165076846479558, 26.067288572482912, 23.956306375549886, 21.837637343151854, 19.71599665762799, 17.595560318516476, 15.480132807940127, 13.373264826232441, 11.278337175392428, 9.198621297217263, 7.1373228477131505, 5.097612592105873, 3.082647545261381, 1.09461171076673])","array('d', [-120.03350067138672, -118.60255253304977, -117.21260672946873, -115.85276102831423, -114.51346234175398, -113.18634844713704, -111.8639871675541, -110.53969654748623, -109.20742333218422, -107.86166100918194, -106.49739348992863, -105.11005618115661, -103.6955088555587, -102.25001655794739, -100.77023589009742, -99.25448087673996])","array('d', [-49.99095916748047, -49.931669518733, -49.91953877994874, -49.923480929009834, -49.923319458997355, -49.92431023842054, -49.92498010430421, -49.9257401294756, -49.92647255098139, -49.92720883438248, -49.927938393033905, -49.9286628417338, -49.92938050211738, -49.93009086763173, -49.93079329464327, -49.9262620280011])","array('d', [0.6023388504981995, 0.4702783259644, 0.3507850110973124, 0.24266297880723708, 0.14483010941625316, 0.05630726046046111, -0.023791532879025017, -0.09626792479348324, -0.16184728205617951, -0.22118594372261136, -0.2748777899776017, -0.3234601858678574, -0.367419359384493, -0.4071952675511366, -0.4431859959999944, -0.3973432503316417])","array('d', [-0.033796407282352364, -0.013971266367211606, 0.003967252749729364, -0.0007350848853306137, 0.0005839054798043686, 0.00021487425186060804, 0.0003192768137454126, 0.0002892443283397199, 0.00029657066099723494, 0.000292523575944856, 0.00029114632296418577, 0.0002884574942863394, 0.0002857165393191261, 0.0002826274070146502, 0.0002793685679343346, -0.003835741135807806])","array('d', [-0.9489237507197519, -0.972236684096538, -0.9892942515948723, -1.0012660631345318, -1.0089384173118296, -1.0128714483223302, -1.0134835820565313, -1.0111003324967716, -1.005984115694455, -0.9983532740361353, -0.9883946270657638, -0.9762719592879722, -0.9621318602047743, -0.9461077851398308, -0.9283228916230799, -0.9108012132325531])",28.165076846479558,-117.21260672946873,-49.91953877994874,0.3507850110973124,0.003967252749729364,-0.9892942515948723,25.000000249942836,-1.0,[],[],[],10000000000.0,0.03206372261047363
12,20.878920793533325,-118.05465698242188,29.04884910583496,50.02213668823242,0.4833501577377319,0.012528919614851461,-0.9913884838435311,23.522460725224224,"array('d', [31.89111328125, 29.83548316338194, 27.751939231499943, 25.64918281225529, 23.533776333669177, 21.411127252332353, 19.285878580122603, 17.16215240954199, 15.043712283340737, 12.934077409840748, 10.836604161711541, 8.754544911728523, 6.69109035597737, 4.649399460446681, 2.6326198661745743, 0.6429265956130658])","array('d', [-119.77947235107422, -118.35787231626888, -116.97640088390698, -115.62424729778621, -114.2919466800299, -112.97120751373309, -111.65465259469097, -110.33564442150805, -109.00816717820919, -107.66674699038855, -106.3063970853307, -104.92257985344473, -103.51118038908794, -102.06848784581932, -100.59118201538578, -99.07760424193759])","array('d', [-49.99053192138672, -49.93610258542436, -49.925941825579706, -49.929639594739044, -49.929474585718395, -49.93039387914208, -49.93101100761559, -49.93171286113521, -49.932388650587946, -49.93306801101426, -49.93374100760108, -49.93440918370682, -49.935070982557654, -49.9357259476205, -49.93637349082419, -49.93179057012377])","array('d', [0.5909820795059202, 0.46000229369167733, 0.3414868717457407, 0.23424967364170057, 0.13721743540351494, 0.04941902753843224, -0.030024264335654076, -0.10190753394293538, -0.16695021190004575, -0.22580326600536804, -0.279055716328894, -0.3272405303032568, -0.3708399567937342, -0.4102903523632443, -0.445986544833102, -0.3998421740700203])","array('d', [-0.03175288438796992, -0.012122210239095356, 0.003729061265237018, -0.0006970067795994284, 0.0005442922154674077, 0.00019693711127702777, 0.0002951276540211852, 0.00026682727021312604, 0.00027368981228639757, 0.00026986237922619775, 0.000268556673131606, 0.0002660264221093283, 0.0002634555467743178, 0.00026056472886351573, 0.00025752061657312997, -0.0038552554873008673])","array('d', [-0.9538087089869637, -0.9765496606955448, -0.9931518821612583, -1.0047445715827772, -1.0120908798019415, -1.015736757834881, -1.016091491188731, -1.0134744704066914, -1.0081438817494133, -1.00031507142449, -0.9901726893706485, -0.97787891568029, -0.9635791270803439, -0.947405839392803, -0.9294814615628285, -0.9118349711496144])",27.751939231499943,-116.97640088390698,-49.925941825579706,0.3414868717457407,0.003729061265237018,-0.9931518821612583,25.000000249942513,-1.0,[],[],[],10000000000.0,0.0326230525970459
13,20.914666414260864,-117.57855224609375,28.225942611694336,50.04650115966797,0.45143726468086226,0.006287479773163692,-1.0020450790736335,23.527382147486147,"array('d', [31.086223602294922, 29.016931228319798, 26.921907805100528, 24.809254353097433, 22.68520378605783, 20.554943356880386, 18.42295854829906, 16.29325507134826, 14.169509336172855, 12.055174664100802, 9.953557356028737, 7.86787162364829, 5.801279029331218, 3.7569162362295234, 1.7379137040011847, -0.25357270045840724])","array('d', [-119.27755737304688, -117.87551640830237, -116.51146021899699, -115.17481398365481, -113.85633571943578, -112.54790749591793, -111.24228895532191, -109.93295437443167, -108.61398293650639, -107.27998424518296, -105.92604702607125, -104.54770356668713, -103.14090487214658, -101.70200310309978, -100.22773886246203, -98.71652276577173])","array('d', [-49.992408752441406, -49.94910836208488, -49.94255485487786, -49.945061440394625, -49.9450437773593, -49.94573475119305, -49.94622820865528, -49.94677669163292, -49.947307655629096, -49.94784029173062, -49.94836797485164, -49.948891596136185, -49.949410045235986, -49.9499229508444, -49.950429877094344, -49.945714667095906])","array('d', [0.5637032985687256, 0.4353194297437194, 0.3191528908360436, 0.2140410501875149, 0.11893191507515957, 0.03287360303356487, -0.04499518488746257, -0.11545378427657886, -0.17920736719911526, -0.23689399978294762, -0.28909102818616306, -0.3363208568577127, -0.37905617691376703, -0.4177246968963218, -0.45271342211109106, -0.40584331072329743])","array('d', [-0.02707402780652036, -0.007888605267838265, 0.0024729184325822827, -0.0004193993654338758, 0.00039173755746084264, 0.00016482683495396913, 0.00022887075341671687, 0.00021022664863193082, 0.00021447369801300275, 0.00021168175730046644, 0.00021048470760454992, 0.00020844632321306568, 0.00020634796032862815, 0.00020401543632865159, 0.00020156641687305287, -0.00390523217159953])","array('d', [-0.964054270586695, -0.9854502391205334, -1.0009739581618207, -1.0116640188619455, -1.0182311163890883, -1.0211888056577236, -1.0209253682917054, -1.0177460573586956, -1.0118992565053533, -1.0035933458257826, -0.9930079159730728, -0.9803013945475497, -0.9656163125043166, -0.9490829728868386, -0.9308220139065494, -0.9128745332015586])",26.921907805100528,-116.51146021899699,-49.94255485487786,0.3191528908360436,0.0024729184325822827,-1.0009739581618207,25.000000249978893,-1.0,[],[],[],10000000000.0,0.03436422348022461
14,20.950491666793823,-117.34339904785156,27.813426971435547,50.06197738647461,0.436228185892105,0.003457898041233386,-1.007206126055445,23.529052721659063,"array('d', [30.277080535888672, 28.19376849663855, 26.08705025328578, 23.964412321343282, 21.831750266669292, 19.69402116733834, 17.555545606261337, 15.420208061306198, 13.291594872427488, 11.173091989637612, 9.067955226381308, 6.9793609801593135, 4.910442538687191, 2.864315428360582, 0.844094231535157, -1.1480847621177181])","array('d', [-118.78385925292969, -117.40237741352766, -116.05641508316006, -114.73567446748176, -113.43116906954333, -112.13497821187893, -110.84001835458828, -109.53989320325768, -108.22879293010341, -106.90142543398223, -105.55296892009686, -104.17903895687716, -102.77566540913102, -101.33927606570423, -99.86668469929565, -98.35638450244444])","array('d', [-49.999122619628906, -49.968689053356115, -49.9662762497941, -49.96735470484599, -49.9674614770855, -49.967841336149384, -49.968145105248425, -49.96846974019853, -49.96878709184823, -49.969104339782255, -49.96941875858551, -49.96973054141569, -49.9700391387283, -49.970344311291306, -49.97064581964405, -49.96573745305536])","array('d', [0.5325748324394225, 0.4071532262724517, 0.2936670537026113, 0.1909805090302884, 0.09806587266579676, 0.013993225384964008, -0.0620788585981086, -0.13091173288778168, -0.19319429877567554, -0.2495498999834666, -0.3005425612840423, -0.3466826334375284, -0.3884319009306323, -0.42620820357908734, -0.4603896171093637, -0.4126891309895356])","array('d', [-0.021664980798959666, -0.0029942967530079746, 0.0009974618132859436, -0.00011612093032305336, 0.00019632647650008202, 0.00010901726435507006, 0.00013358812221124272, 0.00012624237765711374, 0.00012761602507589692, 0.00012620584490237192, 0.00012534358014881973, 0.0001241033713003522, 0.00012279628180442397, 0.00012136563283566189, 0.00011986606334139201, -0.0039782031935770195])","array('d', [-0.9747828682276866, -0.9946902169607929, -1.009007637701649, -1.0186804582759748, -1.0243645287509409, -1.0265391350243138, -1.0255701417624166, -1.0217476077596994, -1.0153093213981879, -1.0064560965901577, -0.9953620038673644, -0.982181357461394, -0.9670535528256717, -0.9501064405519435, -0.9314586831917303, -0.9131656292589657])",26.08705025328578,-116.05641508316006,-49.9662762497941,0.2936670537026113,0.0009974618132859436,-1.009007637701649,25.000000249978616,-1.0,[],[],[],10000000000.0,0.034461259841918945
15,20.98801565170288,-116.64859771728516,26.572181701660156,50.11956787109375,0.3945798277854919,-0.004355544690042825,-1.021629257998194,23.52930932639502,"array('d', [29.8685359954834, 27.778168555046836, 25.665555310190555, 23.537886414824147, 21.400894310601153, 19.25942211333376, 17.117708276197085, 14.979576885259617, 12.848569459240025, 10.72803851753567, 8.621214926861937, 6.5312565069235, 4.461282752509499, 2.414398962618203, 0.3937121005211145, -1.598651695340411])","array('d', [-118.5387954711914, -117.16786814782665, -115.83116893023143, -114.51854575116171, -113.22114480031678, -111.93114702384658, -110.64155009284116, -109.34602522301918, -108.03882082536092, -106.7146966446929, -105.36887828070006, -103.99702555928286, -102.59521035763484, -101.15990082746421, -99.68794983934636, -98.1778944522349])","array('d', [-50.005123138427734, -49.98165727434388, -49.98147130504548, -49.981749971126774, -49.98190036747417, -49.98208736569929, -49.98226428260521, -49.98244367507492, -49.982621527866975, -49.98279854472509, -49.98297414741262, -49.9831481772341, -49.9833204089581, -49.98349068964911, -49.983658895608635, -49.97862522252905])","array('d', [0.5162785649299622, 0.39240775231986297, 0.280324795915036, 0.17890793384942072, 0.08714215392057259, 0.00410903502482219, -0.07102244469311914, -0.13900422497104972, -0.20051668908110623, -0.2561754733215148, -0.30653762849940686, -0.3521071950691965, -0.3933402477164475, -0.43064945981524566, -0.464408232309186, -0.4162720548380824])","array('d', [-0.01873600296676156, -0.00034404785951264687, 0.00018642310821303365, 3.896957383685016e-05, 8.06521545054935e-05, 6.913849501075077e-05, 7.234159434744872e-05, 7.119156489206734e-05, 7.109232300535513e-05, 7.05305339489125e-05, 6.996111384484072e-05, 6.92742011348967e-05, 6.852369670473523e-05, 6.771435625265419e-05, 6.686458599124717e-05, -0.004025541178833816])","array('d', [-0.9802564819667005, -0.9994025708347646, -1.0130980397299079, -1.0222432811723927, -1.0274673919295367, -1.0292327864856674, -1.0278942147359293, -1.0237341597530547, -1.0169851030593071, -1.007844053798896, -0.9964822961519976, -0.983052059930471, -0.9676911447414479, -0.9505261466991337, -0.9316747120068954, -0.91319983531085])",25.665555310190555,-115.83116893023143,-49.98147130504548,0.280324795915036,0.00018642310821303365,-1.0130980397299079,25.000000249978473,-1.0,[],[],[],10000000000.0,0.03598594665527344
16,21.025428533554077,-116.1934814453125,25.742149353027344,50.16642379760742,0.37070009112358093,-0.008751947432756448,-1.030584259829249,23.52497178035309,"array('d', [28.637771606445312, 26.52649299343557, 24.396239961795313, 22.253438539419573, 20.10336697079938, 17.95054517766916, 15.798976550101619, 13.652311768629673, 11.513963318873719, 9.387187378201984, 7.275142899979398, 5.180934170874467, 3.107640964537017, 1.0583391345176365, -0.963886314498541, -2.956938505809698])","array('d', [-117.81562042236328, -116.47688646414308, -115.16847637149957, -113.88069945258421, -112.60508846756306, -111.33412139907438, -110.06103511073846, -108.77970146646051, -107.48454324231301, -106.1704763838119, -104.83286999025978, -103.46751839974303, -102.07062152779952, -100.63877076144092, -99.16893847114757, -97.6597968896143])","array('d', [-50.03336715698242, -50.0250524242424, -50.0270398480166, -50.0261547418874, -50.026069088581686, -50.025759304892084, -50.025512342146236, -50.02524854569527, -50.02499100555317, -50.02473380965317, -50.02447917054074, -50.024226906207254, -50.02397744270201, -50.02373095214774, -50.02348760544199, -50.01806721427151])","array('d', [0.4671321511268614, 0.34793823412030545, 0.24008710824114224, 0.14249936512878394, 0.054198315620793414, -0.025699785262787114, -0.09799458312015911, -0.163409627275102, -0.22259961228851377, -0.2761569303493782, -0.3246176001231609, -0.3684666313938782, -0.4081428791831782, -0.44404343586917383, -0.47652760414836526, -0.42707320448387803])","array('d', [-0.009312570095062225, 0.0024642708944081497, -0.0008195503064473428, 9.618901463172718e-05, -0.00016043073035354075, -8.859458941624935e-05, -0.00010864118842007328, -0.00010249844384617534, -0.00010351668189799646, -0.00010226098394957828, -0.00010146360616174054, -0.00010036616642962013, -9.922369480404291e-05, -9.798933848500164e-05, -9.67093767845134e-05, -0.004171634540013392])","array('d', [-0.9967667301509042, -1.0136844753124568, -1.0255399957794387, -1.0331124179893714, -1.0369574887852042, -1.0374908101384583, -1.0350360060307562, -1.0298541880052068, -1.0221627750066653, -1.0121479182941697, -0.9999729084749918, -0.9857839619554485, -0.9697142452375996, -0.951886685805276, -0.9324159332022177, -0.9133888123938])",24.396239961795313,-115.16847637149957,-50.0270398480166,0.24008710824114224,-0.0008195503064473428,-1.0255399957794387,25.000000249978022,-1.0,[],[],[],10000000000.0,0.035883426666259766
17,21.059205055236816,-116.1934814453125,25.742149353027344,50.16642379760742,0.37070009112358093,-0.008751947432756448,-1.030584259829249,23.52497178035309,"array('d', [27.813426971435547, 25.689185451558522, 23.547880057782514, 21.395539194971075, 19.237175435528993, 17.07711901333177, 14.919234597785888, 12.767070050512373, 10.62396113003268, 8.493106632133381, 6.377622652157642, 4.280581572035278, 2.2050394937661206, 0.15405471154002798, -1.869300898257926, -3.862948584392867])","array('d', [-117.34339904785156, -116.02527600219902, -114.73502466314258, -113.46325266702765, -112.2017218730216, -110.94308962233956, -109.68073910415384, -108.40866621936223, -107.1214025035425, -105.81396204830057, -104.48180464308172, -103.12081000723205, -101.72725957840703, -100.29782336297109, -98.82955005017921, -97.32119854972389])","array('d', [-50.06197738647461, -50.058580750593514, -50.05879428894718, -50.05799702203835, -50.05747830552805, -50.05688050841639, -50.056305414704845, -50.05572619066548, -50.05515189395828, -50.05458130272473, -50.05401592048425, -50.05345629253205, -50.0529030601118, -50.05235666402406, -50.05181743650348, -50.04611914569433])","array('d', [0.436228185892105, 0.31997516747720334, 0.21478507692746157, 0.11960513836998332, 0.0334827607159126, -0.04444399617405497, -0.11495504806061745, -0.17875609197071432, -0.23648566903760562, -0.28872155522320325, -0.3359865438826296, -0.37875367804321003, -0.4174509847565865, -0.45246575884864987, -0.48414843783775957, -0.43386168389418855])","array('d', [-0.003457898041233386, 0.0006716966801174299, -0.00048162626480414896, -0.00016152715994135922, -0.0002519378174674812, -0.00022672054594952907, -0.00023324557231590653, -0.0002301847197997456, -0.00022926793913672584, -0.00022723889559213913, -0.00022510253487537189, -0.0002226408912666521, -0.00021998927830183017, -0.0002171745463372553, -0.00021425615377128942, -0.004276617842331606])","array('d', [-1.007206126055445, -1.0227691861797172, -1.0334922868973562, -1.0400879792394713, -1.0430709704881784, -1.0428302924769772, -1.0396717048537865, -1.0338439434290982, -1.0255556391131908, -1.0149865650932348, -1.002295284637431, -0.9876244318216681, -0.9711043900791535, -0.9528558621030158, -0.9329916608589934, -0.9136142101953199])",23.547880057782514,-114.73502466314258,-50.05879428894718,0.21478507692746157,-0.00048162626480414896,-1.0334922868973562,25.000000249977724,-1.0,[],[],[],10000000000.0,0.03216433525085449
18,21.09431552886963,-115.52469635009766,24.503026962280273,50.250938415527344,0.34024733304977395,-0.013704084791243108,-1.0423640449854987,23.51280088609057,"array('d', [26.98648452758789, 24.850317658400844, 22.6987671467831, 20.53753047889293, 18.371390527571506, 16.204511152079117, 14.040634783994749, 11.883218281814411, 9.735529308953069, 7.600715622749725, 5.481855134130214, 3.3819917535640056, 1.3041604174669326, -0.7485963261664809, -2.7732184284487755, -4.767643553000589])","array('d', [-116.87850952148438, -115.57978865959652, -114.30669129269475, -113.05009387249814, -111.80196198316753, -110.55511327589164, -109.30306291688402, -108.03991949225453, -106.76031397323237, -105.45935064032076, -104.13257295167043, -102.77593962648922, -101.3858076807827, -99.95892009491173, -98.49239643580603, -96.98507657085476])","array('d', [-50.09856414794922, -50.09956804061949, -50.09805046321282, -50.09722649221288, -50.09620439600007, -50.09523619017236, -50.09425456465347, -50.093281189636464, -50.09231249577022, -50.0913517077759, -50.090399816709834, -50.089458138000595, -50.08852758906304, -50.08760891073557, -50.086702614363894, -50.08065966052348])","array('d', [0.40778052806854254, 0.29423465989127606, 0.19149410039467618, 0.09853058939149027, 0.014413718504570518, -0.061698380655982904, -0.13056746217931728, -0.19288278973089223, -0.2492680349222536, -0.3002875192144673, -0.34645186182576565, -0.3882230901679396, -0.42601926395080264, -0.46021865917662486, -0.4911635528078337, -0.4401081255581769])","array('d', [0.0018631869461388144, -0.0010121068764700435, -0.0002152483312008514, -0.00044017623021875917, -0.00037852915081238467, -0.0003957482737258264, -0.00038965382131160456, -0.00038905617412709933, -0.00038595073541085453, -0.0003827333437818362, -0.00037884439526217215, -0.0003745698896795099, -0.00036994639914303146, -0.000365077495043563, -0.0003600435865555098, -0.004406821866597956])","array('d', [-1.016944571337428, -1.031288592062478, -1.0409839297098706, -1.0466876013335953, -1.0488796264036437, -1.0479263516640567, -1.0441181638467683, -1.0376930806874438, -1.0288520803022307, -1.0177693533124663, -1.004599303659683, -0.9894813953706517, -0.9725435328407213, -0.9539044220842259, -0.9336752142090213, -0.913973121943769])",22.6987671467831,-114.30669129269475,-50.09805046321282,0.19149410039467618,-0.0002152483312008514,-1.0409839297098706,25.000000249977425,-1.0,[],[],[],10000000000.0,0.03378915786743164
19,21.129818201065063,-115.08478546142578,23.674774169921875,50.313262939453125,0.3225113749504089,-0.015363738872110897,-1.049425526461329,23.502319375254253,"array('d', [26.572181701660156, 24.43032694196956, 22.273846455392217, 20.1082938975141, 17.938349301418036, 15.768101018170158, 13.601235712918985, 11.441168472217903, 9.291135535782127, 7.154260971513555, 5.033604854865313, 2.9321976994637717, 0.8530643949963564, -1.2007600632550455, -3.2262213676369167, -5.221264826545818])","array('d', [-116.64859771728516, -115.35928495884895, -114.09455628583069, -112.84541043541681, -111.60390485546169, -110.36292963544302, -109.11605993280793, -107.85745577835354, -106.5817937141368, -105.28421947554581, -103.96031506351784, -102.60607564355922, -101.21789312998855, -99.79254421081383, -98.32718118995167, -96.8206816584377])","array('d', [-50.11956787109375, -50.12260694440828, -50.12023406624865, -50.11935782368044, -50.11805899192886, -50.116876807713794, -50.11566444775372, -50.11446648964248, -50.11327349423729, -50.11209083628174, -50.1109193138288, -50.10976064147055, -50.108615893566935, -50.1074859697962, -50.10637147500501, -50.100133071777606])","array('d', [0.3945798277854919, 0.28229017124891087, 0.18068627915273758, 0.08875126743848284, 0.005565021276908419, -0.06970501373372914, -0.13781216403681923, -0.19943806764790395, -0.25519949620452387, -0.3056545278125198, -0.3513081324682002, -0.3926172259555399, -0.42999524279191403, -0.463816273932546, -0.49441880955924994, -0.4430058549834182])","array('d', [0.004355544690042825, -0.0018212403555346787, -0.00010568161126066342, -0.0005872784628749272, -0.0004540101562479554, -0.0004911182054955544, -0.0004789724069934009, -0.00047938718968940856, -0.00047508099701233105, -0.0004711116105313326, -0.0004661885039633045, -0.0004608386527295109, -0.0004550561565684501, -0.00044898417451215395, -0.00044271624068268494, -0.004480656810264137])","array('d', [-1.021629257998194, -1.0354159505947818, -1.0446387044317944, -1.0499304767687578, -1.0517561231038044, -1.0504720047409455, -1.046361704846397, -1.039658476591556, -1.030559883002156, -1.0192376143366106, -1.0058442045427773, -0.9905176863821684, -0.9733848395231339, -0.9545634590961534, -0.934163933547319, -0.9143104806741003])",22.273846455392217,-114.09455628583069,-50.12023406624865,0.18068627915273758,-0.00010568161126066342,-1.0446387044317944,25.00000024997728,-1.0,[],[],[],10000000000.0,0.03454709053039551
20,21.16296935081482,-115.08478546142578,23.674774169921875,50.313262939453125,0.3225113749504089,-0.015363738872110897,-1.049425526461329,23.502319375254253,"array('d', [25.742149353027344, 23.589499072193046, 21.423564254006095, 19.24965109373016, 17.072257916703244, 14.895337638016512, 12.72247625950462, 10.557012852421927, 8.402126031642256, 6.260896043150112, 4.136349645230316, 2.0314920397231004, -0.05067111762508248, -2.107119508186907, -4.134810158180401, -6.131702395637404])","array('d', [-116.1934814453125, -114.92230477443557, -113.67383918980885, -112.43929960555683, -111.21090480521387, -109.9816721590444, -108.74528274805972, -107.4959877209731, -106.22854456128157, -104.93817278238843, -103.6205230753155, -102.2716556096612, -100.88802455904981, -99.46646673585872, -98.00419280568647, -96.50014847412861])","array('d', [-50.16642379760742, -50.17298630365287, -50.16899139610443, -50.167921797754985, -50.166030457166556, -50.16436771704648, -50.16264562216976, -50.160949673392416, -50.159260183767906, -50.157586498945115, -50.15592919831121, -50.154290801797856, -50.15267273347599, -50.15107622234324, -50.14950206485271, -50.14283223643736])","array('d', [0.37070009112358093, 0.260682890027087, 0.1611352008301798, 0.07106071860678512, -0.010442050701608809, -0.08418881272511394, -0.15091764850671965, -0.21129640145198558, -0.2659293613180458, -0.31536331213728686, -0.36009300460484667, -0.40056610769782985, -0.43718768907618916, -0.4703242690498181, -0.5003074876104118, -0.4482463826902954])","array('d', [0.008751947432756448, -0.0033008390956993233, 4.902775462055346e-05, -0.0008890573550044147, -0.0006283641313513427, -0.0007006226340487346, -0.0006774400934779588, -0.0006792881889826712, -0.0006724182050075823, -0.0006666263593747958, -0.0006593358517872183, -0.0006515119577551394, -0.000643083382599003, -0.0006342725793944317, -0.0006252047530652865, -0.004643635474075264])","array('d', [-1.030584259829249, -1.0433751639409912, -1.0517493954165873, -1.0562989293398224, -1.057462593461714, -1.0555795085553181, -1.0509214559652804, -1.0437133920097796, -1.0341469124672211, -1.022389324273415, -1.0085898717376605, -0.9928840599228321, -0.9753966732142995, -0.9562438826129538, -0.9355347093317038, -0.9154062766398551])",21.423564254006095,-113.67383918980885,-50.16899139610443,0.1611352008301798,4.902775462055346e-05,-1.0517493954165873,25.00000024997699,-1.0,[],[],[],10000000000.0,0.03157925605773926
21,21.198652505874634,-114.43248748779297,22.429832458496094,50.41266632080078,0.2981604933738709,-0.015070504508912638,-1.0586852272364757,23.487221600955916,"array('d', [24.91655158996582, 22.75430171003796, 20.57989956530596, 18.39844915121636, 16.214297000285278, 14.031280953552027, 11.852901198391713, 9.68243162075412, 7.523001211377308, 5.377652303484717, 3.2493826959546848, 1.1411754748091802, -0.9439806085455004, -3.003078220886295, -5.033084489541801, -7.031970850965793])","array('d', [-115.74637603759766, -114.49163964588688, -113.25798592928007, -112.03681348101067, -110.8204780743836, -109.60210522677536, -108.37546665266501, -107.134891807317, -105.87520801910954, -104.59169865525323, -103.28007398813075, -101.93645065192723, -100.55733694271437, -99.13962195161294, -97.68056708006782, -96.17917776165893])","array('d', [-50.22146224975586, -50.230756783245596, -50.22525296834611, -50.223850844571324, -50.22129849497682, -50.21906746219453, -50.21675407440026, -50.21447785208875, -50.21221099735871, -50.2099663829695, -50.20774462453036, -50.20554907240461, -50.20338156294761, -50.201243679930606, -50.199136424099336, -50.19196635696505])","array('d', [0.34989881515502935, 0.24186111548289013, 0.14410455340603903, 0.0556507501681341, -0.02438556801873178, -0.09680543007556791, -0.1623336370085919, -0.22162601594809267, -0.27527598387473257, -0.32382048672502434, -0.3677453733160482, -0.4074902578718698, -0.4434529198100128, -0.47599328476625336, -0.5054370256364333, -0.4528098213918915])","array('d', [0.012306007556617345, -0.004588438783709698, 0.00010704913518196859, -0.001206830159085813, -0.0008411501332819245, -0.0009419940352765411, -0.0009092624734734251, -0.0009116753574100495, -0.0009019705524752843, -0.0008938565400853608, -0.0008837195328920331, -0.0008729028202478811, -0.0008612985279666169, -0.0008492097420322546, -0.0008368020901226273, -0.00483260827209588])","array('d', [-1.0386392315241955, -1.0505748211587478, -1.0582160563865597, -1.0621217013351951, -1.0627093003876547, -1.0603037777234705, -1.0551671423997946, -1.04751744875592, -1.0375413079169373, -1.0254023503825642, -1.011247049338948, -0.9952087700795584, -0.9774105983631597, -0.9579673137747047, -0.9369867583528798, -0.9166175469099167])",20.57989956530596,-113.25798592928007,-50.22525296834611,0.14410455340603903,0.00010704913518196859,-1.0582160563865597,25.000000249976715,-1.0,[],[],[],10000000000.0,0.03387641906738281
22,21.234786987304688,-114.00184631347656,21.598520278930664,50.48045349121094,0.28175994753837574,-0.013577861711382928,-1.063941880068507,23.476528246637034,"array('d', [24.503026962280273, 22.336379288209663, 20.15809293249106, 17.973181567050094, 15.785923875362517, 13.600105842371814, 11.419189007303721, 9.246417872250161, 7.084899076330958, 4.937657895801976, 2.807679125230325, 0.697935942725442, -1.3885904532477884, -3.448898516205545, -5.479959866005373, -7.479751361522198])","array('d', [-115.52469635009766, -114.27758997718803, -113.0508110236911, -111.83584159058312, -110.62510029265094, -109.41176237557787, -108.18964145321307, -106.95310331230998, -105.69700779401536, -104.41666806504571, -103.10782225811852, -101.76661344762329, -100.38957529719657, -98.97362141533712, -97.51603700374677, -96.01585557525323])","array('d', [-50.250938415527344, -50.26125404702958, -50.25506565383352, -50.25345167074942, -50.25055558872119, -50.248018367703764, -50.245390050855306, -50.24280397584373, -50.240229229388476, -50.23768021541016, -50.23515765852077, -50.23266531523934, -50.23020524056921, -50.22777919552734, -50.22538828104316, -50.217952086052506])","array('d', [0.34024733304977395, 0.23312809254347472, 0.13620258676209282, 0.04850075442493761, -0.030855152292023454, -0.10265935253546264, -0.1676304855724113, -0.2264188031604783, -0.27961267747405, -0.32774448971974396, -0.37129595837586155, -0.4107029603810764, -0.4463598935170216, -0.4786236235889455, -0.5078170548491276, -0.45492669943232955])","array('d', [0.013704084791243108, -0.0051371205263503455, 9.904551623004288e-05, -0.0013657957055206072, -0.000957875352057742, -0.0010700308146437431, -0.001033236827531002, -0.0010355843683517044, -0.001024399721586148, -0.0010149691153109109, -0.0010032718521118447, -0.0009908109559565413, -0.0009774716050415535, -0.0009635961833553606, -0.0009493729483579103, -0.004933141643145579])","array('d', [-1.0423640449854987, -1.0539063459867, -1.06120926449858, -1.0648168924463361, -1.0651373147849055, -1.0624891164857366, -1.0571299266440684, -1.0492746963703221, -1.0391077892203102, -1.0267911732970068, -1.0124700649093195, -0.9962768554441728, -0.9783338544430016, -0.958755202831993, -0.9376481988949816, -0.9171668687883592])",20.15809293249106,-113.0508110236911,-50.25506565383352,0.13620258676209282,9.904551623004288e-05,-1.06120926449858,25.00000024997658,-1.0,[],[],[],10000000000.0,0.03442955017089844
23,21.268458604812622,-113.57500457763672,20.770959854125977,50.54793930053711,0.2648670971393585,-0.011555814184248519,-1.0680832107875011,23.464681605730892,"array('d', [23.674774169921875, 21.49983925489589, 19.31420025605738, 17.12270375277214, 14.929505521631151, 12.738297162928054, 10.55246963108207, 8.375213525107924, 6.209594311500879, 4.0586057055231315, 1.9252083218054252, -0.18764318548447115, -2.2769818262454833, -4.339817013416515, -6.373128933504563, -8.37490410457534])","array('d', [-115.08478546142578, -113.85221527395503, -112.6385902991519, -111.43553954617855, -110.23559465757334, -109.03202070052035, -107.81870724884833, -106.59008612079178, -105.34107637138288, -104.06704552037546, -102.76378256712148, -101.42747888597464, -100.05471448850436, -98.64244777081427, -97.18800739439868, -95.69047875632056])","array('d', [-50.313262939453125, -50.32460401110067, -50.31728623891748, -50.31513877814696, -50.311543204274706, -50.30835474759964, -50.30506577610757, -50.30182757753085, -50.298605800313965, -50.29541717744702, -50.29226289996999, -50.289147491855935, -50.286073472233745, -50.28304295156493, -50.280057226017, -50.27206308383649])","array('d', [0.3225113749504089, 0.21707993255673744, 0.1216816098000874, 0.035361629933069474, -0.04274392484944815, -0.11341675977441118, -0.17736419104501125, -0.23522622488608166, -0.2875819629297491, -0.33495539804835556, -0.37782065864080283, -0.4166067538573387, -0.4517018672472422, -0.483457241746136, -0.5121906938342738, -0.45881593163406575])","array('d', [0.015363738872110897, -0.005935360662257296, -1.75942232895641e-05, -0.001672763265435715, -0.0012113933892124596, -0.0013372727009530166, -0.0012946168107786805, -0.0012959209927278321, -0.001281738067881905, -0.0012693672614907542, -0.0012543066061664004, -0.0012382877319756659, -0.0012212133948611029, -0.001203499217506029, -0.0011853839633401595, -0.0051439128149450355])","array('d', [-1.049425526461329, -1.0602506250602612, -1.0669345580122014, -1.0699956059418236, -1.069825125522582, -1.0667304454813848, -1.0609613919834504, -1.052727372239337, -1.0422087242168485, -1.0295644308194651, -1.01493744497399, -0.9984583985866666, -0.9802481936751046, -0.9604198083454786, -0.9390795466658638, -0.9183915100185053])",19.31420025605738,-112.6385902991519,-50.31728623891748,0.1216816098000874,-1.75942232895641e-05,-1.0669345580122014,25.000000249976317,-1.0,[],[],[],10000000000.0,0.03286910057067871
