,current_time,x_pos,y_pos,z_pos,roll,pitch,yaw,vel,x_traj,y_traj,z_traj,roll_traj,pitch_traj,yaw_traj,x_cmd,y_cmd,z_cmd,roll_cmd,pitch_cmd,yaw_cmd,vel_cmd,effector_dmg,effector_x,effector_y,effector_z,cost,time_solution
0,7.487492084503174,-173.6523895263672,-33.80950927734375,49.89387893676758,0.6291525363922118,0.035553138703107695,-0.22413544257613607,23.487680835252103,"array('d', [-33.04534912109375, -33.56985251300958, -34.1465414833385, -34.760808133789844, -35.400825715138176, -36.056585005162376, -36.71936813800437, -37.3814136520975, -38.035694531485746, -38.675765412577675, -39.29565558242284, -39.88979309420359, -40.45295078408161, -40.98020802708158, -41.4669239969637, -41.91028747310525])","array('d', [-176.3500213623047, -173.90645789105764, -171.4739764973811, -169.05064139853712, -166.6339624272432, -164.22150205618485, -161.8109594744986, -159.40021438085088, -156.9873522419735, -154.57068491674474, -152.14876677026035, -149.72040769502436, -147.2846832513269, -144.84094210975536, -142.38881082904626, -139.92847720807265])","array('d', [-49.89513397216797, -49.8371277857735, -49.82610711168376, -49.83071935761648, -49.83099075831742, -49.83247241484242, -49.83361614233826, -49.8348548202356, -49.8360663654963, -49.83728496974483, -49.83850066654156, -49.83971619253202, -49.84093074699742, -49.842144692523966, -49.8433581807476, -49.83931405572831])","array('d', [0.6303186416625977, 0.4955954902567614, 0.37369293074868487, 0.26339092356267046, 0.16358553113958693, 0.0732778693790506, -0.008435889509679896, -0.08237356280235326, -0.14927514223204386, -0.20981020005367731, -0.26458459031126885, -0.31414651232416585, -0.358991996763569, -0.3995698661369247, -0.4362861423072595, -0.3911852697900907])","array('d', [-0.0332567654550075, -0.013482978105924031, 0.004368491082317979, -0.000595872919641494, 0.0007898764356061922, 0.0004019207232592025, 0.000511237672242198, 0.0004802220781789975, 0.0004888698958089412, 0.0004860603998584307, 0.0004864899011949556, 0.0004859400916833444, 0.00048570739105560596, 0.0004854532974230055, 0.000485339213057738, -0.0036516317912098535])","array('d', [-0.19844178756209815, -0.22319642381001947, -0.24139288435302375, -0.2543077514769889, -0.2627879001602738, -0.2674302696471864, -0.2686768540602775, -0.2668688785385095, -0.2622795687590191, -0.25513489865699934, -0.24562719732987204, -0.23392431141118963, -0.22017589108950367, -0.2045177541608058, -0.18707493496280314, -0.16985953945311505])",-34.1465414833385,-171.4739764973811,-49.82610711168376,0.37369293074868487,0.004368491082317979,-0.24139288435302375,25.000000249983845,-1.0,[],[],[],10000000000.0,0.019005298614501953
1,7.508912801742554,-173.185791015625,-33.94915771484375,49.893436431884766,0.6292328834533688,0.03555437922477706,-0.22868065436812846,23.486971402578135,"array('d', [-33.168094635009766, -33.70277993680809, -34.289563821852326, -34.9138529135202, -35.56383553745185, -36.22951687852131, -36.90219160647518, -37.57410931210432, -38.2382526745312, -38.88818474358593, -39.51794197401011, -40.12195835978706, -40.69501146042275, -41.23218416343199, -41.728837951129535, -42.182161677418485])","array('d', [-175.89883422851562, -173.45749940780397, -171.02743712129916, -168.60666379511417, -166.19264587296252, -163.78290445260598, -161.37510344344693, -158.96709125049904, -156.5569251367538, -154.14289118578472, -151.72351997266793, -149.29759926430012, -146.86418393130285, -144.42260322622718, -141.97246544437297, -139.5139477972499])","array('d', [-49.895301818847656, -49.83642311671523, -49.82466433157765, -49.829058084683105, -49.82940759578546, -49.83088481951164, -49.83204721889791, -49.8332980842669, -49.834523624520116, -49.83575566414518, -49.836984889996316, -49.83821383292281, -49.83944173634282, -49.84066893654366, -49.84189558200844, -49.83786385272935])","array('d', [0.6299290657043457, 0.4952429873201991, 0.37337397287226265, 0.2631023185144212, 0.16332439046822214, 0.07304157950536184, -0.008649693450475693, -0.08256702062920175, -0.14945019013469368, -0.20996858997246298, -0.2647279074767979, -0.31427619114569666, -0.359109335312554, -0.3996760403585812, -0.4363822494832451, -0.39127105555272884])","array('d', [-0.03362362086772907, -0.013814922639132204, 0.004108727598711491, -0.0005165611043617379, 0.0007746303576658926, 0.0004131784247292309, 0.0005150418245467506, 0.00048613276313689435, 0.0004941654674040522, 0.0004915105519658595, 0.0004918642582071817, 0.0004912995334830231, 0.0004910277658254949, 0.0004907372704991443, 0.0004905817256954703, -0.0036469486894352768])","array('d', [-0.20262293418380234, -0.22735716546988144, -0.24553759531274152, -0.25843924010686525, -0.26690809515191294, -0.27154056835475243, -0.2727783151087822, -0.2709623355278406, -0.2663657008942295, -0.2592142763930184, -0.24970031277304622, -0.23799159901964725, -0.22423774197628235, -0.20857452602982193, -0.19112695824650816, -0.1739073067046195])",-34.289563821852326,-171.02743712129916,-49.82466433157765,0.37337397287226265,0.004108727598711491,-0.24553759531274152,25.000000249983824,-1.0,[],[],[],10000000000.0,0.020132780075073242
2,7.52985954284668,-173.185791015625,-33.94915771484375,49.893436431884766,0.6292328834533688,0.03555437922477706,-0.22868065436812846,23.486971402578135,"array('d', [-33.29275894165039, -33.83784558126512, -34.43495536883063, -35.06950684278807, -35.729701758430416, -36.40555902800671, -37.08838539856668, -37.770441233584805, -38.44471873278867, -39.104789249493, -39.74469633063111, -40.3588798495838, -40.94212202711503, -41.489509189789096, -41.99640503624817, -42.45999831992042])","array('d', [-175.44801330566406, -173.009005501834, -170.581464743367, -168.16336017946887, -165.7521151136568, -163.34520789026922, -160.9402660846127, -158.53510581706252, -156.12775522230814, -153.7164737279926, -151.29976727581897, -148.87640069421445, -146.445407378119, -144.006096400683, -141.55805705626847, -139.10145518483236])","array('d', [-49.8953742980957, -49.83544282240412, -49.822731186751994, -49.82681930894603, -49.82727641125714, -49.828746192733576, -49.829933343517766, -49.83119992398424, -49.83244370525527, -49.83369321788054, -49.8349400639277, -49.836186491736726, -49.83743181013515, -49.838676322317966, -49.83992017562445, -49.835904669310366])","array('d', [0.629651367664337, 0.49499171571952477, 0.37314661290477713, 0.26289659468916693, 0.16313824383556536, 0.07287314705031808, -0.008802097453992118, -0.08270492148988622, -0.149574968010161, -0.21008149368372958, -0.26483006701129985, -0.3143686289834384, -0.3591929767467358, -0.39975172349365545, -0.43645074918136156, -0.39133219853278883])","array('d', [-0.03406627103686329, -0.014215449110001851, 0.0037463178226754272, -0.0004065383265982674, 0.0007528788068293577, 0.0004283600545164771, 0.0005198346214271567, 0.0004938630426452224, 0.0005010422419439511, 0.000498608489722898, 0.0004988641150434314, 0.0004982877779709251, 0.0004979722358772512, 0.00049764303329472, 0.0004974429802890184, -0.0036408193305672402])","array('d', [-0.20689527591201295, -0.23161496799581424, -0.24978397388719703, -0.26267619515020546, -0.2711370006758354, -0.27576241995661455, -0.27699386711908025, -0.2751721819845786, -0.27057032584762014, -0.26341408641746006, -0.25389565862294994, -0.24218279037546506, -0.22842505763374876, -0.21275822098135955, -0.19530726822879171, -0.17808458429096086])",-34.43495536883063,-170.581464743367,-49.822731186751994,0.37314661290477713,0.0037463178226754272,-0.24978397388719703,25.000000249983803,-1.0,[],[],[],10000000000.0,0.0188291072845459
3,7.551618576049805,-172.29153442382812,-34.22324752807617,49.892337799072266,0.6295908093452454,0.03511119261383998,-0.2378015955302377,23.484258838569474,"array('d', [-33.54727554321289, -34.11303925155153, -34.730700594457275, -35.38569694341687, -36.06625353690667, -36.762414700001884, -37.465509933823995, -38.167820156325, -38.862355885087105, -39.542704540105355, -40.20292343766676, -40.83746388060847, -41.44111714029396, -42.008976186499034, -42.536408939219825, -43.020603471558104])","array('d', [-174.54942321777344, -172.11518234099574, -169.69280030212192, -167.2801516495374, -164.87457418603472, -162.47346086927314, -160.07436647499372, -157.6750423364547, -155.2734580632517, -152.86781945814005, -150.45658284499282, -148.0384667906504, -145.6124613249242, -143.17783472361796, -140.73413782062025, -138.28151371976844])","array('d', [-49.89495849609375, -49.83289606046754, -49.81825569447529, -49.82172792799485, -49.82240745945191, -49.82386628507429, -49.825107804112676, -49.82641041764916, -49.82769535516109, -49.828984461321575, -49.83027119342522, -49.83155722516592, -49.8328419969947, -49.834125744579104, -49.83540861147213, -49.831429893500115])","array('d', [0.629335582256317, 0.4947059812499266, 0.37288806965392696, 0.2626626550763953, 0.16292656652229154, 0.07268161350790808, -0.008975404145816756, -0.08286173582562799, -0.14971685941251697, -0.21020988219838635, -0.2649462374865793, -0.3144737438287654, -0.3592880871698473, -0.399837777690966, -0.4365285693189072, -0.3914016607503475])","array('d', [-0.0349622704088688, -0.015026182998436569, 0.003012735066824962, -0.00018165735251803982, 0.0007104012236162333, 0.0004608227970504742, 0.0005312181304181253, 0.0005112065682240529, 0.0005166526252304707, 0.000514665487953672, 0.0005147193318952067, 0.0005141161579050938, 0.0005137081465323041, 0.0005132968176482625, 0.0005130016554682305, -0.0036269201793991622])","array('d', [-0.21539454062911514, -0.240097705352419, -0.258253723558566, -0.27113523046180893, -0.2795868832818397, -0.2842042815338278, -0.2854285651755537, -0.2836003918630772, -0.27899259788772535, -0.27183088290279034, -0.26230737839409135, -0.25058978559458495, -0.23682764538529336, -0.22115669142835698, -0.2037018911834942, -0.18647575876239114])",-34.730700594457275,-169.69280030212192,-49.81825569447529,0.37288806965392696,0.003012735066824962,-0.258253723558566,25.00000024995523,-1.0,[],[],[],10000000000.0,0.020442724227905273
4,7.572724342346191,-171.8451690673828,-34.36332702636719,49.89176940917969,0.6298283934593201,0.034782268106937284,-0.24240843852492774,23.485672618025685,"array('d', [-33.677433013916016, -34.25389607379157, -34.88219435430301, -35.54777491630976, -36.23887506105733, -36.94555208873232, -37.65914722908163, -38.37195203953125, -39.07698654993307, -39.767846544678655, -40.43859652498758, -41.083693771573806, -41.69793430255166, -42.2764145856104, -42.81450477941033, -43.30939263405128])","array('d', [-174.1007080078125, -171.66900213342004, -169.24936243133712, -166.8396115452269, -164.4370419230859, -162.0390024878199, -159.64301026410905, -157.24678297497735, -154.84825985102745, -152.44561884738445, -150.03729050780572, -147.62196934986378, -145.19862284689768, -142.76649804115792, -140.32512573661467, -137.87463691273965])","array('d', [-49.89449691772461, -49.83152658889335, -49.816064480187094, -49.81927593996943, -49.82005299219664, -49.821509601144776, -49.82277682841435, -49.82409731293611, -49.82540230593835, -49.82671079009302, -49.82801701176617, -49.82932239558441, -49.83062643524585, -49.8319293348434, -49.83323123461454, -49.82927045863229])","array('d', [0.6292130947113034, 0.49459514992509995, 0.37278778531400214, 0.26257191404359026, 0.16284446063115116, 0.07260732101600295, -0.009042626782330655, -0.0829225613940101, -0.1497718966777689, -0.21025968199812983, -0.2649912982502722, -0.3145145165879153, -0.35932498017112807, -0.3998711611763586, -0.4365587908079001, -0.3914286363775687])","array('d', [-0.03534401580691329, -0.01537160054716169, 0.002700188597549523, -8.456402435122596e-05, 0.0006932306611312119, 0.000475685638152311, 0.000537072161494541, 0.0005196068506518883, 0.000524309144489552, 0.000522508258931793, 0.000522469758946226, 0.0005218477096865263, 0.0005213916640915482, 0.000520935657819367, 0.0005205899626545364, -0.0036201413451878287])","array('d', [-0.2197976549479624, -0.24449441070474515, -0.26264539210708626, -0.27552274357067424, -0.2839708464570096, -0.2885851335972894, -0.28980663865790957, -0.28797594866788595, -0.2833658514512884, -0.276202012517786, -0.26667653875110786, -0.25495711327913223, -0.24119326336533958, -0.2255207121621503, -0.20806441848706206, -0.19083694809799953])",-34.88219435430301,-169.24936243133712,-49.816064480187094,0.37278778531400214,0.002700188597549523,-0.26264539210708626,25.000000249955168,-1.0,[],[],[],10000000000.0,0.019609928131103516
5,7.595889329910278,-171.39932250976562,-34.5054817199707,49.89125061035156,0.629777431488037,0.03435955941677081,-0.24705509742232748,23.486365959163095,"array('d', [-33.80950927734375, -34.396508133653874, -35.03528485518514, -35.7112960300202, -36.41279081232572, -37.12983879088946, -37.85379247980948, -38.57695373655762, -39.292351844347735, -39.99359074951922, -40.67474197961695, -41.33026866893314, -41.9549714858602, -42.543950322562544, -43.09257752247565, -43.59804043354589])","array('d', [-173.6523895263672, -171.22321842321293, -168.8063268448276, -166.3994809312982, -163.99992571376902, -161.60496689255126, -159.2120841596716, -156.81896199865426, -154.42350956950673, -152.02387724827244, -149.61847003083736, -147.20595858740225, -144.78528800993462, -142.3556842585372, -139.91665823742295, -137.46832884433763])","array('d', [-49.89387893676758, -49.830411261022576, -49.81449899638704, -49.81756999736388, -49.81840454267597, -49.819863577951395, -49.82114866397783, -49.822482678090935, -49.82380239650076, -49.82512521247846, -49.82644580016559, -49.827765439426024, -49.82908364691968, -49.8304006035745, -49.8317164427261, -49.827768792147076])","array('d', [0.6291525363922118, 0.4945403544863218, 0.3727382043452326, 0.262527051322533, 0.1628038671571246, 0.07257059051611912, -0.009075861919428246, -0.08295263379763654, -0.1497991073249741, -0.21028430322775624, -0.2650135764936837, -0.31453467485266456, -0.3593432203495895, -0.39988766658641023, -0.4365737364084026, -0.39144197677177006])","array('d', [-0.035553138703107695, -0.015560822784303468, 0.0025289733354643346, -2.949099737534143e-05, 0.0006852047190451088, 0.0004853574089349739, 0.0005417703668732626, 0.0005257089008374278, 0.0005299943752550197, 0.0005282869293065918, 0.0005281849600156376, 0.0005275372912129531, 0.0005270370864476558, 0.00052653662431965, 0.0005261413293628998, -0.003615182471947007])","array('d', [-0.22413544257613607, -0.2488290300663442, -0.2669775214366688, -0.2798528185317909, -0.2882991663663312, -0.2929119153822302, -0.29413204670613313, -0.2923001124553309, -0.2876888764955221, -0.28052398745815754, -0.27099754006511745, -0.25927720849370256, -0.24551251327397974, -0.2298391723552134, -0.21238214020008198, -0.19515400813366143])",-35.03528485518514,-168.8063268448276,-49.81449899638704,0.3727382043452326,0.0025289733354643346,-0.2669775214366688,25.000000249955104,-1.0,[],[],[],10000000000.0,0.02069997787475586
6,7.615091323852539,-170.9497528076172,-34.651390075683594,49.890411376953125,0.628973364830017,0.033879730850458055,-0.2516587217661998,23.489107270698064,"array('d', [-33.94915771484375, -34.547196875027325, -35.196966514084956, -35.88393170673473, -36.59635306890386, -37.32431172988994, -38.05917117019818, -38.793243421740584, -39.51956701350807, -40.2317541034332, -40.923883315326854, -41.59042370007811, -42.22618061319113, -42.82625736781411, -43.38602843812853, -43.90268048698998])","array('d', [-173.185791015625, -170.75931443794906, -168.34535506225907, -165.941612742218, -163.54527888746463, -161.1536138355333, -158.76405774652895, -156.37425988939407, -153.98209751511354, -151.58569170152853, -149.18342026977518, -146.77392849337934, -144.3561376002062, -141.92925104530397, -139.492758466012, -137.0467657574673])","array('d', [-49.893436431884766, -49.829965805874224, -49.81405087090398, -49.81712463492384, -49.81796566158869, -49.8194302315658, -49.82072114885632, -49.82206091603767, -49.823386385482415, -49.824714902903715, -49.826041132147694, -49.82736633426006, -49.828690011567886, -49.83001233123353, -49.8313334143699, -49.82739066427993])","array('d', [0.6292328834533688, 0.4946130555195764, 0.37280398696551714, 0.26258657390304196, 0.16285772541848265, 0.0726193234884693, -0.009031766501780406, -0.08291273461511263, -0.14976300505650084, -0.21025163655582035, -0.264984018492606, -0.3145079297315564, -0.35931902055678766, -0.39986577055984146, -0.43655393288415584, -0.39142430020894814])","array('d', [-0.03555437922477706, -0.015561945254957063, 0.002527957681815873, -2.633450894518317e-05, 0.0006872518199209334, 0.00048773259698159106, 0.0005440615913412226, 0.0005280198033097966, 0.0005322846455046792, 0.0005305581326055446, 0.000530427481261983, 0.0005297456224512597, 0.0005292052767475645, 0.000528659597542375, 0.000528214377353199, -0.0036133314035414373])","array('d', [-0.22868065436812846, -0.2533784454749755, -0.2715302405753756, -0.284408263362061, -0.29285693975632787, -0.2974717295146716, -0.2986936834735206, -0.29686340007087947, -0.29225367496009746, -0.2850901791660896, -0.2755650235459475, -0.26384589414975584, -0.250082320432106, -0.23441002719926146, -0.21695397414832562, -0.19972671892330743])",-35.196966514084956,-168.34535506225907,-49.81405087090398,0.37280398696551714,0.002527957681815873,-0.2715302405753756,25.000000249955036,-1.0,[],[],[],10000000000.0,0.018707752227783203
7,7.640529632568359,-170.0530548095703,-34.949432373046875,49.88911437988281,0.6230397224426268,0.03258386626839625,-0.26101057132216887,23.5002853627038,"array('d', [-34.22324752807617, -34.84342351669421, -35.51524844260872, -36.22420412030399, -36.958574012901074, -37.708460860880805, -38.46524929626888, -39.221271200751595, -39.96958329768757, -40.703813993062695, -41.418056006770705, -42.106790172196696, -42.764831191370824, -43.387289197856305, -43.969542899607355, -44.508777331343786])","array('d', [-172.29153442382812, -169.8705936493423, -167.4626730498297, -165.065325222452, -162.67562629803243, -160.29074577028888, -157.9080439470982, -155.5250989696764, -153.139723562596, -150.74997951456913, -148.3541896051701, -145.95094762207822, -143.53912636948712, -141.1178835938125, -138.68666569789195, -136.24555201191768])","array('d', [-49.892337799072266, -49.82992118540291, -49.81496025023235, -49.81834905169449, -49.819097855200205, -49.82058386494948, -49.82186449235673, -49.823202891124524, -49.82452443145442, -49.82584965805658, -49.827172280239786, -49.828493792051646, -49.82981358939827, -49.831131834085284, -49.83244861376499, -49.82850167996558])","array('d', [0.6295908093452454, 0.4949369202875531, 0.37309703195095084, 0.2628517319930032, 0.16309765039895444, 0.07283641660415915, -0.008835332515252155, -0.08273499378625619, -0.1496021785029278, -0.21010611468314455, -0.26485234489206866, -0.31438878662667896, -0.3592112157114281, -0.399768225967048, -0.43646568348063663, -0.39134552889826235])","array('d', [-0.03511119261383998, -0.015160933393554529, 0.002890807979245204, -0.00012938216836291157, 0.0007143498629099717, 0.00047839420759766463, 0.0005449966909103599, 0.0005260386221240159, 0.0005311090948799269, 0.0005291056473962133, 0.0005289940004426367, 0.0005282282617591502, 0.0005276198043181444, 0.0005269865476130618, 0.0005264462476268384, -0.0036149133334715247])","array('d', [-0.2378015955302377, -0.26251811766383487, -0.2806846326449574, -0.2935747990750718, -0.30203384931394484, -0.30665773036936095, -0.30788780377495545, -0.3060648744091398, -0.3014618795891038, -0.2943045901343954, -0.2847851888057699, -0.2730714145628106, -0.2593128366380134, -0.2436452104443675, -0.22619351962509499, -0.20897017150213598])",-35.51524844260872,-167.4626730498297,-49.81496025023235,0.37309703195095084,0.002890807979245204,-0.2806846326449574,25.000000249954905,-1.0,[],[],[],10000000000.0,0.021270275115966797
8,7.661203384399414,-169.6057891845703,-35.10163497924805,49.888790130615234,0.6171761751174926,0.03136803954839698,-0.2658484419200083,23.50647509976928,"array('d', [-34.36332702636719, -34.99466989451117, -35.67762377508579, -36.3976790341049, -37.14313071250873, -37.904092152141445, -38.67195854322323, -39.439071740143554, -40.19849765294678, -40.943872920862674, -41.6692974286881, -42.369258016406924, -43.038574166768676, -43.67235951835427, -44.26599497469371, -44.81666470729906])","array('d', [-171.8451690673828, -169.42709627329577, -167.02230410511666, -164.62826728680471, -162.24200203882617, -159.86063204908749, -157.4814771699857, -155.10207950501504, -152.72021906688926, -150.33392757509657, -147.94149987921872, -145.541503626393, -143.13278701984487, -140.71448456927715, -138.2860206836673, -135.8474611818858])","array('d', [-49.89176940917969, -49.83013507031696, -49.815882176653226, -49.81950289896632, -49.82018003438835, -49.821679067877874, -49.82294905991144, -49.82428347340919, -49.82559913172901, -49.8269189736125, -49.82823600593015, -49.82955190455234, -49.83086599347244, -49.83217843719926, -49.83348930450723, -49.829536723547676])","array('d', [0.6298283934593201, 0.49515189530283643, 0.3732915494056536, 0.2630277386795211, 0.1632569078479566, 0.07298051871449594, -0.008704943524399933, -0.0826170129413846, -0.14949542501604565, -0.2100095201350922, -0.2647649425422147, -0.3143097017464335, -0.35913965686686394, -0.39970347733111156, -0.4364071011634713, -0.3912932382364673])","array('d', [-0.034782268106937284, -0.01486331016788409, 0.0031601083301976136, -0.00020735215087599207, 0.0007333674332613572, 0.0004702487650546334, 0.0005445061347722961, 0.0005233771765662245, 0.0005290548032302518, 0.000526855431952249, 0.0005267718546066626, 0.0005259606143360455, 0.0005253212259229352, 0.000524645072848942, 0.0005240585947407263, -0.003617047698387326])","array('d', [-0.24240843852492774, -0.26713739843318957, -0.2853136865228071, -0.29821191490362375, -0.3066778517250787, -0.3113077676776536, -0.31254323067189266, -0.3107251827013562, -0.30612665516891213, -0.2989734851691587, -0.2894579032130674, -0.2777476833954551, -0.2639924213637816, -0.24832789286103482, -0.23087909751552804, -0.21365834250939503])",-35.67762377508579,-167.02230410511666,-49.815882176653226,0.3732915494056536,0.0031601083301976136,-0.2853136865228071,25.000000249954834,-1.0,[],[],[],10000000000.0,0.022051095962524414
9,7.68454384803772,-169.15927124023438,-35.25599670410156,49.88884353637695,0.6093317270278931,0.029832003638148134,-0.2708120783183236,23.51292567855058,"array('d', [-34.5054817199707, -35.14805664696564, -35.842169757760175, -36.573327733379955, -37.329842208907266, -38.101840280194196, -38.880730056728844, -39.65886515914709, -40.429322095633644, -41.185746882443254, -41.92224752464965, -42.63331769031465, -43.313782369564045, -43.95875936618672, -44.56363239389827, -45.125585460395754])","array('d', [-171.39932250976562, -168.98418459805836, -166.58258425679202, -164.19191573390887, -161.80913460921613, -159.43131958888537, -157.05575071167422, -154.67993470763588, -152.3016195489579, -149.9188075686873, -147.52976637665466, -145.1330381749418, -142.72744726315972, -140.31210560980577, -137.88641631948752, -135.45043224669638])","array('d', [-49.89125061035156, -49.83062160039177, -49.81727862909243, -49.821195948678444, -49.821778519057396, -49.82329208457813, -49.82454611884313, -49.82587314151804, -49.82717897181162, -49.82848963938773, -49.82979725218374, -49.83110372584327, -49.83240829673342, -49.83371113739005, -49.8350122963717, -49.83105048101855])","array('d', [0.629777431488037, 0.49510578299965835, 0.3732498252638998, 0.2629899851105866, 0.16322274700192674, 0.07294960869845898, -0.00873291206821132, -0.08264231993191569, -0.14951832373530805, -0.21003023976397328, -0.264783690456574, -0.31432666560020384, -0.35915500650142845, -0.3997173666689454, -0.43641967262527104, -0.3913044595521341])","array('d', [-0.03435955941677081, -0.01448082749731286, 0.0035061923343579038, -0.00030869357709096043, 0.0007569724693996473, 0.00045885323603565636, 0.0005429709572101267, 0.000519046332366983, 0.0005255101108625523, 0.000523064780556243, 0.0005230261381218745, 0.0005221671561606897, 0.0005215007105365972, 0.0005207838108464513, 0.000520153918938809, -0.0036205374454734924])","array('d', [-0.24705509742232748, -0.27178138911652266, -0.28995558070935695, -0.30285207971214784, -0.3113165393139599, -0.31594516075793333, -0.3171794676770216, -0.3153603726477901, -0.3107608868880919, -0.30360683327410193, -0.2940904320725672, -0.2823794498400396, -0.26862347655493374, -0.25295828358825856, -0.23550886702617957, -0.21828755568633637])",-35.842169757760175,-166.58258425679202,-49.81727862909243,0.3732498252638998,0.0035061923343579038,-0.28995558070935695,25.000000249954763,-1.0,[],[],[],10000000000.0,0.021551847457885742
10,7.709046840667725,-168.7135467529297,-35.412532806396484,49.8896369934082,0.5995806455612184,0.02791787125170217,-0.2758801420542857,23.518857333821877,"array('d', [-34.651390075683594, -35.305030720240744, -36.01005206290543, -36.75199483240503, -37.51919860693768, -38.30181177845264, -39.09126080913231, -39.879915110804255, -40.66086487485709, -41.427767939449375, -42.17474243804191, -42.8962905793898, -43.58724437920224, -44.24272720378369, -44.85812690704742, -45.430629148017765])","array('d', [-170.9497528076172, -168.53755739854358, -166.1391308264317, -163.7517882968344, -161.37242734048624, -158.99808491579884, -156.626004169324, -154.25365927380363, -151.87876889638838, -149.49930866322936, -147.11352157965212, -144.7199270001826, -142.31732788153792, -139.90481617193504, -137.48177614648787, -135.04824914401573])","array('d', [-49.890411376953125, -49.83092355634592, -49.818613468039956, -49.822868419689314, -49.82334525149203, -49.824876724138484, -49.82611410022409, -49.82743417224665, -49.8287302902086, -49.830031990592424, -49.83133036578015, -49.832627606445314, -49.83392285292881, -49.83521628986538, -49.83650794740905, -49.83253709716114])","array('d', [0.628973364830017, 0.4943782333274766, 0.3725915110277156, 0.26239431769034616, 0.16268376476605576, 0.07246191733743926, -0.00917419353074376, -0.08304160799133439, -0.1498796146114124, -0.21035714940488898, -0.2650794907500042, -0.3145943171851967, -0.3593971886536458, -0.3999365055993753, -0.436617986794531, -0.39148147447424825])","array('d', [-0.033879730850458055, -0.014046660555285638, 0.0038990437036842025, -0.0004229781320261362, 0.0007843037292402251, 0.00044650953794420886, 0.0005418016984397395, 0.0005147079360601953, 0.0005220637597980153, 0.0005193419884739865, 0.0005193579320425364, 0.0005184497859665561, 0.0005177589611619917, 0.0005170032309947305, 0.0005163340036402425, -0.0036239514584823565])","array('d', [-0.2516587217661998, -0.2763429367892895, -0.29448406170776625, -0.3073532809972762, -0.3157944364171768, -0.32040263472463903, -0.3216187016418589, -0.319783086019233, -0.31516848085279175, -0.3080004848457969, -0.2984711567412204, -0.2867481442327319, -0.272980947913775, -0.25730527027172756, -0.23984605227213282, -0.22261596533198913])",-36.01005206290543,-166.1391308264317,-49.818613468039956,0.3725915110277156,0.0038990437036842025,-0.29448406170776625,25.00000024998356,-1.0,[],[],[],10000000000.0,0.022931575775146484
11,7.732166767120361,-168.7135467529297,-35.412532806396484,49.8896369934082,0.5995806455612184,0.02791787125170217,-0.2758801420542857,23.518857333821877,"array('d', [-34.949432373046875, -35.62523354924947, -36.351615963817046, -37.114290343113446, -37.90171533787594, -38.70412595256094, -39.513016743091036, -40.320812077977116, -41.12064746908097, -41.90621864625796, -42.67167568209519, -43.4115477820459, -44.1206897312492, -44.79424395816565, -45.427614061135486, -46.01799791258913])","array('d', [-170.0530548095703, -167.64689744025426, -165.25484055764002, -162.8740403899201, -160.50129440299904, -158.1335690711421, -155.76804740051523, -153.40215170704948, -151.03355513706384, -148.66019285355466, -146.28027152107177, -143.8922775968496, -141.4949840716722, -139.08745546713996, -136.669050865657, -134.23980096585467])","array('d', [-49.88911437988281, -49.83270861123018, -49.822261675872234, -49.82679186064603, -49.827162258563824, -49.82869377620152, -49.829901414389234, -49.83120008673335, -49.83247239365862, -49.833750884034636, -49.835025768279515, -49.83629946681136, -49.83757103005699, -49.83884064597465, -49.84010831836232, -49.83611470055124])","array('d', [0.6230397224426268, 0.48900925119018124, 0.36773345466131685, 0.25799856612360217, 0.1587063239217884, 0.06886297972624088, -0.01243064721576913, -0.08598816936581297, -0.15254577378401046, -0.2127695901170812, -0.26726235741866955, -0.3165694564974652, -0.3611843680239844, -0.4015536099069166, -0.4380811819491547, -0.3927874758529869])","array('d', [-0.03258386626839625, -0.012874113763834981, 0.0042310868816999945, -0.0005275500724651974, 0.0008016939872891296, 0.0004297253715953854, 0.0005346351036956279, 0.0005048005084324977, 0.0005129097866438719, 0.0005099322202634831, 0.000509974504269547, 0.0005090006017376767, 0.0005082623440686519, 0.0005074440739469004, 0.000506706179084275, -0.0036325555675052554])","array('d', [-0.26101057132216887, -0.28538553902576913, -0.3032833046146972, -0.3159515602656563, -0.3242209180695053, -0.3286784795370282, -0.3297599600992998, -0.3278024101666476, -0.3230761890391126, -0.31580525050448216, -0.30618046749914857, -0.2943686146957433, -0.28051853592465226, -0.2647654276966885, -0.247233830779633, -0.22993891684708595])",-36.351615963817046,-165.25484055764002,-49.822261675872234,0.36773345466131685,0.0042310868816999945,-0.3032833046146972,25.000000249954535,-1.0,[],[],[],10000000000.0,0.021346330642700195
12,7.767083168029785,-167.38116455078125,-35.89553451538086,49.89690017700195,0.5605307221412659,0.021101174876093743,-0.2915093143794201,23.535925286203717,"array('d', [-35.10163497924805, -35.788705952592856, -36.5256342862006, -37.29828564113852, -38.095219873531676, -38.90674443872568, -39.72440864437307, -40.54067979980473, -41.34872797123334, -42.14227728496956, -42.91550153433534, -43.66294999862129, -44.379494621562564, -45.06029260840028, -45.700760348398866, -46.29810822842818])","array('d', [-169.6057891845703, -167.20275735374128, -164.8139183283446, -162.43633581778326, -160.06676643847382, -157.7021491844244, -155.3396457402224, -152.97666098518536, -150.61085371743613, -148.24014720362803, -145.86273823776054, -143.47710509893363, -141.0820140307561, -138.67652402313954, -136.25998966076003, -133.83244240752393])","array('d', [-49.888790130615234, -49.835276133334915, -49.825778631922226, -49.83001752789643, -49.830441341848584, -49.83193020157458, -49.833122025036396, -49.834397311944436, -49.83564833480709, -49.836904904657324, -49.83815800831502, -49.839409839709205, -49.84065951073379, -49.841907185267566, -49.84315286811003, -49.83913842491702])","array('d', [0.6171761751174926, 0.4837036936806321, 0.3629327872595731, 0.25365474222220935, 0.1547758691476282, 0.06530655683473197, -0.015648632041130976, -0.08889992274923245, -0.15518043749470506, -0.21515353273653873, -0.2694194382640237, -0.3185212644678415, -0.3629504378788754, -0.4031516189882361, -0.4395271441453848, -0.39407801841835366])","array('d', [-0.03136803954839698, -0.011773988083670027, 0.003914178162884466, -0.00045024968917654754, 0.000768961990346333, 0.0004278168352850261, 0.000524036820163726, 0.0004966496134872685, 0.0005040453330718499, 0.0005012570927923371, 0.0005012263777061581, 0.0005002549744228729, 0.0004994945620816931, 0.0004986590346540187, 0.0004978999339097925, -0.0036404244593154157])","array('d', [-0.2658484419200083, -0.2899199638323595, -0.3075783679904367, -0.32004862836141135, -0.32814851866189737, -0.33245735201386334, -0.33340586236169545, -0.33132778236555177, -0.3264911903134486, -0.31911843060405415, -0.30939921493498396, -0.29749946228601637, -0.28356737213302735, -0.2677376439502016, -0.2501344239503049, -0.23277537898933714])",-36.5256342862006,-164.8139183283446,-49.825778631922226,0.3629327872595731,0.003914178162884466,-0.3075783679904367,25.000000249983476,-1.0,[],[],[],10000000000.0,0.0260467529296875
13,7.794320106506348,-166.93869018554688,-36.06097412109375,49.901485443115234,0.5451413393020629,0.018500383943319158,-0.29688195785018406,23.54015124296729,"array('d', [-35.25599670410156, -35.95450418386496, -36.70193028088212, -37.484339678644304, -38.29042092530905, -39.110572915042134, -39.93641342108472, -40.760462974526426, -41.575934139733214, -42.37658577068378, -43.156620589182914, -43.91061237669065, -44.63345413173286, -45.320321381628375, -45.966646635560316, -46.569656830447165])","array('d', [-169.15927124023438, -166.75945737343463, -164.37387057198995, -161.99947952351022, -159.63300572018161, -157.2713667408874, -154.9117089332258, -152.5514255562178, -150.18816679242553, -147.81984969300987, -145.44466683520088, -143.06109395389427, -140.6678961559902, -138.264132473836, -135.84915851274263, -133.42301200736958])","array('d', [-49.88884353637695, -49.83898301241142, -49.83068227966568, -49.83454864373895, -49.83503595313684, -49.836466740415034, -49.837634445573045, -49.83887603419053, -49.84009602486598, -49.84132077157873, -49.842542249950796, -49.84376237307832, -49.8449803355596, -49.84619627541008, -49.847410200724234, -49.84336570558645])","array('d', [0.6093317270278931, 0.47660574288228214, 0.3565102952039682, 0.24784343056670877, 0.14951757643735944, 0.06054865640425029, -0.01995375877225618, -0.09279536285833605, -0.15870517778524773, -0.21834284993055159, -0.272305252063071, -0.32113245701650855, -0.36531314283027816, -0.405289483080746, -0.4414615641954598, -0.39580439564043823])","array('d', [-0.029832003638148134, -0.01038412519507301, 0.0035116620767386237, -0.0003540793797106617, 0.0007259105324266933, 0.0004237598211011537, 0.0005089826438272836, 0.0004846934728191293, 0.0004911907096736514, 0.0004886490892121413, 0.000488535531912377, 0.00048757895667527043, 0.00048680398521698445, 0.00048596197028430736, 0.00048519116801741817, -0.0036517799357080848])","array('d', [-0.2708120783183236, -0.2944809078627676, -0.31182079722708955, -0.32402707778307227, -0.3319007046654662, -0.33601075792119917, -0.33678141177009174, -0.3345420224339742, -0.32955765516377444, -0.3220485260206161, -0.31220280942112527, -0.3001852903932507, -0.28614331359196993, -0.2702109183387915, -0.2525117267052998, -0.2350667612474216])",-36.70193028088212,-164.37387057198995,-49.83068227966568,0.3565102952039682,0.0035116620767386237,-0.31182079722708955,25.000000249983444,-1.0,[],[],[],10000000000.0,0.03189849853515625
14,7.818429231643677,-166.49383544921875,-36.230125427246094,49.908077239990234,0.5291680097579955,0.015733895823359333,-0.30226199229690026,23.54470330999932,"array('d', [-35.412532806396484, -36.122599590311594, -36.88044516768252, -37.67237346653499, -38.48722665967237, -39.31551249432623, -40.14892985996369, -40.980062039485944, -41.802171488932, -42.60905770555371, -43.39495722467314, -44.15447250104581, -44.88252127381468, -45.574300761011365, -46.22526276789932, -46.832654848540436])","array('d', [-168.7135467529297, -166.31703393803502, -163.9347241948904, -161.56348891007548, -159.2000207138619, -156.84122190602687, -154.48422948736496, -152.12643088911216, -149.76547337028597, -147.39927339409525, -145.02602491153476, -142.64420667562712, -140.25258818827282, -137.8502340134522, -135.43650620521936, -133.0114534833821])","array('d', [-49.8896369934082, -49.84432939891199, -49.837516076260506, -49.840911578493824, -49.84147214773781, -49.842824455115846, -49.84395605240357, -49.84514957901605, -49.846324846111294, -49.84750390006851, -49.84867995678296, -49.8498545841513, -49.85102708435474, -49.852197566626685, -49.85336604585122, -49.84927856760032])","array('d', [0.5995806455612184, 0.4677825987056168, 0.34852678348492927, 0.24061964978151773, 0.14298122869098334, 0.05463432385007445, -0.02530526865504791, -0.09763760968235054, -0.16308662429655735, -0.22230734703936225, -0.2758924777178244, -0.3243783133141749, -0.36825011533898366, -0.4079469659836137, -0.44386615473440155, -0.39795018197609805])","array('d', [-0.02791787125170217, -0.008652146438559494, 0.0030069526097271622, -0.0002364425084626017, 0.0006697803165231999, 0.00041629428258227344, 0.0004877908642944171, 0.00046737109484859773, 0.0004727528285394959, 0.00047052748591428254, 0.00047032134970126713, 0.0004693960067181699, 0.00046861717353497936, 0.00046778259135895576, 0.00046701364058986507, -0.0036680212902475778])","array('d', [-0.2758801420542857, -0.29905348225274236, -0.3160001046225048, -0.32787965155219495, -0.33547272604875344, -0.33933597872741045, -0.33988559352928277, -0.3374455840719488, -0.33227733090555467, -0.3245984434454632, -0.3145952108218754, -0.3024310255589151, -0.2882521810740645, -0.27219190352124, -0.2543731681332799, -0.23682120788297778])",-36.88044516768252,-163.9347241948904,-49.837516076260506,0.34852678348492927,0.0030069526097271622,-0.3160001046225048,25.000000249983408,-1.0,[],[],[],10000000000.0,0.02372908592224121
15,7.844668865203857,-165.60723876953125,-36.57455062866211,49.92558670043945,0.49661546945571894,0.00996178667992341,-0.3126573999735972,23.554128233216243,"array('d', [-35.7322883605957, -36.46572508799178, -37.24415382724093, -38.054447383948556, -38.88581435128368, -39.72902300791, -40.57596611609314, -41.419376552614885, -42.25263543351066, -43.069638784813776, -43.864703470638474, -44.63250023539455, -45.368006053721906, -46.066470512177574, -46.72339254222469, -47.336072010081516])","array('d', [-167.82447814941406, -165.43483060514373, -163.05914563031894, -160.69411887967266, -158.33640767495447, -155.9829015058898, -153.63073536335895, -151.27730113532476, -148.92025602221574, -146.5575309059753, -144.18733795968905, -141.8081773534302, -139.41884265835117, -137.01842464578738, -134.60631322419025, -132.18259213933993])","array('d', [-49.893497467041016, -49.85865454283176, -49.855249242619124, -49.85754476626052, -49.85825795111298, -49.85941349493644, -49.86044586563231, -49.86151264897437, -49.86256888037089, -49.86362670484612, -49.86468220661117, -49.86573616998276, -49.86678815363866, -49.867838207299755, -49.86888636620909, -49.864685127938785])","array('d', [0.5749410986900328, 0.44548781271346805, 0.32835362506462845, 0.22236621954921082, 0.1264648405129155, 0.039689676461667496, -0.03882774603682672, -0.10987325431097232, -0.17415789439425744, -0.23232504739810395, -0.28495686866924513, -0.3325801141679499, -0.37567141233475077, -0.41466203386098677, -0.44994220045182753, -0.4033712822079255])","array('d', [-0.023518571630120253, -0.004671495192548822, 0.00183864706113427, 2.7977914347525845e-05, 0.0005341264108526437, 0.000392668472470944, 0.00043256258623109014, 0.00042105605661604047, 0.00042388193598966726, 0.0004224023435396388, 0.00042200570191688343, 0.00042117880617074444, 0.00042042078034691476, 0.00041963526873340447, 0.0004189040727259203, -0.003711005442954732])","array('d', [-0.28626458247634384, -0.3082098364639416, -0.32417532610385985, -0.3352359055998273, -0.3421233586463844, -0.34536430762724873, -0.34535552786459134, -0.3424080007254976, -0.33677408806287557, -0.3286650008770742, -0.3182623884029482, -0.30572620703690884, -0.29120014874044964, -0.27481542076846044, -0.25669338639137984, -0.2388701112193292])",-37.24415382724093,-163.05914563031894,-49.855249242619124,0.32835362506462845,0.00183864706113427,-0.32417532610385985,25.000000249983334,-1.0,[],[],[],10000000000.0,0.024819374084472656
16,7.872106313705444,-165.16546630859375,-36.74966049194336,49.93670654296875,0.48047244548797596,0.007029618602245882,-0.31766943534347003,23.555577138253355,"array('d', [-35.89553451538086, -36.64064417272889, -37.42916333324258, -38.24827809840837, -39.08740001530621, -39.93744265779617, -40.79040710684102, -41.63910985489768, -42.476998368104844, -43.298022690766, -44.096544719028515, -44.86727360024602, -45.60521978029637, -46.30566263200912, -46.96412811525428, -47.577946856826294])","array('d', [-167.38116455078125, -164.9950495899814, -162.62268755532048, -160.26069957317424, -157.90573663082506, -155.55468982262437, -153.20470047400096, -150.8531697593113, -148.4977667372188, -146.13643628249528, -143.7674063916578, -141.3891945972017, -139.00061309718654, -136.60077228306724, -134.18908240906782, -131.76565033385728])","array('d', [-49.89690017700195, -49.8678078231971, -49.866268747299216, -49.86794888127483, -49.86873620278418, -49.86977353917094, -49.870741393408494, -49.871728521499065, -49.872709356345425, -49.87369060001485, -49.87466992111075, -49.87564767715019, -49.87662357115285, -49.87759762203629, -49.87856987705031, -49.87429688886821])","array('d', [0.5605307221412659, 0.4324487636229898, 0.3165554044831739, 0.21169074713377026, 0.11680527274111482, 0.03094933730782034, -0.04673633266612889, -0.11702924006542796, -0.1806328986547539, -0.23818387406630234, -0.29025815474575656, -0.3373769166104517, -0.38001173907030855, -0.4185893242728657, -0.4534957602504406, -0.40654112885803917])","array('d', [-0.021101174876093743, -0.00248414398392968, 0.0011915643375266897, 0.00016959153159189116, 0.0004554962225605029, 0.00037570399582384707, 0.00039820405996163953, 0.0003916084529766143, 0.00039303562826887526, 0.0003919769799436301, 0.00039148806505204237, 0.0003907294341007117, 0.00038999798211701445, 0.00038925512883205345, 0.00038856048230736763, -0.0037381158639280647])","array('d', [-0.2915093143794201, -0.31275138817818443, -0.32815101094669036, -0.33873679489835756, -0.3452136092978231, -0.3480913885396687, -0.3477560557285368, -0.34451127054255826, -0.33860430848851897, -0.3302427601522841, -0.3196056414277243, -0.30685095258599043, -0.29212089965330246, -0.27554553227038486, -0.25724528536906816, -0.239262689659929])",-37.42916333324258,-162.62268755532048,-49.866268747299216,0.3165554044831739,0.0011915643375266897,-0.32815101094669036,25.000000249983298,-1.0,[],[],[],10000000000.0,0.026031970977783203
17,7.8990771770477295,-164.28497314453125,-37.105255126953125,49.96355056762695,0.44888958334922785,0.001544192084111095,-0.32710938056441735,23.55709456454612,"array('d', [-36.06097412109375, -36.8179977290041, -37.61677038501625, -38.44480004788526, -39.29170760779668, -40.14855757388176, -41.007463929546404, -41.86133052074973, -42.70367427062392, -43.528501881970925, -44.330222583256116, -45.10358598181275, -45.84363788277182, -46.54568922106177, -47.20529469188047, -47.819817898500816])","array('d', [-166.93869018554688, -164.55625633672716, -162.18732305657718, -159.82844388575379, -157.47626904901355, -155.12769435126697, -152.7798702204283, -150.43020982546, -148.07639676898603, -145.71639260468174, -143.3484438442687, -140.97108807839822, -138.5831588239028, -136.1837887687466, -133.77241115975133, -131.3491584798598])","array('d', [-49.901485443115234, -49.87858009864224, -49.879044147606116, -49.88005427166852, -49.88091430728898, -49.8818171763756, -49.88270839987556, -49.88360260367269, -49.884495117066756, -49.8853867837274, -49.8862769811613, -49.887165608961624, -49.888052526351444, -49.8889377189617, -49.8898212460651, -49.88546439318013])","array('d', [0.5451413393020629, 0.41852387292819193, 0.3039556411990741, 0.2002900088231293, 0.10648945718987142, 0.021615200553849547, -0.05518220963142159, -0.12467138626425807, -0.1875477991163089, -0.2444407353132767, -0.29591959743534585, -0.34249960226212833, -0.3846469371535725, -0.42278342533556856, -0.4572907403107359, -0.40992576670576614])","array('d', [-0.018500383943319158, -0.00013085087753071352, 0.0004917045880293036, 0.0003192712089462051, 0.00036794531319419963, 0.0003545730407194636, 0.0003583428788199193, 0.00035704187039773945, 0.0003569700509699759, 0.0003563732415102585, 0.0003557943702640718, 0.0003551191420043021, 0.00035442633504669614, 0.0003537392232700604, 0.00035309324332656817, -0.0037698036766011774])","array('d', [-0.29688195785018406, -0.3173846333370431, -0.3321860556632623, -0.3422679830141203, -0.34830779590794336, -0.3507982831647852, -0.35011416740597406, -0.3465515247349927, -0.3403523471329475, -0.3317204550551984, -0.32083211578179016, -0.30784328296764096, -0.29289460386997923, -0.27611491010527467, -0.25762365645860225, -0.23947038462454823])",-37.61677038501625,-162.18732305657718,-49.879044147606116,0.3039556411990741,0.0004917045880293036,-0.3321860556632623,25.000000249983255,-1.0,[],[],[],10000000000.0,0.0255734920501709
18,7.923895835876465,-164.28497314453125,-37.105255126953125,49.96355056762695,0.44888958334922785,0.001544192084111095,-0.32710938056441735,23.55709456454612,"array('d', [-36.230125427246094, -36.999039592392876, -37.80800972504103, -38.644864671439315, -39.499434864025616, -40.36293712812181, -41.2275998210082, -42.086415512889374, -42.932971840843415, -43.76133332170261, -44.565957595328115, -45.341635756852014, -46.083449970211774, -46.78674372300323, -47.44710144273373, -48.06192113421414])","array('d', [-166.49383544921875, -164.11515387339077, -161.749683627973, -159.39391964618918, -157.0445173133781, -154.698380047749, -152.3526697996703, -150.00481404124463, -147.6525131532241, -145.29374755971207, -142.9267844459443, -140.5501835893341, -138.16280192183353, -135.76379648616327, -133.3526255338854, -130.92944893938028])","array('d', [-49.908077239990234, -49.891753239306546, -49.89433956142409, -49.89462264292655, -49.89554728099598, -49.89629392903472, -49.8970905834988, -49.89787287186225, -49.898658400316656, -49.899441774867874, -49.90022419799079, -49.90100508374981, -49.90178445870983, -49.90256227245069, -49.903338595131, -49.89888042201599])","array('d', [0.5291680097579955, 0.404070605356834, 0.29087778270293346, 0.18845667203606797, 0.09578221031472622, 0.011926882059346418, -0.0639485635173507, -0.13260351199874562, -0.19472508393592922, -0.2509350117667902, -0.30179586230678396, -0.3478166670795609, -0.38945801679466363, -0.4271366706251701, -0.4612297200158381, -0.4134382077988947])","array('d', [-0.015733895823359333, 0.0023723710834351918, -0.0002594090956392175, 0.00047364549040085563, 0.00026947101277271433, 0.00032688956541885125, 0.0003107040174360065, 0.0003150541090848691, 0.00031339631382062104, 0.00031330485682763785, 0.00031264465888186335, 0.00031207348063912226, 0.00031143710722290267, 0.00031082411521370535, 0.0003102437150350181, -0.003808086734044203])","array('d', [-0.30226199229690026, -0.3220092088098125, -0.3361960841995065, -0.3457583414740633, -0.35134613071686427, -0.35343515197928954, -0.3523889120139859, -0.348495864860699, -0.34199267612578077, -0.3330793556047643, -0.3219293855518838, -0.3086966405916279, -0.29352018001948604, -0.27652759056016646, -0.2578373215124115, -0.23950631001026318])",-37.80800972504103,-161.749683627973,-49.89433956142409,0.29087778270293346,-0.0002594090956392175,-0.3361960841995065,25.000000249983216,-1.0,[],[],[],10000000000.0,0.023274898529052734
19,7.952643394470215,-162.97140502929688,-37.65081024169922,50.01584243774414,0.40503057837486267,-0.005820767953992102,-0.3404955108973639,23.55407429797606,"array('d', [-36.57455062866211, -37.36632046061053, -38.194792604473854, -39.04839931062141, -39.917379033999616, -40.79324612057856, -41.66845364500592, -42.53616916090935, -43.390120311916164, -44.224486496728105, -45.033821922503805, -45.81300078074698, -46.55717838281754, -47.26176401720064, -47.92240250799382, -48.53656259272172])","array('d', [-165.60723876953125, -163.23600171697692, -160.87728855310118, -158.52754056848224, -156.18342858341046, -153.84187891572515, -151.5000827758912, -149.1555021799341, -146.80587659309293, -144.44922946133806, -142.08387437607362, -139.70842035529782, -137.3217758432259, -134.92315108923702, -132.51205866076518, -130.08871658373155])","array('d', [-49.92558670043945, -49.917239338687, -49.92031124218269, -49.92021865625036, -49.921006534317534, -49.92154955030957, -49.922161109507705, -49.92275306677376, -49.92334982984661, -49.923944187435254, -49.924537946109915, -49.925130413258806, -49.925721691253216, -49.92631172891689, -49.92690059494168, -49.92226526594098])","array('d', [0.49661546945571894, 0.3746158461710263, 0.2642260120380733, 0.16434115049699974, 0.07396158209397696, -0.007817240628542256, -0.08181378613022636, -0.14876863536511256, -0.20935189375051982, -0.2641698977933007, -0.3137712834933262, -0.3586524772503708, -0.3992626641869171, -0.4360082832825915, -0.4692570880117491, -0.4205942828868025])","array('d', [-0.00996178667992341, 0.003066498346116828, -0.0005486654504609727, 0.0004578067411377464, 0.0001771771787479686, 0.00025592199374181024, 0.00023369613632924204, 0.000239768379100969, 0.0002376769678419855, 0.00023780693469540264, 0.00023720996341913185, 0.0002367710768916928, 0.00023625984665688268, 0.00023577831683148877, 0.0002353221130289748, -0.0038750234513554136])","array('d', [-0.3126573999735972, -0.3309002742989017, -0.34385341572522665, -0.3523662505757512, -0.35703725862776725, -0.35830941585131176, -0.35652459952101506, -0.3519564826893394, -0.34483135436463347, -0.335341770608331, -0.3236557450241334, -0.30992305329073605, -0.2942796096574247, -0.27685052233492535, -0.2577522268782859, -0.23905710967030236])",-38.194792604473854,-160.87728855310118,-49.92031124218269,0.2642260120380733,-0.0005486654504609727,-0.34385341572522665,25.00000024998313,-1.0,[],[],[],10000000000.0,0.026398897171020508
20,7.980774164199829,-162.53536987304688,-37.835487365722656,50.036563873291016,0.3915836811065672,-0.007788136601448195,-0.3447086056086679,23.552002914692327,"array('d', [-36.74966049194336, -37.552416729968066, -38.39025243480871, -39.25187890579228, -40.12772852345353, -41.00945753496838, -41.88962680514121, -42.76148820973859, -43.618837155291224, -44.455908871572994, -45.26730468781542, -46.04793951052492, -46.79300463942656, -47.49794186949663, -48.15842597977651, -48.7719610956818])","array('d', [-165.16546630859375, -162.79790626536962, -160.44249950091196, -158.09567939536367, -155.7541250848456, -153.4147763462907, -151.07484070266307, -148.73179897293488, -146.38341154187455, -144.02772463313482, -141.66307621016185, -139.288100992562, -136.9017341788415, -134.5032135393568, -132.09207963814129, -129.6685801654365])","array('d', [-49.93670654296875, -49.93086791268172, -49.93312326545709, -49.93313581435496, -49.93377246556377, -49.93423557981857, -49.934747232394294, -49.9352449105625, -49.935745876222875, -49.936244990346516, -49.936743512349125, -49.93724093863898, -49.93773733711844, -49.93823267518125, -49.93872701248812, -49.9340023551996])","array('d', [0.48047244548797596, 0.3600090327215923, 0.251009219473488, 0.15238210095479454, 0.06314058560376647, -0.017608484040342966, -0.09067327034097611, -0.1567850289098333, -0.21660542724480064, -0.27073316690683524, -0.3197099755105223, -0.36402602848976545, -0.4041248548594383, -0.4404077757448245, -0.4732379138464256, -0.4241419824592024])","array('d', [-0.007029618602245882, 0.0022046470603384054, -0.00035762038366001625, 0.00035575891456094696, 0.000156879754173836, 0.00021268077596669295, 0.0001969044636862724, 0.00020116696256385723, 0.00019963118424477062, 0.0001996596386551323, 0.00019916619373429434, 0.00019878125828655656, 0.00019834480483280845, 0.00019793252174722542, 0.00019754380691614854, -0.003908775162845802])","array('d', [-0.31766943534347003, -0.33518259941434475, -0.3475325593477591, -0.35552938231356473, -0.35974769673876866, -0.36061523560042397, -0.3584637304804951, -0.35355988257875764, -0.3461250639010306, -0.33634828402088063, -0.32439494417201203, -0.3104128536624339, -0.29453641075014086, -0.27688952235944375, -0.25758764199368295, -0.23871100830036215])",-38.39025243480871,-160.44249950091196,-49.93312326545709,0.251009219473488,-0.00035762038366001625,-0.3475325593477591,25.00000024998309,-1.0,[],[],[],10000000000.0,0.02711200714111328
21,8.007876873016357,-162.09754943847656,-38.0223388671875,50.0600471496582,0.3788192272186279,-0.009556401520967605,-0.3488119085642955,23.552427379186863,"array('d', [-36.926578521728516, -37.73991097133595, -38.586743985039675, -39.45605354961878, -40.33845774365666, -41.22574937671384, -42.11059341394886, -42.9863234182023, -43.8468006249729, -44.6863146494826, -45.49951284870677, -46.281350010374986, -47.027052786820136, -47.732094997359354, -48.392181014917675, -49.00485013048547])","array('d', [-164.7247314453125, -162.36077042865665, -160.00858076868823, -157.66459485073113, -155.3255022748889, -152.98825763195433, -150.65008590193315, -148.3084876919336, -145.96124518074376, -143.60642815146923, -141.2423996419509, -138.86782070380679, -136.481653853437, -134.08316488266428, -131.67192279259825, -129.24820520787623])","array('d', [-49.94953155517578, -49.946079491342154, -49.94753650649751, -49.94763344764286, -49.948108958705525, -49.948479243427556, -49.94887892364105, -49.94927004180405, -49.94966302471947, -49.950054723341566, -49.95044587722272, -49.95083616595412, -49.95122562486427, -49.95161423776199, -49.952002052693324, -49.94717673778323])","array('d', [0.46452873945236195, 0.34558256961157274, 0.23795561465914522, 0.14057070980855305, 0.05245319596741878, -0.02727883496050451, -0.09942336649181215, -0.1647024440358768, -0.22376940135414805, -0.2772153993303658, -0.3255753424916552, -0.36933323248669103, -0.40892701205856535, -0.4447529476676425, -0.4771695884075171, -0.42764517565953136])","array('d', [-0.0042277877219019915, 0.001372704701290821, -0.00018117066709797942, 0.0002515056801039963, 0.00013091486370585663, 0.00016474849963307638, 0.0001551556963829852, 0.00015769644737977025, 0.00015670639908999372, 0.00015665338117919919, 0.00015627601707649796, 0.0001559602340768692, 0.00015561268992049984, 0.00015528312421323937, 0.00015497397620088527, -0.003946807414453095])","array('d', [-0.3225058754298349, -0.33930819524362704, -0.35106763198863744, -0.3585574343622806, -0.3623297488737061, -0.36279785779101, -0.36028383133426023, -0.35504770793724444, -0.34730614650124386, -0.33724474798279447, -0.3250263960906464, -0.3107969996965495, -0.2946894871026872, -0.27682659604680004, -0.25732282021900493, -0.2382662795297716])",-38.586743985039675,-160.00858076868823,-49.94753650649751,0.23795561465914522,-0.00018117066709797942,-0.35106763198863744,25.000000249983046,-1.0,[],[],[],10000000000.0,0.025600194931030273
22,8.034432888031006,-161.2247314453125,-38.3993034362793,50.11090087890625,0.3550224006175995,-0.012400770559907088,-0.3565909107539317,23.547594249001502,"array('d', [-37.105255126953125, -37.92862443299959, -38.783967899472444, -39.66051097941665, -40.549048365594075, -41.441503371497745, -42.33064077158625, -43.20987267800272, -44.073123796706774, -44.91473632036174, -45.72940222642044, -46.512115076642914, -47.258135998563354, -47.962970137746105, -48.62235090497106, -49.23385233172307])","array('d', [-164.28497314453125, -161.92448147862598, -159.57537109056372, -157.23407973770068, -154.89730966885105, -152.56203169029865, -150.22548941525116, -147.88520423337542, -145.53898098115783, -143.1849137535124, -140.82139131913104, -138.4471016317805, -136.0610350169206, -133.6624857059181, -131.25105148720868, -128.82703998052372])","array('d', [-49.96355056762695, -49.96237585868123, -49.96305379188109, -49.96321873603454, -49.96352663755676, -49.96379486888957, -49.964074145886606, -49.96435007826877, -49.9646265407975, -49.964902297722574, -49.965177592574264, -49.96545228184644, -49.96572636933378, -49.96599985284594, -49.96627276626623, -49.96133887988432])","array('d', [0.44888958334922785, 0.33143167470108587, 0.22515135428555044, 0.12898493486272142, 0.04196995232981587, -0.03676446692551784, -0.10800632200505642, -0.17246862404523428, -0.23079653225857136, -0.2835738108904115, -0.33132867171213387, -0.374539060516171, -0.4136374404802609, -0.4490151199509998, -0.48102616176651536, -0.43108075740056967])","array('d', [-0.001544192084111095, 0.0005691696386832012, -1.7043861126705847e-05, 0.0001462747039309242, 0.00010080503661783086, 0.00011356713075097806, 0.00010991538352777164, 0.00011081550462899091, 0.00011036208060980335, 0.0001102454040861356, 0.00010999465844923119, 0.00010976066107601208, 0.00010951345100076967, 0.00010927729650144555, 0.00010905711111322468, -0.003987829653596349])","array('d', [-0.32710938056441735, -0.3432234430692411, -0.354408387312248, -0.361403212750355, -0.3647389994841226, -0.3648154136133074, -0.3619453825774022, -0.356382617767872, -0.3483392893206571, -0.33799774312762904, -0.32551845234388194, -0.3110455008577876, -0.29471040068699206, -0.27663475878222277, -0.2569321366293958, -0.23769850826867667])",-38.783967899472444,-159.57537109056372,-49.96305379188109,0.22515135428555044,-1.7043861126705847e-05,-0.354408387312248,25.000000249983007,-1.0,[],[],[],10000000000.0,0.024361848831176758
23,8.061235427856445,-160.78964233398438,-38.58921432495117,50.13808822631836,0.3437843024730682,-0.013563059270382021,-0.36016945441695675,23.544349680151843,"array('d', [-37.46747970581055, -38.31050215682617, -39.18263518601514, -40.07355621276165, -40.974384592937525, -41.87728554369271, -42.775209959960954, -43.66171722618156, -44.53085162248103, -45.37705483000335, -46.19510359297166, -46.98006539096587, -47.72726726881472, -48.43227440987924, -49.090875972563985, -49.700712835298006])","array('d', [-163.40834045410156, -161.05479521890183, -158.7118638690873, -156.3760044733777, -154.04394444546577, -151.71268535404775, -149.37950625443295, -147.04196809898494, -144.6979189257019, -142.34549922664323, -139.98314690152083, -137.60960127848057, -135.22390578066694, -132.8254089193578, -130.41376339497276, -127.9893345210759])","array('d', [-49.99673080444336, -49.9998663039844, -49.999005188175566, -49.99925206177591, -49.9991910498109, -49.99921583729603, -49.99921663241751, -49.99922415726946, -49.999229772814864, -49.99923591749205, -49.99924189516137, -49.999247904175846, -49.99925388618615, -49.99925985860769, -49.999265816406094, -49.99407969255181])","array('d', [0.4190223813056945, 0.3044067102719806, 0.20069815303387006, 0.10685876137506983, 0.021949360826567302, -0.05487984888999627, -0.12439779893355749, -0.18730024705083323, -0.24421674094034818, -0.2957169189642009, -0.34231621126500766, -0.3844809983385167, -0.4226332786495137, -0.4571548916862836, -0.488391332594056, -0.437639958823491])","array('d', [0.0035722043830903193, -0.0009877330378129307, 0.0002777298948766165, -7.435749639064959e-05, 2.3908649839385616e-05, -3.6194386021059817e-06, 4.126321082524624e-06, 1.9301961586715116e-06, 2.5518693724988926e-06, 2.3669570372364372e-06, 2.414387138637249e-06, 2.3931782016341645e-06, 2.392442271158812e-06, 2.3856089088867086e-06, 2.3807114673391364e-06, -0.004083133609188921])","array('d', [-0.33611373504134606, -0.3509364673021864, -0.3610363776045358, -0.3670918089291635, -0.3695961521812368, -0.36892452418440097, -0.36537326841843165, -0.3591845634153265, -0.35056236291183357, -0.3396830314700368, -0.32670259526729106, -0.3117617568667152, -0.29498939114987105, -0.2765049875638129, -0.25642035105680716, -0.23684679948016038])",-39.18263518601514,-158.7118638690873,-49.999005188175566,0.20069815303387006,0.0002777298948766165,-0.3610363776045358,25.00000024998292,-1.0,[],[],[],10000000000.0,0.02602362632751465
