,current_time,x_pos,y_pos,z_pos,roll,pitch,yaw,vel,x_traj,y_traj,z_traj,roll_traj,pitch_traj,yaw_traj,x_cmd,y_cmd,z_cmd,roll_cmd,pitch_cmd,yaw_cmd,vel_cmd,effector_dmg,effector_x,effector_y,effector_z,cost,time_solution
0,3.391993999481201,-247.92372131347656,-38.872764587402344,49.95382308959961,0.6328281760215756,0.03457883745431899,0.5030322829869126,23.52946610350859,"array('d', [-40.11288070678711, -38.882564999542446, -37.71692980601316, -36.61916648895958, -35.59204870394413, -34.63818913009334, -33.760059768569704, -32.95998662447936, -32.24014304863968, -31.60254402510918, -31.04904110875417, -30.58131810761394, -30.200887472455495, -29.90908737469987, -29.70707943960944, -29.593261672259334])","array('d', [-250.48385620117188, -248.30856231801698, -246.09712440317514, -243.8511498727804, -241.5720032257097, -239.26124369407339, -236.92066125308403, -234.5522650177764, -232.15826734358185, -229.7410685031617, -227.30324127061945, -224.84751575705252, -222.37676450414727, -219.89398791559682, -217.40230006854551, -214.90501781517636])","array('d', [-49.95858383178711, -49.89719347496284, -49.88316140940022, -49.886540216099355, -49.88663825719316, -49.88761950810228, -49.888336605007815, -49.889108798192744, -49.889848543439086, -49.89058171517227, -49.89130233563513, -49.89201341736977, -49.89271537904673, -49.89340937038933, -49.89409627863362, -49.88955123980441])","array('d', [0.6325358152389524, 0.6470825793954741, 0.6602450371075173, 0.6721549224369405, 0.6829314333028561, 0.6926824244522565, 0.7015054869045224, 0.709488924673184, 0.7167126385401428, 0.7232489257270739, 0.7291632034661746, 0.7345146637073433, 0.7393568654909078, 0.7437382707329085, 0.7477027253111791, 0.6651742438181402])","array('d', [-0.034679681062698274, -0.014770485568647723, 0.0032440989601344515, -0.00047894344318108364, 0.0005403721070020932, 0.00024948127375271984, 0.0003229703094777691, 0.0002952467266985534, 0.0002965280972840903, 0.00029011625412025125, 0.0002864414219119261, 0.00028248988724879134, 0.00027913541535644907, 0.0002761081609426215, 0.0002734625696513121, -0.00384086592336291])","array('d', [0.529264048733983, 0.5000515830723292, 0.4699861477347649, 0.4391331733587966, 0.40755411783609885, 0.37530656800762235, 0.3424443541208777, 0.30901767711814304, 0.27507324767500974, 0.24065443519517352, 0.20580142458364753, 0.17055137847942953, 0.13493860265997934, 0.09899471248308514, 0.06274879858443139, 0.029276745404474246])",-37.71692980601316,-246.09712440317514,-49.88316140940022,0.6602450371075173,0.0032440989601344515,0.4699861477347649,25.00000024994976,-1.0,[],[],[],10000000000.0,0.03566622734069824
1,3.4279367923736572,-247.49203491210938,-38.672264099121094,49.953250885009766,0.6331059932708738,0.034856352955102754,0.49846954742935695,23.5335842407859,"array('d', [-39.90128707885742, -38.68039347842628, -37.52434501515456, -36.43632297612502, -35.419093578654724, -34.47526263423028, -33.60729414340881, -32.81750516462135, -32.108059220559596, -31.480960656108284, -30.938049642700577, -30.480997927243514, -30.11130528684908, -29.83029667047637, -29.6391199941084, -29.536158649520335])","array('d', [-250.05902099609375, -247.87841328070627, -245.66194636085214, -243.41123707584376, -241.12765991956982, -238.8127861065073, -236.46841668383607, -234.0965711822968, -231.69947167546104, -229.27952744108407, -226.8393195223301, -224.3815855462909, -221.90920480297015, -219.42518366536402, -216.93264139239636, -214.43488801400818])","array('d', [-49.957550048828125, -49.8965740322498, -49.8829169857019, -49.88642085228642, -49.8864841557245, -49.887474968162806, -49.888189514145694, -49.88896269126442, -49.889702582947535, -49.8904362839025, -49.89115746528471, -49.89186923471886, -49.89257197905838, -49.89326685386534, -49.893954741754634, -49.88941067448961])","array('d', [0.6325744390487671, 0.6471175276669722, 0.6602766596141093, 0.6721835356667228, 0.6829573236261235, 0.6927058509875857, 0.7015266841121104, 0.7095081047013941, 0.716729993348741, 0.7232646290083955, 0.7291774123834195, 0.7345275204672922, 0.7393684987663004, 0.7437487969451103, 0.747712249722376, 0.6651823617371987])","array('d', [-0.03450546413660043, -0.014612847562200005, 0.0033867353480660357, -0.0005184923887279227, 0.0005512890555353012, 0.0002464462953131799, 0.00032389843724651355, 0.00029512328821713847, 0.0002967627121423078, 0.0002903057690604051, 0.0002866994987090053, 0.00028278141210257257, 0.0002794693136978803, 0.0002764803945959447, 0.0002738734080180245, -0.0038404988211123816])","array('d', [0.5249367515232899, 0.49572204452908986, 0.4656545382889008, 0.4347996532826878, 0.40321883748653736, 0.3709696680986286, 0.33810596602944565, 0.3046779232214234, 0.27073224171513693, 0.23631228266659937, 0.20145822313721448, 0.16620721833730925, 0.13059356703586797, 0.09464887800267348, 0.058402235704273074, 0.02492958319599543])",-37.52434501515456,-245.66194636085214,-49.8829169857019,0.6602766596141093,0.0033867353480660357,0.4656545382889008,25.000000249949906,-1.0,[],[],[],10000000000.0,0.03407406806945801
2,3.4656944274902344,-246.1936798095703,-38.082523345947266,49.95136642456055,0.6340152621269223,0.035514224320649906,0.4846024076130726,23.54365626491462,"array('d', [-39.691654205322266, -38.48021832684747, -37.3337847467281, -36.25552436441859, -35.24819601317416, -34.3143989559707, -33.45658948472378, -32.67707600540906, -31.978012508631835, -31.3613929976048, -30.829046558329114, -30.38263317421538, -30.023640245131507, -29.753379791965003, -29.572986313065876, -29.480829009755155])","array('d', [-249.63345336914062, -247.44756320482185, -245.22610505775867, -242.97070336068185, -240.68274142232752, -238.36380186242792, -236.01569619272811, -233.64045378901898, -231.24030590877268, -228.81767033782097, -226.3751359273935, -223.91544739454864, -221.44149038520013, -218.956276881413, -216.4629309942846, -213.9647556637128])","array('d', [-49.95669937133789, -49.89622609211764, -49.88302407079859, -49.88667801868388, -49.88669637459225, -49.8876963262571, -49.88840525063679, -49.88917713673377, -49.88991473118186, -49.89064661502376, -49.89136602881036, -49.89207619367863, -49.892777455166254, -49.89347097334749, -49.89415762264413, -49.88961243814295])","array('d', [0.6325544118881223, 0.6470994063409868, 0.6602602627587879, 0.6721686991771192, 0.6829438990139253, 0.6926937038949944, 0.701515692967143, 0.7094981595011463, 0.7167209945584302, 0.7232564865651568, 0.7291700447948531, 0.734520853995632, 0.7393624666895242, 0.7437433388838776, 0.7477073109604679, 0.66517815229799])","array('d', [-0.034294079989194724, -0.014421579260565644, 0.0035598013618815413, -0.0005677835771850029, 0.0005635946615937382, 0.00024173593164884613, 0.00032403073302660296, 0.00029397946324400363, 0.00029606136757746713, 0.00028955425996572497, 0.00028603547189792153, 0.0002821610576260548, 0.00027890249355946547, 0.0002759611209568827, 0.00027340102527029393, -0.0038409210744507335])","array('d', [0.5206014672901969, 0.49138792248374413, 0.461321490058097, 0.4304675957603427, 0.3988876927082163, 0.3666393631000664, 0.333776432687993, 0.3003490980811921, 0.2664040657978131, 0.2319847012705897, 0.19713118562812, 0.16188067793278343, 0.1262674805878135, 0.09032320577964205, 0.054076941179185524, 0.020604599167174182])",-37.3337847467281,-245.22610505775867,-49.88302407079859,0.6602602627587879,0.0035598013618815413,0.461321490058097,25.000000249950048,-1.0,[],[],[],10000000000.0,0.03604245185852051
3,3.5030317306518555,-245.32473754882812,-37.699440002441406,49.94963836669922,0.6344143152236937,0.03524211794137938,0.4759251634266715,23.552109876589373,"array('d', [-39.07456588745117, -37.89183705946969, -36.77457819431505, -35.725939814078785, -34.74866262850237, -33.84532440181142, -33.018357013240376, -32.270041619938425, -31.60250233638746, -31.017700864392488, -30.517431767543428, -30.10331848647369, -29.776810055009076, -29.539178497157437, -29.391516870744823, -29.33215072559357])","array('d', [-248.35227966308594, -246.15073122110064, -243.91445915622006, -241.64513312620113, -239.3441747490981, -237.01320123060682, -234.65405686629202, -232.26880180881426, -229.85969599800916, -227.42918373524822, -224.97987815920456, -222.51454599470597, -220.03609257372523, -217.54754720973273, -215.05204896625213, -212.5528794432459])","array('d', [-49.95450210571289, -49.89378678254912, -49.88036568872445, -49.883956157742034, -49.88401152032367, -49.885021143454, -49.88574737103674, -49.88653458643054, -49.887288193018044, -49.88803603980695, -49.88877158084554, -49.88949798759407, -49.89021563261366, -49.89092568316311, -49.891629027635304, -49.88709971415013])","array('d', [0.632635474205017, 0.6471727545651016, 0.6603266309824622, 0.672228751634624, 0.6829982367293278, 0.6927428706973929, 0.7015601809334719, 0.7095384138810196, 0.7167574182303011, 0.7232894440683614, 0.7291998659777937, 0.7345478373162622, 0.7393868821994943, 0.7437654309140992, 0.7477273003212603, 0.665195189711134])","array('d', [-0.03439585119485841, -0.014513665662216239, 0.0034764785650522765, -0.0005371451783386271, 0.0005630812763942689, 0.00024984268848997874, 0.00032980544226151183, 0.0003004564761091891, 0.0003023964346254601, 0.0002959879064552534, 0.0002925030611847902, 0.0002886860159234787, 0.0002854834274492618, 0.0002826050314522077, 0.00028011213459028277, -0.0038349235445186446])","array('d', [0.5075193206456048, 0.4783010715424201, 0.44823029254950664, 0.41737238809134936, 0.3857887904711715, 0.353537061645716, 0.3206710077675107, 0.2872408065541956, 0.25329314639839046, 0.2188713754205441, 0.18401565828532937, 0.14876313846235092, 0.11314810364427437, 0.07720215218999846, 0.040954358826204164, 0.00748075870168526])",-36.77457819431505,-243.91445915622006,-49.88036568872445,0.6603266309824622,0.0034764785650522765,0.44823029254950664,25.000000249950467,-1.0,[],[],[],10000000000.0,0.03659510612487793
4,3.5399436950683594,-244.45277404785156,-37.324520111083984,49.94765853881836,0.6352563500404355,0.03402794525027256,0.4672328988697866,23.565058301419473,"array('d', [-38.672264099121094, -37.50955026172243, -36.41266730955271, -35.38475484121845, -34.42854087121139, -33.546585153288554, -32.7412998187997, -32.01494432265278, -31.36961928324986, -30.807261253640892, -30.329638146618063, -29.93834539621321, -29.634802817615682, -29.420252143978505, -29.295755205557736, -29.25960450978382])","array('d', [-247.49203491210938, -245.27988129397667, -243.03355122400455, -240.75476154426792, -238.44497055622406, -236.10582306998302, -233.73919000599966, -231.34715641543605, -228.9320053804332, -226.4962025285362, -224.0423804802485, -221.57332357265562, -219.09195286456753, -216.60131150174544, -214.10455048296623, -211.60493730845207])","array('d', [-49.953250885009766, -49.89144035104153, -49.87702798218936, -49.88030178697468, -49.880473042069866, -49.88147922327207, -49.88223483334099, -49.883042153533324, -49.88381832666654, -49.884587940023366, -49.88534539416503, -49.88609361836717, -49.88683308356268, -49.88756495803038, -49.88829015976199, -49.88378154109259])","array('d', [0.6331059932708738, 0.6475984978603191, 0.660711859481303, 0.6725773208263826, 0.6833136352052914, 0.6930282550657686, 0.7018184074117172, 0.7097720668817611, 0.7169688362269276, 0.7234807429991378, 0.7293729604226586, 0.73470445965798, 0.7395285999596376, 0.7438936624279558, 0.7478433287422405, 0.6652940806353788])","array('d', [-0.034856352955102754, -0.014930344919001366, 0.0030994525727170465, -0.00042166734363107436, 0.0005425857613207859, 0.00026695724915160745, 0.0003363728193205227, 0.00030992454914911154, 0.0003109960858270669, 0.00030479799962019547, 0.00030122492295608894, 0.0002974179496056031, 0.0002942077618386615, 0.00029133966048234606, 0.0002888630420809293, -0.0038271029345743764])","array('d', [0.49846954742935695, 0.46922398197117987, 0.43912796452288544, 0.4082467755703852, 0.3766417264390874, 0.34437026144651506, 0.31148607284653884, 0.2780392285817547, 0.24407631172964056, 0.2096405698287272, 0.17477207189781638, 0.13950787082775384, 0.1038821688619685, 0.06792648403963884, 0.03166981584883605, -0.0018110805509877921])",-36.41266730955271,-243.03355122400455,-49.87702798218936,0.660711859481303,0.0030994525727170465,0.43912796452288544,25.00000024995075,-1.0,[],[],[],10000000000.0,0.03486371040344238
5,3.5770516395568848,-243.5776824951172,-36.958003997802734,49.94603729248047,0.6366109848022459,0.031612250953912624,0.4580640355732778,23.576054130698484,"array('d', [-38.27711486816406, -37.13509120517753, -36.0592916067935, -35.05284348220771, -34.11846056428743, -33.25868234177953, -32.47589891535522, -31.7723457137948, -31.150097509052443, -30.611063335645785, -30.15698207521177, -29.78941877236578, -29.5097616462221, -29.3192197743314, -29.218821414090378, -29.206823592510197])","array('d', [-246.62710571289062, -244.40423749816995, -242.14774274761353, -239.85939141634302, -237.54068333926784, -235.19329387823166, -232.81912336010475, -230.42028426862356, -227.999085134676, -225.55801498964487, -223.09972779155987, -220.62702712957247, -218.1428512206887, -215.6502582737937, -213.1524122616252, -210.6525665969488])","array('d', [-49.952049255371094, -49.88892907366647, -49.87333133095365, -49.87622538771902, -49.87653330230702, -49.87753360338483, -49.87832256096435, -49.8791521368272, -49.87995351141734, -49.88074736950099, -49.88152924397399, -49.88230177330539, -49.883065545295395, -49.88382172826539, -49.8845712744517, -49.88008570526845])","array('d', [0.6338147521018979, 0.6482398094290486, 0.6612921422378244, 0.6731023824250207, 0.6837887306294584, 0.6934581392215042, 0.7022073827162926, 0.7101240263236226, 0.7172873023279295, 0.7237689030689813, 0.7296336984582938, 0.7349403852069207, 0.7397420742346015, 0.7440868219235504, 0.7480181064016681, 0.6654430341668005])","array('d', [-0.03540702536702157, -0.01542861396246863, 0.0026486006201400535, -0.00028442515389049636, 0.0005173811036954331, 0.00028670786270237664, 0.0003435106220236325, 0.00032053337996774104, 0.00032056575660579394, 0.0003146199033076032, 0.00031094104964491504, 0.00030714573257789926, 0.00030392558135933787, 0.00030106846028834264, 0.0002986095119139306, -0.003818392593185402])","array('d', [0.48916705051926146, 0.4598803030652868, 0.42974623844273097, 0.3988299498840187, 0.36719256595869587, 0.33489135330036224, 0.30197983215868607, 0.26850790472893526, 0.23452199510333208, 0.2000651990065425, 0.16517744111737617, 0.12989563765459572, 0.09425386194792137, 0.05828351087749984, 0.022013470447977388, -0.011478421246314615])",-36.0592916067935,-242.14774274761353,-49.87333133095365,0.6612921422378244,0.0026486006201400535,0.42974623844273097,25.000000249951043,-1.0,[],[],[],10000000000.0,0.03624773025512695
6,3.6134376525878906,-243.13890075683594,-36.778045654296875,49.94511032104492,0.637524902820587,0.030078174546360872,0.4531657258656362,23.5807640509806,"array('d', [-37.88996124267578, -36.76787984269981, -35.71236111343675, -34.726515918997364, -33.81304305160074, -32.97446469064833, -32.21315167627859, -31.53131828602574, -30.931016401550266, -30.41413057178974, -29.98237374321745, -29.63728371839893, -29.38022030731832, -29.21236314732739, -29.134710156347683, -29.145486890777747])","array('d', [-245.7595672607422, -243.5265732869108, -241.26052260174885, -238.9632200320212, -236.63619502066837, -234.28114900776674, -231.90000693497376, -229.49490425755164, -227.06817079113435, -224.62231512184027, -222.1600090015964, -219.6840720284781, -217.1974566268376, -214.70323340134075, -212.20457690511557, -209.7047257015903])","array('d', [-49.95063018798828, -49.88726026973244, -49.87143648681259, -49.8742620887727, -49.87460295471027, -49.875608449355944, -49.876410365354985, -49.87725085720168, -49.87806383272822, -49.87886922121812, -49.879662775970075, -49.88044708203381, -49.88122275322728, -49.881990962493944, -49.88275267362782, -49.87827867804806])","array('d', [0.634150743484497, 0.6485438270316637, 0.6615672287652813, 0.6733512910307423, 0.6840139524698967, 0.693661928388422, 0.7023917787964223, 0.710290874811483, 0.7174382730960868, 0.7239055070805848, 0.7297573028890639, 0.735052227127622, 0.7398432729894413, 0.7441783903174696, 0.7481009606149579, 0.6655136424062095])","array('d', [-0.035512033849954494, -0.015523629574445605, 0.0025626270086455123, -0.0002551382805324795, 0.000514983864223476, 0.00029311311356407856, 0.0003475122051606045, 0.00032525261248822924, 0.00032512986144007185, 0.00031927854675937425, 0.0003156261877457833, 0.0003118811420839846, 0.00030870873845590616, 0.00030590544296035945, 0.00030350353607519015, -0.0038140190333856875])","array('d', [0.4802273074772696, 0.4509210229602826, 0.42076890938153066, 0.3898359709682646, 0.3581832494330312, 0.32586792697500194, 0.2929434421210413, 0.2594596183288807, 0.22546280417737147, 0.1909960232949934, 0.15609913182366414, 0.12080898109511737, 0.0851595832433754, 0.04918227764135796, 0.01290589644080961, -0.020591208132104518])",-35.71236111343675,-241.26052260174885,-49.87143648681259,0.6615672287652813,0.0025626270086455123,0.42076890938153066,25.00000024995131,-1.0,[],[],[],10000000000.0,0.03483915328979492
7,3.657341480255127,-241.826416015625,-36.25630187988281,49.94666290283203,0.641863942146301,0.023810403421521062,0.4370131055500844,23.594750466446598,"array('d', [-37.699440002441406, -36.5869857539181, -35.54127521396577, -34.56540575947461, -33.66206597576575, -32.83376913813652, -32.08287606112365, -31.411590099203654, -30.821951378097566, -30.315831934244525, -29.89493151597804, -29.560774112862727, -29.314705175925603, -29.157889504601428, -29.091309764693072, -29.113175665735618])","array('d', [-245.32473754882812, -243.08691376023242, -240.816316260647, -238.5147589110781, -236.1837816717029, -233.82509997680395, -231.44065154455143, -229.0325837515176, -226.60323742991974, -224.15513127464962, -221.69094622269893, -219.21351012604896, -216.72578272686346, -214.2308410103638, -211.73186497478855, -209.23208622051138])","array('d', [-49.94963836669922, -49.886910377569066, -49.87166761320634, -49.87468471973749, -49.87496794952149, -49.875984859665046, -49.87677929984348, -49.8776178188965, -49.87842750852654, -49.87923020017209, -49.88002109903701, -49.880802937260555, -49.88157627751463, -49.8823422999307, -49.883101959045455, -49.87862608463514])","array('d', [0.6344143152236937, 0.6487823166252106, 0.661783023092858, 0.6735465498305881, 0.6841906299541568, 0.6938217928015215, 0.7025364301122146, 0.7104217607462886, 0.7175567035978813, 0.7240126674393335, 0.7298542655993724, 0.7351399626222667, 0.7399226593504331, 0.7442502220562076, 0.7481659565093948, 0.6655690300465578])","array('d', [-0.03524211794137938, -0.01527939954050353, 0.0027836153094557637, -0.00031818433724407506, 0.0005306086124602644, 0.0002869836679232307, 0.0003475579791299098, 0.00032365600175522684, 0.0003240884923220427, 0.0003181636666215278, 0.00031461463446816557, 0.0003109176218427673, 0.0003078064850609566, 0.00030505731292249663, 0.0003027091541311252, -0.003814729149018418])","array('d', [0.4759251634266715, 0.44660354633564575, 0.4164372684569552, 0.38549126408995776, 0.35382650671176813, 0.32150011219478886, 0.28856545487493757, 0.2550722963694904, 0.2210669259544645, 0.18659231064407353, 0.15168825276542672, 0.1163915527052965, 0.08073617455441674, 0.044753412541004886, 0.008472056540908917, -0.025029137893510845])",-35.54127521396577,-240.816316260647,-49.87166761320634,0.661783023092858,0.0027836153094557637,0.4164372684569552,25.00000024995143,-1.0,[],[],[],10000000000.0,0.04081892967224121
8,3.7003207206726074,-240.94602966308594,-35.92067337036133,49.950706481933594,0.6454454660415648,0.018375510349869655,0.4254854480412344,23.601699326186726,"array('d', [-37.14018630981445, -36.05739779796401, -35.042016882771904, -34.09707094468483, -33.22520560854075, -32.42890253374547, -31.710486947850114, -31.072123893472266, -30.515812672765424, -30.043382241897753, -29.65648724025446, -29.356604748714325, -29.14503173171512, -29.022883139209696, -28.991090631540224, -29.04781057924046])","array('d', [-244.01564025878906, -241.76316592088403, -239.47881744357085, -237.16439575708864, -234.82146472453624, -232.4517908636792, -230.05735733039572, -227.64035377233793, -225.20315997956916, -222.7483303258439, -220.27857811017577, -217.7967602282232, -215.30586215314568, -212.80898330764495, -210.30932286277323, -207.8100922578753])","array('d', [-49.94676208496094, -49.889535708237325, -49.878485023513335, -49.882583898642956, -49.882496754118314, -49.88354600024355, -49.88426285939463, -49.885056030872896, -49.88581285626568, -49.886566222004255, -49.887308108857, -49.88804207362072, -49.888768347268716, -49.889488116401886, -49.89020224656918, -49.885683630644266])","array('d', [0.6358870863914489, 0.6501149352066556, 0.6629888263584685, 0.6746376058428296, 0.6851778583484868, 0.6947150740735658, 0.7033447045048958, 0.7111531177265921, 0.7182184628187537, 0.7246114519969585, 0.7303960683188562, 0.7356302060345895, 0.7403662499582918, 0.7446515994124754, 0.7485291372548927, 0.6658784936568203])","array('d', [-0.03292889147996893, -0.013186305511665103, 0.004057947253338658, -0.0006994791923367582, 0.0006079529944485113, 0.00023762178879716095, 0.0003342535246410545, 0.0003008410489311908, 0.00030455727445039677, 0.0002982406926693404, 0.0002953175560467652, 0.0002919110842265374, 0.00028915383297856113, 0.0002867023710244589, 0.00028463623218967656, -0.0038308815798909403])","array('d', [0.4627295295384268, 0.4333221319929367, 0.40307661652127713, 0.37205752494272093, 0.34032544783155383, 0.3079371289577432, 0.2749455826307864, 0.2414002237169521, 0.20734700905760878, 0.1728285883843787, 0.13788446250380457, 0.10255114642675953, 0.06686233517947733, 0.03084907020826602, -0.005460095296823235, -0.03898414847469329])",-35.042016882771904,-239.47881744357085,-49.878485023513335,0.6629888263584685,0.004057947253338658,0.40307661652127713,25.0000002499518,-1.0,[],[],[],10000000000.0,0.04267096519470215
9,3.7402191162109375,-240.0613250732422,-35.595542907714844,49.958126068115234,0.6488366723060606,0.012585925869643591,0.4133256236698962,23.609501034049668,"array('d', [-36.778045654296875, -35.71689559331096, -34.72372203977089, -33.801476340845326, -32.95277129364792, -32.18005974789641, -31.48563673972129, -30.87163517564045, -30.34002048999539, -29.892586200087074, -29.53095011761497, -29.25655128054353, -29.070647564975975, -28.974313950450696, -28.96844140147159, -29.051143533408005])","array('d', [-243.13890075683594, -240.87599006899342, -238.58187841284436, -236.25831648959988, -233.9068972234946, -231.52942639351144, -229.12792531006443, -226.7046189507645, -224.26191967402661, -221.8024115918092, -219.32883492432214, -216.8440706809292, -214.35112566651546, -211.85311788719505, -209.3532623910896, -206.85475636925187])","array('d', [-49.94511032104492, -49.89466427017173, -49.885849191054675, -49.88926942648986, -49.88930608070861, -49.8902592958495, -49.89094237730263, -49.89168574737498, -49.89239847266214, -49.893107266393166, -49.893805771207816, -49.89449698951414, -49.895181233563996, -49.89585958862081, -49.896532876877146, -49.89197587584197])","array('d', [0.637524902820587, 0.6515968929311152, 0.6643297572825574, 0.6758509304298873, 0.6862757199372012, 0.6957084604124597, 0.7042435577213731, 0.71196643383123, 0.7189543817408972, 0.7252773390532161, 0.7309985879313428, 0.7361753884420337, 0.7408595516124822, 0.7450979578413673, 0.7489330240345463, 0.6662225853969477])","array('d', [-0.030078174546360872, -0.01060686986322259, 0.0033223656473720313, -0.0005220423635388174, 0.0005337529702330064, 0.00023382259218769855, 0.00031134927237714784, 0.0002838062606256588, 0.00028633183943310914, 0.0002807955044162918, 0.00027805408137899384, 0.00027497198077087445, 0.00027246508056658574, 0.000270255820966211, 0.0002684056497717, -0.0038453872425245664])","array('d', [0.4531657258656362, 0.42366272300117674, 0.3933289080459429, 0.36222838285188996, 0.3304213089226484, 0.2979640132433294, 0.2649091070545813, 0.2313056172025639, 0.19719912870480202, 0.16263193657856745, 0.12764320468394122, 0.09226912925651122, 0.05654310487934613, 0.020495890821525017, -0.015844224025272375, -0.049393705100282355])",-34.72372203977089,-238.58187841284436,-49.885849191054675,0.6643297572825574,0.0033223656473720313,0.3933289080459429,25.000000249982612,-1.0,[],[],[],10000000000.0,0.03834033012390137
10,3.7769052982330322,-239.1722869873047,-35.28144073486328,49.9701042175293,0.652164041996002,0.0065319780260324105,0.40085287491348753,23.615344303048207,"array('d', [-36.42787170410156, -35.39091467883052, -34.42266553690322, -33.52598235891076, -32.703436288866584, -31.95744205467891, -31.29025504722882, -30.703966432896205, -30.20049807060048, -29.78159825869384, -29.448838162605316, -29.203608952062517, -29.047119612895877, -28.9803954036038, -29.004276919018, -29.116824502584226])","array('d', [-242.26498413085938, -239.99069858493831, -237.68593597175283, -235.35238889139632, -232.99169257540777, -230.60570434353875, -228.1964951654181, -225.76633587806953, -223.3176810186633, -220.85315313316676, -218.37552717066978, -215.8877151997438, -213.39275147069563, -210.89377788720373, -208.39402992292207, -205.89669054467737])","array('d', [-49.9455680847168, -49.90437198962684, -49.89859447092103, -49.9010691996746, -49.901257834968256, -49.902062464792834, -49.90268233027089, -49.90334068700147, -49.90397633726276, -49.904607518813435, -49.905230134769816, -49.90584640927758, -49.90645674777499, -49.907062077943905, -49.907663142690545, -49.903038167574344])","array('d', [0.6401311159133909, 0.6539550922704562, 0.6664635444772429, 0.6777816611006234, 0.6880227174504341, 0.6972892092747677, 0.7056738785699633, 0.7132606417718953, 0.7201254296181243, 0.7263369470863191, 0.7319573610140012, 0.7370429222789915, 0.7416445287545943, 0.745808234572321, 0.7495757088389189, 0.666769996639556])","array('d', [-0.026189379394054326, -0.0070881421945093535, 0.002309336882900789, -0.00028625339278990145, 0.0004252916412127679, 0.00022180675731694186, 0.00027322781958875815, 0.00025378196133898375, 0.00025472255707955873, 0.0002502965189045513, 0.00024783727151076037, 0.000245225897678944, 0.00024308068660617928, 0.00024121457880995346, 0.0002396631000863467, -0.003871074792675302])","array('d', [0.44254715839890035, 0.4128915582498407, 0.3824168368341514, 0.3511863881550623, 0.3192596837662154, 0.28669238087083687, 0.25353644339344217, 0.21984027544523171, 0.18564886569162675, 0.15100394059694267, 0.11594412427081353, 0.08050510259510585, 0.04471978940591349, 0.008618492696341575, -0.027770920877567315, -0.06136090156182874])",-34.42266553690322,-237.68593597175283,-49.89859447092103,0.6664635444772429,0.002309336882900789,0.3824168368341514,25.000000249982726,-1.0,[],[],[],10000000000.0,0.03513813018798828
11,3.814427614212036,-238.72621154785156,-35.128658294677734,49.97832107543945,0.6538208127021788,0.003571580862626231,0.3946299115803581,23.61701214763186,"array('d', [-36.08720779418945, -35.07589176660246, -34.13414927294153, -33.26473476445205, -32.470171465364594, -31.752827501697237, -31.114909951673546, -30.55845956249946, -30.085345960904647, -29.697263618570364, -29.395728520137666, -29.18207552857927, -29.05745641772409, -29.022838538803217, -29.07900408277551, -29.2239514089544])","array('d', [-241.3867645263672, -239.10077689420427, -236.78504340123808, -234.4411997722637, -232.07093966072978, -229.6761828676094, -227.259059800387, -224.82189604254575, -222.3671963571399, -219.89762895389228, -217.41600995202228, -214.92528816297437, -212.42853024203723, -209.92890626076368, -207.42967573503594, -204.93400789612065])","array('d', [-49.94849395751953, -49.9192518633405, -49.91738954103031, -49.91862622449361, -49.91899741318491, -49.919595500591115, -49.920119485246296, -49.920653773654436, -49.92117569348115, -49.92169247860378, -49.9222029499369, -49.92270830677813, -49.923209060421215, -49.923705918236934, -49.92419950479693, -49.91947328538712])","array('d', [0.6436633467674254, 0.6571511872058229, 0.6693554910282943, 0.6803984027879709, 0.690390443456903, 0.6994316165550635, 0.7076124090173226, 0.7150146968153582, 0.721712564398179, 0.7277730461522636, 0.733256797301389, 0.7382187009579821, 0.7427084173875608, 0.746770880873485, 0.7504467470371188, 0.6675116634723597])","array('d', [-0.021164121106266764, -0.0025411000916496533, 0.000992297210619861, 1.3379920483634468e-05, 0.00027913766318545105, 0.0002006417301527684, 0.00021825221492422764, 0.0002093273943472136, 0.00020822682556342401, 0.00020525091545636702, 0.00020316101351942675, 0.00020115787452312895, 0.0001994731432874795, 0.00019803706458577662, 0.0001968519520734675, -0.00390933534594722])","array('d', [0.43137653271225507, 0.4015131997590415, 0.37084671990358553, 0.339439512260264, 0.30735009891569615, 0.27463321620813386, 0.24133993894628922, 0.20751781672295758, 0.1732110206694054, 0.13846049854093004, 0.10330413583059905, 0.06777692060239433, 0.03191110985756644, -0.004263604544224175, -0.0407199320556157, -0.07436486510898546])",-34.13414927294153,-236.78504340123808,-49.91738954103031,0.6693554910282943,0.000992297210619861,0.37084671990358553,25.000000249982843,-1.0,[],[],[],10000000000.0,0.035750389099121094
12,3.8517777919769287,-237.83612060546875,-34.83468246459961,50.0003662109375,0.6566643118858335,-0.002060500904917777,0.3820367614415027,23.617101903475998,"array('d', [-35.92067337036133, -34.9229360304333, -33.99520990849947, -33.14020002515892, -32.36040615139475, -31.658172035072276, -31.035679348314215, -30.49494235332339, -30.03780326466412, -29.665928331735334, -29.380804631175785, -29.183737550731724, -29.075848936019927, -29.05807586564697, -29.131170016138164, -29.29309764194581])","array('d', [-240.94602966308594, -238.654007509434, -236.3326218180146, -233.98348549997328, -231.60832602224303, -229.20909546772435, -226.78795457525243, -224.34725681740102, -221.88953249264299, -219.41747298127663, -216.93391524390012, -214.44182664050933, -211.94429012941228, -209.44448989274574, -206.94569742286143, -204.45107409923543])","array('d', [-49.950706481933594, -49.92809820261775, -49.92840598562497, -49.9289516844934, -49.92942082228929, -49.92990073524099, -49.930368040862575, -49.93082998710669, -49.931285310831264, -49.93173512370371, -49.93217986528107, -49.932620160617674, -49.93305657580723, -49.933489691390164, -49.93392006198247, -49.929134266351056])","array('d', [0.6454454660415648, 0.6587637155545253, 0.6708145671479974, 0.6817186295764108, 0.6915850341635565, 0.7005125270235487, 0.7085904573432797, 0.7158996716173835, 0.722513322785416, 0.7284976023691301, 0.7339124029365806, 0.7388119175203481, 0.743245181974426, 0.7472565655827283, 0.7508862126111195, 0.6678857490743109])","array('d', [-0.018375510349869655, -1.7860572253053888e-05, 0.00025946070581009926, 0.00017844981119609715, 0.0001965583376928759, 0.00018752275372101935, 0.0001863414485013966, 0.0001832668358614651, 0.00018102946595743464, 0.00017885707022835445, 0.00017696770829639174, 0.00017529643937780608, 0.00017385967858362687, 0.00017265291721418652, 0.00017166011678120425, -0.003931849327522082])","array('d', [0.4254854480412344, 0.3955169037808427, 0.3647533296004242, 0.3332566458055706, 0.30108488903901975, 0.26829232520523355, 0.23492957528711156, 0.2010437530846, 0.16667861314605048, 0.13187470674547758, 0.0966695435929907, 0.06109775697908478, 0.025191270188689715, -0.01102053776360508, -0.047510668686217075, -0.08118335203983061])",-33.99520990849947,-236.3326218180146,-49.92840598562497,0.6708145671479974,0.00025946070581009926,0.3647533296004242,25.000000249982907,-1.0,[],[],[],10000000000.0,0.03587460517883301
13,3.89882230758667,-236.4929962158203,-34.414756774902344,50.04195022583008,0.6601985692977902,-0.009701589122414684,0.36379988590744516,23.616582869985844,"array('d', [-35.595542907714844, -34.62595025080721, -33.727209654914155, -32.90194375392959, -32.15260741502478, -31.481495362071776, -30.890737871659347, -30.38229566040432, -29.95795553152289, -29.619326703653794, -29.367837851959656, -29.204734830936463, -29.131079050616794, -29.14774646974092, -29.255427166663647, -29.452023292053205])","array('d', [-240.0613250732422, -237.75716337544398, -235.42440862901856, -233.06466008812365, -230.67971760774765, -228.2715972142643, -225.84251890421416, -223.39489058770204, -220.9312922899892, -218.45446041896392, -215.96727232784795, -213.47273120933139, -210.9739513877191, -208.47414404951957, -205.9766034446581, -203.4844732120924])","array('d', [-49.958126068115234, -49.94727613591705, -49.9506969554756, -49.95019445913018, -49.95076408380348, -49.95103059587452, -49.95137465223972, -49.95169110770959, -49.9520098279847, -49.95232295419435, -49.95263323375942, -49.952940404035, -49.95324506086934, -49.95354754976808, -49.95384827506215, -49.94894025518331])","array('d', [0.6488366723060606, 0.6618322061528505, 0.6735910525097248, 0.6842308976498546, 0.6938582285263918, 0.7025693985277284, 0.7104515918127862, 0.7175836958776843, 0.7240370910866198, 0.7298763650685941, 0.7351599591290978, 0.7399407531431109, 0.744266594767096, 0.748180778139224, 0.7517224744008235, 0.6685973971834472])","array('d', [-0.012585925869643591, 0.0036352530693702393, -0.0008242016764039711, 0.0004017532061794048, 5.965343944879512e-05, 0.00015201543374905523, 0.00012370198130351388, 0.00012936787436413862, 0.0001256700312497533, 0.00012484470273955344, 0.00012340299797505296, 0.00012235077384170506, 0.00012139070762029419, 0.00012061337696378247, 0.00011997746475163631, -0.003978038004922546])","array('d', [0.4133256236698962, 0.3831561168236831, 0.3522071339195358, 0.32053963287029164, 0.2882107144200952, 0.2552737382644373, 0.2217784519169051, 0.18777113112913765, 0.15329473000453295, 0.11838903859790996, 0.08309084567753408, 0.04743410437392521, 0.011450098597555509, -0.024832391663369768, -0.06138692769871717, -0.09511246390503611])",-33.727209654914155,-235.42440862901856,-49.9506969554756,0.6735910525097248,-0.0008242016764039711,0.3522071339195358,25.00000024998303,-1.0,[],[],[],10000000000.0,0.04137158393859863
14,3.9298393726348877,-236.4929962158203,-34.414756774902344,50.04195022583008,0.6601985692977902,-0.009701589122414684,0.36379988590744516,23.616582869985844,"array('d', [-35.128658294677734, -34.2026430693966, -33.34869318643176, -32.56934714172134, -31.866985845122215, -31.243827571475215, -30.70192268642529, -30.24314893030987, -29.86920742614509, -29.581619395755776, -29.38172357299052, -29.270674286880254, -29.249440181851735, -29.318803537238786, -29.47936014578845, -29.728915400889452])","array('d', [-238.72621154785156, -236.4041451747861, -234.0546217676094, -231.6793135069982, -229.28011850145637, -226.8591472711884, -224.4187071079904, -221.96128606011158, -219.48953707656807, -217.00626235762758, -214.51439801079553, -212.01699907277967, -209.5172249499689, -207.01832531541726, -204.5236264894969, -202.03624221850947])","array('d', [-49.97832107543945, -49.975285952980265, -49.97632976335407, -49.976250517195076, -49.9764769630822, -49.97661575693256, -49.976775905006534, -49.97692738730697, -49.9770788328247, -49.97722806761419, -49.977375955598156, -49.977522497955874, -49.977667941662204, -49.97781246227868, -49.97795624928446, -49.972900210269664])","array('d', [0.6538208127021788, 0.6663420432884799, 0.6776717222688757, 0.6879232406729672, 0.6971991989564481, 0.7055924338590569, 0.7131869475441228, 0.7200587483187938, 0.726276611349041, 0.7319027669826366, 0.7369935235681287, 0.7415998309994973, 0.7457677906075361, 0.7495391163491893, 0.752951548963002, 0.6696428400196116])","array('d', [-0.003571580862626231, 0.0010661140867316836, -0.00020978123879997234, 0.00014054025179938026, 4.2256032898475966e-05, 6.834384961072985e-05, 5.9915214783168266e-05, 6.124838450385547e-05, 5.9930021467475784e-05, 5.946555718812059e-05, 5.885501394142535e-05, 5.838668380636381e-05, 5.79751454417469e-05, 5.764682370632631e-05, 5.7387112337206463e-05, -0.004033974533954532])","array('d', [0.3946299115803581, 0.36416322677575147, 0.3329401874112997, 0.30102030456686657, 0.26845927380261786, 0.23530909609925918, 0.2016182112032223, 0.1674316418924697, 0.1327911471417764, 0.09773538191348087, 0.062300061252006426, 0.026518126454734857, -0.00958008872118828, -0.0459666936102295, -0.08261607936094287, -0.11641940915284239])",-33.34869318643176,-234.0546217676094,-49.97632976335407,0.6776717222688757,-0.00020978123879997234,0.3329401874112997,25.00000024998322,-1.0,[],[],[],10000000000.0,0.03418469429016113
15,3.966250419616699,-235.1414337158203,-34.01978302001953,50.092777252197266,0.6632146239280697,-0.015771694481372903,0.34610040585068247,23.609894756846113,"array('d', [-34.83468246459961, -33.93818306227007, -33.11447876726687, -32.366063225427204, -31.695270516113062, -31.104269691306595, -30.595059641883736, -30.169464640553816, -29.829130598152037, -29.575522027960318, -29.409919699418925, -29.333418952959324, -29.346928641342583, -29.451170658881658, -29.646680017749425, -29.931200982324437])","array('d', [-237.83612060546875, -235.50249822766108, -233.14220202656904, -230.75696849976185, -228.34875739270421, -225.91973665399783, -223.47226646909803, -221.00888326267125, -218.532283849521, -216.04530982896512, -213.5509323007813, -211.0522369644762, -208.5524096499779, -206.05472231527855, -203.5625195355718, -201.07889269035041])","array('d', [-50.0003662109375, -50.002171674361385, -50.0016608352028, -50.00178603474612, -50.001736367122284, -50.00173524567879, -50.00172086701018, -50.0017103784241, -50.00169897441079, -50.001687986479624, -50.00167701938855, -50.00166616778083, -50.00165538596482, -50.00164466910092, -50.00163400010517, -49.99643217501296])","array('d', [0.6566643118858335, 0.6689149479810378, 0.6799997829185837, 0.6900297572510348, 0.6991052541505648, 0.707317104075628, 0.7147474938309988, 0.7214707891193005, 0.7275542788162722, 0.7330588484183987, 0.7380395894019396, 0.7425463505878441, 0.7466242370090479, 0.7503140610986717, 0.7536527473176626, 0.670239014406411])","array('d', [0.002060500904917777, -0.0005722107510463287, 0.00015146702975292226, -4.7980218610704956e-05, 7.323543060427298e-06, -7.965643764496124e-06, -3.609952610623543e-06, -4.761702682823079e-06, -4.36807436954298e-06, -4.421381217686227e-06, -4.353425191724519e-06, -4.32828036219203e-06, -4.297682793073372e-06, -4.276167161424971e-06, -4.259310551360366e-06, -0.0040890669705428])","array('d', [0.3820367614415027, 0.35139955176465587, 0.32001932080824347, 0.28795473637894325, 0.25526067608070263, 0.2219883510522149, 0.18818544184850983, 0.15389624483620873, 0.11916182700480402, 0.08402018689443524, 0.04850641932884322, 0.01265288176041934, -0.023510639763967785, -0.05995676675278871, -0.09666036787017131, -0.1305081409943821])",-33.11447876726687,-233.14220202656904,-50.0016608352028,0.6799997829185837,0.00015146702975292226,0.32001932080824347,25.000000249983344,-1.0,[],[],[],10000000000.0,0.03464508056640625
16,4.002001047134399,-234.2363739013672,-33.76995849609375,50.13154602050781,0.6652956604957578,-0.01909866183996204,0.33449860016373173,23.605009570445297,"array('d', [-34.6919059753418, -33.809795213488975, -33.00080974884936, -32.26742421512584, -31.611950803146044, -31.036535338866965, -30.54315241671868, -30.133601060619092, -29.809501102609055, -29.57229026404775, -29.423221923413685, -29.36336354071479, -29.393595703452796, -29.514611755092556, -29.72691796505025, -30.02823005963477])","array('d', [-237.38943481445312, -235.05034217346048, -232.68496171202307, -230.29506459447353, -227.88263922183762, -225.4498796961172, -222.99917026072558, -220.53306928915245, -218.05429345497222, -215.56570214240372, -213.0702821903534, -210.57113302620306, -208.0714522372162, -205.57452161351426, -203.08369368614478, -200.602048271486])","array('d', [-50.013153076171875, -50.01719740700198, -50.01594543230993, -50.016149709467854, -50.01595524805436, -50.01587304315424, -50.0157615974096, -50.015660047267396, -50.01555729754239, -50.01545629731968, -50.01535604411833, -50.01525665705444, -50.01515793439305, -50.01505976745613, -50.01496202358638, -50.009677980843925])","array('d', [0.6579028367996216, 0.6700356117677008, 0.6810138015376253, 0.6909472793232093, 0.6999354625284989, 0.7080683077487262, 0.7154272110844447, 0.7220858227794331, 0.7281107843354037, 0.7335623954804628, 0.7384952176654443, 0.7429586201236488, 0.7469972739358399, 0.7506515988577128, 0.753958163716172, 0.670498626622605])","array('d', [0.004678501747548719, -0.0013425869073570283, 0.0003133821426922198, -0.00014235776709606223, -1.533043132561449e-05, -4.9857507739787017e-05, -3.9472332508910845e-05, -4.173011613442099e-05, -4.049034492730491e-05, -4.031279435318582e-05, -3.989670711010238e-05, -3.9617599301090765e-05, -3.936474711639096e-05, -3.917201678386255e-05, -3.9025522080732155e-05, -0.004120136778888776])","array('d', [0.3759169141438345, 0.3452052046341496, 0.3137563141627083, 0.28162853907656216, 0.24887639692151106, 0.21555075140511987, 0.18169894937575032, 0.1473649681279913, 0.11258957090706946, 0.07741046830433791, 0.0418624832391152, 0.005977717350260161, -0.030214283171366405, -0.06668636401997463, -0.10341360277884133, -0.13728074654078948])",-33.00080974884936,-232.68496171202307,-50.01594543230993,0.6810138015376253,0.0003133821426922198,0.3137563141627083,25.0000002499834,-1.0,[],[],[],10000000000.0,0.033832550048828125
17,4.035166263580322,-234.2363739013672,-33.76995849609375,50.13154602050781,0.6652956604957578,-0.01909866183996204,0.33449860016373173,23.605009570445297,"array('d', [-34.414756774902344, -33.5612262199608, -32.78144420019066, -32.07785140808591, -31.452717463091734, -30.908142685630164, -30.44605409972935, -30.06820131022767, -29.776153128759052, -29.57129488125315, -29.454826398308104, -29.42776065270958, -29.49092300885834, -29.644951044179326, -29.890294901231233, -30.2246151459488])","array('d', [-236.4929962158203, -234.14334967813505, -231.76818494918408, -229.3693486916349, -226.94888485282337, -224.50903717950467, -222.05223554254292, -219.58107983624106, -217.09832422269997, -214.606861565995, -212.10970823341938, -209.60998929528284, -207.11092417484812, -204.61581277825212, -202.1280221263483, -199.65060821550426])","array('d', [-50.04195022583008, -50.050271525414225, -50.047566902504336, -50.04789642795483, -50.04739679418176, -50.047132289852854, -50.04680800410112, -50.046505376589195, -50.04620116796804, -50.045901412179795, -50.04560390505217, -50.04530878114033, -50.04501550579401, -50.044723737439945, -50.04443308857324, -50.038966839267985])","array('d', [0.6601985692977902, 0.672112876621977, 0.6828933886751579, 0.6926480002496975, 0.7014743385997197, 0.7094607405256675, 0.7166871364770114, 0.7232258505214337, 0.7291423241867077, 0.7344957714193316, 0.7393397712136882, 0.7437228038378317, 0.7476887359955532, 0.7512772595599787, 0.7545242839288686, 0.6709797480390258])","array('d', [0.009701589122414684, -0.002835351052620271, 0.0006141073849614638, -0.0003346596918011988, -6.947119865340406e-05, -0.00014094002052682, -0.00011885696828111681, -0.0001231730387812458, -0.0001202427395336387, -0.00011957306081453275, -0.00011845135181270028, -0.00011766096113894051, -0.00011697082692197851, -0.00011645250123050735, -0.00011607292245697213, -0.004188991836950907])","array('d', [0.36379988590744516, 0.3329497189500814, 0.3013732499275896, 0.2691280798473952, 0.23626805267447323, 0.20284338257334394, 0.16890079290595306, 0.13448366519329827, 0.09963219586382831, 0.06438355846954069, 0.028772069080531225, -0.007170647285713448, -0.04341549112578402, -0.07993572546333028, -0.11670681663344387, -0.1506098878330584])",-32.78144420019066,-231.76818494918408,-50.047566902504336,0.6828933886751579,0.0006141073849614638,0.3013732499275896,25.00000024998351,-1.0,[],[],[],10000000000.0,0.031624555587768555
18,4.06805682182312,-232.87998962402344,-33.417755126953125,50.196998596191406,0.6677352190017699,-0.02281846664845956,0.3181126872685294,23.591741247108228,"array('d', [-34.148719787597656, -33.323264822731154, -32.5721270827362, -31.897717154979517, -31.302264141465553, -30.787824742690326, -30.356280410240032, -30.009333408101238, -29.748503684905035, -29.575126396178348, -29.49035010782753, -29.49513563705874, -29.590255496034263, -29.77629389747145, -30.053647280686324, -30.41992418787113])","array('d', [-235.59280395507812, -233.23318316446978, -230.8488089641298, -228.4416061442437, -226.0136708826492, -223.56729248619678, -221.10494267541378, -218.6292592920451, -216.14303066064764, -213.64918003325943, -211.15075044713822, -208.65088998461604, -206.15283749571608, -203.65990880808852, -201.17548344523706, -198.7025929231935])","array('d', [-50.07485580444336, -50.086798156452815, -50.08279135803948, -50.0831760056183, -50.08236188769385, -50.08188918895739, -50.081330908641576, -50.080804848363876, -50.08027724646984, -50.07975673383358, -50.079240008295976, -50.07872715541912, -50.078217290463925, -50.077709806959206, -50.077204034966954, -50.071534508009144])","array('d', [0.6622194051742551, 0.6739414047043104, 0.6845479094538042, 0.694145072694672, 0.7028289458880407, 0.7106864399977484, 0.7177961953228179, 0.724229368554387, 0.7300503449340653, 0.7353173826407939, 0.7400831958539762, 0.7443954823223816, 0.748297400686844, 0.751828002068812, 0.7550226149616888, 0.6714031545324479])","array('d', [0.013996977359056556, -0.004140357302473567, 0.0008516373971647427, -0.0005210206405446948, -0.00013668518874743578, -0.00023975439938071238, -0.00020740943101559597, -0.00021333985870298038, -0.00020881710398962738, -0.00020761308923196743, -0.00020579762521162766, -0.00020450621829122868, -0.0002034041296498695, -0.00020259615153583088, -0.0002020308709925534, -0.004265809136215764])","array('d', [0.3519433299687243, 0.32097089051928945, 0.2892817830659686, 0.25693298910817786, 0.223977752951307, 0.19046571095864667, 0.1564430323063785, 0.12195256936689974, 0.08703401550590993, 0.05172406796897621, 0.01605659358541657, -0.01993720482273133, -0.056228623212192436, -0.0927912938855559, -0.12960102699056397, -0.1635357472613461])",-32.5721270827362,-230.8488089641298,-50.08279135803948,0.6845479094538042,0.0008516373971647427,0.2892817830659686,25.00000024998361,-1.0,[],[],[],10000000000.0,0.031516075134277344
19,4.101283550262451,-231.97195434570312,-33.19538497924805,50.243709564208984,0.6695848703384398,-0.02469584345817579,0.30757184425858053,23.584817624388386,"array('d', [-34.01978302001953, -33.20820722965723, -32.47122605214265, -31.811234826457436, -31.230442372459322, -30.73088357162429, -30.314417127491016, -29.98272170883169, -29.737292945062485, -29.579441053500947, -29.510289147414003, -29.530772176499486, -29.64163646551015, -29.84343980980967, -30.136552086271216, -30.51855627988919])","array('d', [-235.1414337158203, -232.77702162838068, -230.3882360190177, -227.97704051509268, -225.54555698983825, -223.09609694107832, -220.6311524696487, -218.1533798517785, -215.66558397393595, -213.17070278099467, -210.6717921646033, -208.17201125398643, -205.67460817594568, -203.18290630554992, -200.70029102814718, -198.22978149933542])","array('d', [-50.092777252197266, -50.10619679184014, -50.1016205938348, -50.102000759365254, -50.10102868960452, -50.10044257888948, -50.09976040383361, -50.09911507815672, -50.09846842382202, -50.09783012190089, -50.097196379927475, -50.09656723038184, -50.09594160953561, -50.095318766912534, -50.094697881997966, -50.0889195480777])","array('d', [0.6632146239280697, 0.6748419159534454, 0.6853627258011659, 0.6948823490813386, 0.7034960612105033, 0.7112900709582487, 0.718342383251898, 0.7247235798744268, 0.7304975258689295, 0.7357220087190923, 0.7404493167012152, 0.7447267621896044, 0.7485971551175178, 0.7520992310378645, 0.75526803215466, 0.6716116371509628])","array('d', [0.015771694481372903, -0.004694402389448461, 0.0009394530727127858, -0.0006094813073628344, -0.0001754155995978799, -0.00029153585520643696, -0.0002548167388122182, -0.0002613350646152972, -0.0002560761331919539, -0.0002545901925994998, -0.00025243926819511057, -0.0002509059474405673, -0.00024961231020950757, -0.00024867738483794183, -0.0002480411604481406, -0.004306926384112433])","array('d', [0.34610040585068247, 0.31506761329003796, 0.2833229173810561, 0.25092299193265427, 0.21792078358155514, 0.18436564203403483, 0.1503034616782066, 0.11577683265406402, 0.08082519915024884, 0.04548502260226956, 0.009789947529596098, -0.02622903208425358, -0.06254340773387537, -0.09912699424840525, -0.13595577165063, -0.16990608644198857])",-32.47122605214265,-230.3882360190177,-50.1016205938348,0.6853627258011659,0.0009394530727127858,0.2833229173810561,25.00000024998366,-1.0,[],[],[],10000000000.0,0.03217029571533203
20,4.133939981460571,-231.97195434570312,-33.19538497924805,50.243709564208984,0.6695848703384398,-0.02469584345817579,0.30757184425858053,23.584817624388386,"array('d', [-33.76995849609375, -32.98603252387575, -32.27726068620383, -31.64600678645726, -31.094437870050175, -30.624543953344148, -30.2381371077842, -29.936847751218643, -29.722121893431275, -29.595218972004943, -29.557210368608434, -29.608978547176275, -29.75121678072725, -29.984429424768674, -30.30893269494491, -30.722258099452468])","array('d', [-234.2363739013672, -231.862690962858, -229.46538886276133, -227.04651174688982, -224.60823375737067, -222.1529110247015, -219.68307663255572, -217.20142383714227, -214.71079068600724, -212.2141444724154, -209.71456669437643, -207.21523841369057, -204.71942609764199, -202.23046795759024, -199.7517608045713, -197.28629914249365])","array('d', [-50.13154602050781, -50.14771246798965, -50.142031948559136, -50.142371625904744, -50.14107036569177, -50.140239233488096, -50.139292511633144, -50.13839155540909, -50.13748982346926, -50.13659893938965, -50.135714147456106, -50.13483534122659, -50.133961079757846, -50.133090300600536, -50.13222185827426, -50.126209459332216])","array('d', [0.6652956604957578, 0.6767249158768824, 0.6870665347419544, 0.6964240193005673, 0.7048910222330812, 0.7125522839962862, 0.7194844809325552, 0.7257569926704458, 0.7314325964966414, 0.736568095647234, 0.7412148878013156, 0.7454194794448139, 0.7492239511320385, 0.7526663772649548, 0.755781183221177, 0.6720474836626917])","array('d', [0.01909866183996204, -0.005750535700663379, 0.0010919607174410223, -0.0007888432429024468, -0.0002609709375276982, -0.0004015890415640704, -0.0003565399613593098, -0.0003640989276708601, -0.000357398410595824, -0.0003553431469422312, -0.0003525372161080939, -0.00035054107457050125, -0.0003488955581823219, -0.00034774693609856196, -0.00034701907415034895, -0.0043953774682150126])","array('d', [0.33449860016373173, 0.3033393143227526, 0.27147813141164656, 0.23897107623002134, 0.20587046790397592, 0.1722250521947171, 0.13808014488390555, 0.10347778424897186, 0.06845689036732577, 0.033053428925506424, -0.0026994227065621425, -0.03877110919526381, -0.07513353257417298, -0.111760890696084, -0.14862951920266754, -0.182612462768529])",-32.27726068620383,-229.46538886276133,-50.142031948559136,0.6870665347419544,0.0010919607174410223,0.27147813141164656,25.000000249955217,-1.0,[],[],[],10000000000.0,0.03105640411376953
21,4.1674065589904785,-230.6048583984375,-32.879756927490234,50.317222595214844,0.6731430292129515,-0.026398321613669416,0.2925924817707876,23.572842939605188,"array('d', [-33.53262710571289, -32.77518865060981, -32.0933881136718, -31.48956474144699, -30.96584592594269, -30.5241805575535, -30.166337939012898, -29.89390421460209, -29.70827982499862, -29.610677540468654, -29.60212116918686, -29.683444878941756, -29.855293098579697, -30.11812095680802, -30.472195216368576, -30.915000883161376])","array('d', [-233.33291625976562, -230.95069178294742, -228.54557885189212, -226.11970934141718, -223.67529879346642, -221.2147422491898, -218.74060850605332, -216.25562301699412, -213.76265258195835, -211.2646898227635, -208.76483819658694, -206.26629741404628, -203.77234934991327, -201.28634445683034, -198.81168870121724, -196.35135104924652])","array('d', [-50.174583435058594, -50.19469122565075, -50.18926976416415, -50.18913939046754, -50.18757389823232, -50.18642642194107, -50.1851820705059, -50.183982068472936, -50.18278501938948, -50.18160062806272, -50.18042420464535, -50.179255143415986, -50.17809166324171, -50.17693230906808, -50.1757755671898, -50.16949050253814])","array('d', [0.6669905781745911, 0.678258540953897, 0.6884542162248928, 0.6976796455474454, 0.7060271599513976, 0.7135803040148152, 0.7204146720045734, 0.7265986644475658, 0.7321941727043264, 0.7372571983958585, 0.741838413880823, 0.7459836693827557, 0.7497344517868023, 0.7531282991931552, 0.7561991644531844, 0.6724024202733476])","array('d', [0.021760672330856268, -0.005223612222988238, 0.000786177720689132, -0.0008629656898220203, -0.0003971981098316867, -0.0005187551335722615, -0.000477415670353504, -0.00048250114740000646, -0.00047525896048649323, -0.00047230343100793223, -0.0004688922337732681, -0.00046639837695155935, -0.00046441880987857287, -0.00046308677401091366, -0.00046231955118567863, -0.004498413770691337])","array('d', [0.3234177390721179, 0.292155135330882, 0.26019882778539305, 0.22760430695078987, 0.19442337573625307, 0.1607042834313802, 0.1264918705136707, 0.09182772223562204, 0.05675032871016108, 0.021295249174677483, -0.014504721785652342, -0.050619388084137816, -0.0870209878329079, -0.12368403239486675, -0.16058514958481665, -0.19459467529007468])",-32.0933881136718,-228.54557885189212,-50.18926976416415,0.6884542162248928,0.000786177720689132,0.26019882778539305,25.000000249983838,-1.0,[],[],[],10000000000.0,0.032035112380981445
22,4.20237135887146,-229.69052124023438,-32.680908203125,50.36744689941406,0.6756341457366941,-0.027272051200270805,0.2829607288029534,23.56278928657737,"array('d', [-33.417755126953125, -32.673026937694196, -32.004155101258256, -31.413469133659273, -30.903077195455868, -30.474908846745198, -30.130713260242825, -29.872055753228125, -29.700315325065088, -29.616682786622157, -29.62215955836808, -29.7175570787054, -29.903496787693452, -30.180410643820156, -30.548542131663233, -31.00535454748257])","array('d', [-232.87998962402344, -230.49378457253405, -228.08504133880666, -225.65593973536352, -223.20871214084622, -220.74577140266166, -218.26970253413924, -215.7832456351982, -213.2892805364852, -210.7908113030823, -208.29095126701648, -205.7929084736869, -203.29997162347206, -200.81549651972145, -198.3428930411214, -195.8851179629257])","array('d', [-50.196998596191406, -50.21962277124852, -50.21493221930401, -50.2143853824603, -50.212722236869084, -50.21139143146277, -50.20998975739212, -50.208627146663616, -50.20727069053013, -50.2059274521386, -50.20459323237439, -50.20326702540615, -50.20194690355337, -50.20063118784914, -50.199318167359664, -50.192885268310015])","array('d', [0.6677352190017699, 0.6789323198983374, 0.6890638766805015, 0.6982312891899021, 0.7065263078056608, 0.7140319517112901, 0.7208233397769567, 0.7269684423727515, 0.7325287616371244, 0.7375599470081238, 0.74211235217537, 0.7462315390159462, 0.7499587334934289, 0.7533312374838358, 0.7563827871389377, 0.6725583249614591])","array('d', [0.02281846664845956, -0.004266480557845973, 0.00043559334447191737, -0.0008515900649839747, -0.00048504126424836355, -0.0005780515047927622, -0.0005438582115443398, -0.0005461914905851053, -0.0005390918940144019, -0.0005355578156296828, -0.0005318793990523941, -0.0005291320460111671, -0.0005270010244231568, -0.0005255950317839698, -0.0005248340915868397, -0.004554278221260525])","array('d', [0.3181126872685294, 0.2868046081047757, 0.25480643721029456, 0.22217342873212018, 0.18895715731157905, 0.15520565280544293, 0.12096354571136932, 0.08627222123365343, 0.051169979700366255, 0.01569220101495659, -0.020128489067196997, -0.05626205285203378, -0.09268087657758248, -0.12935960971845759, -0.16627500839934697, -0.20029622091710075])",-32.004155101258256,-228.08504133880666,-50.21493221930401,0.6890638766805015,0.00043559334447191737,0.25480643721029456,25.000000249983877,-1.0,[],[],[],10000000000.0,0.03328132629394531
23,4.235396146774292,-228.77789306640625,-32.49253845214844,50.41839599609375,0.6779870986938475,-0.027513500303030083,0.273819760480199,23.554146578345186,"array('d', [-33.19538497924805, -32.47600125028106, -31.832956453616834, -31.26855536895394, -30.78486460179614, -30.383771599906645, -30.066981869276123, -29.836015781416517, -29.692206276905985, -29.636697192697234, -29.67044224261763, -29.794204601219082, -30.00855705340469, -30.31388266763292, -30.710375950026897, -31.195454255632])","array('d', [-231.97195434570312, -229.5780347784135, -227.16226526441204, -224.72692302223464, -222.27427907950766, -219.806785277595, -217.3270618528772, -214.8378806980513, -212.34214989102986, -209.84289828586586, -207.34326059703002, -204.84646292104844, -202.35580875723792, -199.87466554175367, -197.40645170982157, -194.95409976768173])","array('d', [-50.243709564208984, -50.270799766171095, -50.26737713083471, -50.266042050613514, -50.264162580934254, -50.262462117600776, -50.26073768234013, -50.25904302621257, -50.25736041778249, -50.255692128312205, -50.25403478776858, -50.25238661942298, -50.25074537900322, -50.24910893043635, -50.247475154335795, -50.24073874285467])","array('d', [0.6695848703384398, 0.6806059537896345, 0.6905782433865515, 0.69960154497419, 0.7077661666237283, 0.7151538224643487, 0.7218384505040863, 0.7278869526246166, 0.7333598641558104, 0.7383119597305189, 0.7427928014800195, 0.7468472350422283, 0.7505158382567368, 0.7538353261012392, 0.7568388906385533, 0.6729455210435772])","array('d', [0.02469584345817579, -0.0025677597675760563, -0.0002096873189287611, -0.0008477330428936977, -0.0006589914155451892, -0.0007006838301308586, -0.0006792224918740189, -0.0006765471307929457, -0.0006696546812224371, -0.0006650537336889453, -0.0006608882732443246, -0.0006576996776936664, -0.0006553322329929836, -0.0006538514040818294, -0.0006531807442714225, -0.004668970395863857])","array('d', [0.30757184425858053, 0.27615058338556686, 0.24404823616907237, 0.21131946525238812, 0.17801527433352513, 0.1441831447034707, 0.10986718218687982, 0.0751082723695016, 0.03994424180760513, 0.004410022911861933, -0.031462179677727964, -0.06764272320424623, -0.10410436311869262, -0.14082209303560625, -0.17777298848092546, -0.21182324270745165])",-31.832956453616834,-227.16226526441204,-50.26737713083471,0.6905782433865515,-0.0002096873189287611,0.24404823616907237,25.00000024998395,-1.0,[],[],[],10000000000.0,0.03176259994506836
