,current_time,x_pos,y_pos,z_pos,roll,pitch,yaw,vel,x_traj,y_traj,z_traj,roll_traj,pitch_traj,yaw_traj,x_cmd,y_cmd,z_cmd,roll_cmd,pitch_cmd,yaw_cmd,vel_cmd,effector_dmg,effector_x,effector_y,effector_z,cost,time_solution
0,6.050627946853638,-186.7259063720703,-30.165653228759766,49.97946548461914,0.634907305240631,0.03979191184043866,-0.1172379692408699,23.40623001619687,"array('d', [-29.683334350585938, -29.93399638713442, -30.25652594467959, -30.640901581347492, -31.07187233676094, -31.535993051266427, -32.02209228757444, -32.52057912842342, -33.02301290904638, -33.52182290534966, -34.010818030055994, -34.488854389795215, -34.962520508044356, -35.43777384946387, -35.91373892507543, -36.38917522896576])","array('d', [-189.9768524169922, -187.49070516198935, -185.01185062809083, -182.54162879092945, -180.0790841953535, -177.6225571437278, -175.17027650718722, -172.72047987831505, -170.2714884936482, -167.82175730942282, -165.37004947737083, -162.9161804441475, -160.46146276405548, -158.00705179374373, -155.55277866217227, -153.0984101444117])","array('d', [-49.97526931762695, -49.90061344726325, -49.8745741099992, -49.873977632757395, -49.87524676249175, -49.875996243223504, -49.876890913822514, -49.877744849322895, -49.87861030479338, -49.879472478242164, -49.880335564340136, -49.881198366132196, -49.882061246296274, -49.88292410250715, -49.88378696340139, -49.879411351081])","array('d', [0.6352436542510987, 0.6495327335846579, 0.5759566094911166, 0.44640668521743243, 0.329185055582618, 0.2231185293291334, 0.12714555901443744, 0.040305616812163506, -0.03827041842762916, -0.10936895711933804, -0.1318990940336525, -0.04460685662973936, 0.03437815838613926, 0.004653521615065743, -0.00759859714959776, -0.006825426194550948])","array('d', [-0.040257815271615795, -0.019817790502422144, -0.0013228896996351379, 0.0008101248785674993, 0.00021510507278354505, 0.0003817003749135455, 0.0003348182005047877, 0.00034810849763688273, 0.00034431910035121485, 0.0003454016070835143, 0.000345072763862704, 0.0003451671028225636, 0.00034513752859984806, 0.00034514728416427866, 0.0003451415339622493, -0.003776874267630698])","array('d', [-0.08587042888137314, -0.11524032806007, -0.1428092452595262, -0.16480446128302775, -0.18081004371564713, -0.19190419558252625, -0.19882064161825022, -0.20208720401074148, -0.2021014364920781, -0.19917484472168973, -0.1944103811495147, -0.19096487645275803, -0.19078993603899963, -0.19154615886194462, -0.19148436557448192, -0.1912016142200846])",-30.25652594467959,-185.01185062809083,-49.8745741099992,0.5759566094911166,-0.0013228896996351379,-0.1428092452595262,25.000000249984417,-1.0,[],[],[],10000000000.0,0.021145105361938477
1,6.074402570724487,-186.26536560058594,-30.24268913269043,49.97987747192383,0.6347436308860775,0.03968998417258254,-0.12150458892318218,23.404646512676248,"array('d', [-29.809484481811523, -30.082629004153326, -30.42629180283692, -30.82608739232985, -31.26689842778685, -31.736273272514143, -32.22372017858499, -32.720136306963916, -33.21744577620336, -33.70836021927926, -34.188661927046375, -34.66392731065698, -35.13973337495693, -35.61560262508096, -36.091424300146194, -36.56728968688404])","array('d', [-189.05226135253906, -186.56848034839555, -184.09245834579207, -181.62467411111547, -179.16386541120937, -176.70833309423247, -174.25631799548822, -171.80610016772505, -169.35606318816025, -166.90473834387674, -164.45131183569464, -161.99690329346006, -159.5425993543955, -157.08830763452943, -154.63400668939985, -152.17972202909687])","array('d', [-49.97669219970703, -49.90214429731518, -49.87620269207008, -49.87563277373687, -49.87688279236185, -49.87762592125601, -49.87851070348306, -49.87935573750303, -49.880211999545864, -49.881065056119276, -49.88191901234832, -49.882772700723464, -49.88362646701459, -49.88448021016549, -49.885333956547065, -49.88094972136637])","array('d', [0.6351447105407713, 0.649443205387637, 0.5237163332614406, 0.39913772492909044, 0.2864143283290997, 0.18441797219019002, 0.09212784491339832, 0.008620278535415856, -0.06694049314743708, -0.13531067265035596, -0.050952376116429776, 0.02195859242102746, -0.0044155773469704545, 0.00019830676914794809, 0.0005325804712213936, 0.00047838965890930815])","array('d', [-0.04021241143345831, -0.019776707446857087, -0.0012857164453746626, 0.0007950700290153732, 0.00021462784828479148, 0.0003771638463985438, 0.00033142495872691354, 0.0003443860466135624, 0.0003406853295239353, 0.0003417423032023459, 0.0003414279308455174, 0.00034152121947810665, 0.0003414923022651974, 0.0003415020621003959, 0.00034149516468258634, -0.0037801336181409687])","array('d', [-0.09492055972548928, -0.12428469564058808, -0.15035475381375346, -0.1698468172716686, -0.18382537092378626, -0.19321100210307393, -0.1986448583716288, -0.20059696676676117, -0.19942709895358013, -0.19542116514274813, -0.1917817292572515, -0.19123644739448772, -0.1915720372423286, -0.19149080425856357, -0.1915052536748692, -0.19152507119100645])",-30.42629180283692,-184.09245834579207,-49.87620269207008,0.5237163332614406,-0.0012857164453746626,-0.15035475381375346,25.00000024995695,-1.0,[],[],[],10000000000.0,0.021800518035888672
2,6.097963094711304,-185.80514526367188,-30.321807861328125,49.98027038574219,0.6345456242561337,0.039555747061967766,-0.12576059897872424,23.402160849763263,"array('d', [-29.875810623168945, -30.16021844871148, -30.51485018415726, -30.92444658960787, -31.37391395149304, -31.850996852254227, -32.345341119285266, -32.84794495005107, -33.35080952406741, -33.84670716787127, -34.33086907352814, -34.80675329288786, -35.28104047731952, -35.75660827330685, -36.232067388993585, -36.707468348165925])","array('d', [-188.59034729003906, -186.10782738636624, -183.633350040067, -181.16717148059476, -178.7079279076362, -176.25388083740472, -173.80324663319726, -171.3542904648146, -168.90538768432802, -166.45506626221047, -164.00239927666507, -161.5481110733803, -159.0935131683691, -156.639163054493, -154.1847918489573, -151.7304166285829])","array('d', [-49.97740173339844, -49.90296635252454, -49.877126601757936, -49.87658702816585, -49.87782162463526, -49.878562108014776, -49.879440705672835, -49.88028055970398, -49.88113135852562, -49.88197902483988, -49.88282755898786, -49.8836758278282, -49.88452417233951, -49.885372494130905, -49.88622082014024, -49.881831457301196])","array('d', [0.6351346373558044, 0.6494340908031384, 0.5128918657316219, 0.38934334006548516, 0.27755200099242017, 0.1763990052963679, 0.08487198171846093, 0.0020548989330447295, -0.07288110188933823, -0.14068599825854577, -0.09207273234694939, -0.008570583336504043, 0.02400935700987606, -0.0077492498888039356, 0.0008154542284904893, 0.000732480611220765])","array('d', [-0.040165092796087196, -0.01973389172967432, -0.0012469749462608018, 0.0007814773698456956, 0.00021563915744984567, 0.0003741040397299042, 0.0003295178801453168, 0.00034215454594320856, 0.0003385447365132636, 0.00033957119769308715, 0.00033926129670250565, 0.00033935226428750254, 0.0003393238254135426, 0.00033933345332730585, 0.00033932746035673754, -0.003782071112809048])","array('d', [-0.09945659240218603, -0.12882014162195496, -0.15458811033145378, -0.17357746466809706, -0.1871444587988858, -0.19618046000766112, -0.20130916481538416, -0.20298956939177548, -0.2015741652048455, -0.19734389264522365, -0.19277164519251158, -0.19082159778892893, -0.19113520358754385, -0.191443865504081, -0.1913106263222873, -0.19134096967218564])",-30.51485018415726,-183.633350040067,-49.877126601757936,0.5128918657316219,-0.0012469749462608018,-0.15458811033145378,25.000000249984367,-1.0,[],[],[],10000000000.0,0.02135944366455078
3,6.11861777305603,-185.34027099609375,-30.403921127319336,49.9797477722168,0.634213089942932,0.03945027664303763,-0.13009755214187094,23.403567115740955,"array('d', [-29.944284439086914, -30.239415330895838, -30.603057340672677, -31.020016365078877, -31.475532540850807, -31.957571301082044, -32.45593311847858, -32.961729490597506, -33.46704778901472, -33.9647280962533, -34.44996928471261, -34.925948918896836, -35.39966055450297, -35.875035284122916, -36.350283116573024, -36.825439648675676])","array('d', [-188.12863159179688, -185.64735141264123, -183.1741750510342, -180.70922820827556, -178.25109645617474, -175.79801725671058, -173.34819651786827, -170.8998976182049, -168.45150006131271, -166.00154032786486, -163.5490869758006, -161.0948174713132, -158.64010846831582, -156.18572098518337, -153.73130885959645, -151.2768862813302])","array('d', [-49.97811508178711, -49.903998680880406, -49.87844766928981, -49.87799865275081, -49.87919716794928, -49.87993685307885, -49.88080480885058, -49.88163678807539, -49.882478928433294, -49.88331815362461, -49.884158179104496, -49.88499795605809, -49.885837803127636, -49.88667762909286, -49.887517458824384, -49.88312005906525])","array('d', [0.6350521445274349, 0.6354497163078398, 0.5002382791788199, 0.377893900409652, 0.267192118611279, 0.16702499519227074, 0.07639002580685404, -0.005619892933536488, -0.07982554160759894, -0.14696958895485465, -0.10317063716250201, -0.018612341439876553, 0.03304748714072258, -0.010254004590982043, 0.0008918351404314322, 0.0008010896568998796])","array('d', [-0.040030952543020124, -0.01961251659865432, -0.0011371501791389241, 0.0007465136285948147, 0.00022106411275443948, 0.00036822899093496447, 0.00032682631261986083, 0.00033856130974474046, 0.0003352069401454344, 0.00033615736383857663, 0.00033586785557194977, 0.00033595230444820437, 0.0003359257992671295, 0.0003359348282076857, 0.00033592905917851815, -0.003785108237157045])","array('d', [-0.10392360290023298, -0.13285106434444346, -0.1578753588769831, -0.17628343110658817, -0.18937269879048854, -0.19800172237434316, -0.20277449070780934, -0.20413748794515796, -0.20243491996017762, -0.1979420565526192, -0.1930223115522872, -0.19065631306764969, -0.19095650823384144, -0.19138963136415985, -0.19120959047246938, -0.19124277598479114])",-30.603057340672677,-183.1741750510342,-49.87844766928981,0.5002382791788199,-0.0011371501791389241,-0.1578753588769831,25.00000024998435,-1.0,[],[],[],10000000000.0,0.020433425903320312
4,6.141191720962524,-185.34027099609375,-30.403921127319336,49.9797477722168,0.634213089942932,0.03945027664303763,-0.13009755214187094,23.403567115740955,"array('d', [-30.014894485473633, -30.320271539616773, -30.691491822974445, -31.11345146097717, -31.57190032422452, -32.0551417798355, -32.55321296206452, -33.05739854779051, -33.559917455287476, -34.05371310073268, -34.53482414462909, -35.00936015821679, -35.48390147986483, -35.9592694802583, -36.434530880122175, -36.90979573911161])","array('d', [-187.6671905517578, -185.1871363967151, -182.71507686712823, -180.2509775076392, -177.79338892062177, -175.34054519450666, -172.8906647890656, -170.44203353582895, -167.99306006845882, -165.54231483282638, -163.08904757860876, -160.63449802863448, -158.17994922199227, -155.72556036620298, -153.27115085955788, -150.81674895193393])","array('d', [-49.97856140136719, -49.904783080873784, -49.8795380972692, -49.87918639720245, -49.880348925678966, -49.88108974994427, -49.881948469361696, -49.88277411875784, -49.88360910278765, -49.88444140585805, -49.88527444849718, -49.88610726646479, -49.88694014931507, -49.88777301272619, -49.888605879365926, -49.8842018926132])","array('d', [0.6350574493408202, 0.6129574516333104, 0.4798864346609185, 0.3594787883139889, 0.2505294346446689, 0.15194797392846054, 0.0627477716595765, -0.017963915859038594, -0.09099487561459038, -0.15707601310221206, -0.06738794696118294, 0.013765059940793089, 0.010671642878310864, -0.004502967291303818, 0.0009518528514510197, 0.0008550004804396079])","array('d', [-0.03988878056406961, -0.019483874060880157, -0.001020749590152437, 0.0007105086647641751, 0.00022757051975437115, 0.00036283245722532894, 0.0003247779090349661, 0.0003355617178756817, 0.00033247697142799247, 0.00033335091147374186, 0.00033308759809008275, 0.00033316548239756635, 0.0003331412084332013, 0.00033314938964785226, 0.00033314401742349435, -0.0037875973072346533])","array('d', [-0.1082839210841319, -0.136526562169546, -0.1603810576052548, -0.1778679245224047, -0.19019608993789122, -0.19817423239273022, -0.20237613542567562, -0.20322899042539827, -0.2010641676801513, -0.1961481199275557, -0.19175226194882614, -0.19072592897755283, -0.19120438869754872, -0.19132045411520418, -0.19125256637600058, -0.19128798516608736])",-30.691491822974445,-182.71507686712823,-49.8795380972692,0.4798864346609185,-0.001020749590152437,-0.1603810576052548,25.00000024998433,-1.0,[],[],[],10000000000.0,0.02008676528930664
5,6.1613852977752686,-183.94918823242188,-30.66263771057129,49.9785041809082,0.6327528357505796,0.03859052807092657,-0.1435639103266855,23.41118557043389,"array('d', [-30.165653228759766, -30.492008640893978, -30.878644638419416, -31.310611292237095, -31.774675272569716, -32.259824912258125, -32.75658289776414, -33.256592843884974, -33.752348783141365, -34.23814877446436, -34.714559846978474, -35.18817657540639, -35.66356729378512, -36.13888917689448, -36.61414883608854, -37.089487418087316])","array('d', [-186.7259063720703, -184.24851062612657, -181.77880124584837, -179.31642950176055, -176.8598909791563, -174.40742175630814, -171.9572737672164, -169.50778634567908, -167.0574354251253, -164.60509216814305, -162.1509065353859, -159.69617924507475, -157.24179486993788, -154.78739707910407, -152.33298723174744, -149.87860056421522])","array('d', [-49.97946548461914, -49.90591751558002, -49.880881043618, -49.88059389233352, -49.88172893961579, -49.88246792151723, -49.88331763185748, -49.884136271241466, -49.884963671145215, -49.88578855792341, -49.88661415046027, -49.88743953551314, -49.88826498112612, -49.88909040878254, -49.8899158381331, -49.88550481605964])","array('d', [0.634907305240631, 0.5640674662185398, 0.43564894296730416, 0.319451047354023, 0.21431083412029742, 0.11917602679459015, 0.03309448647186799, -0.04479531652586479, -0.11527291739581086, -0.11106904678119453, -0.025759240022060006, 0.03652842093202061, -0.010315697611073532, 0.0013516478574125792, 0.0007500931266784681, 0.000673770094183623])","array('d', [-0.03979191184043866, -0.01939622364837595, -0.0009414404639868808, 0.0006845939185031951, 0.00023101061011985524, 0.0003580555515206577, 0.00032230904983733706, 0.00033243356543183144, 0.00032953472152125884, 0.00033036092371733106, 0.0003301171773442632, 0.00033018966117556866, 0.0003301672091564477, 0.0003301747948393076, 0.00033016879116663496, -0.0037902569355771666])","array('d', [-0.1172379692408699, -0.14403650968964762, -0.1654501759375835, -0.18098815684778286, -0.19169019618711236, -0.19826766141591218, -0.20123452496884942, -0.20097934036225373, -0.19780754454953955, -0.19334904575048853, -0.19068668500821107, -0.19091843480588902, -0.19141751749317606, -0.1912454584661979, -0.19128649775084058, -0.19131440899590732])",-30.878644638419416,-181.77880124584837,-49.880881043618,0.43564894296730416,-0.0009414404639868808,-0.1654501759375835,25.000000249956692,-1.0,[],[],[],10000000000.0,0.020112037658691406
6,6.183817386627197,-183.48660278320312,-30.75312614440918,49.9782600402832,0.6316432356834409,0.03798527643084515,-0.14826910098525503,23.414182856601776,"array('d', [-30.24268913269043, -30.579016172179443, -30.97295199021492, -31.40960437406319, -31.8762064387131, -32.36206557205592, -32.85793346778561, -33.355624826506926, -33.84776605913525, -34.32957358018572, -34.80479038483059, -35.27951844334464, -35.75484194951381, -36.230109305136246, -36.705367013464084, -37.18064230642202])","array('d', [-186.26536560058594, -183.78929299605102, -181.32072999446964, -178.85918174047558, -176.40312225634295, -173.95079255666099, -171.50046391069748, -169.0505043938859, -166.59942527704695, -164.14629413660728, -161.6918763567272, -159.23736364135186, -156.7829661603476, -154.32855780186256, -151.87414757475204, -149.41974765348124])","array('d', [-49.97987747192383, -49.90657188517455, -49.881754815372084, -49.8815371949689, -49.88264604118834, -49.88338548434687, -49.884228202029185, -49.88504193565403, -49.88586383786726, -49.88668339905127, -49.88750362211151, -49.88832365224277, -49.88914373884317, -49.88996380853246, -49.890783880680374, -49.88636779030288])","array('d', [0.6347436308860775, 0.5396313685982254, 0.41353824508666326, 0.2994444584114137, 0.196208121774069, 0.10279601319114436, 0.018273234826322086, -0.05820614320777686, -0.12740754412241379, -0.07349367204727186, 0.00824031673615636, 0.008023905307113001, -0.002966639408381026, 0.0005385022296008988, 0.00013227387622014375, 0.00011881482344146752])","array('d', [-0.03968998417258254, -0.019303995631373166, -0.0008579888468832954, 0.0006585929032062995, 0.00023554144008777972, 0.0003540363585848223, 0.0003206940101010415, 0.0003301353936812123, 0.00032743148869527917, 0.00032820456720869995, 0.0003279776712741811, 0.0003280453105772626, 0.00032802432503260695, 0.0003280313149972595, 0.000328026489053496, -0.0037921716890354814])","array('d', [-0.12150458892318218, -0.14760209414743714, -0.16784282694288072, -0.18243154803616127, -0.19233384540579984, -0.19821756020370768, -0.2005695067057081, -0.19976049232094512, -0.19608393585372938, -0.1921457957545706, -0.19089113370825095, -0.19121017394094456, -0.19130580147389284, -0.1912593085874768, -0.1912723362563908, -0.19127725821392633])",-30.97295199021492,-181.32072999446964,-49.881754815372084,0.41353824508666326,-0.0008579888468832954,-0.16784282694288072,25.000000249984268,-1.0,[],[],[],10000000000.0,0.019331693649291992
7,6.2041215896606445,-183.02459716796875,-30.845829010009766,49.97817611694336,0.629959166049957,0.03724158927798256,-0.15305869182082615,23.417489695164445,"array('d', [-30.321807861328125, -30.668088223568603, -31.06939186458682, -31.510871838814037, -31.980199203216873, -32.46698391232554, -32.96219665532216, -33.457816922665806, -33.94664033632226, -34.42469733726077, -34.89793929167442, -35.37245795487253, -35.84780184263964, -36.323031225772475, -36.79825971943016, -37.27350405536263])","array('d', [-185.80514526367188, -183.33043212010355, -180.86304845058285, -178.40235858486943, -175.9468167925581, -173.49466982840372, -171.04420841160533, -168.59382919455277, -166.14208660007915, -163.6882217192374, -161.23342222571515, -158.77886907862606, -156.32447554138773, -153.87005982842126, -151.41564394243724, -148.96123805306584])","array('d', [-49.98027038574219, -49.90728401359388, -49.882755892682816, -49.882630285760904, -49.88370537321484, -49.884446085761184, -49.88528028063987, -49.88608823563569, -49.88690358294498, -49.887716813681116, -49.88853064584833, -49.889344303311304, -49.89015801181848, -49.89097170502354, -49.89178540021966, -49.88736327772758])","array('d', [0.6345456242561337, 0.5154010154790705, 0.3916137129883075, 0.2796063196427863, 0.17825782995352524, 0.08655391615398778, 0.0035767767462294084, -0.0715040475036035, -0.13698054639116217, -0.049204719030507216, 0.030218015087212804, 0.0063984136563903955, -0.003556389919483035, 0.000839407245801888, 5.069659435127523e-05, 4.5538144641596616e-05])","array('d', [-0.039555747061967766, -0.019182532860026726, -0.0007480847800000443, 0.00062469847544057, 0.00024175969238711439, 0.00034902101526386627, 0.0003188383995469845, 0.0003273830599516717, 0.0003249356206842532, 0.00032563726830802726, 0.0003254318964636129, 0.00032549305859538163, 0.0003254740689129132, 0.00032548039460038027, 0.0003254758432096282, -0.0037944512911431555])","array('d', [-0.12576059897872424, -0.15117610354634672, -0.17028153227158113, -0.18394368600217778, -0.1930606085574174, -0.19825999224250837, -0.20000336295718416, -0.19864488379054096, -0.19451637918732148, -0.19087942947267347, -0.19053270048442308, -0.191243430418297, -0.19129593320153512, -0.19124406463313076, -0.1912612703267885, -0.19126315676492667])",-31.06939186458682,-180.86304845058285,-49.882755892682816,0.3916137129883075,-0.0007480847800000443,-0.17028153227158113,25.000000249984247,-1.0,[],[],[],10000000000.0,0.020536422729492188
8,6.224444627761841,-183.02459716796875,-30.845829010009766,49.97817611694336,0.629959166049957,0.03724158927798256,-0.15305869182082615,23.417489695164445,"array('d', [-30.403921127319336, -30.760536225469032, -31.170456130865862, -31.618863050270193, -32.093711740107565, -32.58481073104822, -33.08327604547245, -33.58119762639716, -34.07143448642103, -34.55000313537475, -35.02292525489688, -35.496675686073985, -35.971801269540684, -36.44679050954858, -36.92175973588796, -37.39676961644144])","array('d', [-185.34027099609375, -182.8670163500052, -180.4010442257391, -177.94160541632743, -175.48712433988723, -173.03583727297834, -170.58603527248204, -168.13612276603496, -165.6846627413042, -163.23089789255076, -160.7760368028947, -158.3213352600883, -155.86689947293493, -153.41243727765337, -150.95797120645827, -148.5035199453665])","array('d', [-49.9797477722168, -49.907012208590324, -49.882711115751846, -49.88266168540376, -49.88371680533271, -49.884464335907104, -49.88529786764076, -49.88610725758601, -49.886923442624514, -49.88773767672277, -49.88855246347624, -49.88936708954747, -49.890181762477305, -49.89099642137742, -49.89181108186129, -49.88738987189278])","array('d', [0.634213089942932, 0.49911933352313576, 0.37688143649335304, 0.26627600335420576, 0.1661960598334334, 0.07563997415515471, -0.006298567402665323, -0.0804396297583574, -0.14647449829093687, -0.057795194724078715, 0.022445094087118353, 0.017670100863165214, -0.006749704304235122, 0.001260342527174823, 0.000281450734647115, 0.0002528127267784029])","array('d', [-0.03945027664303763, -0.01908709927002348, -0.0006617328918262058, 0.0006011216807545266, 0.000248850862172034, 0.0003475274780650502, 0.00031976111282924454, 0.00032761975048724176, 0.00032536588435857475, 0.0003260106433882956, 0.0003258219128110247, 0.0003258780133250527, 0.0003258606256264602, 0.00032586640310807195, 0.0003258620614329245, -0.0037941068139367646])","array('d', [-0.13009755214187094, -0.15505670228115803, -0.17341369387186698, -0.18646088702828273, -0.19505400894810043, -0.199795340702118, -0.2011302794347332, -0.1994023097983339, -0.19490750399263215, -0.19091239072658064, -0.1902446469141641, -0.19103025061019077, -0.1912365287340127, -0.19113144832239132, -0.1911613779221764, -0.19117185080349086])",-31.170456130865862,-180.4010442257391,-49.882711115751846,0.37688143649335304,-0.0006617328918262058,-0.17341369387186698,25.000000249984225,-1.0,[],[],[],10000000000.0,0.018772125244140625
9,6.246134281158447,-182.1022491455078,-31.03795051574707,49.978790283203125,0.6240440011024474,0.03513653576374036,-0.16276387771102374,23.427455555459282,"array('d', [-30.574308395385742, -30.95282728825129, -31.384489219315384, -31.854503496850185, -32.350852888261194, -32.86337036541934, -33.38319354283618, -33.9024313866922, -34.41394202467244, -34.9114460533555, -35.39246346944797, -35.86375666600069, -36.33348714269361, -36.8067747835672, -37.28052884518973, -37.75375591465588])","array('d', [-184.4123077392578, -181.94228181223465, -179.48001376344098, -177.0246124937158, -174.57438876079652, -172.12749023003968, -169.6821310696594, -167.23664763492198, -164.78953809063745, -162.33954519530732, -159.88626107206983, -157.43108724812743, -154.97561345942154, -152.5208228266822, -150.06612192162765, -147.61132634785685])","array('d', [-49.978858947753906, -49.90709101302779, -49.883665798852824, -49.88390390983668, -49.884871286262545, -49.88563564119362, -49.886456806342125, -49.887262029410614, -49.888071708765615, -49.88888005270639, -49.88968872816958, -49.890497292031476, -49.891305887350754, -49.892114472449244, -49.89292305808769, -49.88849610150007])","array('d', [0.6334060430526735, 0.49838908686689126, 0.3762206817814289, 0.2656781275641575, 0.1656550791994847, 0.07515047424741135, -0.006741486074720486, -0.08084040227663042, -0.147887878425147, -0.19286386945851403, -0.09977002419449743, -0.015535241350597369, 0.06068324095745775, -0.006129855137416383, -0.005439953466665819, -0.004886429450295165])","array('d', [-0.03904337063431727, -0.018718915455049934, -0.000328586380779771, 0.000505166512862643, 0.0002726140788477874, 0.00033778272671826316, 0.00031945513801147146, 0.00032463687970966666, 0.0003231317182340421, 0.0003235366835622479, 0.0003234058739655296, 0.00032344457475509014, 0.0003234318969719689, 0.00032343611624413533, 0.00032343246031779984, -0.003796278856881865])","array('d', [-0.13898007472487897, -0.1638967635208692, -0.1822204465684176, -0.19524019570576318, -0.2038098949273975, -0.20853071378328564, -0.2098473416764763, -0.2081027934895617, -0.20357152248581967, -0.19680419012079442, -0.191048227271904, -0.18880973989003938, -0.18972108533665014, -0.1907702041861209, -0.19054342781514388, -0.19034100344770186])",-31.384489219315384,-179.48001376344098,-49.883665798852824,0.3762206817814289,-0.000328586380779771,-0.1822204465684176,25.000000249984193,-1.0,[],[],[],10000000000.0,0.019898176193237305
10,6.26677942276001,-181.641845703125,-31.137434005737305,49.97967529296875,0.6194238066673277,0.03376628458499896,-0.16772083838912458,23.43361775193521,"array('d', [-30.66263771057129, -31.052435261097393, -31.495262038517183, -31.97634814728704, -32.48369560237578, -33.00715272121469, -33.53787029433335, -34.06796865883559, -34.590315750113575, -35.09837478448275, -35.58810637767898, -36.064102723310015, -36.53443471528065, -37.005732112831474, -37.478799405976694, -37.95085112589309])","array('d', [-183.94918823242188, -181.48088563300075, -179.02059166719135, -176.56733560126733, -174.11936542072957, -171.67478380131888, -169.2317658991833, -166.78861365561616, -164.34379428920002, -161.89596895367598, -159.4444110862933, -156.990145949397, -154.53478729067075, -152.0796136167703, -149.62478031722074, -147.1697584967397])","array('d', [-49.9785041809082, -49.9078131257391, -49.88536267367091, -49.88591706664934, -49.886780505619114, -49.88755798319802, -49.8883595666221, -49.88915439201986, -49.88995106970563, -49.89074712626355, -49.891543275806725, -49.89233935941418, -49.89313545533488, -49.89393154676034, -49.894727637285854, -49.890288863344516])","array('d', [0.6327528357505796, 0.49779804038416087, 0.3756858807394929, 0.2651942195017381, 0.1652172210024761, 0.07475428367067959, -0.0070999742902565005, -0.08116477619792704, -0.14818138569274694, -0.2088205235922834, -0.14666472196063093, -0.05796732998908688, 0.022289285939734782, 0.026761494322608007, -0.018135027209676306, -0.016289721666527254])","array('d', [-0.03859052807092657, -0.01830916652287989, 4.2169803661558e-05, 0.0003954511443094439, 0.0002969433448704541, 0.0003245777255785165, 0.00031681845828888407, 0.0003190053820363473, 0.0003183477417412711, 0.0003184950515635798, 0.0003184257435743868, 0.0003184408940427159, 0.0003184359297282109, 0.000318437193951133, 0.0003184352630655698, -0.00380074440428954])","array('d', [-0.1435639103266855, -0.1684462624552907, -0.18674300225110832, -0.19974054724404583, -0.20829129293963433, -0.21299551098663422, -0.21429731893268433, -0.21253935204778124, -0.20799580326630732, -0.20089332773119833, -0.19386296463175393, -0.18986066816102898, -0.18918648993921114, -0.19015052548967531, -0.19030511131081626, -0.18963023464929477])",-31.495262038517183,-179.02059166719135,-49.88536267367091,0.3756858807394929,4.2169803661558e-05,-0.18674300225110832,25.000000249984176,-1.0,[],[],[],10000000000.0,0.01949763298034668
11,6.287044048309326,-181.1820068359375,-31.2392578125,49.98108673095703,0.6133853197097775,0.032042346894740954,-0.17273788054915876,23.438743311516536,"array('d', [-30.75312614440918, -31.154464533114893, -31.60866315629256, -32.10098448476091, -32.61945762116433, -33.15395134056945, -33.695633407362585, -34.23663843821234, -34.769846480911504, -35.28873099878689, -35.78819776788556, -36.26883713154634, -36.738293245625165, -37.20488153062882, -37.67529007360543, -38.15202146652522])","array('d', [-183.48660278320312, -181.02010901415707, -178.5618770796682, -176.11085101454796, -173.6652129448237, -171.22302064490214, -168.78241042782983, -166.34165015638226, -163.89917654663745, -161.45362311227538, -159.00403206925455, -156.55067467126267, -154.09514921574802, -151.63907633951027, -149.1837326933106, -146.72961695405263])","array('d', [-49.9782600402832, -49.90900832083452, -49.88786070255325, -49.88883652491251, -49.88955885365085, -49.89035192304314, -49.891125309524384, -49.89190423389744, -49.8926815284967, -49.89345916817209, -49.894236588388736, -49.895013999943195, -49.895791394279385, -49.896568793188635, -49.89734618415057, -49.89288972081768])","array('d', [0.6316432356834409, 0.4967940326782265, 0.37477741697326955, 0.26437220749333573, 0.1644734338162427, 0.07408127728836413, -0.007708935450114535, -0.08171578663235605, -0.1486799596039984, -0.2092716489662402, -0.20936083687829327, -0.11469712834933464, -0.02904190023710262, 0.048461739911995955, 0.07033757482834854, 0.06317822172720003])","array('d', [-0.03798527643084515, -0.017761512189716458, 0.0005377075993837548, 0.00024778675973751975, 0.0003287260055552953, 0.0003061068452262325, 0.00031249576357344333, 0.00031067412724845677, 0.0003111535581021312, 0.00031096139174002487, 0.0003109745656159204, 0.000310955008019746, 0.00031096037520283597, 0.000310958782577749, 0.0003109540694142865, -0.0038074293500636315])","array('d', [-0.14826910098525503, -0.17309318830125378, -0.19134419243413672, -0.20430403668356822, -0.21282259493993086, -0.21749861715031374, -0.2187752514412708, -0.21699448942128727, -0.21243008259125032, -0.2053083753150455, -0.19697268081869018, -0.19058529865650692, -0.18778670862220584, -0.18819329975348323, -0.19053416660518271, -0.1931553048059497])",-31.60866315629256,-178.5618770796682,-49.88786070255325,0.37477741697326955,0.0005377075993837548,-0.19134419243413672,25.000000249956337,-1.0,[],[],[],10000000000.0,0.01884746551513672
12,6.308279275894165,-180.71868896484375,-31.344467163085938,49.98310470581055,0.605813980102539,0.029986042529344482,-0.17793099482985977,23.446399052949847,"array('d', [-30.845829010009766, -31.25887055146577, -31.724535307851525, -32.2281323329838, -32.75772724669691, -33.3032154909034, -33.8557863884236, -34.40759232289685, -34.9515281993065, -35.481079956146736, -35.99024094331442, -36.47609968747802, -36.94595980554567, -37.40866450930362, -37.87211849311501, -38.34222445706585])","array('d', [-183.02459716796875, -180.559986383892, -178.10388690159004, -175.65515293533602, -173.2118989971891, -170.77213886095262, -168.33397085918133, -165.89562975763806, -163.45552283299284, -161.01225708770443, -158.5646648910576, -156.11233915112703, -153.65689245861915, -151.2000851558623, -148.74341921517234, -146.28802507347828])","array('d', [-49.97817611694336, -49.910692975637026, -49.89114618972488, -49.89263865700583, -49.89318562110406, -49.893996092930045, -49.89473300717422, -49.89549058659116, -49.89624225561234, -49.89699546519648, -49.89774807737353, -49.89850075060695, -49.89925336620434, -49.900005998329, -49.90075862118862, -49.896278729366536])","array('d', [0.629959166049957, 0.49527022325995573, 0.3733986169944225, 0.26312461747019206, 0.16334456744220682, 0.07305983645376096, -0.008633173767200615, -0.08255207278346345, -0.14943666424793153, -0.20995634941423152, -0.26342389903606844, -0.16361537791263187, -0.07330489065967316, 0.008411391140583365, 0.08235091453163937, 0.0739677245907883])","array('d', [-0.03724158927798256, -0.017088596120433175, 0.0011465876088496054, 6.542232399921516e-05, 0.0003671161023461343, 0.0002826700911386964, 0.00030646437088867356, 0.0002997118120059028, 0.0003015920420058309, 0.0003009857426821567, 0.00030110206159573674, 0.00030103760350903727, 0.00030105459404570725, 0.000301051165945025, 0.0003010471911396141, -0.003816281576614807])","array('d', [-0.15305869182082615, -0.17779449934016198, -0.19597616760702496, -0.2088788339235102, -0.21734856151968684, -0.2219817993369299, -0.2232202289306528, -0.22140486779746776, -0.21680879915268786, -0.20965789661377435, -0.2001718435498293, -0.19169040419674516, -0.18704690328928514, -0.18579930725600013, -0.1876063560207801, -0.19067684731239237])",-31.724535307851525,-178.10388690159004,-49.89114618972488,0.3733986169944225,0.0011465876088496054,-0.19597616760702496,25.000000249984144,-1.0,[],[],[],10000000000.0,0.01971125602722168
13,6.328073978424072,-180.71868896484375,-31.344467163085938,49.98310470581055,0.605813980102539,0.029986042529344482,-0.17793099482985977,23.446399052949847,"array('d', [-31.03795051574707, -31.47451778896287, -31.96293856425195, -32.48867688722344, -33.03991167019195, -33.6066180164957, -34.18004773809218, -34.75240339481418, -35.31662105672808, -35.866220864382505, -36.39520231667827, -36.899026609425476, -37.37915435711297, -37.84388018359122, -38.30198276343318, -38.76008141072463])","array('d', [-182.1022491455078, -179.64156195731488, -177.18985272629538, -174.74577861003576, -172.30731552662607, -169.87239633033624, -167.4390495649893, -165.00545017549334, -162.56995309009073, -160.13111895022377, -157.68773400796613, -155.23903983489942, -152.78558512068517, -150.32916127280762, -147.87149161088482, -145.41382845870854])","array('d', [-49.978790283203125, -49.91631339674101, -49.90129790921654, -49.90424813896165, -49.904290926200666, -49.90514373727571, -49.90577021992737, -49.906460260719996, -49.907132267015044, -49.90780922854967, -49.90848456684699, -49.90916019620752, -49.90983563839816, -49.9105111104979, -49.911186574219386, -49.90663371090372])","array('d', [0.6240440011024474, 0.48991796018938283, 0.36855568864950006, 0.25874255428229104, 0.15937951232566777, 0.0694721058680367, -0.011879486989075322, -0.0854894588248244, -0.15209452156485329, -0.21236127958827192, -0.2668929002879402, -0.256697536143191, -0.15752912042171172, -0.06779783862684392, 0.013394164091037017, 0.012031272541136031])","array('d', [-0.03513653576374036, -0.015183864766524962, 0.002870059632250023, -0.0004544153344380025, 0.00047317113654866516, 0.0002134110473857552, 0.0002865548893525757, 0.00026582358567814264, 0.0002716836931946796, 0.00026991504035676526, 0.00027034836987105024, 0.0002701582906362593, 0.0002701948531111742, 0.00027018302517018973, 0.00027018787233609005, -0.0038438549038395126])","array('d', [-0.16276387771102374, -0.18719103110368895, -0.2051299047164365, -0.21783213094821835, -0.2261305440785194, -0.23061359170869103, -0.23171784926998262, -0.22978093944988562, -0.22507361472851375, -0.2178201061521025, -0.2082114866448866, -0.19770081427853742, -0.18948224481737827, -0.18506924117800175, -0.18402758226584065, -0.18452601044709072])",-31.96293856425195,-177.18985272629538,-49.90129790921654,0.36855568864950006,0.002870059632250023,-0.2051299047164365,25.000000249984105,-1.0,[],[],[],10000000000.0,0.018083810806274414
14,6.34835147857666,-179.79446411132812,-31.5618953704834,49.9897346496582,0.5863369107246397,0.02509281039237968,-0.18887130816909312,23.459545753971206,"array('d', [-31.137434005737305, -31.585900140106673, -32.085645030497986, -32.6222495245817, -33.18397441313837, -33.760851394076134, -34.34417591762928, -34.92618501749375, -35.49984268862125, -36.05869210516825, -36.596752023228014, -37.10855675634977, -37.59200923481613, -38.05511020088189, -38.507217073696445, -38.955404599585734])","array('d', [-181.641845703125, -179.18321682149363, -176.73377327119636, -174.29206401524888, -171.85599592409483, -169.42346617115393, -166.9924723749667, -164.5611636186328, -162.12787281262146, -159.69114166111723, -157.2497399727509, -154.80270422542546, -152.34990680519687, -149.8931782835472, -147.434399291307, -144.97490987856858])","array('d', [-49.97967529296875, -49.92045728653552, -49.90839139936072, -49.91228798870955, -49.91199831313485, -49.91287489125521, -49.91342554836779, -49.914067724561924, -49.914683968556304, -49.91530740452459, -49.915928564565874, -49.91655018104773, -49.917171532180234, -49.9177929230686, -49.918414307958194, -49.91381030177703])","array('d', [0.6194238066673277, 0.48573743500510813, 0.36477299269054503, 0.25531982912422313, 0.15628250224580892, 0.06666981500285317, -0.014415104861513716, -0.08778378098330591, -0.1541705103384851, -0.21423971221135546, -0.2685925771304978, -0.31143354632559267, -0.20705631022424562, -0.11261188569413279, -0.02715517298025064, -0.024391958118147233])","array('d', [-0.03376628458499896, -0.01394401012021097, 0.003991922286036524, -0.0007947945483920576, 0.0005407741265238932, 0.00016672821195938285, 0.0002720406561838002, 0.00024219813237893786, 0.00025065596962173963, 0.00024813486227806883, 0.0002487823691926225, 0.00024851527215499953, 0.00024856480764151985, 0.0002485481805757039, 0.00024855954172012604, -0.0038631798375901604])","array('d', [-0.16772083838912458, -0.1919084282658387, -0.2096584544691225, -0.2222045418265744, -0.23036935799379663, -0.2347351873262108, -0.23573466530911585, -0.23370279164184712, -0.22890851604563686, -0.2215747979618388, -0.21189179301924868, -0.20016428652663595, -0.189783710681454, -0.1834847234744251, -0.18076443981811163, -0.1797537647188499])",-32.085645030497986,-176.73377327119636,-49.90839139936072,0.36477299269054503,0.003991922286036524,-0.2096584544691225,25.000000249984087,-1.0,[],[],[],10000000000.0,0.01901721954345703
15,6.3688483238220215,-179.33355712890625,-31.674152374267578,49.99469757080078,0.5745955109596252,0.022351866587996358,-0.1945231397959851,23.464285760759754,"array('d', [-31.2392578125, -31.699671742272745, -32.21062956999222, -32.75786400885896, -33.32973608487275, -33.91634877227643, -34.509051435242746, -35.100123361483014, -35.68256254552358, -36.24994010825698, -36.79629816709069, -37.31607740226293, -37.80676641071145, -38.27635149264019, -38.73427789906047, -39.18768869511983])","array('d', [-181.1820068359375, -178.72548960164545, -176.27834564973318, -173.83899552549298, -171.40528918812683, -168.97508869778852, -166.54636432438784, -164.1172429527354, -161.68603926814075, -159.25127986888893, -156.81172199378855, -154.3663682852824, -151.91500904936777, -149.4595120615114, -147.00181040515486, -144.54327851866213])","array('d', [-49.98108673095703, -49.92596892466581, -49.91549288383485, -49.91913310026506, -49.91885390435122, -49.91966666103657, -49.920174260752155, -49.920767545218865, -49.921336539412806, -49.921912253018014, -49.92248581724296, -49.92305978555898, -49.92363348115938, -49.924207197452326, -49.924780900831024, -49.9201317917203])","array('d', [0.6133853197097775, 0.48027358556096295, 0.3598290968170154, 0.25084640673892394, 0.15223478191416578, 0.06300728585088741, -0.017729098594063665, -0.09078240680889674, -0.15688377948495014, -0.2166947800435776, -0.2708140154663691, -0.3197831244326299, -0.21461138350713893, -0.11944802251590567, -0.033340875449044786, -0.029948139275867276])","array('d', [-0.032042346894740954, -0.012384126654472926, 0.003734288479884694, -0.0007473491899414534, 0.0005031319295542612, 0.00015291573064201238, 0.00025151913950314375, 0.0002235746040900775, 0.00023148872710533603, 0.00022912164418695206, 0.00022971975748400093, 0.00022945924071974435, 0.00022949661554587324, 0.00022947674965833302, 0.00022948580173379966, -0.0038802221911145283])","array('d', [-0.17273788054915876, -0.196614338115662, -0.2141185768929059, -0.22646114017669347, -0.23445162360349664, -0.23866436872883487, -0.23952692464990635, -0.23737090027770305, -0.23246291236258804, -0.22502427326424507, -0.2152439494920984, -0.203287310617796, -0.19257192610622317, -0.18598290886414526, -0.18300581718880213, -0.181764781603715])",-32.21062956999222,-176.27834564973318,-49.91549288383485,0.3598290968170154,0.003734288479884694,-0.2141185768929059,25.000000249984065,-1.0,[],[],[],10000000000.0,0.0189516544342041
16,6.390555381774902,-178.87347412109375,-31.788787841796875,50.000980377197266,0.5617393255233765,0.01941084861755353,-0.2002324303004404,23.470122122990553,"array('d', [-31.344467163085938, -31.817155914355055, -32.33948433861137, -32.89737098024561, -33.4792981609904, -34.075455244889355, -34.677256548305586, -35.27703202990864, -35.867820308541184, -36.44322583269883, -36.997318588053396, -37.5245629391204, -38.021632254313964, -38.49344006244566, -38.94917864752283, -39.39647871258488])","array('d', [-180.71868896484375, -178.26439637038294, -175.81963903664, -173.38270105742177, -170.95137897954916, -168.5235020053373, -166.09701608519092, -163.67002911611067, -161.24084091877907, -158.8079664556591, -156.37015395519185, -153.926399210979, -151.47632813533693, -149.0212603689474, -146.5631534691823, -144.10350306129047])","array('d', [-49.98310470581055, -49.932877794132025, -49.92399530529304, -49.927121658411394, -49.92691365769292, -49.927634657084035, -49.92809604373735, -49.928630321463, -49.92914391769846, -49.92966320735091, -49.93018064052276, -49.93069838732532, -49.93121587306922, -49.93173335922259, -49.932250834090816, -49.92754854217253])","array('d', [0.605813980102539, 0.47342275355784086, 0.3536302071128263, 0.245237418874139, 0.14715955935414696, 0.058415034153334926, -0.02188434014666476, -0.0945422252003956, -0.16028580418636004, -0.21977305964039945, -0.27359935853641937, -0.3223034091727616, -0.26401290867683663, -0.1641483709934943, -0.07378737715375536, -0.06627662873251229])","array('d', [-0.029986042529344482, -0.010523505358725455, 0.0031886950329270258, -0.0006240068940908647, 0.0004398589119630745, 0.0001419109702917612, 0.00022579893261118815, 0.00020201992804827511, 0.0002087448736210874, 0.0002067206158222401, 0.0002072176292942392, 0.0002069837137563622, 0.0002070045328749395, 0.00020698471917041027, 0.00020699500267825778, -0.0039003175106442694])","array('d', [-0.17793099482985977, -0.20142043336207574, -0.21861811335848047, -0.2307063455602002, -0.2384786730745091, -0.24249965521425546, -0.24319056292941574, -0.2408788127068148, -0.23582813282715975, -0.2282577940446062, -0.21835528740786628, -0.20628489350174867, -0.19445722563574727, -0.18595273201568444, -0.18128902630677848, -0.17853892471228577])",-32.33948433861137,-175.81963903664,-49.92399530529304,0.3536302071128263,0.0031886950329270258,-0.21861811335848047,25.000000249984044,-1.0,[],[],[],10000000000.0,0.020256519317626953
17,6.411551237106323,-178.41421508789062,-31.90578269958496,50.008644104003906,0.547795534133911,0.016348296776413824,-0.20594875415297936,23.4735863187804,"array('d', [-31.5618953704834, -32.06019632401712, -32.605869367317055, -33.18529044894127, -33.78724013397765, -34.402120645472486, -35.02150603643648, -35.63785055169837, -36.24429225768323, -36.83451713382995, -37.4026634317092, -37.94325375798516, -38.45123091875075, -38.92487465155898, -39.3729397173147, -39.80421130902309])","array('d', [-179.79446411132812, -177.34502543818365, -174.90534552522004, -172.47343377867088, -170.04699034451227, -167.62378706595837, -165.20172991878945, -162.7788979111923, -160.3535705740171, -157.92424933573324, -155.48967438386495, -153.04883797749002, -150.60101174936335, -148.1463069824387, -145.68679478147237, -143.22428665817372])","array('d', [-49.9897346496582, -49.95114698219784, -49.94604755633796, -49.947936044221095, -49.947884228712894, -49.948373072892124, -49.948710837641904, -49.949091007369006, -49.94945910952398, -49.94983048082346, -49.95020072034656, -49.9505710894635, -49.9509412557129, -49.95131139045969, -49.95168152027145, -49.946839865286144])","array('d', [0.5863369107246397, 0.4557991707928039, 0.33768372854040035, 0.23080844706587214, 0.13410368457142313, 0.04660158904846593, -0.0325735882915406, -0.10421425778578718, -0.16903742200455, -0.22769185170669465, -0.2807645787913051, -0.32878677033561154, -0.3677160636504853, -0.2579828578557726, -0.15869224830205123, -0.14251687193793053])","array('d', [-0.02509281039237968, -0.006095925446211291, 0.0018832620385035228, -0.00033545860667843526, 0.0002836777720045503, 0.00011029002337864355, 0.00015910740348139285, 0.00014525938879334416, 0.00014915730824742595, 0.0001479597078182245, 0.00014822744243728152, 0.0001480704678829788, 0.00014806266000964665, 0.00014804542308964545, 0.00014805821110758127, -0.003952976298374329])","array('d', [-0.18887130816909312, -0.21138039681692683, -0.22779747158701547, -0.23923567146715582, -0.2464489069225743, -0.24997744820124362, -0.25022691051434115, -0.24751422068887327, -0.2420958604564872, -0.2341859669955148, -0.2239683136893601, -0.21160443166925566, -0.19734195410112784, -0.1846744161668816, -0.17640566887734066, -0.17045613488627268])",-32.605869367317055,-174.90534552522004,-49.94604755633796,0.33768372854040035,0.0018832620385035228,-0.22779747158701547,25.000000249984,-1.0,[],[],[],10000000000.0,0.019449710845947266
18,6.432836055755615,-178.41421508789062,-31.90578269958496,50.008644104003906,0.547795534133911,0.016348296776413824,-0.20594875415297936,23.4735863187804,"array('d', [-31.674152374267578, -32.18556842818426, -32.74302248718198, -33.333153357333856, -33.944913522781505, -34.56882856595501, -35.19656518578443, -35.82064968438996, -36.43427777979162, -37.031182747515125, -37.60554251764291, -38.151913672659, -38.66518453434578, -39.14334683058998, -39.59518201496882, -40.02957043793899])","array('d', [-179.33355712890625, -176.8867251554088, -174.44970062220636, -172.02036377219042, -169.59637464233626, -167.17548154398972, -164.7555753627103, -162.33472563495457, -159.9112067905854, -157.48351861031077, -155.0504024421918, -152.61085400275599, -150.16413312129285, -147.7103054518355, -145.25148356822868, -142.78952383330056])","array('d', [-49.99469757080078, -49.9626300152086, -49.9596436528223, -49.96082863647465, -49.96085539327933, -49.961204919559044, -49.961464260998625, -49.96174890624355, -49.9620263257564, -49.9623056664952, -49.96258429688145, -49.96286296988974, -49.96314149165584, -49.963419975502575, -49.963698450286934, -49.958770097692074])","array('d', [0.5745955109596252, 0.44517511198223125, 0.3280706817255018, 0.22211020181731156, 0.12623318608466222, 0.03948006687146091, -0.03901740861838976, -0.11004486806791533, -0.17431317685019437, -0.23246555256761825, -0.28508400246548227, -0.33269514764135893, -0.37577547999373406, -0.26527533779423146, -0.1652907978444635, -0.14844027003576488])","array('d', [-0.022351866587996358, -0.003615816729438866, 0.0011472662299198192, -0.00017718473150427636, 0.00019242435947720697, 8.89232668610294e-05, 0.00011806376162903057, 0.00010979044787786071, 0.00011210652387737075, 0.00011137821503417946, 0.00011152366579041967, 0.00011141652637601075, 0.00011140114138754536, 0.0001113861837574146, 0.0001113935195858411, -0.003985735065289905])","array('d', [-0.1945231397959851, -0.21645140369618027, -0.23240325596693145, -0.24345241393494976, -0.25033000209511025, -0.25356223525320765, -0.2535456242534599, -0.2505909723280045, -0.24495051775002874, -0.23683538366209278, -0.22642715547112766, -0.21388574224328824, -0.19935480041814724, -0.18635353492822954, -0.17779960859590496, -0.1715987129505162])",-32.74302248718198,-174.44970062220636,-49.9596436528223,0.3280706817255018,0.0011472662299198192,-0.23240325596693145,25.000000249983977,-1.0,[],[],[],10000000000.0,0.018894433975219727
19,6.453725814819336,-177.4982452392578,-32.1467399597168,50.02883529663086,0.5178340673446654,0.01006227638572449,-0.21718458732100937,23.48004800362746,"array('d', [-31.788787841796875, -32.313384410518694, -32.88258207342663, -33.483297683826954, -34.10466609835896, -34.737344459871544, -35.373098459559266, -36.00453146114753, -36.62490089521824, -37.22799072473126, -37.80802147777683, -38.359586303905, -38.87760553786091, -39.36010629638933, -39.815923949802595, -40.253983352819766])","array('d', [-178.87347412109375, -176.4293482984518, -173.99503415418855, -171.56829155192924, -169.1467470543069, -166.72812913778444, -164.31031689168705, -161.891373641595, -159.46957195818732, -157.04341321887406, -154.61164317938125, -152.17326425904702, -149.7275448547267, -147.27456702067943, -144.81648053931914, -142.35517161626495])","array('d', [-50.000980377197266, -49.97590911413769, -49.97518544388021, -49.97560781495169, -49.97571203282423, -49.97590495732314, -49.97607311222832, -49.97624820536353, -49.976421281786195, -49.976594841620795, -49.976768155298274, -49.97694143028241, -49.97711462171949, -49.977287778482, -49.977460926851556, -49.97243294644731])","array('d', [0.5617393255233765, 0.43354235329198343, 0.3175449254333778, 0.21258610280735263, 0.11761542414535951, 0.03168239270066135, -0.04607303662416987, -0.11642906487929175, -0.18008983754379324, -0.23769249181471697, -0.28981353319043945, -0.336974604838041, -0.379647702998596, -0.2687791605991222, -0.1684612689087725, -0.1512862292175179])","array('d', [-0.01941084861755353, -0.0009546734321363248, 0.00035390744605713116, -9.940874218362914e-06, 9.162091853109018e-05, 6.319291492743218e-05, 7.119747595614009e-05, 6.891510541192549e-05, 6.953567903988944e-05, 6.931585447762414e-05, 6.933477067331305e-05, 6.928602847611058e-05, 6.926743017457946e-05, 6.92581336479996e-05, 6.926052089492937e-05, -0.004023379329921742])","array('d', [-0.2002324303004404, -0.2215330706540278, -0.23697993650148613, -0.24760542838128594, -0.2541166284258521, -0.25702484676193194, -0.2567169029582002, -0.2534970624768609, -0.24761302220507006, -0.23927267299777577, -0.22865524938303103, -0.21591891423370574, -0.2012059974144133, -0.1880437800128611, -0.1793525234397074, -0.17303067993411056])",-32.88258207342663,-173.99503415418855,-49.97518544388021,0.3175449254333778,0.00035390744605713116,-0.23697993650148613,25.00000024998395,-1.0,[],[],[],10000000000.0,0.020185470581054688
20,6.476010799407959,-177.04153442382812,-32.270599365234375,50.04157638549805,0.5021851658821105,0.006786704063415374,-0.2225943048808235,23.48080230652782,"array('d', [-31.90578269958496, -32.44350425291147, -33.02429537103993, -33.63536295766245, -34.26603305715216, -34.9071015988496, -35.55043895709688, -36.18873009076626, -36.81529785873064, -37.42398004490421, -38.00904250142165, -38.56511739169989, -39.08715932706023, -39.57290518576808, -40.03004940128209, -40.467470037965796])","array('d', [-178.41421508789062, -175.97287512903398, -173.54129997496293, -171.11714234396104, -168.69800317674822, -166.28159536114572, -163.86578987507872, -161.44864744012594, -159.02844231561238, -156.60368099779132, -154.17311715059176, -151.7357633741604, -149.29090007984553, -146.8385642764836, -144.38072582938074, -141.91930459774713])","array('d', [-50.008644104003906, -49.990858460820924, -49.99248560594486, -49.992104803126836, -49.99228168605541, -49.99230323708601, -49.992368224027096, -49.992421007653995, -49.99247721501117, -49.992532418429626, -49.99258787246967, -49.992643216118935, -49.99269855927069, -49.99275388120614, -49.992809201572314, -49.9876697710532])","array('d', [0.547795534133911, 0.4209254879501499, 0.3061287125390372, 0.2022562852717726, 0.108268617869902, 0.023225051875771716, -0.05372555575534308, -0.12335335116295161, -0.18635519144219073, -0.24336161899110026, -0.29494317210406346, -0.341616094712121, -0.38384749948413005, -0.2904560469521929, -0.18807537826595458, -0.16889096582918856])","array('d', [-0.016348296776413824, 0.0018164381282676388, -0.0004764713599298306, 0.00016119161383343735, -1.6717395529815378e-05, 3.312672072694819e-05, 1.9096877350933005e-05, 2.3063846800612496e-05, 2.192110175737074e-05, 2.223637321417415e-05, 2.2128655327527065e-05, 2.214597472928039e-05, 2.2128832202127064e-05, 2.2128717632676742e-05, 2.212759361367841e-05, -0.0040654905560775535])","array('d', [-0.20594875415297936, -0.226578126888245, -0.2414822830670083, -0.2516508821209068, -0.257765955888804, -0.2603232017068889, -0.25969924588459964, -0.2561914554235624, -0.2500427227950323, -0.24145751169959248, -0.230612558850796, -0.21766416782391276, -0.2027532528208208, -0.18902127096594182, -0.17947571169305665, -0.17240295573613618])",-33.02429537103993,-173.54129997496293,-49.99248560594486,0.3061287125390372,-0.0004764713599298306,-0.2414822830670083,25.000000249983927,-1.0,[],[],[],10000000000.0,0.021387815475463867
21,6.501224994659424,-176.585693359375,-32.396602630615234,50.05619430541992,0.48640829324722273,0.003532569156959574,-0.22789434989425156,23.48223159627124,"array('d', [-32.1467399597168, -32.71008918078601, -33.31330478052173, -33.94417274998798, -34.59241202908309, -35.249105069033114, -35.90633923544959, -36.556969142992685, -37.19445409698982, -37.81274446943805, -38.406201263271896, -38.969538888961544, -39.49778457405251, -39.98751516073196, -40.44198475727844, -40.86985574289359])","array('d', [-177.4982452392578, -175.06261873067635, -172.6365070156445, -170.21742484383844, -167.80293316735015, -165.3907243042059, -162.9786625901012, -160.5648126774152, -158.14746099933572, -155.72513286222335, -153.29660613727967, -150.8609220146255, -148.4173929966501, -145.96585534580416, -143.5075280600221, -141.04443385884255])","array('d', [-50.02883529663086, -50.01991196108186, -50.02218669925791, -50.02135951904273, -50.02139372413319, -50.02118790283162, -50.0210491721672, -50.02089163557068, -50.02073947854473, -50.02058589361841, -50.02043283468648, -50.02027974185269, -50.02012676295586, -50.01997382141945, -50.01982089488511, -50.01448449393784])","array('d', [0.5178340673446654, 0.39381522924352586, 0.2815983338256715, 0.18006027872151106, 0.08818483879132032, 0.005052495421364863, -0.07016876630980948, -0.13823178469904554, -0.19981775605786384, -0.2555430523244382, -0.3059653898462999, -0.35158941086359946, -0.3928717312575008, -0.3646838472088102, -0.2552393996606111, -0.22914590715017288])","array('d', [-0.01006227638572449, 0.002710467978084367, -0.0008315876786321313, 0.00015341172209504755, -0.00012146220542838735, -4.447906646941559e-05, -6.614404896261057e-05, -5.998792351251953e-05, -6.17089853617847e-05, -6.116797959691366e-05, -6.127734044749935e-05, -6.119824490319795e-05, -6.118509085534993e-05, -6.116841531197847e-05, -6.117273888614457e-05, -0.004139915080853154])","array('d', [-0.21718458732100937, -0.2364028308029942, -0.2501573962643753, -0.2593528569143242, -0.2646208079530264, -0.26642524389173217, -0.26512195779146497, -0.26099414495391615, -0.2542747865277711, -0.24516125031086344, -0.2338250834529765, -0.22041871275101493, -0.20508008894336557, -0.18947220136011825, -0.17692978421650676, -0.16724432926889793])",-33.31330478052173,-172.6365070156445,-50.02218669925791,0.2815983338256715,-0.0008315876786321313,-0.2501573962643753,25.00000024998387,-1.0,[],[],[],10000000000.0,0.02210712432861328
22,6.523285150527954,-176.127685546875,-32.52558517456055,50.07419967651367,0.47082579135894764,0.0003685886913443761,-0.2330718477580212,23.482386650011943,"array('d', [-32.270599365234375, -32.84621167469609, -33.46005773259061, -34.10020668965804, -34.75657392198387, -35.420385688625736, -36.08383870819124, -36.739873409756484, -37.382018353034006, -38.00428125873955, -38.60107178634772, -39.167146590400115, -39.69757038151311, -40.18854421075521, -40.641836992509305, -41.06607702066811])","array('d', [-177.04153442382812, -174.60875555311293, -172.1853085268648, -169.76866467755897, -167.35636937045183, -164.94610964586028, -162.53575116813482, -160.12336486497807, -157.70724733727204, -155.28593720351327, -152.85822820645367, -150.42317947610195, -147.98012308792948, -145.5288364696415, -143.07029494673844, -140.60657494866373])","array('d', [-50.04157638549805, -50.03545731382857, -50.03682153514028, -50.03611264294784, -50.03597933862695, -50.03568558623267, -50.0354366750799, -50.03517523836309, -50.0349174696183, -50.03465884063109, -50.03440066706981, -50.034142572291124, -50.033884639380396, -50.03362678689265, -50.033368959478814, -50.02793333920912])","array('d', [0.5021851658821105, 0.3796555163661315, 0.2687860946246242, 0.16846728423297316, 0.07769506264016843, -0.004439047407701084, -0.07875707019575713, -0.14600280411863398, -0.20684926584582378, -0.26190542607007783, -0.31172230421967195, -0.3567984829369389, -0.39758509538971504, -0.39053970387014547, -0.278634728411007, -0.2501216547059821])","array('d', [-0.006786704063415374, 0.001749033466132059, -0.0006181664997499165, 4.007200439041614e-05, -0.00014365060131247596, -9.220945312296685e-05, -0.00010667810155848692, -0.00010254029700031539, -0.00010365608359158587, -0.00010325381511722136, -0.00010328451998998574, -0.00010319283081724879, -0.00010315414148351857, -0.00010312827846773548, -0.00010313356274816806, -0.004177404545575479])","array('d', [-0.2225943048808235, -0.2410913768979624, -0.2542539164888861, -0.2629454396545873, -0.267772920038361, -0.26918474056031616, -0.2675263663915272, -0.2630739301079785, -0.25605545181955847, -0.24666473391669083, -0.2350707064316278, -0.22142383355736941, -0.20586055931341007, -0.1895467338252849, -0.17592960899471585, -0.1653159842993753])",-33.46005773259061,-172.1853085268648,-50.03682153514028,0.2687860946246242,-0.0006181664997499165,-0.2542539164888861,25.000000249983845,-1.0,[],[],[],10000000000.0,0.022001028060913086
23,6.547446966171265,-175.2147674560547,-32.78923034667969,50.115726470947266,0.43998700380325306,-0.005402298644185225,-0.2432469566676277,23.481066758008495,"array('d', [-32.396602630615234, -32.98420191080127, -33.60841287270562, -34.25757930380595, -34.921808783518685, -35.592468979783696, -36.26186451770231, -36.923020766493714, -37.5695350257311, -38.19547209298579, -38.795290185274055, -39.363788232591396, -39.89606856321174, -40.38802496431261, -40.84018910783573, -41.26117971623312])","array('d', [-176.585693359375, -174.15576785007258, -171.7349673567404, -169.32072918569202, -166.91058647229028, -164.50222325813033, -162.09350850128976, -159.68252115375182, -157.26756959482213, -154.84720726023227, -152.42024518514958, -149.98576178693386, -147.5431099937683, -145.0920225878175, -142.63327607141767, -140.16900089270254])","array('d', [-50.05619430541992, -50.05285198065143, -50.053296163977706, -50.05269109478758, -50.05237717493585, -50.05198200879803, -50.051609548548754, -50.05123082497161, -50.05085408090676, -50.05047705801452, -50.050100437103644, -50.04972402278199, -50.04934783120198, -50.04897177243358, -50.0485957520881, -50.04304834060751])","array('d', [0.48640829324722273, 0.36538001037312345, 0.25586908147036835, 0.15677948634260203, 0.06711950481598372, -0.014008208711232201, -0.08741560618792504, -0.15383737218134738, -0.2139382768286127, -0.2683198290519006, -0.3175262965938296, -0.3620501529389149, -0.4023370036444449, -0.41258321790481545, -0.29858051138228553, -0.2679981198551733])","array('d', [-0.003532569156959574, 0.0007866532034988098, -0.000411321911232964, -7.828909359796404e-05, -0.0001712952579960929, -0.00014527177395946576, -0.0001525745979358707, -0.00015043987336737434, -0.0001509469181224522, -0.00015067591467123978, -0.00015062171629888444, -0.00015051157650177648, -0.00015044283242191407, -0.00015040481463535245, -0.0001504113508437785, -0.004219644149456441])","array('d', [-0.22789434989425156, -0.24567463444172102, -0.258245753189654, -0.26643199554809327, -0.27081662984571137, -0.27183292098714723, -0.2698162879083643, -0.2650359685798011, -0.25771512582434064, -0.24804406199508788, -0.23618913140843922, -0.22229886143880961, -0.20650820460596236, -0.18956748344548377, -0.17501941538368157, -0.1636057865870673])",-33.60841287270562,-171.7349673567404,-50.053296163977706,0.25586908147036835,-0.000411321911232964,-0.258245753189654,25.000000249983817,-1.0,[],[],[],10000000000.0,0.022904634475708008
