,current_time,x_pos,y_pos,z_pos,roll,pitch,yaw,vel,x_traj,y_traj,z_traj,roll_traj,pitch_traj,yaw_traj,x_cmd,y_cmd,z_cmd,roll_cmd,pitch_cmd,yaw_cmd,vel_cmd,effector_dmg,effector_x,effector_y,effector_z,cost,time_solution
0,11.523241519927979,-31.3147029876709,-243.8949737548828,45.04104232788086,0.6319459080696103,0.039666917175054474,0.6426949063923694,23.105378797330616,"array('d', [-246.5860137939453, -245.0250128100446, -243.50545527098117, -242.01741946693386, -240.5533851103192, -239.10767394584124, -237.67599402899225, -236.25512744039168, -234.8426941757593, -233.43696235198118, -232.0366910184959, -230.64099923966762, -229.2492584882135, -227.86100690761808, -226.47588469643884, -225.62239831637734])","array('d', [-35.12818908691406, -33.17732413788087, -31.19278804116529, -29.184061176911428, -27.1576281717345, -25.118049428757143, -23.06860287923638, -21.011660177959506, -18.94893162973654, -16.881639668732742, -14.810649264548674, -12.736569288929571, -10.659832001205615, -8.580754402080007, -6.499583473584354, -5.212281653973494])","array('d', [-45.066463470458984, -44.983239863000804, -44.935087923493775, -44.909816366261246, -44.899613864095926, -44.899384506913904, -44.90573586684739, -44.916355946417646, -44.92962557200631, -44.944376150203745, -44.95973943729213, -44.97505746771786, -44.989833387803024, -45.00371119247268, -45.01647626626749, -45.02363932272599])","array('d', [0.6294197440147397, 0.49478213535402144, 0.3808186341945391, 0.2921518232009165, 0.2236244692312271, 0.17127276503302608, 0.1318784185580033, 0.10274846496915091, 0.08160017022986321, 0.06649784316371811, 0.05581626287215012, 0.04821820365432133, 0.04263985957421099, 0.038281171519459936, 0.03459965156033911, 0.03130706222089046])","array('d', [-0.04197772592306131, -0.02489918239544091, -0.013809940652692032, -0.006529152381560358, -0.0017132192699963519, 0.0014765221871900559, 0.003569654485520217, 0.004904172847957628, 0.005698329531001479, 0.006095574619440372, 0.006193498728296668, 0.006063176220819443, 0.005762642109584504, 0.005346599050790866, 0.004873398299822218, 0.004409633228397425])","array('d', [0.6878100196507312, 0.6631024507053394, 0.6447554216506983, 0.631052192220042, 0.6207218259920012, 0.6128876077478096, 0.6069062060570376, 0.6022909254704297, 0.598670571159593, 0.5957644799524251, 0.5933651669957092, 0.5913246514982282, 0.5895426138823826, 0.5879555027415198, 0.5865261526761019, 0.5844341525996353])",-239.10767394584124,-25.118049428757143,-44.899384506913904,0.17127276503302608,0.0014765221871900559,0.6128876077478096,25.00000024583329,-1.0,"[-30.506472372650773, -243.25307641860846, 44.9836165241359]","[-22.72116513891286, -228.2070033373994, 55.61398228036578]","[-10.674374808900662, -240.79931380633994, 45.800289815317996]",10000000000.0,0.049358367919921875
1,11.560972690582275,-30.53656578063965,-243.37753295898438,45.03679656982422,0.631854176521301,0.039183132350444703,0.6339765350010732,23.11082984618476,"array('d', [-245.22080993652344, -243.70407248760364, -242.22966047937803, -240.78719172886002, -239.36881473462168, -237.96863704504665, -236.5822285569025, -235.20628693842514, -233.83838710533016, -232.4767807958292, -231.12023094449393, -229.76787391045178, -228.41910636361, -227.07349528230193, -225.73071025356194, -224.90265208260087])","array('d', [-33.240360260009766, -31.254780527865805, -29.23643716964824, -27.194727419129052, -25.136074143542757, -23.064971431517986, -20.98463392596706, -18.897374843790846, -16.80485097110737, -14.70823575709052, -12.608349310793857, -10.505759449043735, -8.400860951885239, -6.293936737802106, -4.185202935293618, -2.880279418943839])","array('d', [-45.05379867553711, -44.97311211830296, -44.92664299778028, -44.90254487442009, -44.89320926614267, -44.89365932214911, -44.90057221952548, -44.911676346952845, -44.925375666781214, -44.94051459609643, -44.9562320560429, -44.97187399940811, -44.98694583820819, -45.00109315958612, -45.01410285891438, -45.02140723827891])","array('d', [0.6310155987739561, 0.4962261242197592, 0.37927221202464684, 0.28855931209396235, 0.21868587025374933, 0.16552263268032433, 0.12572610135723916, 0.09650216231833803, 0.07548386411227913, 0.06066500865482753, 0.05036203947221451, 0.043190723908315326, 0.038051017256608914, 0.03411696185381131, 0.030830177598405454, 0.02789630082506298])","array('d', [-0.04074318706989272, -0.02409573378837559, -0.01326260474441891, -0.006135133909930252, -0.0014121655489021101, 0.0017199603823223161, 0.0037760655552699965, 0.005085423446819696, 0.0058611468216537435, 0.006243689041010456, 0.006328939485918305, 0.006187063516891302, 0.00587567507768429, 0.005449354293108853, 0.004966507012381148, 0.004493881483003288])","array('d', [0.665339128175054, 0.6405479630166657, 0.6222032780812203, 0.6086134331180708, 0.5984622238225984, 0.5908461179151427, 0.5851036050290126, 0.5807348208407006, 0.5773589171931094, 0.5746883657473518, 0.5725111377596899, 0.570676637069522, 0.5690834783112482, 0.5676682151717775, 0.5663945799482571, 0.5645317736392582])",-237.96863704504665,-23.064971431517986,-44.89365932214911,0.16552263268032433,0.0017199603823223161,0.5908461179151427,25.00000024577489,-1.0,"[-30.142805638467365, -243.01490951967136, 44.98170418558511]","[-22.28343883606373, -227.99336889356033, 55.59224944411783]","[-10.300841335013907, -240.62725830940565, 45.75343877635794]",10000000000.0,0.03028416633605957
2,11.670369386672974,-28.571388244628906,-242.11624145507812,45.028587341308594,0.6213290691375729,0.03620603308081611,0.6108095804837088,23.136239588746527,"array('d', [-244.68577575683594, -243.18748905948976, -241.73187426942715, -240.3083619191171, -238.9089661184174, -237.52770786593692, -236.16010149971237, -234.8028110219886, -233.45339370754476, -232.1100953464221, -230.77168117115525, -229.4372952794976, -228.1063452642283, -226.77841046344318, -225.45317299847687, -224.63565715510327])","array('d', [-32.47473907470703, -30.475152319601527, -28.443192749522137, -26.388214749224048, -24.316609975927708, -22.232841736251043, -20.14009653046283, -18.04066232747405, -15.936173290002989, -13.827782513393302, -11.716291715901198, -9.602252054391615, -7.486043210432123, -5.36793443773365, -3.248129527170475, -1.9361048255656108])","array('d', [-45.048622131347656, -44.96911017232373, -44.9234228274808, -44.89986987256241, -44.89093538349284, -44.891697351075344, -44.89886540888909, -44.910187085318604, -44.92407755348541, -44.93938773612057, -44.955260301516994, -44.97104337849242, -44.98624371389703, -45.000507836556686, -45.01362345982062, -45.02098902709861])","array('d', [0.6315386891365049, 0.49669943589661236, 0.3785440053528511, 0.2870108086072197, 0.21659950820370066, 0.1631141982427208, 0.1231609391205893, 0.09390479568957306, 0.07294475719011526, 0.05824606191830121, 0.048101494427223467, 0.041107748135656395, 0.03615007451920265, 0.032392014139372025, 0.02926875337039132, 0.02648346563023043])","array('d', [-0.04017268493771551, -0.02372275124003953, -0.013008077425130425, -0.005952308801203462, -0.0012733584193889594, 0.0018311434416924412, 0.0038693109086339545, 0.005166423323471074, 0.005933216906550159, 0.006308741222018849, 0.006388072877057144, 0.0062409271538305805, 0.005924691471209444, 0.005493855753373212, 0.005006815801537622, 0.004530354386970766])","array('d', [0.6560822288182118, 0.6312636271274502, 0.6129249915341745, 0.5993853022587703, 0.5893102988291687, 0.581785772463083, 0.5761429551386018, 0.571876703449606, 0.568602286369354, 0.5660294092844659, 0.5639442131832644, 0.5621950525971845, 0.5606801216753984, 0.5593360290406142, 0.558126883570039, 0.5563589285454753])",-237.52770786593692,-22.232841736251043,-44.891697351075344,0.1631141982427208,0.0018311434416924412,0.581785772463083,25.00000024574952,-1.0,"[-28.14255270619639, -241.7443368949215, 44.974278045953675]","[-19.87019565616331, -226.8506167370631, 55.450212786881096]","[-8.250701585846006, -239.7353665997716, 45.50181701041068]",10000000000.0,0.10567164421081543
3,11.704487800598145,-27.7740535736084,-241.62347412109375,45.0272216796875,0.601004302501678,0.03309698775410634,0.6011217395451405,23.154730847767823,"array('d', [-243.37753295898438, -241.92379073275998, -240.51343435261347, -239.13547266240298, -237.78161479888666, -236.44568586679688, -235.12307545814386, -233.8103734152551, -232.5051000389048, -231.20549131567063, -229.9103217991774, -228.61875744410258, -227.33023492210214, -226.04436575581053, -224.76086438820673, -223.96840120765188])","array('d', [-30.53656578063965, -28.504284343357895, -26.440624227015068, -24.354817403454426, -22.253166028737088, -20.140050063883837, -18.01858226489266, -15.890986004164173, -13.75883866359561, -11.62324305111315, -9.484956018287228, -7.344488472057248, -5.202183873152153, -3.0582788459955603, -0.9129477979453624, 0.4155276847691809])","array('d', [-45.03679656982422, -44.95931395800725, -44.914970585190666, -44.89236321505692, -44.88414154896828, -44.885478377573925, -44.893136896195784, -44.9048942527371, -44.91918143015078, -44.93485731801211, -44.951068250677324, -44.967163847163484, -44.98265145507326, -44.997178092486905, -45.01053230907191, -45.01803638124926])","array('d', [0.631854176521301, 0.4969849005421987, 0.37609896062417153, 0.2827138943223287, 0.21110272729415505, 0.1569164333454931, 0.11664470004802388, 0.0873579533354313, 0.06657589589659213, 0.052197088285351204, 0.04245900788585434, 0.03591374958054537, 0.031412215939147024, 0.028093472604469743, 0.025377795475054386, 0.022962781015811104])","array('d', [-0.039183132350444703, -0.023082155816574915, -0.012569932030529552, -0.005631985786459921, -0.0010222641214113672, 0.0020406322365218665, 0.004052629101138253, 0.005331949739319999, 0.006085287394965248, 0.0064494303905842, 0.00651825831647233, 0.006360932233135698, 0.006034675891667188, 0.005594049942449017, 0.005097655008573234, 0.00461254910787353])","array('d', [0.6339765350010732, 0.6091413772824119, 0.5908542776632515, 0.577462805119256, 0.5675927232873643, 0.5603060655544003, 0.5549177553320885, 0.5509106787797781, 0.5478912511560003, 0.5455628641781509, 0.5437075033525525, 0.5421711823481239, 0.5408512205131978, 0.5396844604010224, 0.5386359929239987, 0.5371041618246963])",-236.44568586679688,-20.140050063883837,-44.885478377573925,0.1569164333454931,0.0020406322365218665,0.5603060655544003,25.000000245685392,-1.0,"[-26.941073766836123, -241.01499275398706, 44.97549196770404]","[-18.40530878781596, -226.0488984127565, 55.13210244523636]","[-7.020942968581004, -239.27014902597682, 45.354845819973036]",10000000000.0,0.03297615051269531
4,11.777665615081787,-26.57004165649414,-240.9000244140625,45.03089904785156,0.5495963692665098,0.025705747306346803,0.5861144224789481,23.178965447138527,"array('d', [-242.8677978515625, -241.4323214533329, -240.04048289211445, -238.68112603204938, -237.34584119268442, -236.02837777602775, -234.72407773924417, -233.4295032530086, -232.142161629319, -230.86028658598576, -229.58265792893155, -228.3084517580816, -227.0371176610172, -225.76828120387745, -224.50167081827965, -223.73451933374236])","array('d', [-29.754610061645508, -27.709340210398107, -25.633128412143193, -23.535142771456808, -21.42164053199161, -19.296962848763638, -17.164189551848594, -15.025515981493717, -12.882495403098183, -10.73620962561468, -8.587397014955592, -6.4365520640919645, -4.284003571808759, -2.12997501792258, 0.02537099674362676, 1.334473774784946])","array('d', [-45.03303527832031, -44.95674466624042, -44.91319644962144, -44.89114448514816, -44.88333169224957, -44.88498622078665, -44.892904131083895, -44.90488203513479, -44.919362388842444, -44.93521080552159, -44.951577553912244, -44.96781459324128, -44.98343074943738, -44.99807410236105, -45.01153410928741, -45.018952913780865])","array('d', [0.6316133141517637, 0.496766958728574, 0.3748340704732876, 0.28074378987244647, 0.20868160122351206, 0.15423914906674416, 0.11386079379474125, 0.08457989326066458, 0.06388495474622376, 0.04964822591225331, 0.04008532551192155, 0.03373071816789791, 0.029421741039549927, 0.026287817570327478, 0.02374338332038952, 0.021483903608441792])","array('d', [-0.03860477358102794, -0.022703111785796027, -0.012310746701836527, -0.005445612570318038, -0.0008807877371190206, 0.002153788369259617, 0.004147295769774086, 0.005413934620137219, 0.006158000768292471, 0.006514864246284415, 0.00657758161903899, 0.006414855648339205, 0.006083675235671637, 0.00563850047465033, 0.005137907981211203, 0.0046489717022297145])","array('d', [0.625000135102544, 0.6001776178618465, 0.5819259116558579, 0.568605412871145, 0.5588270295235526, 0.551643898767811, 0.5463647635687837, 0.5424679258969263, 0.5395563891028693, 0.5373311091327561, 0.5355724773004921, 0.5341256263661006, 0.5328875729723233, 0.5317952942996258, 0.5308143101223215, 0.5293532502143753])",-236.02837777602775,-19.296962848763638,-44.88498622078665,0.15423914906674416,0.002153788369259617,0.551643898767811,25.00000024842482,-1.0,"[-26.133170415804738, -240.53837998971778, 44.981077958405656]","[-17.42012338978364, -225.3967313537431, 54.71828947439066]","[-6.195406390708147, -238.98852522947692, 45.27006913772247]",10000000000.0,0.05050373077392578
5,11.816076755523682,-25.76219367980957,-240.42803955078125,45.03955841064453,0.50349086523056,0.01957378722727285,0.5757971564915514,23.191821734978813,"array('d', [-242.11624145507812, -240.70926718881717, -239.34541520989322, -238.0135224599091, -236.70512573497405, -235.4139355484855, -234.1352800146992, -232.86572646328642, -231.6028017207304, -230.34476933284157, -229.09044566049053, -227.8390469979366, -226.5900642410323, -225.34316344616917, -224.09811137752155, -223.32856452484475])","array('d', [-28.571388244628906, -26.506223033756974, -24.411450119339825, -22.29589777773509, -20.165638812868842, -18.024893514613794, -15.87665076020241, -13.723034051140678, -11.565537718426322, -9.405193780625712, -7.242697598400937, -5.078505924648135, -2.912914078007385, -0.7461156319195208, 1.4217536334694947, 2.7647832185810253])","array('d', [-45.028587341308594, -44.95728306208756, -44.91710751070184, -44.89739618873598, -44.89125362540873, -44.89413554578661, -44.902983038781635, -44.91568634388174, -44.93074918543099, -44.94707785172294, -44.963850031764906, -44.98043645874112, -44.996358983653224, -45.01127476934423, -45.02497951692759, -45.03268462345855])","array('d', [0.6213290691375729, 0.4874613885922227, 0.3663329037100351, 0.2720479609293303, 0.20001292514036184, 0.14577426710172398, 0.10573524696135508, 0.07689157818229979, 0.05669790824473512, 0.042996951410165074, 0.03397954466745293, 0.028160333714172786, 0.02436182118078125, 0.021703482877669895, 0.019594548924924682, 0.017729882665771756])","array('d', [-0.03620603308081611, -0.021097710469155102, -0.011209205891225623, -0.004669144548754042, -0.00031750890252937414, 0.0025747970603592425, 0.004471571132670594, 0.005671106552155934, 0.006367620484267816, 0.006690026975981047, 0.006727197505244586, 0.006545079407078986, 0.0061988031630180965, 0.005741524498539096, 0.005230847616689571, 0.004733066774283847])","array('d', [0.6108095804837088, 0.5865233599350584, 0.5686955406379728, 0.5557505771637347, 0.5463334294757977, 0.5394972212784279, 0.53454906448354, 0.5309652013795162, 0.5283468197659201, 0.5263936496092, 0.5248855700616383, 0.5236678962099088, 0.5226384174538861, 0.5217353263422176, 0.5209256340323705, 0.5197437429497689])",-235.4139355484855,-18.024893514613794,-44.89413554578661,0.14577426710172398,0.0025747970603592425,0.5394972212784279,25.00000024561575,-1.0,"[-24.582156615589607, -239.654986987876, 45.00832248724114]","[-15.518717858627317, -223.99038485283918, 53.52150742883583]","[-4.61449218157097, -238.53020278705833, 45.173360519276514]",10000000000.0,0.029415130615234375
6,11.889502048492432,-24.138418197631836,-239.50796508789062,45.08024597167969,0.3956752419471739,0.00594106921926131,0.5566689530995228,23.21450113814443,"array('d', [-241.62347412109375, -240.2353404561903, -238.88871634125806, -237.5726483238249, -236.27881099660937, -235.00101924646827, -233.7346914222145, -232.4764780949463, -231.22398515923064, -229.97555179598803, -228.73006638795582, -227.4868131620239, -226.2453464048698, -225.0053907319658, -223.7667665474792, -223.00068834029693])","array('d', [-27.7740535736084, -25.695955184772863, -23.589981362123904, -21.464519489451664, -19.325379662385462, -17.17661172268108, -15.021083545438044, -12.860826794169908, -10.697262328788193, -8.531360981712783, -6.36376564357465, -4.194887148340738, -2.0249800899644743, 0.14579837149025196, 2.3173451607273785, 3.662669215364263])","array('d', [-45.0272216796875, -44.96240053315834, -44.92663332210448, -44.909979094553634, -44.90599954844659, -44.910443704335044, -44.92044373204234, -44.934016314118345, -44.94975017702431, -44.96660965783745, -44.98381267482967, -45.00075816249787, -45.01698781760953, -45.03217260364163, -45.04611740736867, -45.05395797500771])","array('d', [0.601004302501678, 0.46907077756413057, 0.3496923875620502, 0.25675044122659363, 0.185930609072031, 0.1328237092036967, 0.09385177154506902, 0.06601667093701896, 0.046773334103884776, 0.033962573727058236, 0.025773161716761143, 0.020718533736032285, 0.01762126868730311, 0.015602314005957178, 0.014073722220988178, 0.012734431633258832])","array('d', [-0.03309698775410634, -0.019001317831935517, -0.009767566862410983, -0.003657856673050819, 0.0004064160684617692, 0.0031039119458855765, 0.004866725274328039, 0.005972940305123958, 0.00660371069432157, 0.00687937743279751, 0.006883082827465896, 0.006676851360482119, 0.006313033091173541, 0.005842716251893228, 0.005321873310341672, 0.0048154302352742635])","array('d', [0.6011217395451405, 0.5778764026437673, 0.5608725440663057, 0.5486191846787849, 0.5398095651381, 0.5335184125023978, 0.5290642440104871, 0.5259298913842949, 0.5237208520652217, 0.5221401305792773, 0.5209704430289762, 0.5200597649605218, 0.51930845939176, 0.5186572135044315, 0.5180754272498915, 0.5172267349913665])",-235.00101924646827,-17.17661172268108,-44.910443704335044,0.1328237092036967,0.0031039119458855765,0.5335184125023978,25.000000245589387,-1.0,"[-23.273607298004464, -238.93609839651734, 45.05179949162893]","[-13.934008190189676, -222.77852945375668, 52.242408253426596]","[-3.2886925395875295, -238.17213160153378, 45.19157372019598]",10000000000.0,0.05619478225708008
7,11.91878867149353,-23.732675552368164,-239.2828826904297,45.096832275390625,0.3675747513771055,0.002691671019419953,0.5522646466877795,23.21668274081033,"array('d', [-240.6630096435547, -239.31288775438253, -237.99813958370095, -236.70865921207388, -235.43676018430227, -234.17675100724887, -232.92445622358534, -231.67687969828185, -230.4319439958864, -229.18827593982465, -227.94502615466257, -226.70171774388155, -225.45812207813552, -224.21416062221803, -222.96983203838485, -222.19885895618407])","array('d', [-26.166614532470703, -24.063035265117126, -21.93680270967641, -19.795042604283726, -17.642780258869717, -15.483550842703364, -13.319858810146512, -11.153460104867545, -8.985554118471525, -6.816925977717341, -4.648058044685375, -2.4792195553019445, -0.3105386266620845, 1.8579413594143568, 4.026220038698273, 5.369037956233936])","array('d', [-45.034481048583984, -44.99136082508814, -44.97038847431224, -44.963989826063944, -44.967236131584244, -44.97685475145588, -44.990622120265066, -45.00698603119962, -45.02482834728622, -45.043315860192905, -45.06180827682944, -45.079804795855765, -45.09691804465469, -45.11286827804452, -45.127492811679204, -45.13571404007797])","array('d', [0.5275544524192809, 0.4026105989137946, 0.289556755084743, 0.20269191023507138, 0.1371123369020058, 0.08864457782894523, 0.05384052627720788, 0.029777507184162434, 0.013957829612178637, 0.004255720523916259, -0.0011131626905772503, -0.003611382470350239, -0.004393733536715698, -0.004317641264309387, -0.003950578715744909, -0.0035746317649304775])","array('d', [-0.022708093747496386, -0.011969110180922749, -0.004926487075207498, -0.0002701192568345303, 0.002815687982475174, 0.00484536902222547, 0.006146870725051593, 0.006931266430559697, 0.007335956537747287, 0.007452248475623377, 0.007343631556242423, 0.007058465067320756, 0.006639234465856736, 0.006129541530748507, 0.005579330767079849, 0.005048387396533722])","array('d', [0.5809533158924919, 0.5612817576998856, 0.5471566132587823, 0.537322432366044, 0.5306101724635403, 0.5261770945386248, 0.5233879616258641, 0.5217542291865652, 0.5209011673702112, 0.520546980596628, 0.5204870806566689, 0.5205805941262728, 0.5207379114157542, 0.520908804763229, 0.5210709080220206, 0.5213090885058139])",-234.17675100724887,-15.483550842703364,-44.97685475145588,0.08864457782894523,0.00484536902222547,0.5261770945386248,25.000000245540367,-1.0,"[-22.864910952962475, -238.71543756027646, 45.07133442027515]","[-13.443232793227672, -222.41524119522924, 51.819339986016594]","[-2.8761990917055087, -238.0594754121584, 45.21663338063442]",10000000000.0,0.024982929229736328
8,11.991584062576294,-22.104328155517578,-238.39422607421875,45.18547058105469,0.25938048958778365,-0.008599010296166018,0.5370674888279773,23.216443676090574,"array('d', [-240.42803955078125, -239.08750258033035, -237.78033657937766, -236.49670638203844, -235.22913627978866, -233.97210047803742, -232.72156062598836, -231.47463970615604, -230.22936646803458, -228.98446343192919, -227.73916771454316, -226.493080545786, -225.24604377405703, -223.998042399855, -222.74913238373256, -221.97491983012873])","array('d', [-25.76219367980957, -23.6523617239506, -21.521415912097556, -19.376135204726275, -17.22132362605614, -15.060368625660637, -12.895668897766704, -10.728898989356098, -8.561191963962312, -6.393276577830893, -4.225585889580822, -2.058345220853794, 0.10835684316415586, 2.2745127040526323, 4.440154460281508, 5.781126089400304])","array('d', [-45.03955841064453, -45.00299028748276, -44.9864891558939, -44.98318852520172, -44.98861300676423, -44.99978510715194, -45.014676499879194, -45.031866210422756, -45.05032573312039, -45.06928403476044, -45.08814454653553, -45.10643749664451, -45.12379751769771, -45.139960161446965, -45.154772767023594, -45.16309898106283])","array('d', [0.50349086523056, 0.38083696287067026, 0.2698683697863611, 0.18506547291192113, 0.12125885693170169, 0.07435113949673713, 0.04093784898019003, 0.0181230747885187, 0.0034270998885460873, -0.0052623531899939225, -0.009718378213480917, -0.0113934880925368, -0.011433237341403354, -0.010686568907167298, -0.009713330239869816, -0.008788985446935616])","array('d', [-0.01957378722727285, -0.009844179958988532, -0.0034632896392223964, 0.0007524553120751022, 0.0035406225156246894, 0.005366627301397468, 0.006527197263798003, 0.007213235189192153, 0.007548917242405959, 0.007616737909038337, 0.007474192449867416, 0.007165448610503695, 0.006729944894216856, 0.006208951416944228, 0.005650518213920223, 0.005112800467893806])","array('d', [0.5757971564915514, 0.5572403078402313, 0.5440282899118349, 0.5349687663373688, 0.528930508823306, 0.5250951409902754, 0.5228414226140019, 0.5216897336238482, 0.5212717057578625, 0.5213105577321834, 0.5216059442069548, 0.5220207228285789, 0.5224686156368997, 0.5229023795331124, 0.5233023208889281, 0.5238879462083884])",-233.97210047803742,-15.060368625660637,-44.99978510715194,0.07435113949673713,0.005366627301397468,0.5250951409902754,25.000000245528668,-1.0,"[-21.225811910506728, -237.84311000617234, 45.169264483759484]","[-11.519970784862387, -221.07962612906115, 50.147442498413454]","[-1.2290482109102996, -237.55379485123905, 45.38312958990935]",10000000000.0,0.06938886642456055
9,12.066680192947388,-21.28849220275879,-237.95480346679688,45.242095947265625,0.2109900563955305,-0.012543772347271555,0.5305231372502187,23.213454557491644,"array('d', [-239.50796508789062, -238.20267677319896, -236.92197234019753, -235.6572240556101, -234.4018612585411, -233.15106981180583, -231.901412258805, -230.65054007570558, -229.3969558729409, -228.1398097415824, -226.87872457553257, -225.61364891351698, -224.34473668625463, -223.07225316770135, -221.79650625537292, -221.00400535332508])","array('d', [-24.138418197631836, -22.006273678069913, -19.859244509407308, -17.702791903815214, -15.540886073746284, -13.376353767858388, -11.211182254480908, -9.046721526288652, -6.883833945347407, -4.723013471455753, -2.564484346959497, -0.40828345735013044, 1.7456719440269823, 3.897530527901754, 6.047467000681737, 7.377611765870793])","array('d', [-45.08024597167969, -45.07218821978129, -45.0751455333449, -45.085308931766036, -45.100170707333106, -45.1180397735594, -45.13774204032302, -45.15843274097307, -45.17947819454486, -45.20038207069267, -45.2207415146607, -45.24022455151299, -45.25856369397709, -45.27556253810954, -45.29111284409188, -45.29984968994941])","array('d', [0.3956752419471739, 0.2832813439809551, 0.18312278526731565, 0.1073759518701294, 0.05140891801529196, 0.011421441902846455, -0.015817663978247173, -0.03309547096816454, -0.042815868749452944, -0.04703161870673129, -0.047464260368052055, -0.045519135296639625, -0.04229802807638147, -0.03860980510878796, -0.034978728090821115, -0.03165006487400023])","array('d', [-0.00594106921926131, -0.0005943452067808663, 0.002901873870899937, 0.005190686994766335, 0.006674058865841678, 0.007605773363242955, 0.00814717164665467, 0.008401337731604964, 0.008434667810091537, 0.008291024096605955, 0.008001540185615484, 0.00759188096356535, 0.007087970834209747, 0.006520672979321063, 0.005929513816407803, 0.005365246151075666])","array('d', [0.5566689530995228, 0.5428362041053506, 0.5335421319681144, 0.5278246283635217, 0.5247203173224123, 0.523500115683694, 0.5235952905088173, 0.5245608400172163, 0.5260541340009526, 0.5278195137473722, 0.5296750456696262, 0.5315000579924938, 0.5332230840467398, 0.5348101549055653, 0.536253425350387, 0.5383631586304324])",-233.15106981180583,-13.376353767858388,-45.1180397735594,0.011421441902846455,0.007605773363242955,0.523500115683694,25.000000245487332,-1.0,"[-19.994780256065116, -237.19588621930248, 45.26091111236161]","[-10.11572975914596, -220.21812919142684, 49.023905609001254]","[0.0031668741127610645, -237.11300888622583, 45.53521373041785]",10000000000.0,0.06548070907592773
10,12.130468845367432,-19.255712509155273,-236.8636016845703,45.4132194519043,0.11299347132444361,-0.017523393034935084,0.5156986276295521,23.200421594939222,"array('d', [-239.05909729003906, -237.7694125122146, -236.49983894026985, -235.2423117646127, -233.9906968331538, -232.74053628691308, -231.48870195540036, -230.23312233623335, -228.97255097141363, -227.70636534005706, -226.43439355746725, -225.15676852676117, -223.87380928401248, -222.58592881845266, -221.29356732549536, -220.48994261638444])","array('d', [-23.326271057128906, -21.18463429702637, -19.03103140938226, -16.87039614814123, -14.706351844356785, -12.541482474415162, -10.377589990800839, -8.215872567625516, -6.057061619493215, -3.9015343558520104, -1.7494089549868854, 0.39937493388737977, 2.5449894933338997, 4.687665661867148, 6.827653706469953, 8.15099621422798])","array('d', [-45.11559295654297, -45.12090551726692, -45.132977574772106, -45.14942781520464, -45.16867171828593, -45.189624355109984, -45.21151573381397, -45.23377466040986, -45.25595556975019, -45.277693474339145, -45.298678466755646, -45.318644914301615, -45.33737258292592, -45.35469794311515, -45.37053411706907, -45.379429441072475])","array('d', [0.3396180868148802, 0.23255872794704088, 0.13784005606540167, 0.06672742461970586, 0.01481841565699519, -0.021560045383718928, -0.04556471384172724, -0.059935227071534404, -0.06704114082295601, -0.0689067155040406, -0.06722743681721885, -0.06338386903423675, -0.05845428827383191, -0.05322583286672139, -0.04820348407853155, -0.04361632001956111])","array('d', [0.00045270816190178166, 0.003742465766056924, 0.005879568385829835, 0.007257729373658378, 0.008123109199784184, 0.008630728416163537, 0.008878465489282878, 0.008928083174029239, 0.008818701651060358, 0.008575891591573832, 0.00821826533806669, 0.0077626628548847915, 0.007228522729310619, 0.0066416663739051855, 0.0060374373461295, 0.005462899407781608])","array('d', [0.548172072568212, 0.5366553374760087, 0.529330239549881, 0.5253243667710238, 0.5237402067598962, 0.5238843995958401, 0.5252098113257422, 0.5272863946759021, 0.5297833693890427, 0.5324553961682319, 0.5351299292740143, 0.5376949121072058, 0.5400867236674827, 0.5422784563104329, 0.5442685635267186, 0.5471770900459945])",-232.74053628691308,-12.541482474415162,-45.189624355109984,-0.021560045383718928,0.008630728416163537,0.5238843995958401,25.00000024546963,-1.0,"[-18.358504414327225, -236.33823806997685, 45.40214169897581]","[-8.27040493934012, -219.23764739095466, 47.81047045795045]","[1.6382925390936798, -236.48533934464083, 45.728443428436044]",10000000000.0,0.04386639595031738
11,12.193119287490845,-18.03934097290039,-236.21034240722656,45.52672576904297,0.06995154172182065,-0.017132991924882032,0.5080096284535269,23.18784236214685,"array('d', [-237.95480346679688, -236.69758829611698, -235.45039140825577, -234.20628484772305, -232.96005001630948, -231.70801170792214, -230.4477454580003, -229.17782497158706, -227.89759621890346, -226.60697696433527, -225.30628369380628, -223.99608738614955, -222.67709811102878, -221.35007726908466, -220.01577575716075, -219.18428197580852])","array('d', [-21.28849220275879, -19.127832070583565, -16.961350991296786, -14.793079086105967, -12.626019151107489, -10.46229814729343, -8.303350540374176, -6.150058354563728, -4.002868785844553, -1.8618973681081519, 0.2729810774507263, 2.402053706429631, 4.525703705746549, 6.644357666099035, 8.758446610074733, 10.064169960108282])","array('d', [-45.242095947265625, -45.272665653650286, -45.30189207689913, -45.33009381100521, -45.35744115859555, -45.38400665645857, -45.40979519193619, -45.43476230714015, -45.45882616815459, -45.48187691517132, -45.503786101983565, -45.5244183015742, -45.54364645190097, -45.561371964342484, -45.577549883533074, -45.58663276735313])","array('d', [0.2109900563955305, 0.11617126259669115, 0.03328491528564386, -0.027530107903767934, -0.07027440274728657, -0.0984036766681389, -0.11495186035407945, -0.12258125692082543, -0.12360283708249264, -0.11998766865490557, -0.11337812514090999, -0.10510093760070116, -0.09618122815411584, -0.08735586482534982, -0.07908469993068476, -0.07155880216707855])","array('d', [0.012543772347271555, 0.01192295880232968, 0.011466329863563416, 0.011101619944027814, 0.010782025815386218, 0.010475879456881011, 0.01016057461863461, 0.009819145203392011, 0.009438589252671032, 0.00900942886775847, 0.008526206065909186, 0.007988707566715983, 0.007403723138644353, 0.006787092352458363, 0.006165699501185263, 0.005578955815326157])","array('d', [0.5305231372502187, 0.5240732256390052, 0.5211610058451287, 0.5210679665560272, 0.5230027405190789, 0.5263295674879367, 0.5305371307043265, 0.535222122981993, 0.5400771383583061, 0.544878961372904, 0.5494763152367446, 0.5537772903470569, 0.5577369112790529, 0.561345162468784, 0.5646155788233649, 0.5693938661553491])",-231.70801170792214,-10.46229814729343,-45.38400665645857,-0.0984036766681389,0.010475879456881011,0.5263295674879367,25.000000245432734,-1.0,"[-17.272195823574943, -235.7667985381153, 45.5021680807879]","[-7.063078699657023, -218.65184338814078, 47.19102502099513]","[2.7232633913409217, -236.04067575898836, 45.82866777837299]",10000000000.0,0.0372774600982666
12,12.241194009780884,-17.228666305541992,-235.77456665039062,45.60356903076172,0.04725305363535863,-0.015640044584870446,0.5037126104023792,23.17972598005265,"array('d', [-237.29925537109375, -236.05949057737158, -234.82486120313482, -233.58890802606828, -232.34680767727167, -231.09524467388897, -229.83213375880896, -228.55636983841495, -227.26759976204758, -225.9660187891287, -224.65219556721163, -223.32692757447407, -221.99112681021452, -220.6457340768511, -219.29165963656095, -218.47299781983375])","array('d', [-20.066709518432617, -17.896117145442727, -15.722529322827967, -13.5496508044343, -11.380252020207376, -9.21627817985124, -7.05900816470589, -4.909182280931399, -2.767114318427074, -0.6327927487645958, 1.494028600837214, 3.6137514672065705, 5.726866783408627, 7.833901775579553, 9.935380920028914, 11.19225476024506])","array('d', [-45.34054946899414, -45.3792840700896, -45.413987246185336, -45.445864778862266, -45.47566776777276, -45.50385446597204, -45.53068978662444, -45.55630738629251, -45.580749533091556, -45.6039943590351, -45.62597680579232, -45.64660757108151, -45.66579303205607, -45.683458070575305, -45.69957269439887, -45.708338425959795])","array('d', [0.14812234044074993, 0.059286195668764474, -0.018322669780200095, -0.07440709284594751, -0.11283619582600725, -0.13700325275279104, -0.14991371446178325, -0.15421510761580334, -0.15220628473124856, -0.1458437944259638, -0.13675171594977376, -0.12623533754479063, -0.115296682701217, -0.1046495508682036, -0.09473229699788535, -0.08571733477780075])","array('d', [0.016468223184347246, 0.014552657541420601, 0.01323279469542374, 0.012285722310918956, 0.011569187091738889, 0.01099030621484144, 0.010486762721110056, 0.010015536661600821, 0.009546319765769569, 0.009057955827141325, 0.008536920142892122, 0.007977216453107464, 0.007381245055233216, 0.006761246273082218, 0.006140890922073845, 0.005556508082536399])","array('d', [0.521269635358129, 0.5172122904407582, 0.5164334806764738, 0.5182730203164213, 0.521970653179902, 0.5269064403234457, 0.5325790839563425, 0.5385939641258901, 0.5446527674678109, 0.5505420788252431, 0.5561208020169083, 0.5613071003646949, 0.5660655470379413, 0.5703948877039712, 0.5743165245789192, 0.580228344534862])",-231.09524467388897,-9.21627817985124,-45.50385446597204,-0.13700325275279104,0.01099030621484144,0.5269064403234457,25.000000245410863,-1.0,"[-16.321980340069732, -235.26582674768486, 45.58985341710418]","[-6.016944885731114, -218.164664799679, 46.754544068264636]","[3.672137606075136, -235.64003972832512, 45.89841816033975]",10000000000.0,0.043035030364990234
13,12.31240463256836,-15.611459732055664,-234.90167236328125,45.753326416015625,0.010635832324623878,-0.010466757230460751,0.497389988103185,23.166881983999385,"array('d', [-236.8636016845703, -235.63449747094288, -234.40780375008447, -233.17729581366513, -231.93835433918656, -230.6878575981484, -229.42390871249552, -228.14558457160527, -226.85270459036144, -225.54562429291738, -224.225058469294, -222.8919360260299, -221.54728609744112, -220.19215341359424, -218.82754037041735, -218.0019880072613])","array('d', [-19.255712509155273, -17.079104512740443, -14.90105088470246, -12.72509766126628, -10.553901458920738, -8.389316043883674, -6.232539441739092, -4.084236008317944, -1.9446462524737262, 0.18631240764978982, 2.3089546352037296, 4.4237475540255, 6.531243910269978, 8.632028865881573, 10.726680827386467, 11.979038319889256])","array('d', [-45.4132194519043, -45.45411969809269, -45.49021513104458, -45.522963246778914, -45.55328161918451, -45.58174030497521, -45.60868059332616, -45.63428932708123, -45.65864661439821, -45.68175812274523, -45.70357924488614, -45.72403605333158, -45.743046403849206, -45.76054336285467, -45.77650202601512, -45.785182596627436])","array('d', [0.11299347132444361, 0.027500276836162074, -0.04734005946873013, -0.1008947967965997, -0.1369779999552687, -0.15896171499252423, -0.1698460523740029, -0.1722784250858024, -0.16855701712821258, -0.16063468056004965, -0.15012834989256052, -0.13833338762486488, -0.12624020862737628, -0.114550466570338, -0.10369084281709444, -0.09382336298256053])","array('d', [0.017523393034935084, 0.015236421774358298, 0.013667109882398701, 0.012550756106894446, 0.0117184218452637, 0.011060002452626611, 0.010501954787197756, 0.009993866457182681, 0.009500501996525508, 0.00899736144646988, 0.008468579109263297, 0.00790642813547247, 0.007311916559771752, 0.006696039070047372, 0.006081234413316876, 0.005502528832390158])","array('d', [0.5156986276295521, 0.5129640191870245, 0.5133779695386037, 0.5163100037955535, 0.5210116970441951, 0.5268683824423922, 0.5333820754041053, 0.5401616306729472, 0.5469130738543143, 0.5534281509266848, 0.5595714039944046, 0.5652667232139891, 0.5704841875465817, 0.5752276330738633, 0.5795230500755048, 0.5859974340514665])",-230.6878575981484,-8.389316043883674,-45.58174030497521,-0.15896171499252423,0.011060002452626611,0.5268683824423922,25.000000248329926,-1.0,"[-14.694223074729557, -234.4005881579909, 45.73498133226872]","[-4.269349978852615, -217.338346050484, 46.184331084332364]","[5.298224260032217, -234.90004069510942, 45.964321101917854]",10000000000.0,0.0632169246673584
14,12.352695226669312,-15.20802116394043,-234.68310546875,45.789390563964844,0.0022362549789248093,-0.00883312616497289,0.4958979646351675,23.1636387620576,"array('d', [-235.9925079345703, -234.7826699803579, -233.5709867521157, -232.35160096313638, -231.1202340713433, -229.87409808728353, -228.61162425868008, -227.3322059663984, -226.03595986838027, -224.72351333272974, -223.39582399023004, -222.05403343007723, -220.69935398160766, -219.33298585195578, -218.50248298608903, -217.66482438895937])","array('d', [-17.63397216796875, -15.446554451256764, -13.260086840614767, -11.07786188560363, -8.90234631920362, -6.7352359377266655, -4.577585874142227, -2.429925387147143, -0.2923656157713849, 1.83529923086881, 3.9534995425948853, 6.062809319636508, 8.163878266676306, 10.257377892389014, 11.511507367681322, 12.755800249848487])","array('d', [-45.56511688232422, -45.60375153545172, -45.638086697784374, -45.66940319495928, -45.69850691609037, -45.7258968760278, -45.75186906705991, -45.77658151025956, -45.80009609696041, -45.822407086170145, -45.84346274423851, -45.86318455035994, -45.88148702585555, -45.8983001809643, -45.907510086010454, -45.91582996721953])","array('d', [0.05808501318097096, -0.022182955160821707, -0.09234661767624729, -0.14156987154661288, -0.17360872548283462, -0.19182440952706162, -0.19922600092295426, -0.19847349027388358, -0.1918730236171685, -0.18137794264648557, -0.1685985171314667, -0.1548181117606797, -0.14101205326301444, -0.1278659021613089, -0.11573880776951803, -0.10472481347004241])","array('d', [0.016491770744323835, 0.014451227533804968, 0.013041288534999512, 0.012029444849456922, 0.011266781074401126, 0.010655817475095954, 0.01013106310243794, 0.009647283833219498, 0.009172581880383918, 0.008684587148233117, 0.00816874377165928, 0.007618051462622954, 0.007033806171556602, 0.006426943071771897, 0.005828552777685297, 0.005273893012956701])","array('d', [0.5058143893864494, 0.5051358159424244, 0.5074093169998897, 0.5120370820291066, 0.518283890611937, 0.5255409313180855, 0.5333151858782218, 0.5412222919362819, 0.5489774253356237, 0.5563833437467276, 0.5633166218612252, 0.5697134250152608, 0.5755557925450626, 0.5808588883174869, 0.5888353451112475, 0.5960678149952946])",-229.87409808728353,-6.7352359377266655,-45.7258968760278,-0.19182440952706162,0.010655817475095954,0.5255409313180855,25.000000248320184,-1.0,"[-13.888759942470795, -233.9694008521003, 45.802640080913754]","[-3.4132742931967606, -216.93275987964873, 45.93327234200567]","[6.102787262132306, -234.52373974174068, 45.97799332883984]",10000000000.0,0.02846670150756836
15,12.42962646484375,-13.190010070800781,-233.5869140625,45.96062088012695,-0.04136623814702053,-0.002197204856202118,0.4898449937489369,23.154756448057597,"array('d', [-235.77456665039062, -234.5688648160598, -233.36047405656623, -232.14359242308592, -230.9139933878641, -229.66894374541727, -228.40693181081605, -227.1274085228903, -225.83054656319834, -224.5170261367301, -223.18785347221592, -221.84421405015405, -220.48735936993944, -219.11852436735145, -218.2863294106273, -217.4467506968454])","array('d', [-17.228666305541992, -15.038934630024201, -12.850625813808783, -10.666990323469618, -8.490465974665929, -6.322724710633706, -4.164799509545358, -2.017197718319164, 0.11999157103133448, 2.246996179995008, 4.3642681709146585, 6.472402511390516, 8.57206889592253, 10.663957667450969, 11.916967494826993, 13.159968904482879])","array('d', [-45.60356903076172, -45.64039006825929, -45.67342576090447, -45.70378530527137, -45.73216317516582, -45.75898533847079, -45.78449949712977, -45.808831547520825, -45.83202193314047, -45.854050591300584, -45.87485626262756, -45.89435413803032, -45.91245461651132, -45.92908498558044, -45.93819532671244, -45.94642535616988])","array('d', [0.04725305363535863, -0.03198411766990914, -0.1014200831863008, -0.14994613244660784, -0.18131155768735627, -0.19887934465420837, -0.20566376842740158, -0.20433031324736306, -0.1971892336137255, -0.18619597866113244, -0.1729609751470428, -0.15876618068684603, -0.1445844466519303, -0.13109826688590193, -0.11866355262711262, -0.10737123229232409])","array('d', [0.015640044584870446, 0.013847753170015225, 0.012602347454868696, 0.011700923175539996, 0.011013330928067135, 0.01045413988840524, 0.009965689706043196, 0.009507894852546767, 0.009052280254054246, 0.008578773359968516, 0.008074370304967101, 0.0075331173720837126, 0.006957002730343787, 0.0063573934037336995, 0.005765596678924476, 0.005216927778022791])","array('d', [0.5037126104023792, 0.5034388071250879, 0.5060839779886609, 0.5110590457855054, 0.5176295205902496, 0.5251862001853851, 0.5332357296450244, 0.5413939672500391, 0.5493769537622836, 0.5569888273770379, 0.5641078579679583, 0.5706720310113037, 0.5766651881121246, 0.5821041875240283, 0.5902843265368527, 0.5977010982116329])",-229.66894374541727,-6.322724710633706,-45.75898533847079,-0.19887934465420837,0.01045413988840524,0.5251862001853851,25.000000245362898,-1.0,"[-11.917617447364432, -232.90879953514857, 45.959924030815884]","[-1.341215474313202, -215.94687167037432, 45.30210611175823]","[8.071030458861337, -233.5784976250341, 46.03381144070409]",10000000000.0,0.06868600845336914
16,12.525222063064575,-11.175312042236328,-232.48388671875,46.11503982543945,-0.09119821339845675,0.004007594194263123,0.485406951108251,23.154558467311837,"array('d', [-234.68310546875, -233.49259110381283, -232.29588719506933, -231.08751161226147, -229.86355488182897, -228.621599290594, -227.36044163711733, -226.07982497036207, -224.7801889923537, -223.4624498254183, -222.1278155243735, -220.77763875410355, -219.41330457648925, -218.57993554428498, -217.73734631280345, -216.88676951454298])","array('d', [-15.20802116394043, -13.009800903379757, -10.814950400795107, -8.62650828823837, -6.4467438500922025, -4.277183171812097, -2.118724571808702, 0.02825180808743387, 2.1637764516842193, 4.288187385569008, 6.402035495327346, 8.506001485431746, 10.60082645495922, 11.858071089196569, 13.104139080733905, 14.339644101813299])","array('d', [-45.789390563964844, -45.811785682804086, -45.8346241272835, -45.857613484340895, -45.880532392916344, -45.90320147523462, -45.92546374093269, -45.947171371037854, -45.96817737686275, -45.98833159928548, -46.00748112282608, -46.02547552899374, -46.042177527480675, -46.05142266401032, -46.05981187747618, -46.06739148783636])","array('d', [0.0022362549789248093, -0.07271700519288696, -0.13782183492632694, -0.18231679847548535, -0.20993087021254186, -0.22403916631853518, -0.22767825589120674, -0.2235335976898938, -0.21392770126514202, -0.20081972484017196, -0.18581684371849558, -0.1701932541234096, -0.15491195264450663, -0.14048917853378182, -0.12716046590891186, -0.11505955806362672])","array('d', [0.00883312616497289, 0.009079104984499212, 0.009190053723116836, 0.009201500007144899, 0.009134992982307166, 0.009002727684570359, 0.008810526413467, 0.00855997546309515, 0.008250194605599476, 0.007879541156412696, 0.007447435835845577, 0.006956404784019726, 0.006414336223216075, 0.005853300569780544, 0.005309937758695498, 0.0048046305001184595])","array('d', [0.4958979646351675, 0.4973065850264146, 0.5014757192219023, 0.5078270606353638, 0.5156330873273309, 0.5242887659335813, 0.5333065677809992, 0.5423112483949529, 0.5510305604916927, 0.5592822364989392, 0.5669590307285538, 0.5740135399816967, 0.5804438783672103, 0.5901123430713958, 0.5988850654468281, 0.6068379738664011])",-228.621599290594,-4.277183171812097,-45.90320147523462,-0.22403916631853518,0.009002727684570359,0.5242887659335813,25.000000245340708,-1.0,"[-10.251625747644768, -232.00425210100897, 46.08111519898813]","[0.38913274646175644, -215.12769170098647, 44.682556035244225]","[9.734293535092176, -232.75460430329102, 46.08252815830992]",10000000000.0,0.07578372955322266
17,12.582513570785522,-9.967764854431152,-231.81784057617188,46.200965881347656,-0.12235496938228627,0.006954874377697597,0.48290260235336785,23.15940579833994,"array('d', [-233.5869140625, -232.40785766558153, -231.2191772941571, -230.01575646073948, -228.79405040316007, -227.55199424991773, -226.28871801297916, -225.0042680232845, -223.69934900524177, -222.37509902982288, -221.03290347700425, -219.67424842950072, -218.84033224759293, -217.99517020757253, -217.14020915574665, -216.27675753447153])","array('d', [-13.190010070800781, -10.985526274825977, -8.786241147674524, -6.595009090005627, -4.413935238958257, -2.2443957540131096, -0.0871479223160818, 2.057560135249741, 4.189879376086658, 6.310253668429767, 8.419322398323121, 10.517835376817382, 11.779661551889795, 13.02905950568758, 14.266700819974693, 15.493243699661347])","array('d', [-45.96062088012695, -45.96894490614778, -45.98182805041437, -45.99761952082151, -46.015206798998655, -46.033819039594114, -46.05290191114872, -46.07203707729272, -46.09089049794047, -46.10918026014137, -46.126658596930774, -46.143105139619415, -46.15233415049717, -46.16078017751001, -46.168450475546, -46.17538171472909])","array('d', [-0.04136623814702053, -0.11217017674642057, -0.172458036749261, -0.21253120763995056, -0.23611160395744946, -0.24659313976412403, -0.24703583688915948, -0.24014258844072195, -0.228243938498478, -0.21329856937418795, -0.19690742587507123, -0.1803358001971255, -0.1642249142402305, -0.14891253872542495, -0.1347817815218402, -0.1219556102324069])","array('d', [0.002197204856202118, 0.0044248677206062455, 0.005857790091807059, 0.006760413001227377, 0.00730051563969547, 0.007584673963810153, 0.007680178185712361, 0.007628958500010663, 0.007456792920529274, 0.007179768584753343, 0.006809196579643561, 0.006355697724224405, 0.005856162633924429, 0.005350702042937373, 0.004855720039960507, 0.004393637470836205])","array('d', [0.4898449937489369, 0.492887896812876, 0.4985321955743845, 0.5061950661827453, 0.5151566751523203, 0.524819354867997, 0.5347060844081305, 0.5444558203931492, 0.5538133430495097, 0.5626149868553315, 0.5707726105972448, 0.5782577242353555, 0.589534709952094, 0.5997927446436913, 0.609098155922646, 0.6175328606539843])",-227.55199424991773,-2.2443957540131096,-46.033819039594114,-0.24659313976412403,0.007584673963810153,0.524819354867997,25.000000248304787,-1.0,"[-9.848594968608777, -231.78403982841374, 46.10902845023935]","[0.8053682877628372, -214.93221528009286, 44.52502203469248]","[10.136660158913157, -232.55181139378345, 46.09881516144807]",10000000000.0,0.05446791648864746
18,12.642662048339844,-9.162697792053223,-231.3717803955078,46.255615234375,-0.1420707106590273,0.008320557884871842,0.4817908565190175,23.163148828288104,"array('d', [-232.92604064941406, -231.75196070639595, -230.56591885748648, -229.3629651696674, -228.1397171565089, -226.89428141090625, -225.62596394484154, -224.33498439834187, -223.02221157767414, -221.6889340092809, -220.3366718358027, -218.96703002654485, -218.12580465507526, -217.27263599580274, -216.40905946606847, -215.53646082285857])","array('d', [-11.980256080627441, -9.773103875811389, -7.572369811289848, -5.380856614779647, -3.200626080108793, -1.0330077337416466, 1.1212937999827954, 3.2620888544088813, 5.389590801698307, 7.504307579831845, 9.606942197791495, 11.698306034924908, 12.955304441271274, 14.199277153746918, 15.430939660865043, 16.650992071235013])","array('d', [-46.05546188354492, -46.05540062304076, -46.0623573320331, -46.0738735886845, -46.088306477552926, -46.104533448683625, -46.12176484323837, -46.139423532158204, -46.15706748844136, -46.17434085248088, -46.190944933584696, -46.20662416181278, -46.215439650364864, -46.22351498658276, -46.2308515855854, -46.23748181894785])","array('d', [-0.07048529386520404, -0.13851819034384266, -0.19676724658240366, -0.23487343094218027, -0.25655675150167573, -0.2652262640772636, -0.2639611316876063, -0.2554797697512255, -0.24212136076868152, -0.22584601984924751, -0.2082501838368498, -0.1905905444427294, -0.173498594990694, -0.1573018527373059, -0.1423724818849386, -0.12882396057209752])","array('d', [-0.0017581731081007972, 0.0016522716455242966, 0.003876007477128542, 0.005313058260707643, 0.00621821739688485, 0.006754504355057843, 0.007026188119542335, 0.007099654783620542, 0.007017006033493567, 0.006805326277952829, 0.006483406454028502, 0.006067004737571077, 0.005597348580803179, 0.005117435360417608, 0.004644849705203727, 0.004202834084353537])","array('d', [0.4870298663761951, 0.49116963333572217, 0.497831812368731, 0.5064487547510347, 0.5162974188310676, 0.5267766817202021, 0.537408174493903, 0.547832210014633, 0.5577972118266196, 0.5671446316444543, 0.5757921087425552, 0.5837169730752572, 0.5956468192953747, 0.6064937142355965, 0.6163309188389567, 0.6252463787829076])",-226.89428141090625,-1.0330077337416466,-46.104533448683625,-0.2652262640772636,0.006754504355057843,0.5267766817202021,25.00000024830197,-1.0,"[-8.23635828554108, -230.89933982157487, 46.21707911151491]","[2.470100615052191, -214.16513099931376, 43.90666942860886]","[11.745992837804057, -231.73827785022783, 46.17434075137601]",10000000000.0,0.052983760833740234
19,12.70888900756836,-7.55531644821167,-230.47390747070312,46.360260009765625,-0.17843845486640944,0.009782926179468545,0.47999484936264525,23.17229980164276,"array('d', [-232.48388671875, -231.31251503307473, -230.1275064670158, -228.92403175071385, -227.6988273653927, -226.45012601942443, -225.17736295677133, -223.88088452973332, -222.56167885022043, -221.2211431903748, -219.8608945186387, -218.48262274953825, -217.63571165897758, -216.77637430072105, -215.9062087452488, -215.02665492951232])","array('d', [-11.175312042236328, -8.96672803966887, -6.765430789234261, -4.574193726087931, -2.3950523078035815, -0.22930515344440963, 1.922379870076747, 4.05985497986056, 6.183378822344776, 8.293506052725654, 10.390986149948763, 12.476675463987528, 13.729878369430319, 14.969620863301513, 16.19665065512736, 17.411699037825226])","array('d', [-46.11503982543945, -46.110203941045015, -46.11377526114446, -46.12283988976128, -46.13545536189898, -46.150300360999395, -46.16645224243464, -46.18324422178981, -46.200173410560545, -46.216842386928604, -46.232923943669896, -46.248142884812985, -46.256709801882664, -46.264562046504516, -46.27169770713751, -46.27814666164316])","array('d', [-0.09119821339845675, -0.15726001668435244, -0.21404606531602638, -0.2507387883642019, -0.2710592231369842, -0.2784288375003987, -0.2759412682324561, -0.2663261284303523, -0.25192838188224187, -0.2347084911352753, -0.21625889067678264, -0.19782936909913088, -0.18004404479998562, -0.16322284727833655, -0.14772979844359374, -0.13367146149366674])","array('d', [-0.004007594194263123, 7.084508046212274e-05, 0.002741658299128345, 0.004481044893628037, 0.0055928292918189905, 0.006271911448722308, 0.0066434849548363435, 0.0067877920893656815, 0.00675618949622103, 0.00658199618292373, 0.0062882383215352436, 0.005893573546883328, 0.005441630438282598, 0.0049769806820014655, 0.004517852922009384, 0.00408792263256591])","array('d', [0.485406951108251, 0.49033071333728107, 0.4977219092406856, 0.5070225637189636, 0.5175065443267322, 0.5285698708194687, 0.5397331329601224, 0.5506377316217268, 0.5610349049051149, 0.5707699877458504, 0.5797649473267444, 0.5880014216264043, 0.6003934543582473, 0.6116569748209575, 0.6218702617045092, 0.6311255917208678])",-226.45012601942443,-0.22930515344440963,-46.150300360999395,-0.2784288375003987,0.006271911448722308,0.5285698708194687,25.000000248300626,-1.0,"[-7.02789954767136, -230.23032366773776, 46.295023124914316]","[3.704349313999698, -213.5873166859395, 43.49696076410561]","[12.952906465516882, -231.10524149244438, 46.25132114153643]",10000000000.0,0.06213045120239258
20,12.761168003082275,-6.351949691772461,-229.79495239257812,46.434547424316406,-0.20252442359924333,0.010016205720603362,0.4795918027546744,23.18063346587094,"array('d', [-231.59503173828125, -230.42880696534027, -229.24561751914774, -228.04104405521383, -226.81223871079368, -225.55782622624005, -224.27759688038586, -222.97220290910306, -221.64288178153055, -220.29122118474646, -218.91897069579755, -218.0714959270752, -217.2092571246363, -216.3340756038157, -215.4476254056557, -214.5514111465277])","array('d', [-9.56522274017334, -7.353950542207158, -5.151676182832525, -2.9610330365147517, -0.7839075161207654, 1.3785491215856769, 3.52581148881112, 5.657863587224206, 7.775079111501781, 9.878106032786345, 11.967761795172132, 13.225495404858284, 14.468307512157168, 15.696991387374146, 16.912349013333387, 18.11516312623531])","array('d', [-46.22856903076172, -46.21596097595976, -46.21398305813703, -46.21898977492213, -46.228554676047615, -46.241032365468094, -46.25527990393863, -46.27047773959029, -46.286014127566126, -46.30141124842206, -46.31627988147838, -46.324806502952754, -46.33272569458073, -46.339997949808584, -46.34661175123251, -46.352590018694585])","array('d', [-0.13234280049800892, -0.19448918195775794, -0.24607395002618476, -0.2780632878489124, -0.2941981286200703, -0.29793164744486433, -0.29238290977793946, -0.28029402281054416, -0.2640100681197313, -0.24548318973084426, -0.22629373186807888, -0.2071613314510327, -0.18847042857206903, -0.17084176787990485, -0.15462294216796132, -0.1399086364282866])","array('d', [-0.007660021074116109, -0.002512350093135187, 0.000873531651625088, 0.0030947902171015794, 0.004533155144228326, 0.005434010022378534, 0.005955384899059119, 0.006198896166704555, 0.006229778910435179, 0.00609032195469417, 0.0058093418457712915, 0.005440903866367519, 0.005036459018458945, 0.0046121198435278765, 0.004188108528137751, 0.003789557539650257])","array('d', [0.4822889129307605, 0.4887820976440142, 0.4975883121474483, 0.5081261524637839, 0.5196767197826156, 0.5316474403895574, 0.5435759421292621, 0.5551252105325578, 0.5660706855702319, 0.5762827847742942, 0.5857083042812657, 0.5999400298381098, 0.6129288102806589, 0.6247296002895865, 0.6354276542647558, 0.6451210142782172])",-225.55782622624005,1.3785491215856769,-46.241032365468094,-0.29793164744486433,0.005434010022378534,0.5316474403895574,25.000000248301653,-1.0,"[-5.823557035253549, -229.55577163714048, 46.370518374163844]","[4.924910077678035, -213.00290077387427, 43.134329117297]","[14.156263835075658, -230.45337694153744, 46.337919185891884]",10000000000.0,0.047283172607421875
21,12.851709365844727,-5.149554252624512,-229.11099243164062,46.506080627441406,-0.22489000856876387,0.009454696439206477,0.480118111768041,23.186497268351456,"array('d', [-230.92396545410156, -229.75992025698542, -228.5766082346996, -227.36997157621312, -226.13752729402663, -224.87822298526828, -223.5921178275872, -222.28007107928045, -220.94346251595303, -219.58395841810753, -218.74020239680735, -217.87938283676868, -217.00348847438275, -216.11439397753009, -215.2138173873365, -214.30330014996338])","array('d', [-8.357813835144043, -6.145416656003858, -3.9432139153681516, -1.7537053382175414, 0.42136616504692087, 2.5809825849943593, 4.724736031987867, 6.85270594068891, 8.965333981916904, 11.0633047146485, 12.328294046651004, 13.577060127856663, 14.810386450956354, 16.029109787756965, 17.23407323912197, 18.426097993640145])","array('d', [-46.308773040771484, -46.292925969306474, -46.2885709668528, -46.291774958605586, -46.29991869194305, -46.31122489714693, -46.32445762579516, -46.338728674035046, -46.35337241137941, -46.367865586623026, -46.376357539301054, -46.38437209852014, -46.391835007786725, -46.39869810870045, -46.404943528846744, -46.41058948276862])","array('d', [-0.1607351750135423, -0.22017966702333985, -0.26715153425743254, -0.2951278380542806, -0.3078754818565588, -0.3088729648797067, -0.30125386280508853, -0.2877630002150647, -0.2707401166168625, -0.25212899086098334, -0.23272184654834702, -0.21293933303658802, -0.1936813466012329, -0.17555140448708784, -0.15888369078408723, -0.1437639215541914])","array('d', [-0.009166738949715984, -0.003603820080684169, 5.871600845728435e-05, 0.0024643479498788505, 0.004024622354048207, 0.005004034371411092, 0.00557271135307336, 0.005839734684504732, 0.005874738139827628, 0.005722408066979013, 0.005451338893766217, 0.005122264274032385, 0.004750734378182503, 0.004354587687889815, 0.003955303294356654, 0.0035789066339818564])","array('d', [0.48075337807205704, 0.4883411251519823, 0.49811463612905416, 0.5094574276067694, 0.521665133454244, 0.5341648404200119, 0.5465185637324392, 0.5584165831933247, 0.5696626900252689, 0.5801554724780668, 0.5960984566348961, 0.6107432926264366, 0.6241021197205574, 0.6362357087410809, 0.6472339150618555, 0.6571984524686875])",-224.87822298526828,2.5809825849943593,-46.31122489714693,-0.3088729648797067,0.005004034371411092,0.5341648404200119,25.000000248305156,-1.0,"[-3.8192031531799024, -228.41819749242063, 46.49189879407352]","[6.923735226307954, -211.99617638952728, 42.63100539090213]","[16.161001082574632, -229.30777294150244, 46.501605386030946]",10000000000.0,0.08729100227355957
