,x_pos,y_pos,z_pos,roll,pitch,yaw,vel,x_traj,y_traj,z_traj,roll_traj,pitch_traj,yaw_traj,x_cmd,y_cmd,z_cmd,roll_cmd,pitch_cmd,yaw_cmd,vel_cmd,effector_dmg,effector_x,effector_y,effector_z,cost,time_solution
0,-259.6452941894531,-218.0818634033203,49.96187973022461,0.6343379616737362,0.03792827203869818,1.0812040130284166,23.08502242195809,"array('d', [-223.33946228027344, -221.08227059552277, -218.85565924080484, -216.6605565414506, -214.49685097086737, -212.36371356506814, -210.25983710001444, -208.18361623154613, -206.13328119170973, -204.10699494255556, -202.1029222305627, -200.11927740340104, -198.15435625692334, -196.20655579006194, -194.27438464531048, -192.35646927859645])","array('d', [-262.58013916015625, -261.50884996133175, -260.37366026080446, -259.17795491914364, -257.92600724088135, -256.6225054021977, -255.27220711996472, -253.87971730810753, -252.4493603795137, -250.98511729691288, -249.49060368162924, -247.96907251709467, -246.42343086131194, -244.8562641295884, -243.2698642237153, -241.66626203750187])","array('d', [-49.96940994262695, -49.88631305422159, -49.83062864889487, -49.792849960102934, -49.7668829099131, -49.74878535184634, -49.73598140206441, -49.72676924136293, -49.72001101502086, -49.71493640038375, -49.7110176544464, -49.70789001574516, -49.70530117612721, -49.703079557988175, -49.701114788688265, -49.699345950757746])","array('d', [0.6336713433265683, 0.6277969937992807, 0.6094030349528694, 0.582176075938712, 0.549197083654674, 0.5129143465989473, 0.475198627987694, 0.43743334841314707, 0.4006094289802216, 0.36540997526157987, 0.33227985986812025, 0.3014802579574769, 0.273130186101925, 0.24723756453203555, 0.22372213675021335, 0.20243217890940832])","array('d', [-0.04002628475427634, -0.026686502921398778, -0.01800959404061759, -0.012309634934372805, -0.008527484817421485, -0.005992972556145096, -0.004278828546011266, -0.003110408612872059, -0.0023095392334386987, -0.0017593337975650375, -0.001381959577187432, -0.0011244478274339458, -0.0009495419968207997, -0.0008297510829354793, -0.0007435032890976182, -0.0006727497393554471])","array('d', [1.1420214335110523, 1.1133696454701787, 1.085446586503981, 1.0588535077339936, 1.0339520041217372, 1.010917493896424, 0.9897951141377376, 0.9705459079674164, 0.9530805058667183, 0.937281929090069, 0.9230203474166555, 0.9101623916684085, 0.8985769822513519, 0.888139018293509, 0.8787318000624993, 0.870248717797335])",-212.36371356506814,-256.6225054021977,-49.74878535184634,0.5129143465989473,-0.005992972556145096,1.010917493896424,25.00000024892873,-1.0,"[-258.94040230482403, -216.75902847912548, 49.90500096165062]","[-260.2994205204804, -184.58964968351216, 73.63860872351142]","[-225.02382254195174, -198.9476470462862, 61.4124033028669]",10000000000.0,0.025763750076293945
1,-259.6452941894531,-218.0818634033203,49.96187973022461,0.6343379616737362,0.03792827203869818,1.0812040130284166,23.08502242195809,"array('d', [-218.0818634033203, -215.89370088104857, -213.73918077646934, -211.61828454213992, -209.53014177984392, -207.47334655220976, -205.44617171610173, -203.4467181386452, -201.47301885691454, -199.52311114217662, -197.5950854818174, -195.68711785221842, -193.79748977771965, -191.92459933098317, -190.0669652868657, -188.22322898219738])","array('d', [-259.6452941894531, -258.4389512606942, -257.1721144033319, -255.84916594855534, -254.47483823248658, -253.05390044874437, -251.59095201170328, -250.09030349585274, -248.55591899709387, -246.99139772985262, -245.39997900711964, -243.78456025828282, -242.1477217249659, -240.49175411317358, -238.81868713712723, -237.13032061522657])","array('d', [-49.96187973022461, -49.883273007596586, -49.830812835097944, -49.79535315110635, -49.77106309449971, -49.754189087137384, -49.74228884493095, -49.73375467614193, -49.72751494510219, -49.722845972846066, -49.719252945258475, -49.71639436034486, -49.714034246373956, -49.71201227239954, -49.71022542621998, -49.70861704798675])","array('d', [0.6343379616737362, 0.6162655587249125, 0.5893209041904525, 0.5565793825019951, 0.5204805143225641, 0.4828840874155254, 0.44516195526883096, 0.40829461560044966, 0.3729575491846751, 0.3395923419907552, 0.30846267073157524, 0.2796972378802131, 0.25332220389379684, 0.22928546807613634, 0.20747474087977041, 0.18773092584867132])","array('d', [-0.03792827203869818, -0.025180558066846482, -0.016928441740722527, -0.01153034216082081, -0.007961553558327748, -0.005577528204263745, -0.0039695271111024255, -0.0028760626195819803, -0.002128203245881816, -0.0016155291590247492, -0.001264745654280834, -0.0010261037794210143, -0.0008646805225399007, -0.0007547329625267083, -0.0006760565683564131, -0.0006117214171938098])","array('d', [1.0812040130284166, 1.052882774989858, 1.0258866089177876, 1.0005833280706518, 0.9771526144380086, 0.9556426049314772, 0.9360167009320328, 0.9181876762353278, 0.9020407069744, 0.8874481903319226, 0.8742789881394507, 0.8624040827391384, 0.8517000064576464, 0.8420509277399308, 0.8333499473134338, 0.8254999301570539])",-207.47334655220976,-253.05390044874437,-49.754189087137384,0.4828840874155254,-0.005577528204263745,0.9556426049314772,25.00000024894955,-1.0,"[-258.94040230482403, -216.75902847912548, 49.90500096165062]","[-260.2994205204804, -184.58964968351216, 73.63860872351142]","[-225.02382254195174, -198.9476470462862, 61.4124033028669]",10000000000.0,0.02842855453491211
2,-256.6367492675781,-213.3742218017578,49.957454681396484,0.6249284148216244,0.030426423996686932,1.0284538427975514,23.12499221765706,"array('d', [-213.3742218017578, -211.25183193675477, -209.16497137091972, -207.11272663844167, -205.09359391635968, -203.10572977861074, -201.14711594799408, -199.2156698375343, -197.3093188458494, -195.4260496954313, -193.5639402949939, -191.72117920200122, -189.89607617253165, -188.08706621972053, -186.29270888389797, -184.5116868513466])","array('d', [-256.6367492675781, -255.31726238271435, -253.94143957326082, -252.51413880192644, -251.04020652665707, -249.52428861422177, -247.97072162759423, -246.38348223508592, -244.766173967164, -243.12203603289012, -241.4539641169974, -239.7645369431765, -238.05604496503537, -236.33051916310276, -234.5897589007997, -232.83536121435662])","array('d', [-49.957454681396484, -49.89447507174238, -49.85257761761967, -49.824340637738985, -49.80505260147564, -49.79169144256431, -49.7822968442975, -49.77558166157701, -49.77068969230981, -49.76704366323245, -49.764249316735885, -49.762034748861886, -49.760212155642265, -49.758653978240304, -49.75727833850634, -49.756040373503524])","array('d', [0.6249284148216244, 0.5976945758437617, 0.5646608976093208, 0.5282841762853308, 0.49042724100975815, 0.45245577547867005, 0.41533921064925033, 0.3797403883104627, 0.34608916171858395, 0.31464025649718635, 0.28551769244844166, 0.2587484691343257, 0.23428796816413086, 0.21203907787649212, 0.1918665970214322, 0.17360809198042604])","array('d', [-0.030426423996686932, -0.020134507520708448, -0.013495832921320278, -0.009166471220681848, -0.006311738620204165, -0.004408982669264272, -0.0031280820481278033, -0.002258575800764249, -0.0016649057284130373, -0.0012586949631118735, -0.0009814083770536355, -0.0007933827802907852, -0.0006668035055068, -0.0005811670711647586, -0.0005203591581889397, -0.0004708405618622147])","array('d', [1.0284538427975514, 1.0009623402113936, 0.9751995338124021, 0.9513440122480122, 0.92944076240005, 0.9094495839413796, 0.8912800663671078, 0.8748149870032792, 0.8599252010080374, 0.8464787917026964, 0.8343465416834199, 0.8234051217909183, 0.8135388962401742, 0.8046409024740744, 0.7966133450330708, 0.789367794044806])",-203.10572977861074,-249.52428861422177,-49.79169144256431,0.45245577547867005,-0.004408982669264272,0.9094495839413796,25.00000024896369,-1.0,"[-255.862891989548, -212.09006348613997, 49.91182208702243]","[-255.11353455305027, -179.64221863492688, 73.29078331167847]","[-220.8693128032411, -195.77626745992, 60.36693925262881]",10000000000.0,0.0255587100982666
3,-253.0355224609375,-208.47100830078125,50.031761169433594,0.5107157230377194,-0.01025516819208858,0.9829182783749438,23.217949092485135,"array('d', [-208.47100830078125, -206.4059181870841, -204.37054601322495, -202.36385335770962, -200.38448083907463, -198.43086761667732, -196.50134310419884, -194.59419596552277, -192.70772486743624, -190.84027485339536, -188.9902625194401, -187.15619251192854, -185.33666729376344, -183.53039166320002, -181.73617315159092, -179.9529223395637])","array('d', [-253.0355224609375, -251.62672580183613, -250.17522746103526, -248.6842849406372, -247.15723395666063, -245.59734864917934, -244.00775311152444, -242.3913706027896, -240.75089873107174, -239.08880173671773, -237.40731361523936, -235.7084478588802, -233.99401106427956, -232.26561866137888, -230.5247116888188, -228.77257708553535])","array('d', [-50.031761169433594, -50.05296329350604, -50.06702192505949, -50.076463236074744, -50.082885440267845, -50.08731111446907, -50.09040241422237, -50.09259363058943, -50.09417350661228, -50.09533674215185, -50.096216409682654, -50.09690440569328, -50.097464306708446, -50.09793934535619, -50.09835723480824, -50.09873298963113])","array('d', [0.5107157230377194, 0.4885124689257092, 0.461966100628739, 0.43282543013835373, 0.4024508925226469, 0.37187263070683496, 0.3418495950257705, 0.3129231805416538, 0.28546288723032504, 0.2597037223118585, 0.23577611860487582, 0.21372951385942432, 0.19355076007119498, 0.17517840558467415, 0.15851371967200428, 0.1434291578221236])","array('d', [0.01025516819208858, 0.006764966415236938, 0.004519459892697001, 0.0030579877405261698, 0.0020958320853616294, 0.001455392950590883, 0.0010248301222215844, 0.0007330113036792474, 0.0005342060556724064, 0.00039864384859791526, 0.00030662523749895305, 0.000244802892408038, 0.00020380189731911892, 0.0001766814426387312, 0.00015794271660811822, 0.0001429124105895154])","array('d', [0.9829182783749438, 0.9615093118439232, 0.9413268827209393, 0.9225077666354015, 0.9051055938326902, 0.8891160500032527, 0.8744963923771796, 0.8611797235630276, 0.8490850621571395, 0.8381242943987118, 0.8282069174191915, 0.8192432639415484, 0.8111467015396978, 0.8038351466384185, 0.7972321228103083, 0.7912675057070719])",-198.43086761667732,-245.59734864917934,-50.08731111446907,0.37187263070683496,0.001455392950590883,0.8891160500032527,25.000000248969467,-1.0,"[-255.862891989548, -212.09006348613997, 49.91182208702243]","[-255.11353455305027, -179.64221863492688, 73.29078331167847]","[-220.8693128032411, -195.77626745992, 60.36693925262881]",10000000000.0,0.019091367721557617
4,-249.48782348632812,-204.11607360839844,50.299705505371094,0.41625958681106534,-0.02109127491712568,0.9444415132191515,23.23671105497152,"array('d', [-204.11607360839844, -202.1035619056185, -200.11560492270087, -198.15137139820612, -196.2097452375013, -194.28944023672074, -192.38907854929136, -190.50724708063413, -188.64253867537792, -186.79358202153966, -184.95906285209745, -183.1377382955916, -181.32844576512792, -179.53010745020774, -177.74173123504457, -175.96241218774168])","array('d', [-249.48782348632812, -248.00534789791004, -246.48973846590314, -244.94335212436462, -243.36860521295407, -241.76789553533348, -240.14354309575637, -238.4977499131459, -236.8325755473261, -235.14992444113676, -233.45154172230713, -231.73901488187605, -230.01377945469375, -228.27712739163326, -226.5302172329142, -224.7740889334615])","array('d', [-50.299705505371094, -50.34312706502475, -50.37157794950706, -50.39037217901302, -50.402865360917026, -50.41120190304701, -50.416769912266275, -50.42048056243367, -50.42294113701663, -50.42456302114764, -50.42562942923201, -50.42633786196324, -50.42682644568306, -50.42718982408245, -50.427488217098194, -50.427752084568155])","array('d', [0.41625958681106534, 0.3987240943615243, 0.377689953939618, 0.3544872080407518, 0.330170311861761, 0.3055565710501257, 0.2812645650537463, 0.2577494129356335, 0.2353334887946949, 0.21423227803153427, 0.1945756491719468, 0.1764250757694673, 0.1597874155989344, 0.14462583027584966, 0.13086836162043253, 0.11841460115642398])","array('d', [0.02109127491712568, 0.013769931933780243, 0.009069697125589502, 0.006016762857254503, 0.004011281277895577, 0.002680170788986314, 0.0017891051227871026, 0.0011894200573779308, 0.0007857735482415337, 0.0005162303558385819, 0.0003398386943406575, 0.00022876049841260218, 0.00016320015324882269, 0.00012808830007588975, 0.00011091263508618993, 0.0001003578291947142])","array('d', [0.9444415132191515, 0.9275097614792567, 0.911469492692872, 0.8964339825414841, 0.8824586372736892, 0.869556099640412, 0.8577085221064502, 0.8468771014561689, 0.837009279259778, 0.8280440909531664, 0.8199161104397602, 0.8125583591044063, 0.8059044648825433, 0.7998902842044516, 0.7944551417307025, 0.7895427896064641])",-194.28944023672074,-241.76789553533348,-50.41120190304701,0.3055565710501257,0.002680170788986314,0.869556099640412,25.000000248974295,-1.0,"[-252.20367137142134, -207.22289486679458, 50.04714365209305]","[-249.63440580626335, -172.41204585143504, 69.58182218247933]","[-216.3513808999521, -191.93197892227354, 59.03609006015375]",10000000000.0,0.025034666061401367
5,-245.58274841308594,-199.53817749023438,50.66038131713867,0.3450104892253874,-0.00507464958354841,0.9149325648930413,23.228291763991628,"array('d', [-199.53817749023438, -197.5675457784412, -195.6178011557112, -193.68815337956613, -191.7776266772883, -189.88512419551168, -188.00947999173107, -186.14950035065115, -184.30399596646967, -182.47180639338654, -180.6518180143035, -178.84297660712008, -177.0442954162164, -175.2548594775131, -173.47382680585378, -171.70043005618544])","array('d', [-245.58274841308594, -244.04443491297613, -242.47970758035575, -240.89025166827201, -239.2778569967134, -237.64434091222805, -235.9914924601108, -234.32103377482733, -232.63459480083893, -230.93369803093665, -229.21975062964802, -227.49404193869714, -225.75774488533366, -224.01192022571738, -222.25752286734001, -220.495412833875])","array('d', [-50.66038131713867, -50.670425483380946, -50.67622437262168, -50.67929843668356, -50.68060856023828, -50.68077098085081, -50.68018783792776, -50.67912721089642, -50.677772571910275, -50.676253447354505, -50.67466429900142, -50.673075804502474, -50.67154104288595, -50.67009812036918, -50.66877024605219, -50.667564037629276])","array('d', [0.3450104892253874, 0.3312883002970324, 0.314531642267534, 0.2958262248397904, 0.27604465367887343, 0.2558746373479438, 0.23584681588961134, 0.21636044293219217, 0.19770606278775338, 0.18008493029430866, 0.1636252783824296, 0.14839572031763545, 0.13441614459595794, 0.12166646748752734, 0.11009358203324532, 0.09961680153191549])","array('d', [0.00507464958354841, 0.0029953925538720077, 0.0016659018493068109, 0.0008076671356192636, 0.00024973910992149667, -0.000113739080324631, -0.00034885308892208247, -0.0004971742614200515, -0.0005850706827531879, -0.0006294880544682776, -0.0006416281795408151, -0.0006293719508434169, -0.0005989449897202156, -0.0005561076880339475, -0.0005070108385978085, -0.00045876250178563386])","array('d', [0.9149325648930413, 0.9011383832699711, 0.8880135686674202, 0.8756585195758809, 0.8641289123505728, 0.8534461211756522, 0.8436059541886064, 0.8345857115568993, 0.8263497537258896, 0.8188538337025872, 0.8120484473065377, 0.8058814250463902, 0.8002999493922712, 0.7952521422877012, 0.790688334241735, 0.7865620921959857])",-189.88512419551168,-237.64434091222805,-50.68077098085081,0.2558746373479438,-0.000113739080324631,0.8534461211756522,25.000000248977692,-1.0,"[-248.60872589308426, -202.90108937980426, 50.33134007222837]","[-244.50662632354127, -166.54474135935058, 66.49886114805224]","[-212.1070468943632, -188.26664449148117, 57.64300562017031]",10000000000.0,0.020992040634155273
6,-241.93637084960938,-195.3673858642578,50.93899154663086,0.28967610001564,0.009326817467808663,0.8936594287541251,23.2459593068805,"array('d', [-195.3673858642578, -193.42810898107433, -191.5066433845546, -189.60235451142452, -187.71443832234863, -185.84197851109096, -183.98399217217465, -182.13946621733103, -180.30738604796028, -178.48675766855072, -176.67662423982517, -174.87607792329692, -173.0842677372067, -171.30040402443083, -169.52376002688112, -167.7536744604986])","array('d', [-241.93637084960938, -240.35879801217638, -238.75951793123852, -237.13979327175988, -235.50099823703394, -233.84455561138603, -232.1718886034073, -230.48438561771493, -228.78337558821204, -227.07011163233875, -225.3457611277055, -223.61140069368355, -221.8680149090252, -220.11649788847598, -218.35765707438603, -216.59222225033892])","array('d', [-50.93899154663086, -50.91906913302346, -50.90461313432957, -50.893695355785994, -50.88510555388546, -50.87807726923761, -50.87212179345064, -50.86692662416663, -50.86229266885567, -50.858094850094886, -50.854256842833294, -50.8507342616307, -50.84750276421851, -50.844548861110255, -50.84186208359405, -50.83942778661275])","array('d', [0.28967610001564, 0.279350858030322, 0.2661878088241863, 0.251129537762215, 0.23494303190865828, 0.21824165310942892, 0.20150673524190665, 0.18510764906583108, 0.16931972155897923, 0.15433978440333948, 0.14029937316837435, 0.12727573822825244, 0.11530089444484323, 0.10436895641884843, 0.0944419990872703, 0.08545466234819518])","array('d', [-0.009326817467808663, -0.006655843877714717, -0.004937683182885817, -0.0038152915169154655, -0.0030690130276764148, -0.002562078774328136, -0.0022082095817688727, -0.0019521995636596822, -0.0017582030254650375, -0.0016026484906749344, -0.0014699718077374464, -0.0013500938634199388, -0.001236991534147602, -0.0011279505018407844, -0.0010232190345926954, -0.0009258470352111507])","array('d', [0.8936594287541251, 0.8821873503444777, 0.8712147528058324, 0.860837468714508, 0.8511138092639983, 0.842072493626114, 0.8337194659919901, 0.8260435689062087, 0.8190211649107422, 0.8126198537773512, 0.8068014452349165, 0.8015243368416605, 0.7967454264937088, 0.7924216665336608, 0.7885113453611462, 0.7849751574868119])",-185.84197851109096,-233.84455561138603,-50.87807726923761,0.21824165310942892,-0.002562078774328136,0.842072493626114,25.000000248979827,-1.0,"[-244.66799416073627, -198.34941060133156, 50.66799325884335]","[-239.3928747926501, -161.0443710618483, 64.10328784474778]","[-207.69242442190807, -184.05506134055523, 56.00454848670307]",10000000000.0,0.017789602279663086
7,-237.93197631835938,-190.8895721435547,51.20785140991211,0.24221877753734564,0.011834290809929305,0.8706777254727223,23.272284457844584,"array('d', [-190.8895721435547, -188.9855013766722, -187.09659636082768, -185.22233219317164, -183.36203251569435, -181.51492138113932, -179.68016339722402, -177.85689537448673, -176.04425121579493, -174.241381194067, -172.4474664887695, -170.6617296884842, -168.88344184717266, -167.11192658299666, -165.3465616234807, -163.58678159848714])","array('d', [-237.93197631835938, -236.31215480422185, -234.6745790977461, -233.02022111829658, -231.350152278731, -229.66549521236166, -227.96738477382297, -226.25693822959744, -224.5352334542765, -222.80329372086356, -221.06207777375838, -219.31247407884578, -217.55529836510382, -215.7912937711158, -214.02113307709152, -212.24542613057773])","array('d', [-51.20785140991211, -51.1825601782374, -51.164182029957864, -51.1502755678679, -51.139309950563046, -51.13031661650107, -51.12267863942792, -51.11600204189103, -51.110036286857344, -51.10462442935217, -51.09967115252127, -51.09512147547771, -51.090945649598545, -51.08712744056769, -51.083654090274294, -51.080507049168844])","array('d', [0.24221877753734564, 0.23417405392840665, 0.22362073431467552, 0.21135892377171242, 0.1980440368046588, 0.1842045958424069, 0.17025945444935786, 0.15653373668463114, 0.14327310735446525, 0.13065622688028833, 0.11880540329964454, 0.10779554868814308, 0.09766159605939781, 0.08840455101345335, 0.07999635168086962, 0.07238369886325094])","array('d', [-0.011834290809929305, -0.008455415516384023, -0.006283470659368296, -0.004865413234682937, -0.003922833091493257, -0.003282531237466861, -0.0028353202865163923, -0.0025113682280165604, -0.002265344459479405, -0.0020674462267447, -0.0018980044227204494, -0.001744303230702716, -0.0015987865047603534, -0.001458128338292716, -0.0013228101426780484, -0.001196928304411211])","array('d', [0.8706777254727223, 0.8611527537175209, 0.8520141465021365, 0.8433467821315485, 0.835204608617247, 0.8276167913461467, 0.8205930554022051, 0.8141282061290261, 0.808205886460029, 0.8028016661151886, 0.7978855688519845, 0.793424140276682, 0.7893821478081434, 0.7857239909533907, 0.7824148867420045, 0.7794218773662344])",-181.51492138113932,-229.66549521236166,-51.13031661650107,0.1842045958424069,-0.003282531237466861,0.8276167913461467,25.000000248982165,-1.0,"[-240.99656545790063, -194.1983819699267, 50.92500152326212]","[-234.87940821342605, -156.29957546644044, 62.16158698583397]","[-203.7059710312629, -180.23489454435548, 54.72402590116895]",10000000000.0,0.020383834838867188
8,-234.1800994873047,-186.79689025878906,51.47433853149414,0.20915652811527224,0.010071512311696928,0.8532361547139025,23.286793358643052,"array('d', [-186.79689025878906, -184.92022300303907, -183.05686485920052, -181.20635198433462, -179.36809041008868, -177.5413994713273, -175.72554618696904, -173.9197727322222, -172.1233182427481, -170.3354358246543, -168.55540546354916, -166.78254341079042, -165.0162085350904, -163.25580605001971, -161.5007889590907, -159.75066095367015])","array('d', [-234.1800994873047, -232.52855334888056, -230.8619424525692, -229.18104858833482, -227.48674795829513, -225.77996889884926, -224.06165773305042, -222.33275239657686, -220.5941628087497, -218.8467568425637, -217.09135084060966, -215.3287037847317, -213.55951439677474, -211.7844206021422, -210.0040009194983, -208.21878096295504])","array('d', [-51.47433853149414, -51.45250042627711, -51.43604326060155, -51.423074305169614, -51.41240985082123, -51.40330434692325, -51.39528680542868, -51.38806097131125, -51.381443645749926, -51.37532588367381, -51.36964780641194, -51.364381312791714, -51.35951709876808, -51.35505372918618, -51.35098741805799, -51.34730189685012])","array('d', [0.20915652811527224, 0.20255640979183068, 0.1937080482142274, 0.18331086065235103, 0.17193996593576039, 0.16006138790763574, 0.14804658928093892, 0.13618586116379566, 0.12470030953915459, 0.11375234292625584, 0.10345467647870685, 0.0938779361615815, 0.08505698345019376, 0.07699609606942423, 0.0696731413221466, 0.06304287101039273])","array('d', [-0.010071512311696928, -0.007443046970035284, -0.005751008676143042, -0.004642691571061929, -0.003901266343093852, -0.003391654232187786, -0.003028448917632869, -0.0027567587188403104, -0.002540711959752717, -0.0023565743265316357, -0.00218869196077966, -0.0020272000215762905, -0.0018668485993715844, -0.0017065234741958121, -0.0015491521026089986, -0.001401730997536701])","array('d', [0.8532361547139025, 0.8450444981717198, 0.8371693897402264, 0.829686851046917, 0.8226463525496982, 0.8160759037627859, 0.8099864969350347, 0.8043759006945796, 0.7992318496230597, 0.7945347008338484, 0.7902596370016938, 0.7863784935337379, 0.782861280529979, 0.7796774610235956, 0.7767970375918151, 0.774191485637647])",-177.5413994713273,-225.77996889884926,-51.40330434692325,0.16006138790763574,-0.003391654232187786,0.8160759037627859,25.000000248983774,-1.0,"[-236.9655814033227, -189.7425038067003, 51.19010038804372]","[-229.94189132111748, -151.49366261971, 60.554603870958616]","[-199.35340233833426, -176.4268261601581, 54.02148075751443]",10000000000.0,0.020421743392944336
9,-230.05029296875,-182.3845672607422,51.78083038330078,0.17949166893959023,0.012497814372181802,0.8362471620228631,23.30272144214752,"array('d', [-182.3845672607422, -180.5352611776513, -178.69752927012547, -176.87097602189723, -175.05508712785985, -173.24927043531858, -171.45288715853675, -169.6652763537097, -167.8857741769209, -166.11372885869133, -164.34851206316648, -162.58952715644776, -160.83621481341234, -159.08805631871752, -157.34457485589698, -155.60533846118648])","array('d', [-230.05029296875, -228.36823977543096, -226.67345332908178, -224.9665776184994, -223.2483355946211, -221.5194966536021, -219.78084889904844, -218.03317699947962, -216.27724528320323, -214.51378535933668, -212.74348751472763, -210.96699521190845, -209.184902122, -207.39775123606893, -205.60603569680444, -203.81020461615464])","array('d', [-51.78083038330078, -51.75375696236266, -51.73340003793681, -51.71739434454238, -51.70426121251489, -51.69306951083668, -51.68323098634698, -51.674375444307955, -51.66627367433172, -51.658788994392616, -51.65184583296454, -51.645408207991444, -51.63946362341583, -51.63400957012249, -51.62904095469607, -51.6245376750343])","array('d', [0.17949166893959023, 0.17403037388402817, 0.1665931729102642, 0.15778457492874515, 0.14810291118801924, 0.13795332839477523, 0.12766006711321837, 0.11747771349215695, 0.10760125784931769, 0.0981749043475566, 0.08929965261614517, 0.08103972037405686, 0.0734279028092744, 0.06646997596425466, 0.06014825269702421, 0.05442439459915299])","array('d', [-0.012497814372181802, -0.009216100818307987, -0.0071048415833553525, -0.0057228557803640535, -0.004799108383088874, -0.004164863395923605, -0.003713506040676638, -0.003376563245632069, -0.0031093221488005048, -0.002882219229813357, -0.002675761140038379, -0.0024776493860592936, -0.0022812982446766355, -0.0020852188107252016, -0.0018928846321253348, -0.001712753080140622])","array('d', [0.8362471620228631, 0.8292397334368896, 0.8224937986807941, 0.8160760265464269, 0.8100304722491009, 0.8043828030329095, 0.7991439938418516, 0.7943135005920092, 0.7898819501847256, 0.7858334027002291, 0.7821472467420209, 0.7787997877187373, 0.7757655840133528, 0.7730185795687633, 0.7705330746880047, 0.7682845660802132])",-173.24927043531858,-221.5194966536021,-51.69306951083668,0.13795332839477523,-0.004164863395923605,0.8043828030329095,25.000000248985195,-1.0,"[-233.19382685897077, -185.66682916276127, 51.45923151842717]","[-225.48431744082342, -147.25616854983787, 59.532930535006365]","[-195.3493548800826, -172.92187166592834, 53.77483058628624]",10000000000.0,0.018199920654296875
10,-226.18426513671875,-178.3292694091797,52.05693054199219,0.15579500794410683,0.013409113511443053,0.8241984407093862,23.330221196429655,"array('d', [-178.3292694091797, -176.49957933398005, -174.6800495102591, -172.87035329372185, -171.07005204819447, -169.27863353638148, -167.49554077619746, -165.72019452822613, -163.95201097004758, -162.19041546680359, -160.43485306156649, -158.6847961613818, -156.93974980229035, -155.19925480808143, -153.46288910144037, -151.73027081065783])","array('d', [-226.18426513671875, -224.48092765703993, -222.76663457947947, -221.04191052967514, -219.30735351822358, -217.56360764847605, -215.81133890064237, -214.05121531087494, -212.28389151666593, -210.5099971930296, -208.73012880409513, -206.94484412561593, -205.1546590686193, -203.36004641774795, -201.56143617617548, -199.759220841006])","array('d', [-52.05693054199219, -52.0277690336045, -52.005630802763704, -51.98804488917419, -51.97346800421761, -51.960929815837325, -51.949818959578536, -51.939752594528926, -51.93049586769154, -51.92191123408093, -51.913925477823575, -51.90650692170505, -51.89964809927773, -51.893350917063486, -51.88761254698335, -51.88241126727351])","array('d', [0.15579500794410683, 0.15150535684896715, 0.14537920681786878, 0.1379606305725117, 0.1296999205331559, 0.12096490891483105, 0.11205161534805576, 0.10319399219479658, 0.09457264399583881, 0.08632247998144382, 0.0785393170564508, 0.07128548856828056, 0.06459453603515024, 0.05847507118974177, 0.05291389775075332, 0.04787847895552811])","array('d', [-0.013409113511443053, -0.009977873468071191, -0.0077697814915637965, -0.006323198387791768, -0.005354535228239783, -0.00468719025626743, -0.004209492951504787, -0.0038496241410890504, -0.0035605957710987653, -0.003311283587336702, -0.0030811709704379976, -0.0028574152785262527, -0.0026333867461833887, -0.002408122175264144, -0.002186278676507238, -0.0019782270137127488])","array('d', [0.8241984407093862, 0.8181227365229864, 0.8122567281131429, 0.8066625594876893, 0.8013822028901678, 0.7964411172025471, 0.7918514603673587, 0.7876148654783945, 0.7837248128544534, 0.7801686425522391, 0.7769292562478647, 0.7739865569195609, 0.771318671421432, 0.7689029963439854, 0.7667171024738321, 0.7647395243475834])",-169.27863353638148,-217.56360764847605,-51.960929815837325,0.12096490891483105,-0.00468719025626743,0.7964411172025471,25.000000248986048,-1.0,"[-229.04499251940004, -181.2714546944377, 51.762084149763865]","[-220.67007400151377, -142.76784498354618, 58.641966347164235]","[-190.98707223339426, -169.08100193705087, 53.49054157589555]",10000000000.0,0.018360614776611328
11,-221.92861938476562,-173.937744140625,52.3434944152832,0.1362848132848737,0.016007548198103832,0.8138374249127246,23.37097318323444,"array('d', [-173.937744140625, -172.125189641794, -170.3215947222564, -168.52669976067176, -166.74013361780058, -164.96145287908266, -163.19016999400287, -161.42577464555063, -159.66775033952214, -157.91558727149322, -156.16879213136724, -154.42689531453007, -152.68945590087196, -150.95606469058322, -149.22634553033697, -147.49995855130678])","array('d', [-221.92861938476562, -220.20716208710726, -218.47616863430872, -216.7360804550281, -214.9874020951882, -213.2306809169556, -211.46648695628687, -209.6953955868932, -207.91797358677258, -206.13476846376722, -204.34630066276375, -202.5530582387313, -200.75549361383096, -198.95402209369942, -197.14902187799487, -195.34083894556298])","array('d', [-52.3434944152832, -52.30874690838367, -52.282485826539265, -52.26172221863831, -52.24458915971108, -52.229912409974865, -52.216951454906486, -52.2052416783141, -52.19449695100994, -52.1845483778869, -52.175304515576734, -52.16672399584851, -52.15879486212835, -52.15151704220453, -52.144885833587544, -52.138875437818804])","array('d', [0.1362848132848737, 0.1329265018186536, 0.127853994965084, 0.12156102366268566, 0.1144575898470096, 0.10687995142329701, 0.09909998189433798, 0.09133372843819408, 0.0837490734763135, 0.07647246866872807, 0.06959475640405378, 0.06317612446157186, 0.05725025776898964, 0.0518277601706634, 0.04689892148286302, 0.04243590286679023])","array('d', [-0.016007548198103832, -0.011860552324439133, -0.00919320229793558, -0.007447006970910629, -0.006279032254599515, -0.005475834124557433, -0.00490254010423311, -0.004472489503133325, -0.004129048048056839, -0.003834741033225909, -0.0035648676404767656, -0.003303914784196697, -0.003043742966251887, -0.002782872986605293, -0.002526378922900268, -0.002285962470335223])","array('d', [0.8138374249127246, 0.8085244797705962, 0.8033804490934917, 0.7984634752075602, 0.7938135114060171, 0.7894555422291567, 0.7854024192244861, 0.7816573233216552, 0.7782158816519669, 0.7750679758375938, 0.7721992823431854, 0.7695925852848022, 0.7672288996491445, 0.765088439297076, 0.7631514601491963, 0.7613990015539353])",-164.96145287908266,-213.2306809169556,-52.229912409974865,0.10687995142329701,-0.005475834124557433,0.7894555422291567,25.000000248986716,-1.0,"[-225.1656384235626, -177.2283629264303, 52.03681747447376]","[-216.32021524510978, -138.6728797413323, 57.972573968613034]","[-186.96270903845897, -165.44859590784492, 53.368461340015216]",10000000000.0,0.019464731216430664
12,-217.96127319335938,-169.89938354492188,52.602073669433594,0.12136740982532475,0.015202915295958425,0.8036061088230945,23.412113743630574,"array('d', [-169.89938354492188, -168.10400833067413, -166.3166864093054, -164.53717832128217, -162.765146722256, -161.00019060576892, -159.24187012909863, -157.48972558034444, -155.7432921434799, -154.00211136264133, -152.26573987935797, -150.5337558558776, -148.80576340481426, -147.08139528158796, -145.36031404677271, -143.6422152957384])","array('d', [-217.96127319335938, -216.22187644298782, -214.47407588102482, -212.71825438768872, -210.95485174405, -209.1843464479425, -207.4072378843095, -205.6240309970711, -203.8352239364648, -202.04129855172124, -200.24271340728836, -198.43989896885228, -196.63325463293324, -194.8231473203948, -193.00991140377872, -191.19385340586294])","array('d', [-52.602073669433594, -52.56878601992191, -52.54310013688033, -52.52234674500492, -52.504861412249205, -52.48960053668207, -52.47590988236203, -52.46338358795038, -52.4517771297694, -52.44095244767362, -52.43084199266435, -52.42142347671837, -52.412700125710565, -52.40468315593741, -52.397374555743916, -52.390749396537444])","array('d', [0.12136740982532475, 0.11838852226125905, 0.11388236076860746, 0.10828784919262849, 0.10196959962177468, 0.09522682534876396, 0.08830164530917492, 0.08138665019896899, 0.07463166358021273, 0.06814968068095797, 0.06202200328663646, 0.05630261289250436, 0.05102183852267885, 0.046189382643302176, 0.04179677036944777, 0.03781928520875558])","array('d', [-0.015202915295958425, -0.011489946096736947, -0.009099012137925648, -0.007530066737103874, -0.006475899633938381, -0.005745068513079659, -0.005216330115450461, -0.004811500674694111, -0.004479241913474615, -0.0041854320998736564, -0.003907588879806768, -0.003631841663118014, -0.0033515294250161874, -0.0030668070803498704, -0.002784786038565141, -0.002519778918801892])","array('d', [0.8036061088230945, 0.7988804194194061, 0.794304152538134, 0.7899289965869453, 0.7857905575061322, 0.7819111907202232, 0.7783024920588927, 0.7749674622138789, 0.7719023710842039, 0.7690983547231498, 0.7665427798832557, 0.7642204106924232, 0.762114409878594, 0.7602072039965275, 0.758481238843326, 0.75691964490908])",-161.00019060576892,-209.1843464479425,-52.48960053668207,0.09522682534876396,-0.005745068513079659,0.7819111907202232,25.00000024898736,-1.0,"[-220.89868040733978, -172.8474922392629, 52.31948411842285]","[-211.64995059087374, -134.27242456568172, 57.46002404732571]","[-182.5765665545506, -161.42304812217603, 53.2669367396245]",10000000000.0,0.019598007202148438
13,-213.67286682128906,-165.58999633789062,52.903926849365234,0.10582042485475517,0.014540578238665978,0.7949780980732776,23.425198508902458,"array('d', [-165.58999633789062, -163.80915049211129, -162.03539898376667, -160.2685428414297, -158.50829375848116, -156.7543043560169, -155.00619049650422, -153.2635485061391, -151.52596867415267, -149.79304579257732, -148.06438723324885, -146.33961892485368, -144.61838951301002, -142.9003729301507, -141.18526955774604, -139.47280955087678])","array('d', [-213.67286682128906, -211.91857511282876, -210.15699922540284, -208.38844915912588, -206.61329035438672, -204.83192672156022, -203.0447842630145, -201.25229699901223, -199.4548955627835, -197.65299834201338, -195.8470048882753, -194.0372912896613, -192.22420722426844, -190.4080744505003, -188.58918653143095, -186.76781326678503])","array('d', [-52.903926849365234, -52.8717668780354, -52.84636242909022, -52.82535145892467, -52.807264298117076, -52.79118328038032, -52.77653773475881, -52.76297918418072, -52.75030427335118, -52.73840599911011, -52.727241382182015, -52.71680816002042, -52.70712576262007, -52.69821756749223, -52.690092709492035, -52.68272686020452])","array('d', [0.10582042485475517, 0.10354656792632884, 0.09985140049216013, 0.09513297528315474, 0.08972292782537802, 0.08389434971139757, 0.07786911008751966, 0.07182452326335582, 0.06589931002097713, 0.060198839534522285, 0.05479966767519486, 0.04975340708721375, 0.0450899764855113, 0.04082028285483615, 0.036938392098628245, 0.03342324236018068])","array('d', [-0.014540578238665978, -0.011243127967754294, -0.009116264937918329, -0.007716068358106469, -0.006769576293892677, -0.006106389989422413, -0.0056182565620676505, -0.005235030015611741, -0.004910358205055925, -0.004613253363526321, -0.0043233066983452105, -0.004028217875807505, -0.0037228141059061346, -0.003408992210913036, -0.0030961248460680047, -0.0028014899469701424])","array('d', [0.7949780980732776, 0.7908559970737602, 0.7868527311455176, 0.7830165229617285, 0.7793810636669722, 0.7759680226985728, 0.7727892599411056, 0.7698487546567803, 0.7671442743661594, 0.7646688116511122, 0.7624118186140377, 0.7603602683899056, 0.7584995714644449, 0.756814372204672, 0.7552892483784005, 0.7539093310481753])",-156.7543043560169,-204.83192672156022,-52.79118328038032,0.08389434971139757,-0.006106389989422413,0.7759680226985728,25.000000248987813,-1.0,"[-212.62252726559348, -164.51933713098498, 52.88211675057197]","[-202.64143034881403, -125.98624059355726, 56.82903650845038]","[-174.09051816466376, -153.79771202494481, 53.45746858327782]",10000000000.0,0.02307415008544922
14,-209.7049102783203,-161.64695739746094,53.188323974609375,0.0951755270361898,0.016180461272597226,0.7888619462635851,23.42862942939401,"array('d', [-161.64695739746094, -159.87654241062867, -158.11253840169678, -156.35478442914172, -154.6030307666521, -152.85696943925572, -151.11625606976864, -149.38052645222933, -147.649409430929, -145.92253692221882, -144.1995515950263, -142.48011257038, -140.76389941220603, -139.05061462282143, -137.33998481212163, -135.63176409060026])","array('d', [-209.7049102783203, -207.9401619570828, -206.16886795964916, -204.39129984088567, -202.60777821051613, -200.818659459752, -199.0243216033853, -197.2251516217112, -195.42153497932773, -193.61384736092765, -191.80244844162115, -189.9876774493379, -188.16985027985314, -186.34925795066164, -184.52616621234432, -182.7008198156637])","array('d', [-53.188323974609375, -53.15254651369417, -53.12430081310877, -53.100952621598445, -53.08086297211924, -53.063008478771344, -53.04675265829275, -53.03170673114318, -53.0176436674409, -53.00444380687832, -52.99205882462359, -52.980485770245025, -52.96974589875741, -52.959864946502485, -52.95085292956943, -52.94268280922235])","array('d', [0.0951755270361898, 0.09337436283509619, 0.0902268507131381, 0.08610279191971379, 0.08131096460918166, 0.07610628834758523, 0.0706964807765312, 0.06524811947318303, 0.059892064304749186, 0.05472822918040873, 0.049829716991047546, 0.045246348661996436, 0.041007627985117354, 0.0371251896185013, 0.03359477954621214, 0.030397816337316717])","array('d', [-0.016180461272597226, -0.012503833926311353, -0.010132766537338413, -0.008572095039185585, -0.007517392645591427, -0.006778647384569416, -0.006235167006283325, -0.00580876065671375, -0.00544777160491451, -0.005117672562734002, -0.004795724448789223, -0.004468215572029676, -0.004129360774962043, -0.0037812291016229116, -0.003434189340445592, -0.003107383378827829])","array('d', [0.7888619462635851, 0.7851521924863729, 0.7815408192189229, 0.778073595251536, 0.7747828171629915, 0.7716896040202614, 0.7688059229098532, 0.7661363593760522, 0.7636796538493222, 0.7614300290426146, 0.7593783347426509, 0.7575130361485513, 0.75582107053837, 0.7542885950608943, 0.75290164620386, 0.7516467267083805])",-152.85696943925572,-200.818659459752,-53.063008478771344,0.07610628834758523,-0.006778647384569416,0.7716896040202614,25.000000248988105,-1.0,"[-212.62252726559348, -164.51933713098498, 52.88211675057197]","[-202.64143034881403, -125.98624059355726, 56.82903650845038]","[-174.09051816466376, -153.79771202494481, 53.45746858327782]",10000000000.0,0.021151065826416016
15,-205.38827514648438,-157.39877319335938,53.49169158935547,0.08266420662403082,0.01432608999311913,0.780263737836156,23.42570065922028,"array('d', [-157.39877319335938, -155.64312598014854, -153.89310623858654, -152.14856857761995, -150.40929277318932, -148.67500847586513, -146.94541360965977, -145.22018865318765, -143.4990078770803, -141.78154814998393, -140.0674957169911, -138.35655124659004, -136.6484333760702, -134.94288093759062, -133.23965400925474, -131.53853730513302])","array('d', [-205.38827514648438, -203.60876496218393, -201.8236238097763, -200.03307243387442, -198.23737888936247, -196.43684496877168, -194.63179301877216, -192.82255450232495, -191.00946062398216, -189.1928349524082, -187.3729878460427, -185.550212460089, -183.7247821237757, -181.89694890088558, -180.06694317424646, -178.23497778100895])","array('d', [-53.49169158935547, -53.459491319102334, -53.433124914614794, -53.41057005626769, -53.39057383887098, -53.372360494265536, -53.35545558258685, -53.339579081696975, -53.324579306377494, -53.310390783631874, -53.29700568274532, -53.28445219421655, -53.27277556360166, -53.26201903245495, -53.25220316368783, -53.2433032244464])","array('d', [0.08266420662403082, 0.08119260299530584, 0.0785264183154093, 0.0749910118430769, 0.0708583094811362, 0.06635307442671962, 0.061658714941241574, 0.05692256347078961, 0.05226059472322704, 0.04776157678620647, 0.04349066903090008, 0.03949249416512418, 0.03579372041036688, 0.032405194412680076, 0.029323667059983856, 0.026533153593101044])","array('d', [-0.01432608999311913, -0.011482287283041315, -0.009641930947532185, -0.008422543278639078, -0.007588514776007303, -0.006992236976654985, -0.006539350460439308, -0.006168128298197684, -0.005837283048477516, -0.005518907163453148, -0.005194634165776832, -0.0048538832152385395, -0.004493467648272012, -0.004118046557630006, -0.0037409591722197323, -0.0033849602264207366])","array('d', [0.780263737836156, 0.7770421391952047, 0.7739026496028556, 0.7708858689965737, 0.7680205776579248, 0.7653257356392272, 0.7628122470568448, 0.7604845035247805, 0.7583417258878756, 0.7563791260610402, 0.7545889116617143, 0.7529611557465307, 0.7514845527764126, 0.7501470802878272, 0.748936583898031, 0.7478412992093482])",-148.67500847586513,-196.43684496877168,-53.372360494265536,0.06635307442671962,-0.006992236976654985,0.7653257356392272,25.000000248988506,-1.0,"[-204.32229249745637, -156.34368114020032, 53.47020318941866]","[-193.77237176486523, -117.87958438058897, 56.505402194969975]","[-165.63658368062397, -146.17834330300627, 53.75628009335741]",10000000000.0,0.03126168251037598
16,-201.38601684570312,-153.49658203125,53.77532958984375,0.07594484835863093,0.014654972590505983,0.774606899419103,23.415817529182096,"array('d', [-153.49658203125, -151.7508007658189, -150.0102067822634, -148.2746624329151, -146.5439617430299, -144.81785325485626, -143.09605694734617, -141.3782773127514, -139.6642136112214, -137.9535678843535, -136.24605110882348, -134.54138776753973, -132.83931905198364, -131.13960486336182, -129.44202474383974, -127.74638122572838])","array('d', [-201.38601684570312, -199.59684318626196, -197.80252613719523, -196.00327118817208, -194.19932523131493, -192.39096481504896, -190.57848451608157, -188.76218676839252, -186.942373490423, -185.11933947969524, -183.2933674160701, -181.46472428304338, -179.63365902179362, -177.80040125111128, -175.96516090889355, -174.12813235920976])","array('d', [-53.77532958984375, -53.74220925027839, -53.71476778622677, -53.69104364401192, -53.669823714981234, -53.65035951863334, -53.6321965694719, -53.615070657151335, -53.59884371308895, -53.583462801149444, -53.56893204454006, -53.55529097931918, -53.54259507345677, -53.53089567478698, -53.520217891986704, -53.5105361618595])","array('d', [0.07594484835863093, 0.07452534825666897, 0.07202803800076485, 0.06874814092686125, 0.06493224021242197, 0.060784026105174166, 0.056469603904956256, 0.05212230926280786, 0.047847006136392256, 0.043723865328226266, 0.039811638205616805, 0.036150451704503116, 0.03276415795774505, 0.02966227573778719, 0.02684156212035754, 0.024287251964816254])","array('d', [-0.014654972590505983, -0.011888237086259931, -0.010095287720380599, -0.008904181877514503, -0.008085620730925468, -0.00749573421920393, -0.007042316823891464, -0.006664817576126786, -0.006322538656536708, -0.005987851702217754, -0.005642578820155979, -0.005276435461320342, -0.004886832207968957, -0.0044795157139863526, -0.004069575101738147, -0.0036823042424745166])","array('d', [0.774606899419103, 0.7716495581119431, 0.7687698434677247, 0.7660043206772327, 0.7633788500634534, 0.7609104027514482, 0.7586086605980917, 0.7564774148234674, 0.7545157815461562, 0.7527192543662047, 0.7510806146604011, 0.7495907197688939, 0.7482391881192456, 0.7470149988352983, 0.7459070217205138, 0.7449044898336088])",-144.81785325485626,-192.39096481504896,-53.65035951863334,0.060784026105174166,-0.00749573421920393,0.7609104027514482,25.000000248988748,-1.0,"[-200.31408790767233, -152.4475419186201, 53.753347917805144]","[-189.54615097243507, -114.02354182114797, 56.51880460128739]","[-161.5717479689711, -142.49787407182833, 53.940980038278916]",10000000000.0,0.022086381912231445
17,-197.02865600585938,-149.28509521484375,54.08148193359375,0.06957143545150736,0.01583240181207648,0.7692647139218189,23.41117259440401,"array('d', [-149.28509521484375, -147.54869738069536, -145.81705821171508, -144.09005178224083, -142.36748801616656, -140.64913479021277, -138.93473390453394, -137.22401323167102, -135.51669614944484, -133.81250886524876, -132.11118601585508, -130.41247481366517, -128.71613794288893, -127.02195536191493, -125.32972513180015, -123.63926673673441])","array('d', [-197.02865600585938, -195.23042593473784, -193.4275016835133, -191.62007780836112, -189.8083829869325, -187.99267096488282, -186.17321079707799, -184.35027804158418, -182.52414740511801, -180.6950868982728, -178.86335339874717, -177.029189471665, -175.1928212903937, -173.35445751171622, -171.51428897565614, -169.6724927925547])","array('d', [-54.08148193359375, -54.0456643556085, -54.015923530938885, -53.99016174081527, -53.96708218440296, -53.94588534946935, -53.92608649363944, -53.907404714062544, -53.88969435332862, -53.87290111267247, -53.857031954585985, -53.842131810674125, -53.828262516855894, -53.81548103367333, -53.803815347732595, -53.79323780541191])","array('d', [0.06957143545150736, 0.06821081396343602, 0.06588034720831834, 0.06284720711886128, 0.059334408295901545, 0.05552605782744196, 0.0515721921769687, 0.047593157626445184, 0.04368351566407576, 0.03991547404298083, 0.03634185842220112, 0.03299864924839911, 0.029907114638839633, 0.027075573229833633, 0.024500821896109914, 0.02216926243218154])","array('d', [-0.01583240181207648, -0.012872035970845875, -0.010953198462248832, -0.009677874537275474, -0.008800666849670884, -0.008167565781457753, -0.007679821010078009, -0.007272536029996374, -0.006902051427318783, -0.006538703441041055, -0.0061629761137612015, -0.0057638674766245365, -0.005338716826854849, -0.004893934110754501, -0.004446118947229829, -0.004023015234186181])","array('d', [0.7692647139218189, 0.7665575885224992, 0.7639235358504767, 0.7613954027426644, 0.7589963643779948, 0.7567415690399731, 0.7546395856824226, 0.7526936685289044, 0.7509028558191001, 0.7492629212170362, 0.7477671966525277, 0.74640728481619, 0.7451736784591967, 0.7440563022882319, 0.7430449917610523, 0.7421299197722233])",-140.64913479021277,-187.99267096488282,-53.94588534946935,0.05552605782744196,-0.008167565781457753,0.7567415690399731,25.00000024898895,-1.0,"[-195.95115756444036, -148.24181521420556, 54.05773432302024]","[-184.9777969647629, -109.85780199524646, 56.55831152763114]","[-157.15699694774423, -138.49455548890245, 54.121215764917785]",10000000000.0,0.023743867874145508
18,-192.94935607910156,-145.37408447265625,54.35588836669922,0.06317356973886469,0.019069302827119744,0.7633156339314323,23.433314271740084,"array('d', [-145.37408447265625, -143.6482621650036, -141.926737052462, -140.20940132883675, -138.49608288704806, -136.78656966883443, -135.08062582197138, -133.37800331245654, -131.67845062411917, -129.98171936212182, -128.28756922514404, -126.59577164473102, -124.9061123004482, -123.21839266279643, -121.53243067577284, -119.84806472095755])","array('d', [-192.94935607910156, -191.14112508370178, -189.32863113335952, -187.51207471504426, -185.69167533149894, -183.8676688773848, -182.04030149128096, -180.20982301011324, -178.37648114605153, -176.54051672790135, -174.70216004768577, -172.86162824081504, -171.01912359154548, -169.17483264875048, -167.3289260428829, -165.48156335574845])","array('d', [-54.35588836669922, -54.31314302783475, -54.27834574977671, -54.24873556961841, -54.222600975133, -54.19888081517737, -54.176924232333725, -54.156344679596536, -54.13692972347771, -54.11858363621256, -54.10128862887273, -54.08507576606461, -54.069999757715244, -54.05611391982698, -54.04344323640798, -54.031955036731794])","array('d', [0.06317356973886469, 0.06177281873146692, 0.05953862984735866, 0.056705022391186494, 0.05346693695818517, 0.04998494775300967, 0.046389588950429085, 0.04278526225131226, 0.0392537138374012, 0.03585708491584966, 0.03264055159997307, 0.029634577708410575, 0.026856808883323285, 0.024313638857560497, 0.02200147926438438, 0.019907763493672077])","array('d', [-0.019069302827119744, -0.015193315053073865, -0.012687220036643052, -0.011029140520223212, -0.009897789986253033, -0.009092064143528495, -0.008483578798735451, -0.007988508103952794, -0.007550912848895995, -0.007133059288544008, -0.006710112508761581, -0.006267649791861881, -0.005801014387414547, -0.0053158072636602695, -0.004828905365087339, -0.004369374739467747])","array('d', [0.7633156339314323, 0.760861451431049, 0.7584791305545744, 0.7561967875071959, 0.7540340857677273, 0.7520036882886745, 0.7501125324443971, 0.7483629416668671, 0.7467535897324457, 0.7452803345199646, 0.743936938036086, 0.7427156888676312, 0.741607942197095, 0.7406045912810904, 0.7396964829704832, 0.7388747865583796])",-136.78656966883443,-183.8676688773848,-54.19888081517737,0.04998494775300967,-0.009092064143528495,0.7520036882886745,25.00000024898916,-1.0,"[-191.8657314035904, -144.33729159286062, 54.327286146009286]","[-180.66439654325617, -106.00138638756644, 56.538274485499244]","[-153.01658641537284, -134.81235748351386, 54.18741514453646]",10000000000.0,0.020545482635498047
19,-188.4953155517578,-141.13868713378906,54.634254455566406,0.05905617401003816,0.01930786482989779,0.7577495137837268,23.47378621350139,"array('d', [-141.13868713378906, -139.42281450454615, -137.71095072005, -136.00297668978945, -134.29871842142776, -132.59796894613208, -130.90050262433516, -129.20608526416405, -127.51448159228028, -125.82546084746787, -124.13880093410022, -122.45429141416852, -120.7717355304224, -119.09095139851908, -117.41177246751525, -115.7340513762921])","array('d', [-188.4953155517578, -186.67765789606196, -184.85605532129156, -183.0307127867553, -181.20184643908212, -179.36968270267508, -177.5344537621554, -175.69639243905277, -173.85572755944307, -172.01268016650138, -170.16746064103592, -168.32026668161632, -166.47128205633683, -164.62067602736923, -162.76860335100767, -160.91520924179827])","array('d', [-54.634254455566406, -54.59075968704739, -54.554969499144946, -54.52421569095666, -54.49684672332859, -54.4718416804084, -54.44857815045578, -54.42669112440035, -54.405985785752755, -54.38638185740369, -54.36787571815393, -54.35051151235091, -54.334355531698236, -54.31947020279451, -54.30588565993009, -54.29356851556222])","array('d', [0.05905617401003816, 0.05739355102652116, 0.05505216670840399, 0.052232719682087245, 0.04910149472634985, 0.04579464363887136, 0.0424220926125445, 0.039071055072722884, 0.035809146220642046, 0.032687108324173826, 0.02974116481173793, 0.026995027148904477, 0.024461581937084555, 0.022144287205864248, 0.020038306910217917, 0.018131411528678212])","array('d', [-0.01930786482989779, -0.015552374862275543, -0.01312131529182276, -0.01150924676502973, -0.010404790151100518, -0.009612790197250644, -0.009008385141657842, -0.008509777167901328, -0.008062150403509641, -0.007628388978780859, -0.007184069738565899, -0.00671522780580292, -0.006217942396877977, -0.0056990473091554465, -0.0051773435402020715, -0.004684654666665389])","array('d', [0.7577495137837268, 0.7554627303281646, 0.7532549855819801, 0.7511489588804946, 0.7491601043948434, 0.7472979267695238, 0.7455670954242548, 0.7439684115350622, 0.7424996429616862, 0.7411562427266551, 0.7399319663260691, 0.7388194023818541, 0.7378104301050962, 0.7368966158625233, 0.7360695599195252, 0.7353212014336985])",-132.59796894613208,-179.36968270267508,-54.4718416804084,0.04579464363887136,-0.009612790197250644,0.7472979267695238,25.00000024898934,-1.0,"[-187.40594176594257, -140.10794658772275, 54.60529445775034]","[-175.99113910728505, -101.82570585005689, 56.64792128791326]","[-148.50472454551658, -130.7991095962537, 54.403174108725516]",10000000000.0,0.025585651397705078
20,-184.35153198242188,-137.2314453125,54.895179748535156,0.052117947489023014,0.018464710563421163,0.7533655325558526,23.51206289874486,"array('d', [-137.2314453125, -135.52329383738353, -133.81870041611344, -132.1175592869385, -130.41971678114123, -128.72498995901486, -127.03317906010675, -125.34407644856768, -123.65747328297982, -121.97316454306167, -120.29095278244588, -118.61065084802692, -116.93208373356693, -115.25508968694503, -113.57952065532486, -111.90524618682304])","array('d', [-184.35153198242188, -182.52658077846377, -180.69816275676206, -178.8664522791483, -177.03163585068043, -175.1939103273343, -173.35347848624104, -171.51054427271728, -169.66530856725063, -167.8179657391912, -165.96870102673626, -164.11768869486298, -162.26509089066542, -160.41105710551648, -158.55572415353825, -156.69922108101082])","array('d', [-54.895179748535156, -54.85317922833141, -54.8179005175522, -54.787032216179846, -54.759148412994364, -54.73337363573224, -54.709181569853456, -54.68627279038293, -54.66449912851573, -54.64381511410624, -54.6242443276598, -54.605852826641424, -54.58872447090883, -54.57293480789017, -54.55852172372891, -54.545452686316416])","array('d', [0.052117947489023014, 0.05070826249257662, 0.0486834823932407, 0.04622352389611301, 0.043477623839398634, 0.04056813785207436, 0.03759400680748943, 0.03463387344269798, 0.031748846270149136, 0.02898491886575519, 0.026375060378669744, 0.023940998248202464, 0.021694717151149203, 0.01963969958164388, 0.017771933546178047, 0.01608071191991598])","array('d', [-0.018464710563421163, -0.015191898170937168, -0.013067452268419542, -0.011651440077651141, -0.01067239804300539, -0.009959678886543158, -0.009403553219560221, -0.008931599961579, -0.00849483581922258, -0.008059821371100817, -0.007604562311398744, -0.0071169062926243485, -0.006594598651018727, -0.0060463614684658305, -0.005493394365144756, -0.004970629304909138])","array('d', [0.7533655325558526, 0.7513467651501422, 0.7493957558811765, 0.7475330874965667, 0.7457728693959609, 0.744123873015414, 0.7425905243195493, 0.7411737660055118, 0.7398718029697943, 0.7386807448057543, 0.7375951587827053, 0.7366085460789213, 0.7357137531397672, 0.7349033290151257, 0.7341698384762356, 0.7335061380702523])",-128.72498995901486,-175.1939103273343,-54.73337363573224,0.04056813785207436,-0.009959678886543158,0.744123873015414,25.00000024898945,-1.0,"[-187.40594176594257, -140.10794658772275, 54.60529445775034]","[-175.99113910728505, -101.82570585005689, 56.64792128791326]","[-148.50472454551658, -130.7991095962537, 54.403174108725516]",10000000000.0,0.019098758697509766
21,-179.86566162109375,-133.0281524658203,55.193275451660156,0.04644326493144016,0.017166899517178445,0.7504249374058585,23.534979314141907,"array('d', [-133.0281524658203, -131.32656754083433, -129.63476862313317, -127.95672770689237, -126.29615625859424, -124.65750543872831, -123.0448546654664, -121.46219733260928, -119.91340995469695, -118.40227625667082, -116.93249258711657, -115.50767136967761, -114.13134211832279, -113.04334244177767, -112.29257573564148, -111.58261707078383])","array('d', [-179.86566162109375, -178.0356166376079, -176.19928854329072, -174.35158835065187, -172.48783645763504, -170.60478561556152, -168.69934377484867, -166.76884737781796, -164.8109951179277, -162.82385410465943, -160.8058513810975, -158.75576832075757, -156.67273622258944, -154.9259360130827, -153.62947323574423, -152.30993917717956])","array('d', [-55.193275451660156, -55.120784755653155, -54.99621223356015, -54.85430761558162, -54.71693045465582, -54.57960413467179, -54.44345595072115, -54.30841197155723, -54.17462720111547, -54.04219011877508, -53.91118545144679, -53.7816824057104, -53.65378912097436, -53.55005784434785, -53.47693575879092, -53.408849829839255])","array('d', [0.04644326493144016, 0.11676406106288485, 0.18039295408205708, 0.23796676186300594, 0.29006170072752047, 0.3371991520298355, 0.37985087947174406, 0.41844374866468614, 0.453363994086834, 0.48496106881711815, 0.513551083022161, 0.5394196524189647, 0.5628208718715032, 0.5309546965477632, 0.4378583348410731, 0.39618567477599376])","array('d', [-0.017166899517178445, -0.04044673876934772, -0.05894539398678509, -0.05471008698990056, -0.05523821682384639, -0.05468735262687449, -0.054291705124375166, -0.053804219175341526, -0.05328343503918298, -0.05272516394647537, -0.05213642135821075, -0.05152266536202131, -0.050848189843687074, -0.04989054844314818, -0.04768029209331251, -0.043206684697625945])","array('d', [0.7504249374058585, 0.7471911739976147, 0.7412943401068985, 0.7329421589321116, 0.7223137429557356, 0.7095671643338194, 0.6948446838842083, 0.6782763942414023, 0.6599827652539053, 0.6400764182689042, 0.6186633555903491, 0.5958438114057227, 0.5717128925253027, 0.5427420631066746, 0.5083601706283023, 0.4794098260541934])",-124.65750543872831,-170.60478561556152,-54.57960413467179,0.3371991520298355,-0.05468735262687449,0.7095671643338194,25.0000002193214,-1.0,"[-183.25763251110772, -136.20547411096405, 54.86748425652836]","[-171.67472236240252, -97.96067392860698, 56.648341212772316]","[-144.3154903214438, -127.07036434868128, 54.62390406225063]",10000000000.0,0.013530254364013672
