,x_pos,y_pos,z_pos,roll,pitch,yaw,vel,x_traj,y_traj,z_traj,roll_traj,pitch_traj,yaw_traj,x_cmd,y_cmd,z_cmd,roll_cmd,pitch_cmd,yaw_cmd,vel_cmd,effector_dmg,effector_x,effector_y,effector_z,cost,time_solution
0,-260.38983154296875,-219.7398223876953,49.979652404785156,0.632183253765106,0.030743040144443543,1.1150647858765463,23.140570147646446,"array('d', [-219.7398223876953, -217.51170066059584, -215.315693666851, -213.15218481693222, -211.02067786953683, -208.9200706288664, -206.84886461247888, -204.80532388980458, -202.78759253074998, -200.7937793530435, -198.82201760575356, -196.8705057776888, -194.93753424941582, -193.02150124846108, -191.12092058625868, -189.23442596003864])","array('d', [-260.38983154296875, -259.2580497714656, -258.06418318538795, -256.8119720294166, -255.50584235878566, -254.1504838571823, -252.7505582274159, -251.3105195888774, -249.8345164725926, -248.32634780010963, -246.7894522650183, -245.22691727423353, -243.641498724486, -242.0356463825427, -240.4115318814122, -238.77108034091017])","array('d', [-49.979652404785156, -49.91586921085526, -49.873200455871554, -49.84429376547455, -49.82444866776206, -49.810631483792704, -49.800863850976086, -49.79384092651434, -49.78869153528255, -49.78482661310869, -49.781843004978725, -49.77946229178397, -49.7774920159084, -49.77580136737283, -49.774306233059, -49.77296020679249])","array('d', [0.632183253765106, 0.6211498530206825, 0.5991804739509048, 0.5696970677113888, 0.5354988929003466, 0.4987745162115424, 0.46117470979146336, 0.4239060582187416, 0.3878220383734387, 0.353501455157943, 0.32131171741175035, 0.2914579930541183, 0.2640205346385425, 0.2389826141921216, 0.2162512139055899, 0.19567220776007194])","array('d', [-0.030743040144443543, -0.02046080638788285, -0.013787246768151436, -0.009411633161569389, -0.006512972611191678, -0.004573191879613923, -0.003262794772235333, -0.002370438596270726, -0.0017592727883009504, -0.0013396660504684842, -0.001052019521603099, -0.0008558242343433373, -0.0007226187476610362, -0.0006314215223992039, -0.0005657810032336665, -0.0005119399505677365])","array('d', [1.1150647858765463, 1.086659243376708, 1.059233074717223, 1.0332857522430212, 1.0090991935463753, 0.9867933856092677, 0.9663784507994405, 0.9477953881609323, 0.9309448813097692, 0.9157064487602625, 0.9019506998913923, 0.8895470129609186, 0.8783683136461904, 0.868294081123458, 0.8592123047401495, 0.8510208282237148])",-208.9200706288664,-254.1504838571823,-49.810631483792704,0.4987745162115424,-0.004573191879613923,0.9867933856092677,25.00000024893819,-1.0,"[-259.7299645310793, -218.3935498878532, 49.933545108302326]","[-262.4412886512255, -186.24753456213367, 73.58269773993206]","[-226.5406886554356, -199.79761055733584, 62.2892323520833]",10000000000.0,0.019741535186767578
1,-257.2520751953125,-214.66819763183594,49.981201171875,0.6054873466491697,0.01674853079020976,1.0640555779126029,23.17089200863677,"array('d', [-214.66819763183594, -212.49910444147403, -210.36297293969838, -208.25938567275793, -206.18731204023493, -204.14530675111695, -202.13166602054665, -200.14454628311665, -198.18205166374037, -196.24229669612808, -194.32345003589643, -192.42376379573068, -190.54159202668498, -188.67540094614432, -186.82377280137982, -184.98540772944418])","array('d', [-257.2520751953125, -256.00972086538576, -254.7112355406665, -253.36054019925822, -251.96191908524693, -250.51971804359994, -249.03814996606775, -247.52118176853278, -245.9724773881338, -244.39537670282294, -242.79289626898955, -241.16774264290234, -239.52233252768045, -237.85881630000102, -236.1791029434608, -234.48488806456402])","array('d', [-49.981201171875, -49.9464985037145, -49.92336170706651, -49.907735811212525, -49.89704025665825, -49.88961595482861, -49.88438443189158, -49.88063625052322, -49.87789875760975, -49.87585287409077, -49.874280470052256, -49.873031009193284, -49.8720004709785, -49.87111817731015, -49.87033872712167, -49.86963717813434])","array('d', [0.6054873466491697, 0.5873640937754637, 0.5612019052117134, 0.5297889302826785, 0.4953389887145719, 0.4595471928349488, 0.4236718464331718, 0.38861895531904195, 0.3550177377790755, 0.3232832100249384, 0.2936658816034801, 0.26629022751526416, 0.24118402015709206, 0.21830047979186745, 0.19753488883540923, 0.1787369749745928])","array('d', [-0.01674853079020976, -0.011108617131289552, -0.007461928586299443, -0.00507863050402171, -0.003504106245667413, -0.002452880699809284, -0.0017441635639138917, -0.0012624191102707715, -0.0009330698478541865, -0.0007074017308153574, -0.00055309570350963, -0.0004482225095485022, -0.0003773897098070445, -0.00032924832679143455, -0.0002948850755768222, -0.0002668231566982742])","array('d', [1.0640555779126029, 1.0374230441625933, 1.0120437553531074, 0.9882394188495012, 0.9661698615133818, 0.9458805400193122, 0.927341818960195, 0.9104779556245498, 0.8951870651556697, 0.8813542926886608, 0.8688602769034232, 0.8575865121194161, 0.8474187362741775, 0.8382490939767006, 0.8299775558872745, 0.8225128843980376])",-204.14530675111695,-250.51971804359994,-49.88961595482861,0.4595471928349488,-0.002452880699809284,0.9458805400193122,25.000000248952805,-1.0,"[-259.1960758795593, -217.5547667703107, 49.93715413231831]","[-261.5676322639872, -185.27600682891202, 73.44156599394624]","[-225.8158764206376, -199.17350827897576, 62.098224001262]",10000000000.0,0.020016908645629883
2,-254.060302734375,-210.15859985351562,50.07777404785156,0.5037108659744259,-0.017849911004304924,1.0216714302685599,23.204099695154586,"array('d', [-210.15859985351562, -208.0404863052043, -205.95034533127657, -203.88770647007678, -201.85164172508394, -199.84091211221735, -197.85408087952746, -195.88960089555076, -193.94588112643075, -192.0213362073398, -190.11442248543304, -188.22366330773775, -186.34766575780037, -184.4851305480391, -182.63485636783594, -180.79574303754353])","array('d', [-254.060302734375, -252.7329076536646, -251.36159925036284, -249.9491352941029, -248.49856777407524, -247.01305002792208, -245.49569993282788, -243.9495102581076, -242.3772946481989, -240.78165885750772, -239.16498913920202, -237.52945194323553, -235.87700091212102, -234.20938852271541, -232.52818067851078, -230.83477628955504])","array('d', [-50.07777404785156, -50.114691111132174, -50.139186769338075, -50.15563660191179, -50.16681607029264, -50.174505144842186, -50.17985887028232, -50.183636295260776, -50.18634302039156, -50.18832060005787, -50.189802917747414, -50.190951799980525, -50.19187941052284, -50.19266212431487, -50.193348880995366, -50.19396601908977])","array('d', [0.5037108659744259, 0.48917915213401597, 0.468199758642509, 0.44288404769630846, 0.41493778286743427, 0.38570037373451466, 0.3561967154015597, 0.3271906197392782, 0.29923380727494836, 0.27270793388737047, 0.24785918577222563, 0.224826001604112, 0.20366088153994258, 0.18434731093113785, 0.16681274062414944, 0.15093842319282177])","array('d', [0.017849911004304924, 0.01178601618205924, 0.007876062151495746, 0.005326435181922233, 0.0036452163788754785, 0.002524744916573305, 0.0017708158074424816, 0.0012596525492572183, 0.0009115352575212994, 0.0006744831300585372, 0.0005140474669065634, 0.00040684666609530466, 0.0003364166898625082, 0.0002905199961533798, 0.00025940441965643235, 0.00023471876429159559])","array('d', [1.0216714302685599, 1.0004209668332882, 0.9800652804492767, 0.9608502649544713, 0.9429153159183675, 0.9263200314292452, 0.9110672820689424, 0.8971214139198138, 0.8844218295641021, 0.872892782438956, 0.8624503134548318, 0.8530071381217254, 0.8444761128019307, 0.8367727392221649, 0.8298170299285974, 0.8235349445716202])",-199.84091211221735,-247.01305002792208,-50.174505144842186,0.38570037373451466,0.002524744916573305,0.9263200314292452,25.00000024895965,-1.0,"[-253.27751598384992, -208.8793312789538, 50.10454749254903]","[-252.25674466599156, -173.86764183324027, 69.42136990394859]","[-218.1429160110099, -192.4461731092407, 59.87753052321586]",10000000000.0,0.02080678939819336
3,-250.37857055664062,-205.40919494628906,50.36260986328125,0.4206515252590178,-0.019340438768267708,0.9830158511784414,23.18699255489688,"array('d', [-205.40919494628906, -203.34117022972538, -201.29711097013362, -199.27655984826796, -197.27868873573922, -195.30242079524342, -193.34652095616357, -191.4096651853836, -189.4904937243504, -187.5876515528301, -185.6998184927565, -183.82573085524425, -181.96419614795366, -180.1141020436864, -178.27442055067652, -176.44421243432907])","array('d', [-250.37857055664062, -248.97446523758546, -247.53537094346063, -246.06331531357293, -244.56056163994214, -243.0294800263278, -241.47244818304597, -239.89178084553, -238.28968281266657, -236.66822004851173, -235.02930401685506, -233.37468547133525, -231.70595492056947, -230.02454780354182, -228.33175303145742, -226.6287280036476])","array('d', [-50.36260986328125, -50.40239498287297, -50.42839032812223, -50.445476318761465, -50.45674165121767, -50.46416434975928, -50.4690274872559, -50.47217513169267, -50.4741712358783, -50.47539897587782, -50.47612311605085, -50.476529087144414, -50.47674714676935, -50.476866816555734, -50.47694491928606, -50.47700947586957])","array('d', [0.4206515252590178, 0.4090794803121348, 0.39216821519565337, 0.3715914773994259, 0.3487163293684829, 0.3246336478943169, 0.30019478012103445, 0.2760487078630549, 0.25267641661262125, 0.23042092549699075, 0.20951255697509064, 0.19008964816930812, 0.17221519654700607, 0.155890026241742, 0.14106304953192852, 0.12763913707943636])","array('d', [0.019340438768267708, 0.012601480090079883, 0.008267486702641505, 0.005448443888894977, 0.0035947766458930223, 0.002363924298458032, 0.0015403274597607542, 0.000987019048362844, 0.0006160529169401031, 0.0003702397677101352, 0.00021171685158973282, 0.00011467880937141855, 6.066986582713106e-05, 3.5486078113812455e-05, 2.7135411306455427e-05, 2.4553055490917532e-05])","array('d', [0.9830158511784414, 0.9657377426194668, 0.949124532337083, 0.9333731523378386, 0.9186040191479015, 0.9048781112412068, 0.892212058235539, 0.8805905415105065, 0.8699760297927812, 0.8603162140848541, 0.8515496067277566, 0.8436097467405023, 0.8364283821496311, 0.8299379192872064, 0.8240733565494202, 0.8187738491105926])",-195.30242079524342,-243.0294800263278,-50.46416434975928,0.3246336478943169,0.002363924298458032,0.9048781112412068,25.000000248966067,-1.0,"[-252.7861426680736, -208.257865645925, 50.14207783482414]","[-251.5616486659804, -173.04370308563568, 69.07520672617107]","[-217.55464356265233, -191.8777820582432, 59.65177459367285]",10000000000.0,0.017863750457763672
4,-246.8626708984375,-201.06236267089844,50.63031768798828,0.36361941695213296,-0.003156872931867891,0.9592899839070179,23.21344529521248,"array('d', [-201.06236267089844, -199.02610316534665, -197.01108536388077, -195.0168403912703, -193.04262012874088, -191.0874752885812, -189.1503222104922, -187.22999831709194, -185.32530692155973, -183.43505249673095, -181.5580676476255, -179.69323298426943, -177.83949095741085, -175.99585455441908, -174.16141158868135, -172.33532949437935])","array('d', [-246.8626708984375, -245.41232751775522, -243.9326022503584, -242.4249918471427, -240.89124828008715, -239.33325778075067, -237.75294975319966, -236.1522309667861, -234.5329399664614, -232.89681705648943, -231.24548599062848, -229.58044433961098, -227.9030602621848, -226.21457402807536, -224.51610312642086, -222.80865418446433])","array('d', [-50.63031768798828, -50.63642156793755, -50.639651959933566, -50.64103838885543, -50.64123358956401, -50.640657848491195, -50.639586957714016, -50.63820629228269, -50.636644289177816, -50.634993198485006, -50.63332178311823, -50.6316827464479, -50.630116545272735, -50.62865260152913, -50.62730859106706, -50.62608836685783])","array('d', [0.36361941695213296, 0.35491948844633164, 0.3413284998068499, 0.32430474880922805, 0.3050509438378799, 0.28453898111792103, 0.2635387052067567, 0.24264700427458716, 0.2223149685217251, 0.20287194769776676, 0.18454610121909978, 0.16748149026888437, 0.15175199975761824, 0.1373724767068963, 0.12430748840741897, 0.11247807704061147])","array('d', [0.003156872931867891, 0.0017497105078842531, 0.0008496191859787127, 0.00026920645323964717, -0.0001067737876960554, -0.00034976548576652145, -0.0005043680754354022, -0.000598592464744626, -0.0006501500057086609, -0.0006703850702862891, -0.0006668069988346552, -0.0006447897106084091, -0.0006087721439115644, -0.0005631440735828827, -0.0005129024676531002, -0.000464093468687486])","array('d', [0.9592899839070179, 0.9445557979114607, 0.9303202312273267, 0.9167618138751346, 0.903995995010113, 0.8920879469314663, 0.8810641197959476, 0.8709220235457765, 0.8616381752757771, 0.8531743959219181, 0.8454827360381554, 0.838509320084938, 0.8321973672296656, 0.8264896011821076, 0.8213302160676513, 0.8166665148271316])",-191.0874752885812,-239.33325778075067,-50.640657848491195,0.28453898111792103,-0.00034976548576652145,0.8920879469314663,25.000000248969467,-1.0,"[-249.54695307381684, -204.16116816416192, 50.39161871288226]","[-246.98192706600062, -167.74368332300043, 66.73748789818406]","[-213.70121287594347, -188.25353632122605, 58.267541440802965]",10000000000.0,0.01969289779663086
5,-242.96861267089844,-196.37530517578125,50.857666015625,0.3115561902523038,0.010329858399927545,0.9342876831677295,23.283002211094665,"array('d', [-196.37530517578125, -194.37431447307415, -192.39190478007316, -190.42768856131192, -188.48102486165723, -186.55109174221158, -184.63694596046557, -182.7375719451226, -180.85192140548213, -178.97894473083198, -177.11761524884417, -175.2669473139272, -173.42600907637242, -171.59393065371833, -169.7699082998475, -167.95320865237622])","array('d', [-242.96861267089844, -241.47012402657685, -239.9470592263838, -238.40056396212879, -236.832011645954, -235.24290781610532, -233.634814986431, -232.00929610323314, -230.36787361969698, -228.71200109830912, -227.04304460028226, -225.36227161541373, -223.67084578104615, -221.96982607353925, -220.2601695116285, -218.54274007951062])","array('d', [-50.857666015625, -50.835713638704796, -50.81999940186193, -50.808326038201876, -50.79931091471011, -50.792075750473785, -50.78605824039859, -50.78089658331354, -50.77635794937701, -50.77229358737979, -50.76861011697632, -50.76525060197522, -50.76218142910821, -50.759382506297705, -50.75683925068536, -50.754535506221345])","array('d', [0.3115561902523038, 0.3051258236962636, 0.29427781145602716, 0.2802781191528423, 0.2641778917738474, 0.24683438538052077, 0.2289342185044855, 0.21101661382031778, 0.19349511905671765, 0.17667698779381186, 0.16077989885496632, 0.14594601087429068, 0.1322535280841859, 0.11972603804141954, 0.10833990717517261, 0.09803001075754196])","array('d', [-0.010329858399927545, -0.0072831014629385704, -0.005321102744218775, -0.004039010520629803, -0.0031873120767554803, -0.0026104506131367075, -0.0022102384162319263, -0.0019238673975094799, -0.001710599451045017, -0.0015436761633428875, -0.001405407790523989, -0.0012842265388534654, -0.0011729683565727678, -0.0010679227092333637, -0.0009683432957324996, -0.000876193408859622])","array('d', [0.9342876831677295, 0.9217920431189713, 0.9096702666787875, 0.8980815545435704, 0.8871328078387072, 0.8768885048365831, 0.8673797008716002, 0.8586117978345004, 0.850571016663739, 0.843229671841721, 0.8365504217594039, 0.8304896868663398, 0.8250004152670233, 0.8200343502119587, 0.8155439257425535, 0.8114838825715137])",-186.55109174221158,-235.24290781610532,-50.792075750473785,0.24683438538052077,-0.0026104506131367075,0.8768885048365831,25.000000248973056,-1.0,"[-245.3385625822736, -199.0459899869038, 50.66990569798261]","[-241.6605079364274, -161.69792844575576, 64.5116618416512]","[-209.00528658848907, -183.36824098084116, 56.50953254071683]",10000000000.0,0.01885676383972168
6,-239.2990264892578,-192.0880584716797,51.05998992919922,0.27390351891517617,0.008862306363880561,0.9145168224957325,23.3415794840385,"array('d', [-192.0880584716797, -190.115840800259, -188.16028016649332, -186.22103158427737, -184.29752444661324, -182.38902560643604, -180.49469198445158, -178.61361413077557, -176.74485174492006, -174.88746206023518, -173.0405219506255, -171.20314455089792, -169.37449109354966, -167.5537785652745, -165.740283686682, -163.9333472223946])","array('d', [-239.2990264892578, -237.76282038736278, -236.20541073391163, -234.62770884547464, -233.03083810248765, -231.41605112454226, -229.78466392041412, -228.13800546699446, -226.47738037420316, -224.8040422208285, -223.1191753947385, -221.42388363293904, -219.71918382890195, -218.00600400933644, -216.2851846635163, -214.55748626087328])","array('d', [-51.05998992919922, -51.040932982051054, -51.02686971785172, -51.016045425833234, -51.007358619661325, -51.00011221064093, -50.99386270992497, -50.98832792979222, -50.98332983952077, -50.97875862711683, -50.9745495151036, -50.97066712591505, -50.96709414268834, -50.96382222320348, -50.96084393167519, -50.95814506041643])","array('d', [0.27390351891517617, 0.26897595626623816, 0.25999380378321946, 0.24808788153640884, 0.23420096364343607, 0.21910633528484105, 0.20342772526987668, 0.187658989282827, 0.17218246415345295, 0.15728538964385774, 0.14317414878386836, 0.12998631269222272, 0.11780061471001371, 0.10664504895896823, 0.09650331364317351, 0.0873198170576515])","array('d', [-0.008862306363880561, -0.006424077169370846, -0.004852806502331445, -0.003823820009827517, -0.0031370949219875826, -0.0026678680463124637, -0.002337253023578204, -0.0020946222313284286, -0.0019069828146849879, -0.001752565108367978, -0.001616987762352845, -0.0014910260995415754, -0.0013693905516071656, -0.0012501351765254257, -0.001134428800826723, -0.0010264738020442825])","array('d', [0.9145168224957325, 0.9035977003020371, 0.8929734263973802, 0.8827887637617786, 0.8731431255298535, 0.8640987632904579, 0.8556882493655376, 0.8479210046781154, 0.8407888193034505, 0.8342704311509656, 0.8283352860207125, 0.8229466201110683, 0.818064001108834, 0.8136454482157993, 0.8096492321810621, 0.8060354304293883])",-182.38902560643604,-231.41605112454226,-51.00011221064093,0.21910633528484105,-0.0026678680463124637,0.8640987632904579,25.00000024897574,-1.0,"[-238.3838022525329, -190.8997033542712, 51.04669664366515]","[-233.09233877363266, -152.71658554476335, 61.7261127605093]","[-201.4028689760725, -176.13772341915688, 54.85386388418257]",10000000000.0,0.018738269805908203
7,-235.28123474121094,-187.5247802734375,51.31128692626953,0.23715196549892398,0.007685882505029364,0.8938990990307667,23.377223677222588,"array('d', [-187.5247802734375, -185.58343937882762, -183.6568250082753, -181.74463806977425, -179.84637932814488, -177.9614043867186, -176.08896993857206, -174.22827230822614, -172.378479066744, -170.53875445126798, -168.70827928923063, -166.88626607798923, -165.07196980222403, -163.26469499300643, -161.46379945236268, -159.66869857408912])","array('d', [-235.28123474121094, -233.70615844648822, -232.1130653123738, -230.5026639693681, -228.87585686551634, -227.23366929051144, -225.57719241304937, -223.90753900478552, -222.22581001102597, -220.533070092179, -218.83033044230368, -217.11853745590497, -215.3985660906185, -213.6712170273651, -211.9372169473852, -210.19722488684468])","array('d', [-51.31128692626953, -51.29448452834854, -51.281572288278305, -51.27119001409585, -51.26248679584615, -51.254927255944565, -51.24817435530973, -51.24201777837215, -51.23632960401462, -51.231036309303725, -51.226100433149206, -51.22150775090838, -51.217257333459806, -51.21335283188452, -51.2097940112281, -51.206568123487735])","array('d', [0.23715196549892398, 0.23356123373036378, 0.2262942071532854, 0.2163505921903159, 0.2045667233463376, 0.1916319625534916, 0.1781057573693166, 0.16443425642499782, 0.15096573692804258, 0.1379644190897985, 0.1256224877389043, 0.11407030938005125, 0.10338493627783239, 0.09359704440928569, 0.08469647445910707, 0.07663654620755737])","array('d', [-0.007685882505029364, -0.005787802678695869, -0.004562476728204185, -0.0037568068140650616, -0.0032148232310973707, -0.002839085928166318, -0.002567767247904697, -0.002360949374188403, -0.002192405643291171, -0.0020446973201748383, -0.0019063146316011215, -0.001770105434754188, -0.0016325252429292582, -0.0014933981755603446, -0.0013559521592119744, -0.001226916443794275])","array('d', [0.8938990990307667, 0.8844905487213051, 0.8753082209566962, 0.8664822355455473, 0.8581036399075375, 0.850231204220985, 0.8428976286114851, 0.8361149994491666, 0.8298794604616413, 0.8241751454403247, 0.8189774613114522, 0.8142558253259912, 0.8099759588348844, 0.8061018304432502, 0.8025973283934419, 0.7994277224781531])",-177.9614043867186,-227.23366929051144,-51.254927255944565,0.1916319625534916,-0.002839085928166318,0.850231204220985,25.000000248978367,-1.0,"[-237.81429001700033, -190.25945483815045, 51.08228128177476]","[-232.4075809683068, -152.03643248257356, 61.559306588026786]","[-200.78916530078436, -175.58274857536964, 54.78828088035855]",10000000000.0,0.016685962677001953
8,-231.54434204101562,-183.3818359375,51.562034606933594,0.21133498847484566,0.009679036214947607,0.876392261185918,23.381744184362393,"array('d', [-183.3818359375, -181.46753886431372, -179.5665734548943, -177.67866612798323, -175.80336057799732, -173.94006925013008, -172.08811570585345, -170.2467695638956, -168.41527503646753, -166.59287384225783, -164.77882316789857, -162.9724092710792, -161.1729572443587, -159.37983738483896, -157.59246854313542, -155.81032231527888])","array('d', [-231.54434204101562, -229.93655410573146, -228.31296704293882, -226.67418469215582, -225.02098027364238, -223.35423679221145, -221.67489827948594, -219.98393132501423, -218.28229562228412, -216.57092210072284, -214.85069730494845, -213.12245286765645, -211.38695913070904, -209.64492216668089, -207.89698362650464, -206.14372647392636])","array('d', [-51.562034606933594, -51.540931725625526, -51.52481700715115, -51.51194227562462, -51.50121421539606, -51.49194480187796, -51.483700457474946, -51.476209937425544, -51.46930735866953, -51.46289627147627, -51.45692620123668, -51.45137634409051, -51.4462430605917, -51.44152905165238, -51.43723296666403, -51.43333890163985])","array('d', [0.21133498847484566, 0.2082840824225032, 0.20192949596261878, 0.19316236872337622, 0.18272885688366242, 0.1712451052358683, 0.15921241250676005, 0.1470317983313593, 0.13501743903067806, 0.1234086712280822, 0.11238044140697243, 0.10205220360692553, 0.09249534499845696, 0.08373926140552097, 0.07577622249751331, 0.06856516772334789])","array('d', [-0.009679036214947607, -0.007244093051485365, -0.005673965068511958, -0.004643063527045695, -0.003950956801405149, -0.003472571421953463, -0.0031286532616275264, -0.002868117949045833, -0.002657466119160143, -0.002474462084912138, -0.002304434994957998, -0.002138227010019263, -0.0019711891628392425, -0.0018028287773145435, -0.0016368103929924882, -0.0014810475058438367])","array('d', [0.876392261185918, 0.8680374018354609, 0.8598763584788196, 0.8520251536228637, 0.8445655541563475, 0.8375509481043977, 0.8310116847546116, 0.8249597741710535, 0.8193929315434317, 0.814298008755841, 0.8096538854867859, 0.8054339030700018, 0.8016079235346935, 0.7981440891815167, 0.7950103483893801, 0.7921757976415841])",-173.94006925013008,-223.35423679221145,-51.49194480187796,0.1712451052358683,-0.003472571421953463,0.8375509481043977,25.000000248980488,-1.0,"[-230.5844955794289, -182.22923713985085, 51.547516279302194]","[-223.78577502897232, -143.67448467990218, 59.751689706825545]","[-193.04980709166173, -168.63969258611357, 54.09141858644131]",10000000000.0,0.018538713455200195
9,-227.45228576660156,-178.94448852539062,51.82857894897461,0.18821631371974926,0.011899292469024575,0.8619739572193961,23.383936584951122,"array('d', [-178.94448852539062, -177.0528409514813, -175.1732260023358, -173.3054128232758, -171.44899802256728, -169.60345540899783, -167.7681758207488, -165.9424995502693, -164.1257426836428, -162.31721822018218, -160.5162526404639, -158.72219847945402, -156.93444337819943, -155.15241601486974, -153.37558924936064, -151.60348429073053])","array('d', [-227.45228576660156, -225.81797678497367, -224.16975611052024, -222.50812942406296, -220.83375412093204, -219.14738893793034, -217.4498515054867, -215.74198419730095, -214.02462755878594, -212.29860026898416, -210.56468457954728, -208.8236162879015, -207.07607845493902, -205.32269823232969, -203.56404630481595, -201.80064208282104])","array('d', [-51.82857894897461, -51.80269100772923, -51.783022800274196, -51.7673907717451, -51.754429569039786, -51.743279818553745, -51.73339951521753, -51.72444890351281, -51.71621932126313, -51.70858837463325, -51.701490741343115, -51.694897977773756, -51.68880315776951, -51.68320771621275, -51.678108940707936, -51.673487419263445])","array('d', [0.18821631371974926, 0.18589153359942062, 0.18052338586281091, 0.1729202557313067, 0.16376026502763144, 0.15360486358229888, 0.14291236778053548, 0.13205085442032238, 0.12131001018814659, 0.11091171091924404, 0.10101924094897374, 0.09174515883245919, 0.08315787693608045, 0.07528705675261498, 0.068127936823798, 0.061644712035133574])","array('d', [-0.011899292469024575, -0.008862104811729068, -0.0069052697429580956, -0.0056218453839665325, -0.0047615154660444374, -0.004168212018772196, -0.0037431422185289056, -0.003422707884972468, -0.0031652644274020813, -0.0029432066736682105, -0.002738325368043863, -0.0025392131454176382, -0.0023399713969819253, -0.0021397260406319394, -0.0019425858493671761, -0.0017577246052865522])","array('d', [0.8619739572193961, 0.8545479238818051, 0.847279134095435, 0.840273999234574, 0.8336082502933844, 0.8273321049858419, 0.8214749539093366, 0.8160494957329996, 0.8110553161765196, 0.806481947606232, 0.802311468747096, 0.798520712685395, 0.7950831511233033, 0.7919705177073431, 0.7891542259170307, 0.7866066240978895])",-169.60345540899783,-219.14738893793034,-51.743279818553745,0.15360486358229888,-0.004168212018772196,0.8273321049858419,25.00000024898202,-1.0,"[-229.90847751881643, -181.5014110199929, 51.59079037069449]","[-223.0164363898544, -142.93087850004412, 59.64149159507667]","[-192.3413020565365, -167.98626748130349, 54.050103875495104]",10000000000.0,0.01986217498779297
10,-223.63128662109375,-174.88082885742188,52.07023239135742,0.16737104952335333,0.012811950407922186,0.8490353385594225,23.390393883536937,"array('d', [-174.88082885742188, -173.00980836916148, -171.1496266743171, -169.30009200129618, -167.46085072808728, -165.6314343669612, -163.8112966886003, -161.9998437542105, -160.19645825699115, -158.40051904208818, -156.6114164431305, -154.828563950237, -153.0514066399476, -151.2794267282419, -149.51214654640788, -147.74913270302812])","array('d', [-223.63128662109375, -221.97343472824414, -220.30333217815283, -218.6213967365829, -216.9281844115567, -215.2243458961494, -213.5105890509804, -211.78764826115247, -210.05626027944982, -208.3171457685413, -206.57099569055796, -204.81846176129602, -203.06015030152264, -201.2966189410925, -199.52837574657758, -197.7558839735296])","array('d', [-52.07023239135742, -52.0422765740926, -52.02088490029084, -52.00375399739532, -51.989444922180034, -51.97705324294418, -51.966009869219754, -51.95595955781218, -51.94668583699642, -51.93806368336295, -51.93002861210687, -51.922555151384074, -51.915640263891085, -51.90928891921453, -51.90350016876593, -51.89825301915203])","array('d', [0.16737104952335333, 0.1657223449090494, 0.16125590736316656, 0.1547081703499667, 0.14669807476400976, 0.13773939786421646, 0.12825287630029417, 0.11857767388478568, 0.10898188971802655, 0.0996719347763121, 0.09080071024668444, 0.08247459625470056, 0.0747593086648873, 0.06768470985087867, 0.0612486722227693, 0.05542009545176847])","array('d', [-0.012811950407922186, -0.009606649731649979, -0.0075413542752738, -0.006186084805141213, -0.005276413284872057, -0.004647462907206816, -0.004194815846569526, -0.0038511873046455096, -0.0035724561044093574, -0.003329336150239381, -0.003102515688626783, -0.002879974183053827, -0.0026556844218614426, -0.002429175368315414, -0.002205559452623805, -0.001995672982968037])","array('d', [0.8490353385594225, 0.8424394966376018, 0.835967898505632, 0.8297187636867398, 0.8237626434644756, 0.8181470020231901, 0.8129003648408317, 0.8080359879609663, 0.8035550492733973, 0.7994493943516191, 0.795703886723961, 0.7922984193561499, 0.7892096442165686, 0.7864124729833682, 0.7838813962934447, 0.78159165819404])",-165.6314343669612,-215.2243458961494,-51.97705324294418,0.13773939786421646,-0.004647462907206816,0.8181470020231901,25.000000248983284,-1.0,"[-222.6403066045015, -173.75495617445213, 52.05101499149906]","[-214.76623920378773, -135.06896381574944, 58.484758675499435]","[-184.7429676579282, -161.06387727746727, 53.70274656746556]",10000000000.0,0.017817020416259766
11,-219.4475555419922,-170.50704956054688,52.33554458618164,0.1516251713037489,0.013558303005993274,0.8369318405773979,23.392673696845588,"array('d', [-170.50704956054688, -168.65571572405693, -166.81430495717498, -164.98264080810188, -163.16039736766507, -161.34714337550938, -159.5423766252909, -157.74555159321636, -155.95610174066167, -154.173457359642, -152.39705957641692, -150.62637099671943, -148.86088339019997, -147.10012274441218, -145.34365196084642, -143.5910749117789])","array('d', [-219.4475555419922, -217.7677767773375, -216.07701960704085, -214.37565411652378, -212.66417272746762, -210.94315277089132, -209.2132236262791, -207.4750395754179, -205.72925821645381, -203.97652384094306, -202.21745507857028, -200.4526361529315, -198.68261117982655, -196.90788103906266, -195.1289024459756, -193.34609248413886])","array('d', [-52.33554458618164, -52.30584236051042, -52.282897436188435, -52.26434116674544, -52.248695400311725, -52.235032683125326, -52.222771249649355, -52.211550032816184, -52.201151439443564, -52.19145262059801, -52.18239351402492, -52.17395437301593, -52.166138168260225, -52.15895495012945, -52.152406467243864, -52.146470354258796])","array('d', [0.1516251713037489, 0.150177804972601, 0.14616933397091847, 0.14026706344855155, 0.13303193946920439, 0.12492988981728385, 0.11634283718463365, 0.10757903770908343, 0.09888251341839707, 0.09044145146422049, 0.0823955256788256, 0.07484215538301284, 0.06784175522660076, 0.06142205233452261, 0.055581557326305465, 0.05029227737669543])","array('d', [-0.013558303005993274, -0.010259084718142285, -0.008132589913981289, -0.006735863202474754, -0.005796502397505635, -0.0051446008625226775, -0.004672461464087389, -0.004310579024722954, -0.004013279162654253, -0.003750184269249706, -0.0035012691956739926, -0.003254178351192383, -0.00300298598404853, -0.0027478525211282116, -0.0024951552355460356, -0.0022577101071367682])","array('d', [0.8369318405773979, 0.8309655909355219, 0.8251096642330692, 0.8194529954452904, 0.8140596308028051, 0.8089728334826014, 0.80421878648547, 0.7998098655284994, 0.795747490096444, 0.7920245840955796, 0.7886276903298004, 0.785538787962059, 0.7827368619065335, 0.780199269880303, 0.7779029481821814, 0.7758254880423048])",-161.34714337550938,-210.94315277089132,-52.235032683125326,0.12492988981728385,-0.0051446008625226775,0.8089728334826014,25.000000248984406,-1.0,"[-222.05625088452877, -173.14801940073778, 52.08776011227681]","[-214.1161912636376, -134.46086858968414, 58.432822392466356]","[-184.1374940643883, -160.51554227279348, 53.69661151219388]",10000000000.0,0.019710540771484375
12,-215.49441528320312,-166.44041442871094,52.58475875854492,0.13941599428653695,0.01468752976506941,0.8243083516743522,23.42157165009144,"array('d', [-166.44041442871094, -164.6100345309855, -162.78884827030834, -160.97666998604913, -159.1731798162019, -157.3779650904429, -155.59055184027503, -153.8104297177262, -152.03707191020797, -150.26995095990472, -148.508551100759, -146.75237757710298, -145.00096331629766, -143.25387326007538, -141.51070660359127, -139.771100624707])","array('d', [-215.49441528320312, -213.79187346467532, -212.07937874978833, -210.35729199645556, -208.6260742483306, -206.88625644160123, -205.13841193975927, -203.38313352279687, -201.62101495838579, -199.85263675582596, -198.07855555966626, -196.29929664660642, -194.51534905144726, -192.72716292552914, -190.9351488079353, -189.1396821460244])","array('d', [-52.58475875854492, -52.55252825282222, -52.52752964422715, -52.50722831481289, -52.49004356780663, -52.474984562617024, -52.461430762898914, -52.4489981364271, -52.43745650607262, -52.42667737959479, -52.416599676875045, -52.40720552781612, -52.39850117829982, -52.39049986929463, -52.38320486110776, -52.3765918860138])","array('d', [0.13941599428653695, 0.13765087540597254, 0.13365723237792587, 0.12802521518737559, 0.12124981896588377, 0.11374136278300136, 0.10583552248057904, 0.09780265682974124, 0.08985626111675749, 0.08216046443360395, 0.07483655063291374, 0.06796852801890649, 0.06160780196163854, 0.05577702112238184, 0.05047317508489082, 0.045670021560379824])","array('d', [-0.01468752976506941, -0.01115650684260506, -0.008880682743954198, -0.0073855032206940055, -0.006379190399220034, -0.005679754713366591, -0.0051718116900348905, -0.004780852428055595, -0.004457872550770493, -0.004170253355116169, -0.003896497395144186, -0.003623395372720108, -0.0033447466784776647, -0.00306104413582395, -0.0027796646293114674, -0.0025151448756570503])","array('d', [0.8243083516743522, 0.8188378428464984, 0.8134832081483515, 0.8083213596479003, 0.8034073331075251, 0.7987779415162036, 0.7944550461068197, 0.7904484354270233, 0.7867583284954968, 0.7833775343038354, 0.7802933083614905, 0.7774889497323477, 0.7749451810669343, 0.7726413510743376, 0.770556494829814, 0.768670279247517])",-157.3779650904429,-206.88625644160123,-52.474984562617024,0.11374136278300136,-0.005679754713366591,0.7987779415162036,25.00000024898553,-1.0,"[-214.47592787089278, -165.33941576934618, 52.56272825600022]","[-205.6349507292111, -126.68936136213341, 57.85521514778901]","[-176.27498647948426, -153.52847606722608, 53.6534987007115]",10000000000.0,0.017693281173706055
13,-211.16746520996094,-162.067626953125,52.85072708129883,0.1260995566844938,0.015187812969088487,0.814724520840917,23.462935933028547,"array('d', [-162.067626953125, -160.25320531175942, -158.44716996830218, -156.64935625527383, -154.85947457121, -153.07714923168322, -151.30194778469647, -149.53340407190407, -147.77103660607952, -146.01436314905172, -144.26291207530457, -142.5162309567159, -140.77389271351922, -139.0354996112952, -137.3006853310232, -135.56911877471381])","array('d', [-211.16746520996094, -209.4479495398694, -207.71950142265868, -205.98243792913016, -204.23716605952853, -202.48415653962525, -200.72391951340543, -198.95698392605644, -197.18388086649355, -195.40513059173443, -193.62123279210218, -191.83265964410893, -190.03985124260024, -188.24321306602312, -186.4431151925412, -184.63989666214013])","array('d', [-52.85072708129883, -52.817248219745174, -52.7910065167567, -52.76946964970622, -52.751060110000445, -52.734791019023234, -52.7200466143227, -52.70644853016372, -52.69377319659634, -52.6818996215312, -52.67077491119374, -52.66038963679687, -52.65075802289177, -52.64189977656882, -52.63382171855501, -52.62649854869031])","array('d', [0.1260995566844938, 0.12462045050526953, 0.12109507691856565, 0.11606187072011617, 0.10997275906873769, 0.10320274066551681, 0.09605899518642742, 0.08878931629531223, 0.0815897387631889, 0.07461129668654307, 0.06796590136204143, 0.061731364082026445, 0.05595561298009517, 0.05066016669996112, 0.045842933589818675, 0.04148040542162812])","array('d', [-0.015187812969088487, -0.011655024542728444, -0.009376734152255461, -0.007877976320496055, -0.006866659807354273, -0.006160485378513485, -0.005643727332348027, -0.005241503495833647, -0.004904429810904223, -0.004599551866425184, -0.004305156814843073, -0.004008042996638401, -0.0037023664367500844, -0.003389465225110998, -0.0030781851666807037, -0.0027852574523249247])","array('d', [0.814724520840917, 0.8097799539740591, 0.8049357785622783, 0.8002624881606001, 0.7958107146721035, 0.7916145249366275, 0.7876943670570915, 0.7840596646366612, 0.7807110764250693, 0.7776424511745976, 0.7748425138514469, 0.7722963213082105, 0.7699865246004157, 0.7678944725323787, 0.7660011876193072, 0.7642882385996281])",-153.07714923168322,-202.48415653962525,-52.734791019023234,0.10320274066551681,-0.006160485378513485,0.7916145249366275,25.00000024898624,-1.0,"[-213.91189866960892, -164.77206676532674, 52.597205324033396]","[-205.0223418377391, -126.12366256858321, 57.81990887469503]","[-175.69626845230331, -153.0060039565477, 53.65804135001729]",10000000000.0,0.022168636322021484
14,-207.13880920410156,-158.05563354492188,53.1013069152832,0.11269537359476069,0.014183472841977995,0.8067143122341972,23.48632360905352,"array('d', [-158.05563354492188, -156.25456917654014, -154.46108037246162, -152.67503008879737, -150.89616594176377, -149.12415492089062, -147.3586101309254, -145.59911208065563, -143.8452257712127, -142.09651432106878, -140.35254963418834, -138.6129204973229, -136.87723841602232, -135.14514144139957, -133.4162961920077, -131.6904017123535])","array('d', [-207.13880920410156, -205.40527149475062, -203.66379491344233, -201.9146356558182, -200.15813756335464, -198.39470696206465, -196.62478980330118, -194.84885236254533, -193.06736561311857, -191.28079298605363, -189.48958111100458, -187.69415313144958, -185.8949042290088, -184.0921990464043, -182.286370754275, -180.47772519829303])","array('d', [-53.1013069152832, -53.06969511942824, -53.044288120825584, -53.02292631506268, -53.00426794607386, -52.987477922311285, -52.97204041302126, -52.95764477017373, -52.944115025372184, -52.93136511784694, -52.919368907849304, -52.90813807911281, -52.89770349004111, -52.88809714584448, -52.87933319314001, -52.871387482026066])","array('d', [0.11269537359476069, 0.1117387700433699, 0.10885198179584382, 0.1045336883017423, 0.09920334202273069, 0.09320988005267311, 0.08683997976041426, 0.08032568913751849, 0.07385132546130427, 0.0675595905566244, 0.06155689384926171, 0.05591790538339935, 0.0506893814723381, 0.045893317654482825, 0.041529489087127766, 0.03757743908146699])","array('d', [-0.014183472841977995, -0.011157132640423999, -0.00920144397230451, -0.00790975752687637, -0.007031723922873729, -0.006410755142678463, -0.005947066022353795, -0.005575706861911223, -0.005253516531359237, -0.004951492013330329, -0.004650533345227418, -0.004339350953555878, -0.004013775738795138, -0.003676937622023623, -0.003339861960809029, -0.0030220324284765693])","array('d', [0.8067143122341972, 0.8022926540164809, 0.7979479809516007, 0.7937468184729438, 0.7897373665682627, 0.7859524971212164, 0.7824124343552187, 0.7791271202614891, 0.7760982819294834, 0.7733212274304058, 0.770786402016634, 0.7684807380328512, 0.7663888312258116, 0.7644939740297056, 0.7627790735921425, 0.7612274761496278])",-149.12415492089062,-198.39470696206465,-52.987477922311285,0.09320988005267311,-0.006410755142678463,0.7859524971212164,25.000000248986765,-1.0,"[-206.10110185857775, -156.9727157914114, 53.080032419338565]","[-196.57518062758862, -118.35503532845448, 57.31460209782375]","[-167.69737386730873, -145.8083971646561, 53.795340725529755]",10000000000.0,0.018035888671875
15,-202.77781677246094,-153.76614379882812,53.37770080566406,0.10164764523506145,0.01661567389965049,0.7974717775967459,23.494783771837405,"array('d', [-153.76614379882812, -151.9808468020151, -150.20241125838413, -148.43071943373562, -146.66554357353755, -144.9065808324539, -143.15347894536322, -141.40585610827713, -139.6633166884888, -137.9254636374959, -136.19190815630574, -134.462277004252, -132.73621775094165, -131.01340220809453, -129.29352822936463, -127.57632348992284])","array('d', [-202.77781677246094, -201.02814816549682, -199.2713625714119, -197.5077009010333, -195.73747521595544, -193.96105014094323, -192.1788242326046, -190.39121360203384, -188.59863838489144, -186.80151201785478, -185.00023306341816, -183.19517927340948, -181.38670359434175, -179.57513185334918, -177.76076190535136, -175.9438677233236])","array('d', [-53.37770080566406, -53.34083352335254, -53.311497601783714, -53.287064524789486, -53.26589977410367, -53.24698407478598, -53.22968527668139, -53.21361948699312, -53.198565285911684, -53.18440936648886, -53.17111034981219, -53.15867246297859, -53.147123753893304, -53.13649546000778, -53.126800601037864, -53.1180111833428])","array('d', [0.10164764523506145, 0.10074114956542848, 0.09810760262163563, 0.09419387467495975, 0.08937573314927326, 0.08396574278842406, 0.07822070616639927, 0.07234851162647259, 0.06651430799304514, 0.06084596980798426, 0.055438851370604385, 0.05035985270111629, 0.045650836960981794, 0.04133144844440541, 0.037401384533925705, 0.0338421752778496])","array('d', [-0.01661567389965049, -0.012940545916383607, -0.010568308896829817, -0.00900455225981664, -0.007945124540610584, -0.007200009506902922, -0.006648342359071425, -0.006211662520730632, -0.005838004440325314, -0.005492554354504769, -0.00515238383349844, -0.004803782007094318, -0.004441265576293273, -0.004067628127558601, -0.003694502929683773, -0.003342924876072331])","array('d', [0.7974717775967459, 0.7934875989084744, 0.7895741482149882, 0.7857908111497062, 0.7821806106119863, 0.77877288507285, 0.7755856772081039, 0.7726278396349987, 0.7699008756450071, 0.7674005398800708, 0.7651182274615853, 0.7630421810218577, 0.7611585442618998, 0.7594522887739044, 0.7579080384498698, 0.7565108104022428])",-144.9065808324539,-193.96105014094323,-53.24698407478598,0.08396574278842406,-0.007200009506902922,0.77877288507285,25.000000248987366,-1.0,"[-205.49352864642574, -156.37780286794415, 53.11793568608787]","[-195.91782051445787, -117.76540706102982, 57.28791216342546]","[-167.07568625727197, -145.25989630977318, 53.79730298432806]",10000000000.0,0.021602392196655273
16,-198.75430297851562,-149.85400390625,53.63161087036133,0.0936886817216871,0.015683548524975704,0.7925980846073964,23.4939361718081,"array('d', [-149.85400390625, -148.0769641743107, -146.30629830982286, -144.5419041403042, -142.78357638704796, -141.0310383065073, -139.28396550972482, -137.54200467021073, -135.80478843023894, -134.07194724304318, -132.34311863373622, -130.61795423233295, -128.8961248537369, -127.17732384305185, -125.46126885951257, -123.74770569095065])","array('d', [-198.75430297851562, -196.99621276101567, -195.2315842850829, -193.46062067231708, -191.68359657945683, -189.90083923159762, -188.1127101937291, -186.3195895550238, -184.52186290374942, -182.71991099015935, -180.9141018145084, -179.1047848445457, -177.29228708354924, -175.47691074395158, -173.6589323201437, -171.83860655888586])","array('d', [-53.63161087036133, -53.596448805921995, -53.567816261860756, -53.54344730910452, -53.52193670210759, -53.502412816307114, -53.48434081860715, -53.46740292328902, -53.45142437521292, -53.43632632009971, -53.422093964851975, -53.40875268028184, -53.39634728378387, -53.38492145853947, -53.37449561191283, -53.36504277093289])","array('d', [0.0936886817216871, 0.09310361615800253, 0.09085663863947015, 0.08737189826228893, 0.08300662655414527, 0.07805851962282782, 0.07277268283468064, 0.06734802008159628, 0.061942995765535094, 0.05668073701106688, 0.051653474469477684, 0.046926342486579294, 0.042540574392106324, 0.03851613756584063, 0.03485385704574281, 0.03153707687428593])","array('d', [-0.015683548524975704, -0.01250014766827026, -0.010440747122530954, -0.00907746736250809, -0.008146757127174026, -0.0074835736366267395, -0.006982509201664019, -0.006574713524485813, -0.0062142255676295695, -0.005870033691101704, -0.0055217224793320694, -0.005157432865520774, -0.004773332581913257, -0.004374020723660505, -0.003973364474046959, -0.003595249258659893])","array('d', [0.7925980846073964, 0.7889227195030998, 0.785303946287486, 0.7817989624441679, 0.7784494595369886, 0.775284135566122, 0.7723209372042682, 0.7695690395608435, 0.7670305805385133, 0.7647021728909906, 0.7625762201807695, 0.7606420636722476, 0.7588869864895363, 0.7572970997179024, 0.7558581329891625, 0.7545561471651173])",-141.0310383065073,-189.90083923159762,-53.502412816307114,0.07805851962282782,-0.0074835736366267395,0.775284135566122,25.000000248987625,-1.0,"[-197.70143640402813, -148.78586600275133, 53.608086511997094]","[-187.6283631092987, -110.23028343896377, 57.072223860020365]","[-159.14468568266796, -138.14523700346328, 54.00049995519427]",10000000000.0,0.01979804039001465
17,-194.38177490234375,-145.6417999267578,53.9094123840332,0.08479923009872417,0.015649031847715274,0.7859290401127679,23.49041765282821,"array('d', [-145.6417999267578, -143.87621670847258, -142.11644173111895, -140.36238588111283, -138.61386478305292, -136.87062783555285, -135.13238015438702, -133.39879983770393, -131.6695517352291, -129.9442983947527, -128.22270863002873, -126.50446403585075, -124.78926370306073, -123.07682733301766, -121.36689690841877, -119.65924117849394])","array('d', [-194.38177490234375, -192.6121825765394, -190.83670216721163, -189.05550986503124, -187.26884775986818, -185.477006629302, -183.68030937797573, -181.87909662977307, -180.07371482198445, -178.26450672073537, -176.45180413133775, -174.6359225449831, -172.81715747517245, -170.99578226488998, -169.17204717775346, -167.34618403655946])","array('d', [-53.9094123840332, -53.874076541459154, -53.84485467059466, -53.819634569223034, -53.797109267343735, -53.77647169498656, -53.75723105358649, -53.73910116460374, -53.72193142296259, -53.705662661945475, -53.69029698441498, -53.67587457246485, -53.66245290578379, -53.65008545499917, -53.63879824215712, -53.62856399309985])","array('d', [0.08479923009872417, 0.0843793044721592, 0.08242495461661734, 0.07932524392016357, 0.07540808557677184, 0.07094699048767693, 0.06616739709885244, 0.06125248450398138, 0.05634840964287471, 0.051568942926566136, 0.046999502836840526, 0.04270060914100122, 0.03871078719766577, 0.03504896350247533, 0.03171639619677467, 0.028698184643388525])","array('d', [-0.015649031847715274, -0.012670285197220405, -0.010739949123428849, -0.009457863139058316, -0.008577311946481321, -0.007943506705910817, -0.007457269773271029, -0.007053504114554272, -0.006688486345492061, -0.006332551962942814, -0.005966179231668393, -0.005578285132582927, -0.0051659778690458635, -0.004735209173598134, -0.004301821530613915, -0.0038924495205092317])","array('d', [0.7859290401127679, 0.7826019560829542, 0.7793222902467847, 0.7761428327185166, 0.7731021789851303, 0.7702270190098073, 0.7675341786752471, 0.7650324228075246, 0.7627240364163367, 0.7606062055017309, 0.7586722211382683, 0.7569125311038258, 0.7553156626301654, 0.753869038391199, 0.7525597059788556, 0.7513749962432631])",-136.87062783555285,-185.477006629302,-53.77647169498656,0.07094699048767693,-0.007943506705910817,0.7702270190098073,25.000000248987984,-1.0,"[-197.11408937345868, -148.2219167636267, 53.64534376834736]","[-187.00640190655162, -109.67117000095485, 57.06215194436135]","[-158.54784657638234, -137.61516372545347, 54.02178301199887]",10000000000.0,0.01950860023498535
18,-190.3264617919922,-141.7720184326172,54.17163848876953,0.0786254182457922,0.015183026902377519,0.7777851382878164,23.484978914568888,"array('d', [-141.7720184326172, -140.0206752393639, -138.27473210826136, -136.53407970511654, -134.79852831365747, -133.0678328692819, -131.34171197262606, -129.61986284910662, -127.9019732455365, -126.1877308459176, -124.47683059943934, -122.76898025260664, -121.06390431268446, -119.36134662105222, -117.66107167568994, -115.96286892122131])","array('d', [-190.3264617919922, -188.54276036037726, -186.75367568850692, -184.95938843656788, -183.16013373528537, -181.3561862670409, -179.54784610219568, -177.73542645522954, -175.9192436129821, -174.09960894812042, -172.27682281735707, -170.45117012003396, -168.6229173033268, -166.79231062283594, -164.95957549346403, -163.1249212296152])","array('d', [-54.17163848876953, -54.137029305948616, -54.107832190746315, -54.08219070757113, -54.058960164322464, -54.037438666800675, -54.01720553258243, -53.99802312163046, -53.97977607944572, -53.96243226322847, -53.94601554560288, -53.930584162183266, -53.916210405880015, -53.90295895513668, -53.89086238728475, -53.87989376825334])","array('d', [0.0786254182457922, 0.07780239268763549, 0.07568016615529762, 0.07259721790254749, 0.06883789196288898, 0.06463854262573503, 0.06019325675835921, 0.05565907903665827, 0.05116069950285459, 0.04679459015324631, 0.04263259808606809, 0.03872501759752022, 0.03510317337684493, 0.03178155257390242, 0.028759525869034967, 0.026022697488241358])","array('d', [-0.015183026902377519, -0.012549149880252124, -0.010837627527414895, -0.009694981218750358, -0.00890293406342875, -0.008324132252945465, -0.007870125545918885, -0.007482421420583371, -0.00712136501384543, -0.006759830318349359, -0.006379974866406839, -0.005972015796214183, -0.0055343536552810955, -0.005074527389471969, -0.004610505457418044, -0.00417175831306098])","array('d', [0.7777851382878164, 0.7747100218247079, 0.7716934661989654, 0.7687799343061935, 0.7660015756777373, 0.7633802497718347, 0.7609293209985609, 0.7586552375460308, 0.756558911361238, 0.7546369197653271, 0.7528825505114635, 0.7512867120866887, 0.7498387301536427, 0.7485270495825701, 0.7473398598103376, 0.7462656568778091])",-133.0678328692819,-181.3561862670409,-54.037438666800675,0.06463854262573503,-0.008324132252945465,0.7633802497718347,25.000000248988425,-1.0,"[-189.2578807812743, -140.71958506954866, 54.14886482342006]","[-178.6125042546328, -102.26890848168597, 57.01616818051666]","[-150.54761457280532, -130.64617199794682, 54.35292157617386]",10000000000.0,0.018988370895385742
19,-185.9063262939453,-137.6006622314453,54.457027435302734,0.0723697692155836,0.016124196350574396,0.7740580002453664,23.478919793194954,"array('d', [-137.6006622314453, -135.8557835861495, -134.11589592860653, -132.38091180239107, -130.6506644940659, -128.92493269663692, -127.20345904097503, -125.48596459300217, -123.77216035554673, -122.0617563707182, -120.35446881551619, -118.65002537648198, -116.94816912208708, -115.24866104201762, -113.55128138296055, -111.85583398133696])","array('d', [-185.9063262939453, -184.11634441934535, -182.3214031897632, -180.52166096909318, -178.71732756153784, -176.90865091316633, -175.0959040333899, -173.279373501531, -171.45934991594106, -169.63612026180746, -167.80996203913156, -165.98113895618818, -164.14989799609128, -162.31646768028972, -160.48105737405106, -158.64386194368612])","array('d', [-54.457027435302734, -54.42021175217496, -54.38904559334857, -54.36159367877052, -54.33666356563208, -54.313525138802206, -54.29174211327079, -54.27106968476545, -54.25139117754968, -54.23267725296463, -54.21495741727527, -54.19829718557739, -54.18277648836196, -54.168466464388615, -54.155403121811936, -54.14355778174889])","array('d', [0.0723697692155836, 0.07182133659049114, 0.07001826280315518, 0.06728248714149851, 0.06388493512843701, 0.060051254315432616, 0.05596715646614242, 0.05178329806134044, 0.04761966137016805, 0.04356942319087641, 0.03970231745079073, 0.036067511590670634, 0.03269602579475444, 0.02960272949188791, 0.02678795190826248, 0.024238743434530217])","array('d', [-0.016124196350574396, -0.013375281190454944, -0.011588108417592316, -0.010393789325112824, -0.00956446687128829, -0.008956678108834232, -0.008477948975011296, -0.008067037081972287, -0.007682348574412317, -0.007295386160624883, -0.0068874069535872166, -0.006448203816194834, -0.0059763059087003575, -0.005480054256593293, -0.004979025529091437, -0.0045052090933313145])","array('d', [0.7740580002453664, 0.7712242393852536, 0.7684372638008717, 0.7657400811664988, 0.7631639945855457, 0.7607305058547953, 0.7584530059802166, 0.7563382645734584, 0.7543877343445742, 0.7525986896485863, 0.7509652192274926, 0.7494790932998937, 0.748130524358591, 0.7469088397526975, 0.7458030825942531, 0.7448025534961172])",-128.92493269663692,-176.90865091316633,-54.313525138802206,0.060051254315432616,-0.008956678108834232,0.7607305058547953,25.000000248988574,-1.0,"[-189.2578807812743, -140.71958506954866, 54.14886482342006]","[-178.6125042546328, -102.26890848168597, 57.01616818051666]","[-150.54761457280532, -130.64617199794682, 54.35292157617386]",10000000000.0,0.017724275588989258
20,-181.7851104736328,-133.7428436279297,54.71283721923828,0.06490868330001812,0.01868666708469381,0.7700485746052601,23.48075804618429,"array('d', [-133.7428436279297, -132.0063848283086, -130.28042558849833, -128.5687956953922, -126.87548160452278, -125.20472980889876, -123.56054514347086, -121.94683709541307, -120.36741423470275, -118.82600098670562, -117.32624275687725, -115.87170798548112, -114.46588652374004, -113.27058634907691, -112.50039159630208, -111.77185872325182])","array('d', [-181.7851104736328, -179.98827139239725, -178.18342737431723, -176.3655473562283, -174.53042250218755, -172.67471325295935, -170.79536506115085, -168.88972567853685, -166.95551108862452, -164.99080490368016, -162.9940510687302, -160.9640476687523, -158.8999396890142, -157.04207962831305, -155.7565969399923, -154.44684903899113])","array('d', [-54.71283721923828, -54.63673256004531, -54.52039244629452, -54.39552886528641, -54.27330289942305, -54.15148250361291, -54.030705378943274, -53.91097878285217, -53.7924232804473, -53.6751176631375, -53.55913306832885, -53.44452822033632, -53.33137722297265, -53.23283697544503, -53.16806635941437, -53.10774122529198])","array('d', [0.06490868330001812, 0.13347226407124715, 0.19551116275365715, 0.25164628406836187, 0.30243944553894103, 0.3483989999890383, 0.3899849225135088, 0.4276134121875167, 0.46166105266416, 0.49246856674643685, 0.5203441742252176, 0.5455664104588586, 0.5683840094192799, 0.5415801445893913, 0.4490587117373479, 0.40631987582135276])","array('d', [-0.01868666708469381, -0.041821880899134994, -0.051128911975164566, -0.0488417059643244, -0.04897582418240734, -0.04852659492469754, -0.04813919159891106, -0.04768629112866397, -0.04720177878287609, -0.04668579477582558, -0.046144238007161886, -0.04558118967853154, -0.04498063763379439, -0.04418140753795472, -0.042236854451195634, -0.03828419363024765])","array('d', [0.7700485746052601, 0.7661193084150514, 0.7595827780520732, 0.7506385822057071, 0.7394599022744763, 0.7262003880167682, 0.7109989268063905, 0.6939829705699243, 0.6752708598513198, 0.6549734415124101, 0.6331951869078815, 0.610034963215236, 0.5855866347467314, 0.5580953922304118, 0.522796864277048, 0.49300846991166747])",-125.20472980889876,-172.67471325295935,-54.15148250361291,0.3483989999890383,-0.04852659492469754,0.7262003880167682,25.00000022061197,-1.0,"[-180.7084831941437, -132.69877078010177, 54.68480884988921]","[-169.76581251331808, -94.29294756021642, 56.976249700951065]","[-141.92386990457393, -122.91380222957952, 54.59446260580734]",10000000000.0,0.013534784317016602
21,-177.27293395996094,-129.55484008789062,54.98130798339844,0.13884058594703652,0.027132831513881593,0.7683694521572928,23.517075611561726,"array('d', [-129.55484008789062, -127.82444792140873, -126.1095744810079, -124.4136494086397, -122.74047826086428, -121.09413239888383, -119.47848599651051, -117.89733599896302, -116.3543930805103, -114.85329133279996, -113.39758900806392, -111.99076679830671, -110.7234192846981, -109.75167711266931, -109.02593590368645, -108.34467590251619])","array('d', [-177.27293395996094, -175.47121073523135, -173.65697844857698, -171.82551277227145, -169.9730536219289, -168.09666138420036, -166.1936840414776, -164.26186107971913, -162.29929456290958, -160.3044475977636, -158.27613692836712, -156.21352569738656, -154.24742003428437, -152.63233408232858, -151.32162126981657, -149.98697279417902])","array('d', [-54.98130798339844, -54.88512166253396, -54.75208780839983, -54.612436032607484, -54.47532342193074, -54.33903336460144, -54.20408512892436, -54.070517719488215, -53.93844531016323, -53.80794680147659, -53.67908890246217, -53.55193590891287, -53.43456393956376, -53.34175013065607, -53.27037738721228, -53.20389340787968])","array('d', [0.13884058594703652, 0.2003686220479554, 0.25604149609674526, 0.30641639963075423, 0.3519975001110318, 0.3932409864511176, 0.4305596339327378, 0.46432693353816473, 0.49488082504340164, 0.5225270642078866, 0.5475422267839288, 0.5701761949386323, 0.590651793812951, 0.5637686931952078, 0.46748293223532733, 0.4229906992965828])","array('d', [-0.027132831513881593, -0.049464286943689026, -0.05688946601087182, -0.05492296150639997, -0.05482384495129033, -0.0542714950783995, -0.05374831791548133, -0.053166221085515955, -0.05255117669195889, -0.05190586746667986, -0.051237313243176576, -0.050540655119863956, -0.04973877160002459, -0.04867704691113422, -0.04655745073986805, -0.04218967760046964])","array('d', [0.7683694521572928, 0.7616266875759758, 0.752491467598534, 0.7411351320795876, 0.7277099525616025, 0.7123537607019881, 0.695193177962768, 0.6763458713294588, 0.6559221222433003, 0.6340259088009762, 0.6107556446406186, 0.5862046809985818, 0.558727307936742, 0.524892085219231, 0.4878569482873347, 0.4566719721198034])",-121.09413239888383,-168.09666138420036,-54.33903336460144,0.3932409864511176,-0.0542714950783995,0.7123537607019881,25.00000021499044,-1.0,"[-180.7084831941437, -132.69877078010177, 54.6848088498892]","[-169.76581251331808, -94.29294756021642, 56.97624970095106]","[-141.92386990457393, -122.91380222957952, 54.59446260580733]",10000000000.0,0.019049406051635742
22,-173.04046630859375,-125.71912384033203,55.11661911010742,0.343585580587387,0.0502172783017158,0.7764598886158806,23.60257082624187,"array('d', [-125.71912384033203, -123.98317992590843, -122.27645689840888, -120.60202785005671, -118.96365315508714, -117.3648778073352, -115.8092175851547, -114.3001220771272, -112.84097716094004, -111.43509755333476, -110.08571951077988, -108.81877380481424, -107.79270762459464, -107.01752616828418, -106.39313613009618, -105.81913898886494])","array('d', [-173.04046630859375, -171.2470693396098, -169.42674364783392, -167.57633315132048, -165.69383921069092, -163.77746166536005, -161.8257917736204, -159.83776541009172, -157.81266298075178, -155.75009894743437, -153.65001218591905, -151.54922064638828, -149.71719346038384, -148.19729231095627, -146.83558915693612, -145.45159803758173])","array('d', [-55.11661911010742, -54.97510557052023, -54.822270540060764, -54.67364239130448, -54.5262160372635, -54.38071055954907, -54.237075805599076, -54.09538949153782, -53.95568281053221, -53.81797640260354, -53.68227663771295, -53.550928002140154, -53.44041540773268, -53.352438875146504, -53.27757476103499, -53.20769259765899])","array('d', [0.343585580587387, 0.3856295711751906, 0.4236725502288488, 0.45809526371753506, 0.4892422245576055, 0.5174251602767862, 0.5429261321161825, 0.5660003560850085, 0.586878752006679, 0.6057702380108717, 0.6228637576913597, 0.6383298557737895, 0.652318901607105, 0.6084257704306275, 0.5027453933612093, 0.4548970418008157])","array('d', [-0.0502172783017158, -0.06284420975305932, -0.05955502741054162, -0.05941989890570394, -0.05860327377453149, -0.057879012254941894, -0.05710501621490936, -0.056317934839056866, -0.0555189944399681, -0.05471532914577065, -0.0539112938721855, -0.0530776540706574, -0.05209669615585935, -0.050951314852463174, -0.04894218163826077, -0.04434439522490035])","array('d', [0.7764598886158806, 0.7614647582107829, 0.7446416497633904, 0.7261098114904427, 0.7059808470889002, 0.6843598783346985, 0.6613463389219372, 0.6370345092096501, 0.6115138721998734, 0.5848693500375189, 0.5571814646841006, 0.5280233135322574, 0.4928918699057693, 0.45101752435448095, 0.41044337745705967, 0.37651828673779064])",-117.3648778073352,-163.77746166536005,-54.38071055954907,0.5174251602767862,-0.057879012254941894,0.6843598783346985,25.000000208492214,-1.0,"[-171.97171715011243, -124.66931147123267, 55.041324847832975]","[-161.2875108309555, -88.1981907945778, 67.51950948817887]","[-133.2925143216392, -114.59232217047185, 56.581959517759906]",10000000000.0,0.0140838623046875
