,x_pos,y_pos,z_pos,roll,pitch,yaw,vel,x_traj,y_traj,z_traj,roll_traj,pitch_traj,yaw_traj,x_cmd,y_cmd,z_cmd,roll_cmd,pitch_cmd,yaw_cmd,vel_cmd,effector_dmg,effector_x,effector_y,effector_z,cost,time_solution
0,-251.9322052001953,-334.1910095214844,49.9930305480957,0.6275565624237058,0.040497928857803386,2.285869018235479,23.071551435915392,"array('d', [-334.1910095214844, -332.28415687129086, -330.3283242296478, -328.3253276202311, -326.27678624490267, -324.18375235831707, -322.0476352612725, -319.87077002058317, -317.65683037342086, -315.41018850270257, -313.13525903639004, -310.8361278743388, -308.51639287370733, -306.17913103772173, -303.8269302389025, -301.46195288150875])","array('d', [-251.9322052001953, -253.54049166140948, -255.09405276931398, -256.5886569510752, -258.0206327410337, -259.3870476553883, -260.6852807871012, -261.9141139479079, -263.0749427041074, -264.17123960437596, -265.2076405168889, -266.18924732759484, -267.12117028029286, -268.0082609878316, -268.85497772526196, -269.6653373506605])","array('d', [-49.9930305480957, -49.90146549454317, -49.82688829164021, -49.76637317387593, -49.71735049698702, -49.67760750086569, -49.64528917680475, -49.61886012679937, -49.59706449754512, -49.5788874365182, -49.56351932235884, -49.55032371704132, -49.53881001288041, -49.52861121789277, -49.51946667672682, -49.51120900744234])","array('d', [0.6275565624237058, 0.6425771647022771, 0.6561683689073218, 0.6684662001256605, 0.6795937389433494, 0.6896623531946774, 0.6906309990767413, 0.6708638216761588, 0.637016177758296, 0.5947566397238624, 0.5485082019288549, 0.5014965274124316, 0.45592616831919347, 0.4131710683250984, 0.3739315363219742, 0.3383472764924295])","array('d', [-0.040497928857803386, -0.03300428814123935, -0.0267944913256311, -0.021707249239803845, -0.017582246876331847, -0.014268778917457722, -0.011630617576482098, -0.00954776601956479, -0.0079161781841565, -0.006646775763213326, -0.005664184945824043, -0.00490501297772968, -0.0043158120028560076, -0.0038510005940564133, -0.0034709879960248564, -0.0031406801821813194])","array('d', [2.285869018235479, 2.256901620391885, 2.2270900591189213, 2.196482642944954, 2.165129872487192, 2.133090563570628, 2.1006941603874107, 2.068922744037039, 2.038860642264229, 2.0111043532824766, 1.9858772882805618, 1.9631634999215182, 1.9428133970012136, 1.9246142456550086, 1.908333907870131, 1.8937480361929668])",-324.18375235831707,-259.3870476553883,-49.67760750086569,0.6896623531946774,-0.014268778917457722,2.133090563570628,25.000000243201207,-1.0,"[-251.05685058507095, -335.3591096018237, 49.93134729070978]","[-289.19676590125096, -326.5595426312573, 58.17237154775037]","[-259.7746341289265, -303.97691210100714, 73.15112183962015]",10000000000.0,-100.0
1,-255.4950714111328,-329.3717956542969,49.9835205078125,0.6441491246223446,0.02539022080600265,2.237715737023626,23.116841251369824,"array('d', [-329.3717956542969, -327.38616642184616, -325.3544106078103, -323.2782927695874, -321.1589167792204, -318.9976293982075, -316.79612842608543, -314.55699630009747, -312.2840042377433, -309.9814750298474, -307.6536737122249, -305.3044805990471, -302.9372651820985, -300.55487495700123, -298.15967963602367, -295.75364090454264])","array('d', [-255.4950714111328, -257.0109441512102, -258.46675006803343, -259.85882436668385, -261.18428466233786, -262.440359738217, -263.6246179302496, -264.73615261197705, -265.776761058259, -266.75033193896604, -267.6618833661981, -268.5168464214937, -269.3206058348443, -270.0782391284873, -270.7943902680589, -271.47322978475216])","array('d', [-49.9835205078125, -49.92642943785796, -49.88061842094684, -49.84395559888178, -49.814626664056725, -49.791127786439766, -49.77222715086741, -49.75692591400334, -49.74442179164197, -49.734076681511006, -49.72538848040683, -49.71796715335739, -49.71151516798524, -49.70581214831805, -49.70070328801242, -49.696090823609424])","array('d', [0.6441491246223446, 0.6575907372007675, 0.6697532123129244, 0.6807582758704529, 0.690716070028995, 0.6997262554386615, 0.6990771438560534, 0.6779252087214153, 0.6429528090267159, 0.5998127515542646, 0.5528872317479462, 0.5053531763112961, 0.45936934388597483, 0.4162723156552905, 0.37673582193233174, 0.3408846992733475])","array('d', [-0.02539022080600265, -0.020390787349878783, -0.01632787991439764, -0.013057990292396435, -0.010449221722770246, -0.008384602339636789, -0.006763101543067054, -0.005499051938671642, -0.0045206103163117125, -0.0037680556334924445, -0.003192126907303588, -0.0027522809485100008, -0.0024149405627947066, -0.0021518676769918753, -0.0019387781399104738, -0.0017542792468852946])","array('d', [2.237715737023626, 2.2078101858821935, 2.1771172627174558, 2.1456856850078814, 2.113573842929835, 2.080836344983371, 2.0478254231478017, 2.01554757143508, 1.985078950955772, 1.9569979007325462, 1.9315084661373099, 1.9085784852522174, 1.88804634332722, 1.8696909854983113, 1.853274725313239, 1.8385695078368964])",-318.9976293982075,-262.440359738217,-49.791127786439766,0.6997262554386615,-0.008384602339636789,2.080836344983371,25.00000024471393,-1.0,"[-255.93025071864932, -328.8766507506136, 49.943666378744965]","[-293.1584044907867, -317.7976152161975, 59.499792076183184]","[-261.90931334370583, -297.2938664911168, 73.75077768070119]",10000000000.0,0.01854085922241211
2,-258.5066833496094,-324.65625,50.01528549194336,0.6878402233123776,-0.01469105482101436,2.1903600255635123,23.207267799243787,"array('d', [-324.65625, -322.5979021365289, -320.4940106729106, -318.346146377685, -316.1560979494275, -313.925860757607, -311.65773011458174, -309.3547726091792, -307.0210742459202, -304.66109088967903, -302.2790701306177, -299.8787713970368, -297.4633833828037, -295.03554549887787, -292.5974135572186, -290.1507444918462])","array('d', [-258.5066833496094, -259.92498152288306, -261.2749416832019, -262.5538736929215, -263.7592024151277, -264.88847362643264, -265.93959258657566, -266.9120760027672, -267.8083355298991, -268.63295928524565, -269.3916371525579, -270.0903913549291, -270.7351043444647, -271.3312648573848, -271.88385533046505, -272.39732604496993])","array('d', [-50.01528549194336, -50.048114778608884, -50.074062843068084, -50.09453781775341, -50.11069618578859, -50.123475698689816, -50.13362886302388, -50.141754326564104, -50.14832458263013, -50.153709535552984, -50.158196186724204, -50.16200473276853, -50.1653013012671, -50.16820765499199, -50.17080832610226, -50.17315573009302])","array('d', [0.6878402233123776, 0.6971240816696828, 0.7055244648312939, 0.7131254464855964, 0.7200030996220188, 0.7262262576714938, 0.723352718059678, 0.6998322560227076, 0.6625679247770021, 0.6173406910888263, 0.5685771951538465, 0.5194455834240761, 0.47207062302677205, 0.4277486050950554, 0.38711781374740695, 0.3502787147842267])","array('d', [0.01469105482101436, 0.01162429923818017, 0.009175382898287862, 0.007237116543327105, 0.005715059956623634, 0.00452839139066761, 0.0036094916921306968, 0.0029026816575065295, 0.002362539900050723, 0.0019522698795532527, 0.0016422251282712423, 0.0014085116697438156, 0.0012316935505728313, 0.001095659256761357, 0.0009866957195461303, 0.000892799060845276])","array('d', [2.1903600255635123, 2.1578042281780037, 2.1246588565589484, 2.0909723800292443, 2.056789849813506, 2.0221530520190796, 1.9874046263612242, 1.9535786074444814, 1.921782855679111, 1.89258497236802, 1.8661586641364927, 1.8424379738622045, 1.8212315809080553, 1.8022949203272407, 1.785372604992922, 1.7702234273278181])",-313.925860757607,-264.88847362643264,-50.123475698689816,0.7262262576714938,0.00452839139066761,2.0221530520190796,25.000000238242922,-1.0,"[-257.92965002316777, -325.7675679677768, 49.99266317541167]","[-294.70592908690634, -313.50663138593376, 59.85038767765095]","[-262.6941899113168, -294.557894805823, 74.55392252378908]",10000000000.0,0.019964218139648438
3,-261.4381103515625,-319.3103942871094,50.17491149902344,0.7136151790618892,-0.032815322279930094,2.1358763734486437,23.255882592250202,"array('d', [-319.3103942871094, -317.1775002420581, -315.0006736416801, -312.7821329436024, -310.5242365814654, -308.2294873141714, -305.9006351057306, -303.5411080175119, -301.1551249667477, -298.74706409116783, -296.3209583355109, -293.88028065510485, -291.42790749238156, -288.96616854365703, -286.49692780534195, -284.0216726911018])","array('d', [-261.4381103515625, -262.73997018893357, -263.9678142066319, -265.11912511175126, -266.1915511106583, -267.18289588532826, -268.0913887993613, -268.9170677255059, -269.6629708393038, -270.33429450891674, -270.9372564339244, -271.47831085852545, -271.9636846863186, -272.3991395153143, -272.78987516344847, -273.1405180185391])","array('d', [-50.17491149902344, -50.24762303585017, -50.30403673470607, -50.34773511546084, -50.38158663114008, -50.40786340622001, -50.428349872454405, -50.444437855548635, -50.45720637902868, -50.46748684124132, -50.47591542973379, -50.48297443311665, -50.48902381394381, -50.49432447095535, -50.49905473949961, -50.5033217435419])","array('d', [0.7136151790618892, 0.7204462282359929, 0.7266272176839671, 0.7322200087070664, 0.7372805757164728, 0.7418595663521768, 0.7364741911872333, 0.710799390621227, 0.6717875050101172, 0.6251949930259791, 0.5753829607391001, 0.5254422436076195, 0.47742598556330035, 0.4325727409557813, 0.39148009772348386, 0.3542258729192881])","array('d', [0.032815322279930094, 0.025484533969234436, 0.019746047346100012, 0.015288821805454307, 0.011850588087933357, 0.009215188673003314, 0.007207659928575048, 0.0056881647034029625, 0.00454575659105034, 0.0036928644668480335, 0.0030605671263278186, 0.002594419352948203, 0.002250821897870139, 0.0019939913049643416, 0.0017935691990862254, 0.0016228885875077675])","array('d', [2.1358763734486437, 2.1016616684014964, 2.066995422306762, 2.031916110637655, 1.9964592788004567, 1.9606577083634213, 1.9248910459743205, 1.8902331639183136, 1.8577760962018908, 1.8280544826467744, 1.80120804982094, 1.777143096535649, 1.7556480972699093, 1.7364646642747457, 1.71932824563374, 1.7039915367602052])",-308.2294873141714,-267.18289588532826,-50.40786340622001,0.7418595663521768,0.009215188673003314,1.9606577083634213,25.00000024647989,-1.0,"[-259.37760937005146, -323.4351839530986, 50.03732128150153]","[-295.77166488926326, -310.27892779846843, 60.155900572008804]","[-263.20990363855884, -292.6368740936894, 75.27177452391166]",10000000000.0,0.024593591690063477
4,-263.8670349121094,-314.2252502441406,50.3697395324707,0.7316496372222898,-0.040628071874380056,2.0867747823384146,23.28765930111715,"array('d', [-314.2252502441406, -312.0307852930738, -309.79462234595843, -307.51948076104827, -305.2081480448125, -302.8635019161386, -300.48862393946564, -298.0871901660604, -295.6634502477826, -293.2216269213977, -290.76548965015405, -288.2982008006578, -285.8223182738306, -283.3398671496944, -280.852431209498, -278.36124552914345])","array('d', [-263.8670349121094, -265.0610335102582, -266.17647943943035, -267.2110451422842, -268.1626057594043, -269.0292151730068, -269.809419746512, -270.50378797946024, -271.1159362851509, -271.6515722266536, -272.11732677892843, -272.51997362044517, -272.8659824430854, -273.1612995912995, -273.41126724407826, -273.6206237677098])","array('d', [-50.3697395324707, -50.45913101660121, -50.527408217223815, -50.57946947917021, -50.61915845509196, -50.649463602815224, -50.67269208846676, -50.690615469244, -50.70458781524766, -50.71563944949101, -50.72455031692005, -50.73190629515434, -50.73814114458898, -50.74356663063812, -50.74839328207253, -50.752744167651535])","array('d', [0.7316496372222898, 0.7367644822715878, 0.7413925858695394, 0.745580267541712, 0.7493694389166038, 0.7527980230812245, 0.7449943844184559, 0.7174033404399492, 0.6769605942335939, 0.6293463881274178, 0.5788242734781224, 0.5283917028161337, 0.48002432517725513, 0.4349026168524466, 0.39358556314336485, 0.3561309769861152])","array('d', [0.040628071874380056, 0.031060247058076727, 0.023691357523850806, 0.018054747800338417, 0.013769281064390017, 0.010529487541773777, 0.008094198274279842, 0.006274979227409461, 0.004925469028679109, 0.003932433254751334, 0.003208354937529297, 0.002685164017310622, 0.0023089959146962566, 0.0020359512321020978, 0.0018288275207334844, 0.0016547916391004291])","array('d', [2.0867747823384146, 2.0513566171897772, 2.015590342806392, 1.9795064123150348, 1.9431328280399827, 1.9064953028282452, 1.8700246925418311, 1.8348355675821433, 1.8019876176702299, 1.7719771413763337, 1.7449114775394827, 1.7206736728286576, 1.699036982625157, 1.679733639690229, 1.6624935411163806, 1.6470660946735682])",-302.8635019161386,-269.0292151730068,-50.649463602815224,0.7527980230812245,0.010529487541773777,1.9064953028282452,25.00000024694884,-1.0,"[-262.24090304691634, -318.04425770057463, 50.22412564866196]","[-297.6624273513535, -303.26215533901535, 61.48490118689877]","[-263.89878504376037, -287.79462969078253, 76.34330313482603]",10000000000.0,0.022517681121826172
5,-266.18975830078125,-308.626220703125,50.59913635253906,0.7454413771629331,-0.0433844812214374,2.0338643352177477,23.288613353388637,"array('d', [-308.626220703125, -306.37135183781623, -304.07803316595465, -301.7493842361835, -299.3885330817936, -296.99865416821325, -294.5830888015242, -292.1456805099602, -289.6906115022389, -287.2218517047312, -284.74282340343797, -282.2563115311003, -279.7645038051544, -277.26908118463086, -274.7713168977822, -272.2721701163513])","array('d', [-266.18975830078125, -267.2648575787127, -268.25727338490776, -269.1649182154544, -269.9859280572864, -270.7186296451253, -271.36191946230616, -271.9169803115845, -272.3880406391397, -272.7812972935956, -273.1037440907276, -273.3624140798393, -273.56396028664193, -273.7144594570675, -273.8193482897218, -273.88343569312883])","array('d', [-50.59913635253906, -50.69389898983297, -50.7650862467569, -50.81845158866153, -50.8584209199236, -50.88837321090906, -50.91087387374877, -50.9278629805478, -50.94080323612968, -50.95079437628383, -50.958660511827546, -50.96501553255286, -50.97031065782873, -50.97486771064613, -50.97890134566336, -50.98253318644949])","array('d', [0.7454413771629331, 0.7492437657596636, 0.7526843095417817, 0.7557974425580368, 0.7586143220096413, 0.7611631399336384, 0.7506260379612345, 0.7210281132524289, 0.679218004324959, 0.6307366873720636, 0.5797040863185199, 0.5289944199925076, 0.4804881171021633, 0.43529802592398126, 0.39394029041930195, 0.35645194752765014])","array('d', [0.0433844812214374, 0.03262367339491063, 0.02447000851126841, 0.01832803528987871, 0.013725597965988892, 0.010294064516372499, 0.007749167444542182, 0.0058735141082363095, 0.004501623170703693, 0.003507887963268041, 0.0027968917588949956, 0.0022954946031667266, 0.0019464318270969118, 0.0017032688617719272, 0.0015265879157864933, 0.0013813139106223372])","array('d', [2.0338643352177477, 1.9975003919929442, 1.9608716492134755, 1.9240017587241158, 1.886912385795749, 1.8496233543203855, 1.8126389374871714, 1.7771213192907382, 1.7440767907484234, 1.7139528093357017, 1.6868214164571513, 1.6625434431170036, 1.6408794785319125, 1.6215552051500803, 1.6042975521669354, 1.5888548043025892])",-296.99865416821325,-270.7186296451253,-50.88837321090906,0.7611631399336384,0.010294064516372499,1.8496233543203855,25.00000024732362,-1.0,"[-266.85917048294624, -307.285454128727, 50.66419266158145]","[-300.19547028445675, -290.09517695696496, 64.56331084590548]","[-264.4416949671773, -278.0189240292282, 77.8234641552314]",10000000000.0,0.030551433563232422
6,-268.04754638671875,-303.3892517089844,50.82927322387695,0.7551351785659787,-0.04755255207419399,1.983431235947881,23.26729998217325,"array('d', [-303.3892517089844, -301.0830386847689, -298.7418899706724, -296.3692701616877, -293.9685834990534, -291.54323457533224, -289.0967544723103, -286.63307068958915, -284.1562262250952, -281.66989117687103, -279.17711666997815, -276.68030312427925, -274.1812717042883, -271.6813688663265, -269.18156974511874, -266.6825710135087])","array('d', [-268.04754638671875, -269.0066792399511, -269.8798432738817, -270.6651675002557, -271.3610269687415, -271.9659990695567, -272.4793146675959, -272.90277144235665, -273.24116939730374, -273.50112253388846, -273.68990689706317, -273.8147383995776, -273.88238594359757, -273.8989991774652, -273.8700609634683, -273.8004101490397])","array('d', [-50.82927322387695, -50.93248824829795, -51.008917848496786, -51.06537624860438, -51.107016030220365, -51.1377093228972, -51.16035379122632, -51.17711219201941, -51.18959607869394, -51.199004805476186, -51.206229522668934, -51.21192950354554, -51.21658654923, -51.22054226537689, -51.224022324352525, -51.227151327602336])","array('d', [0.7551351785659787, 0.7580150807859628, 0.7606209243005833, 0.762978789212121, 0.7651122737546345, 0.7670427302506645, 0.7537633355482857, 0.7222569196933778, 0.6792367363783426, 0.6300690200948975, 0.5787087702531826, 0.527896087990787, 0.47941165375966444, 0.4342996093202071, 0.39303382983917434, 0.35563174800249375])","array('d', [0.04755255207419399, 0.03524871928405391, 0.02605802448090059, 0.019226585651146624, 0.014171150150846041, 0.010446253626026513, 0.007715134743440955, 0.0057248896429396385, 0.004286261158233138, 0.0032578935154194645, 0.002533964924018455, 0.0020343581663500834, 0.001696909827393432, 0.00147142590733985, 0.0013152278434746954, 0.0011900673912325634])","array('d', [1.983431235947881, 1.946388656832654, 1.9091421842633787, 1.8717103043457535, 1.8341099028701222, 1.79635639065329, 1.7590377920718683, 1.723364504116261, 1.6902782991513514, 1.6601746428168218, 1.6330915095011083, 1.6088703351574472, 1.5872620223958966, 1.5679882983036713, 1.5507752140277895, 1.5353715592202783])",-291.54323457533224,-271.9659990695567,-51.1377093228972,0.7670427302506645,0.010446253626026513,1.79635639065329,25.000000247599917,-1.0,"[-266.85917048294624, -307.285454128727, 50.66419266158145]","[-300.19547028445675, -290.09517695696496, 64.56331084590548]","[-264.4416949671773, -278.0189240292282, 77.8234641552314]",10000000000.0,0.01992344856262207
7,-269.7528076171875,-297.6361083984375,51.08625411987305,0.7632804512977599,-0.05006329715251914,1.9300938407566886,23.236091357390272,"array('d', [-297.6361083984375, -295.28199255479694, -292.8970655321443, -290.48508973780986, -288.04970201893093, -285.5944976529197, -283.1231539893563, -280.63960991646724, -278.14769138739007, -275.6507026921016, -273.15127277586225, -270.65137962629655, -268.1524499143568, -265.6554748102568, -263.1611155888752, -260.66979419092604])","array('d', [-269.7528076171875, -270.5868642018689, -271.33193159465696, -271.98638977470415, -272.548877470737, -273.01824094632815, -273.39407205051924, -273.6788430763199, -273.87794679112653, -273.99839716246146, -274.04771713688746, -274.0332646000412, -273.9618842629163, -273.83976214545805, -273.6723951046031, -273.4646240493058])","array('d', [-51.08625411987305, -51.19422354563819, -51.2729880930152, -51.33027275261681, -51.37182215192734, -51.40188769365245, -51.42360662625612, -51.43929101109197, -51.45064433221804, -51.45892216006583, -51.46505008267488, -51.4697086348497, -51.47339268428666, -51.47645125928479, -51.479112745859695, -51.48149964503845])","array('d', [0.7632804512977599, 0.7653852290003711, 0.7672897107837118, 0.7690129572977216, 0.7705722153078629, 0.7719830898957358, 0.7556839052906732, 0.7221448096892749, 0.6778953727255188, 0.6280864440414125, 0.5764788792627542, 0.5256593258371127, 0.47729660335632496, 0.4323590333971121, 0.3912745757490068, 0.3540399089297106])","array('d', [0.05006329715251914, 0.03656495576359673, 0.026623219733692444, 0.01933028164899866, 0.013999731665952002, 0.010118050659953644, 0.007304259231505708, 0.005277149219111652, 0.003829686175355639, 0.0028096054054157138, 0.0021045002034484708, 0.0016302550451956616, 0.0013221257638131314, 0.0011279736686680085, 0.0010032958488968707, 0.0009078196251540198])","array('d', [1.9300938407566886, 1.8924718265507017, 1.8546986823515976, 1.8167882866158749, 1.7787532853933516, 1.7406051943665195, 1.703030741599466, 1.6672930765490714, 1.6342558257439601, 1.6042557485253768, 1.5772945318467018, 1.553194253790964, 1.5316970861243182, 1.5125220135090214, 1.495395387540321, 1.4800675284540012])",-285.5944976529197,-273.01824094632815,-51.40188769365245,0.7719830898957358,0.010118050659953644,1.7406051943665195,25.000000247830858,-1.0,"[-270.01890061121935, -297.1579354859782, 51.11967606468575]","[-301.0992097505619, -277.90831578839857, 67.35132802317278]","[-263.8208358514847, -268.78200956674397, 78.6222363356908]",10000000000.0,0.02181410789489746
8,-271.04766845703125,-292.2552795410156,51.32325744628906,0.7681370973587032,-0.051723767071962405,1.8821475068714955,23.203204325261577,"array('d', [-292.2552795410156, -289.8638963196526, -287.44571722978907, -285.0047130018815, -282.5446749372724, -280.06932019698314, -277.58240537606457, -275.08780542354214, -272.5890893337824, -270.089193950072, -267.5903487333921, -265.0941444108187, -262.601652921209, -260.1135499419515, -257.6302203759796, -255.1518466403618])","array('d', [-271.04766845703125, -271.7674742172224, -272.39613519697735, -272.9322539494947, -273.37469712639154, -273.7225400219615, -273.975689498159, -274.13722398802366, -274.21303822400273, -274.210454042602, -274.137160526201, -274.00059118881205, -273.8076134343138, -273.5644073341665, -273.27644980947326, -272.9485564055034])","array('d', [-51.32325744628906, -51.43419873548816, -51.514092261453335, -51.57141040700232, -51.61236692369145, -51.64150239096413, -51.66212893064437, -51.67666217460607, -51.68686563930854, -51.69402909221493, -51.69909747670938, -51.70276234310826, -51.7055247796272, -51.707736853434646, -51.709627163368964, -51.71131515642668])","array('d', [0.7681370973587032, 0.7697797044793099, 0.771265996987733, 0.7726108501612884, 0.7738277236765791, 0.7749287952732481, 0.7558629067550885, 0.7205313150642632, 0.6752600668451776, 0.6249799437776772, 0.5732615456900726, 0.522545065620895, 0.4743945806415157, 0.4297085268883053, 0.38887322659883705, 0.3518670781680829])","array('d', [0.051723767071962405, 0.03729981424619648, 0.02680132126786163, 0.01918439012128286, 0.01367425053903498, 0.009700948720346821, 0.006848067451771912, 0.004812551567286888, 0.0033742374282257044, 0.0023732316919322406, 0.0016928291884724142, 0.0012465104614128215, 0.0009680838984039507, 0.0008043074799880638, 0.0007095218114268494, 0.0006420018595870051])","array('d', [1.8821475068714955, 1.844175887281618, 1.806085316179097, 1.7678868015482296, 1.7295903589021577, 1.6912050961539136, 1.6535140901264673, 1.6178282875097911, 1.5849334138835014, 1.5551115628938041, 1.5283326730280846, 1.5044031821931887, 1.4830592251332664, 1.4640188954688405, 1.447010096140888, 1.4317855303800733])",-280.06932019698314,-273.7225400219615,-51.64150239096413,0.7749287952732481,0.009700948720346821,1.6912050961539136,25.000000247998667,-1.0,"[-270.8494830736226, -293.7236869721312, 51.272571057851444]","[-301.1404856252077, -273.8522670450327, 68.23080901174212]","[-263.43972858111835, -265.6447976145845, 78.78023382311491]",10000000000.0,0.021120786666870117
9,-272.159423828125,-286.3636169433594,51.56482696533203,0.7734121680259701,-0.04887345060706142,1.8321931819107873,23.18139473441366,"array('d', [-286.3636169433594, -283.9388772159396, -281.491860903413, -279.026653489591, -276.54714663176685, -274.05714778903535, -271.56046329844315, -269.06083731219036, -266.56151891560035, -264.06503186656187, -261.5731747570584, -259.08712972229796, -256.6075992531817, -254.13493305352037, -251.66923187190395, -249.21043159413034])","array('d', [-272.159423828125, -272.7585189076172, -273.2643145510645, -273.67569823417, -273.9918051620749, -274.21198441269, -274.33654691621604, -274.3692307013053, -274.3164421524273, -274.1857969991918, -273.98512633460547, -273.72191244492353, -273.4030193733231, -273.0345974667829, -272.6220826711265, -272.17024677029906])","array('d', [-51.56482696533203, -51.66900540001126, -51.74289179878961, -51.79500717041303, -51.831516668408405, -51.856869791530926, -51.874275822431365, -51.88605185324102, -51.89387470067408, -51.89896199299763, -51.90220109580204, -51.90423911779144, -51.90554379108523, -51.906442667235204, -51.907146425713805, -51.90776102417293])","array('d', [0.7734121680259701, 0.7745527862326941, 0.7755848603460652, 0.776518719679337, 0.7773637105394112, 0.7776660996326618, 0.7556194855462532, 0.7183824432567285, 0.6720449643970234, 0.6212925156707895, 0.5694876377471586, 0.518911979207403, 0.47101686733288334, 0.4266257843286216, 0.38608054929022545, 0.34934015901389714])","array('d', [0.04887345060706142, 0.03473007527923891, 0.02455760520194607, 0.01725955112897674, 0.012036253687675712, 0.008308785691334681, 0.005660336891214578, 0.0037916965238564983, 0.0024883346903938927, 0.0015963816260456884, 0.0010047706048221384, 0.0006318679200540351, 0.0004154805267481844, 0.0003054558330559492, 0.0002583369881017767, 0.00023375291211402097])","array('d', [1.8321931819107873, 1.7938382733294027, 1.7553999920922643, 1.7168861190998248, 1.6783037220580221, 1.639677378664486, 1.6018933141705158, 1.566293575688342, 1.533577688984011, 1.5039690552625953, 1.477404272857248, 1.4536737375857751, 1.4325076834405783, 1.4136236716378916, 1.3967515824090997, 1.3816469189795153])",-274.05714778903535,-274.21198441269,-51.856869791530926,0.7776660996326618,0.008308785691334681,1.639677378664486,25.000000248144854,-1.0,"[-271.5065716067558, -290.82930838696177, 51.40080850675413]","[-301.1174346084911, -270.4545432983531, 68.95261012016336]","[-263.0915371670555, -263.00930553437917, 78.8823411543514]",10000000000.0,0.017580747604370117
10,-272.9286193847656,-280.8027038574219,51.76220703125,0.7765291333198545,-0.04847788810729975,1.784370900192533,23.193874603775278,"array('d', [-280.8027038574219, -278.351988104518, -275.8834087372731, -273.40115932615316, -270.9092102057317, -268.4114328994909, -265.91163217783657, -263.4133214292696, -260.9193615214253, -258.43183581217244, -255.95211245132725, -253.48098136545275, -251.01879982106172, -248.56561867951615, -246.12128181851352, -243.68550332776599])","array('d', [-272.9286193847656, -273.41084325430626, -273.7982685579573, -274.0900229696774, -274.28547321330484, -274.3843247761308, -274.38770034273574, -274.30000875423747, -274.128027134357, -273.87951948233206, -273.5623291296323, -273.1838789017646, -272.7509416536063, -272.2695672484728, -271.7450934339642, -271.18220120237146])","array('d', [-51.76220703125, -51.86501549063576, -51.93702461426187, -51.9871220048787, -52.02166102196356, -52.04517681717329, -52.06090791987026, -52.071171663228476, -52.077632106126856, -52.08149010240386, -52.083616810240834, -52.084645648125985, -52.085033608361975, -52.08510002555306, -52.08504896636468, -52.0849801885803])","array('d', [0.7765291333198545, 0.7773731333149231, 0.7781368161456638, 0.7788278249772175, 0.7794530755692953, 0.7756008568706666, 0.7508059814778452, 0.7119962935748684, 0.6649581265000033, 0.6140929333609075, 0.5625371543245798, 0.512407821721127, 0.4650434826946909, 0.42119522106124296, 0.38116359893347496, 0.3448911179455495])","array('d', [0.04847788810729975, 0.03403375498219179, 0.023753266410985123, 0.01644926344450075, 0.011269272682342108, 0.007604782322715321, 0.005023251356409723, 0.003217884551398708, 0.0019712717888275603, 0.0011291743807721173, 0.0005813312135940042, 0.0002473112319290092, 6.608024916724413e-05, -1.1649804709544529e-05, -2.8909617558837927e-05, -2.615858837211497e-05])","array('d', [1.784370900192533, 1.7457877383458205, 1.707142541687784, 1.6684411289075336, 1.6296887801291293, 1.5910640884291938, 1.5535402271905594, 1.518339439644588, 1.4860693670824021, 1.4568984309355253, 1.4307366809664102, 1.407365240675606, 1.3865141360442734, 1.3679048664942224, 1.3512727055028266, 1.336378561458968])",-268.4114328994909,-274.3843247761308,-52.04517681717329,0.7756008568706666,0.007604782322715321,1.5910640884291938,25.000000248264474,-1.0,"[-272.5466062638742, -284.91630230676475, 51.63810795977379]","[-300.7857300920136, -263.7049697309491, 70.41658648645837]","[-262.19067311615754, -257.6271397668138, 78.98872507361901]",10000000000.0,0.028006315231323242
11,-273.4522399902344,-274.73736572265625,51.96792984008789,0.7770380973815914,-0.047795426100492436,1.7323727021601536,23.21765508460874,"array('d', [-274.73736572265625, -272.2648129400644, -269.7793545664503, -267.28523688430386, -264.7864607084291, -262.28690509514166, -259.79026665892707, -257.2997259818573, -254.8176821404842, -252.34573009750028, -249.8847778061351, -247.43520494411646, -244.99701269609434, -242.5699465432574, -240.15358953415432, -237.74743277574413])","array('d', [-273.4522399902344, -273.80640107105785, -274.0648699645761, -274.227001984292, -274.2923801865509, -274.2610679092703, -274.13504896986984, -273.9194016763343, -273.62122737549765, -273.2483756337994, -272.80863836457695, -272.30932061177276, -271.7570529414873, -271.15774086316594, -270.5165865895789, -269.8381488257396])","array('d', [-51.96792984008789, -52.068750807912, -52.138438435310825, -52.186206121968304, -52.218559439835126, -52.2400904991241, -52.254045554077614, -52.26272673145804, -52.267774632182466, -52.270366142527024, -52.27135150977364, -52.271347478719115, -52.27079848247931, -52.27001458894015, -52.269192689098894, -52.26842605486342])","array('d', [0.7770380973815914, 0.7778336630814989, 0.7785535207434436, 0.7792048749117205, 0.7797942444219621, 0.7714204114411016, 0.7437290498160621, 0.7033439199595888, 0.6556897896698324, 0.6048444309230167, 0.5536925593569528, 0.5041704674415947, 0.45749406205595955, 0.4143363776186859, 0.37495401489740027, 0.33927245345040563])","array('d', [0.047795426100492436, 0.03312862608495176, 0.022801228633172282, 0.015536520304358191, 0.01043203747733316, 0.006852741766918244, 0.0043530626157181765, 0.0026207917787704764, 0.00143727515639633, 0.0006490821530135139, 0.00014757775724146376, -0.00014590669572365857, -0.0002908719859887873, -0.00033549839221030226, -0.00032224261904615145, -0.0002915772880406553])","array('d', [1.7323727021601536, 1.6937521427129985, 1.6550730552440427, 1.616340934038598, 1.5775607640347256, 1.5390866563108732, 1.5019843203717143, 1.4673369933707463, 1.435652277111543, 1.4070417595859372, 1.381389829462044, 1.3584701580175929, 1.3380145449287897, 1.3197502756106294, 1.3034196309926447, 1.2887902726558267])",-262.28690509514166,-274.2610679092703,-52.2400904991241,0.7714204114411016,0.006852741766918244,1.5390866563108732,25.000000248374235,-1.0,"[-273.2461777769715, -279.33850678366105, 51.834895384718045]","[-300.1025023560543, -257.29961340495237, 71.65975373843304]","[-261.05724705576574, -252.5792497329352, 78.9526410499983]",10000000000.0,0.02091050148010254
12,-273.6508483886719,-269.115966796875,52.15351486206055,0.7752210497856135,-0.046375736594200044,1.6833819458868837,23.244711529705555,"array('d', [-269.115966796875, -266.6289137694572, -264.1337165018148, -261.6346089415141, -259.1355733818269, -256.64044382780867, -254.15272226634357, -251.67521056284411, -249.20984731112424, -246.75776752663583, -244.31945918113595, -241.89493464885285, -239.48388021013002, -237.08577347816617, -234.69996996359174, -232.32576705444956])","array('d', [-273.6508483886719, -273.88368249810094, -274.0206165602007, -274.0611895830504, -274.00515569732227, -273.8528840610126, -273.60713283861395, -273.27354681912664, -272.8594619797833, -272.37274608074193, -271.8210917129749, -271.2116523033202, -270.55089178708005, -269.84455329548655, -269.09768973744656, -268.31472671875616])","array('d', [-52.15351486206055, -52.25084772023942, -52.317268582360754, -52.36212767572836, -52.39195514070032, -52.41131498844689, -52.42340512563492, -52.43047584307408, -52.43412050014725, -52.43547658699569, -52.435363393606195, -52.434374416285216, -52.43293723737934, -52.43134994294762, -52.42980071917935, -52.428375820013684])","array('d', [0.7752210497856135, 0.7761895302741701, 0.7770658477182778, 0.7778587725545093, 0.7785762403919688, 0.7659702591419031, 0.7356437226801912, 0.6938908228067348, 0.6457740878477308, 0.5950581078749296, 0.5443882454876006, 0.4955304923810256, 0.4495858187402765, 0.4071544531142807, 0.36845229263885915, 0.33338945133639364])","array('d', [0.046375736594200044, 0.03175483842799378, 0.02155843220614264, 0.014449436499916903, 0.009495763099504412, 0.006049763597378922, 0.0036622151355305203, 0.002021733441839254, 0.0009124976336247034, 0.0001845160935996109, -0.0002675297797029546, -0.0005194495682505289, -0.0006284748502018445, -0.0006411493324744923, -0.0005989339857350533, -0.0005419380124853081])","array('d', [1.6833819458868837, 1.644894735944595, 1.606336507588326, 1.5677139080827098, 1.5290329719558318, 1.4908167790787195, 1.4542150350373964, 1.4201757600465317, 1.3891142264029097, 1.3610917304564523, 1.335971213833005, 1.3135212744393499, 1.2934767398068847, 1.2755713204815295, 1.2595546302244482, 1.2452012632332194])",-256.64044382780867,-273.8528840610126,-52.41131498844689,0.7659702591419031,0.006049763597378922,1.4908167790787195,25.000000248462456,-1.0,"[-273.69327578970183, -273.25859401956825, 52.03959568635543]","[-298.97671517914983, -250.3275626199743, 72.89422326852394]","[-259.5428030968026, -247.06201724185377, 78.75108174941123]",10000000000.0,0.02245616912841797
13,-273.5516052246094,-263.0658874511719,52.35521697998047,0.7695978879928586,-0.04587414488196372,1.6279349038985111,23.25007516677004,"array('d', [-263.0658874511719, -260.56971061723715, -258.07070602806675, -255.57306156117795, -253.08070254300404, -250.5973606832897, -248.126218923554, -245.66958772022562, -243.22886802026457, -240.8046854752351, -238.3970772827748, -236.00566944254896, -233.6298214674678, -231.26873564493468, -228.92153518451306, -226.58732067665235])","array('d', [-273.5516052246094, -273.64677466848974, -273.6467140401349, -273.5511058024589, -273.359837613625, -273.07356552661986, -272.6958463714487, -272.2328639554935, -271.6921211596544, -271.0814247497481, -270.4082908799858, -269.67965150138525, -268.9017426919479, -268.080092406649, -267.2195590714468, -266.32439665046815])","array('d', [-52.35521697998047, -52.451002598735464, -52.515518893259866, -52.5584370620603, -52.58643303509727, -52.604124045541184, -52.61471527657733, -52.62044397955345, -52.62288383576996, -52.62315284136012, -52.622053888825675, -52.62016796164012, -52.61791368679277, -52.615582837871585, -52.613358693656096, -52.61132259125937])","array('d', [0.7695978879928586, 0.7711014826106503, 0.7724619913808325, 0.7736930306664056, 0.7748069202325896, 0.7575260682917738, 0.7243971218536679, 0.6812897703130525, 0.6328335077874835, 0.5824313812119198, 0.5324573697997905, 0.48448627374729586, 0.43949085610301114, 0.39799064166448717, 0.3601568819512596, 0.325883452668479])","array('d', [0.04587414488196372, 0.03102158970091149, 0.020768446489518005, 0.01368599654851114, 0.008792898906223598, 0.005416361568382289, 0.0030953692130918286, 0.0015139783633424323, 0.0004555634607725823, -0.00022894010341633709, -0.0006433094442497666, -0.0008617877816453305, -0.0009403222126173912, -0.0009246191348477619, -0.0008558437656670017, -0.0007743996154282906])","array('d', [1.6279349038985111, 1.5898575170396716, 1.5516709650676712, 1.5133853738973224, 1.4750099523504188, 1.4372600298633638, 1.401375002089546, 1.3681477615077489, 1.3378935389175095, 1.3106218800347051, 1.286175465971229, 1.2643199453376226, 1.2447954990040155, 1.2273444828685207, 1.211725833556126, 1.1977227867514342])",-250.5973606832897,-273.07356552661986,-52.604124045541184,0.7575260682917738,0.005416361568382289,1.4372600298633638,25.000000248547874,-1.0,"[-273.81918908470686, -267.62706593278097, 52.22305353445525]","[-297.5588624528156, -243.87465433269836, 73.95438693937474]","[-257.8548394103073, -241.95440565993465, 78.41568711698218]",10000000000.0,0.018292665481567383
14,-273.1707763671875,-257.5311584472656,52.548980712890625,0.7633599042892452,-0.04592479392886145,1.577697239411298,23.23718004571009,"array('d', [-257.5311584472656, -255.03333053794987, -252.5373732523583, -250.04742869329957, -247.5673526781382, -245.10070846489583, -242.6502923412427, -240.21791914428277, -237.80449463985818, -235.4101985657736, -233.03468596612797, -230.67726236456681, -228.33702044569986, -226.01294026053193, -223.70395914280164, -221.40902124571835])","array('d', [-273.1707763671875, -273.1410468302157, -273.0171336598971, -272.7988257916577, -272.48618547147726, -272.0803892607, -271.5856897811046, -271.0086356183905, -270.3567705049057, -269.63775781423374, -268.8588858517564, -268.02683340648946, -267.14758898552407, -266.2264527890591, -265.2680804198265, -264.276548382579])","array('d', [-52.548980712890625, -52.64445354350517, -52.70804267448996, -52.749790783819904, -52.776562363135014, -52.79306329846224, -52.80253480354559, -52.80722409899476, -52.80870338039737, -52.80808534066379, -52.80616739323585, -52.803526286681034, -52.80057785077241, -52.79761199497821, -52.79481014158874, -52.79225059920852])","array('d', [0.7633599042892452, 0.7654571210253543, 0.7673547613422529, 0.7690718173589051, 0.7682514275331052, 0.7469388800136992, 0.711527225143936, 0.667451196073624, 0.6189270861470185, 0.5690249992485693, 0.5198738238431758, 0.472877730204197, 0.4288960885594785, 0.38837774647295875, 0.3514555160262941, 0.3180101304784776])","array('d', [0.04592479392886145, 0.030726328413396845, 0.02032422170020094, 0.013194821726804088, 0.008304453448109612, 0.004952317070241383, 0.002663095490685705, 0.001114182365284105, 8.638851518587745e-05, -0.0005698725691754531, -0.0009580106027858774, -0.0011516448122921815, -0.0012061944419873014, -0.0011671421960688661, -0.0010758636715730615, -0.0009734818769911527])","array('d', [1.577697239411298, 1.540069530779641, 1.5022912142049332, 1.464376121943813, 1.4264286188968804, 1.3893226498801186, 1.3542744695601157, 1.3219373539333983, 1.2925422227738936, 1.2660580250803772, 1.2423138567380516, 1.2210760512909606, 1.2020920001810196, 1.1851136003721887, 1.1699095174799434, 1.1562718143668747])",-245.10070846489583,-272.0803892607,-52.79306329846224,0.7469388800136992,0.004952317070241383,1.3893226498801186,25.000000248614505,-1.0,"[-273.63717634258853, -261.5699108735817, 52.4240040650289]","[-295.5597110304627, -236.85165500947463, 74.97195962413642]","[-255.66700229472548, -236.48541630957132, 77.87672449247326]",10000000000.0,0.019527196884155273
15,-272.4569091796875,-251.5794219970703,52.759090423583984,0.7541354894638062,-0.04543634131550778,1.526631643125091,23.214844833188018,"array('d', [-251.5794219970703, -249.0862562169867, -246.5995907183907, -244.12347905690893, -241.66164483674478, -239.2173071425423, -236.79275412974425, -234.38926188407504, -232.0072432091294, -229.6464581067583, -227.30621585501697, -224.9855405730155, -222.68329616749276, -220.3982758545926, -218.1292632854965, -215.87507492901327])","array('d', [-272.4569091796875, -272.3005474197208, -272.05177206735897, -271.7104291635489, -271.27683267242355, -270.75309184992943, -270.1440961220668, -269.45656058565527, -268.69789833134655, -267.8754924141479, -266.996296776604, -266.0666542455198, -265.09224072373195, -264.0780768300881, -263.0285733893406, -261.9475948619885])","array('d', [-52.759090423583984, -52.85311783461468, -52.9149984157799, -52.955031442709256, -52.980191412478575, -52.995219958116884, -53.00335905526461, -53.00684266354286, -53.00722639456428, -53.00560792995033, -53.0027730235622, -52.999290298019424, -52.995570366463994, -52.991899780213224, -52.98845716001674, -52.985317116387996])","array('d', [0.7541354894638062, 0.757110524567474, 0.759802447850102, 0.7622382007931298, 0.7555798384255173, 0.7306812245666905, 0.6934925149824136, 0.6489460840680579, 0.6008157876900901, 0.5518302467631616, 0.5038739768011666, 0.45818470428260044, 0.41551347119744125, 0.376243289767047, 0.3404726774152359, 0.30807244624690394])","array('d', [0.04543634131550778, 0.030060577609107894, 0.0196232843951058, 0.0125230200141068, 0.007686006180445234, 0.0043918610040185645, 0.0021567161859184646, 0.0006552195300093329, -0.0003317697548914699, -0.0009526446056879981, -0.0013093307453178656, -0.0014741018554471012, -0.001501389249714454, -0.0014361687849090963, -0.0013198683407984165, -0.001194266451828323])","array('d', [1.526631643125091, 1.489659593970308, 1.4524772769601146, 1.4151037265286184, 1.3778932871763185, 1.3418493267597562, 1.3079931744529307, 1.2768424999757977, 1.2485541548477732, 1.2230665841771846, 1.2002034037712361, 1.1797377405879579, 1.161428743627145, 1.145041260938307, 1.130356284185498, 1.117176723941681])",-239.2173071425423,-270.75309184992943,-52.995219958116884,0.7306812245666905,0.0043918610040185645,1.3418493267597562,25.00000024867266,-1.0,"[-273.1811167399903, -256.03277566343894, 52.61784369149436]","[-293.39835453852675, -230.46200710365812, 75.79971356990477]","[-253.44148030314926, -231.53210058747862, 77.3173107740764]",10000000000.0,0.020219087600708008
16,-271.53497314453125,-246.12478637695312,52.95801544189453,0.7436622977256772,-0.04281839728355403,1.4787459904935696,23.199211819223255,"array('d', [-246.12478637695312, -243.64164062822405, -241.1692253281814, -238.71144997967025, -236.2718679127746, -233.8532979361949, -231.45751605303863, -229.08529941014538, -226.73662467644277, -224.41089065139414, -222.1071144749337, -219.82408561289736, -217.56047909624172, -215.31493508485192, -213.0861120864076, -210.8727255396107])","array('d', [-271.53497314453125, -271.260347651105, -270.8954544764682, -270.440156539128, -269.8949541338778, -269.26272260322185, -268.54883843439285, -267.7600970044703, -266.90374563827936, -265.98688252999034, -265.0161374047859, -263.9975326300267, -262.9364477334047, -261.8376387390373, -260.70528480078997, -259.54305080726095])","array('d', [-52.95801544189453, -53.04616154952737, -53.1033393832152, -53.139623347012495, -53.16177933743303, -53.174373689278625, -53.180508962867684, -53.182312303788706, -53.18125983487441, -53.17839152247917, -53.174452173590375, -53.16998203980891, -53.165372522682226, -53.16089731908155, -53.156726182067636, -53.15292676263976])","array('d', [0.7436622977256772, 0.747633987809276, 0.75122772176421, 0.7544794656371664, 0.742613102402085, 0.7145923020840869, 0.6759204033907991, 0.6310607141657183, 0.5833866637841435, 0.5353211810683582, 0.48853018612509247, 0.444101895604123, 0.4026894626030053, 0.3646160788134332, 0.32994902847831287, 0.29855025404566965])","array('d', [0.04281839728355403, 0.027961601277452737, 0.017951829327672905, 0.011189229932033024, 0.006612164419590094, 0.0035150300057076853, 0.0014280102886909223, 3.785326480502584e-05, -0.0008647708729968754, -0.0014206070985615352, -0.0017257823669130593, -0.0018482829771740215, -0.0018394796353516797, -0.001742306171672384, -0.0015970284819765306, -0.0014450514849522792])","array('d', [1.4787459904935696, 1.4425053332364746, 1.4059889136996446, 1.3692212962042933, 1.332778292670447, 1.297772687864683, 1.2650527398074163, 1.2350208762645736, 1.2077725876614827, 1.1832216728031841, 1.1611879547143122, 1.1414510271214016, 1.1237807099678618, 1.107953566729207, 1.093761787064825, 1.081018182578417])",-233.8532979361949,-269.26272260322185,-53.174373689278625,0.7145923020840869,0.0035150300057076853,1.297772687864683,25.000000246472677,-1.0,"[-272.39075203631563, -250.08243121870908, 52.82722148758782]","[-290.8227952997495, -223.64109401861165, 76.51509746255962]","[-250.90304121011656, -226.1709715097212, 76.62891004187102]",10000000000.0,0.02146601676940918
17,-270.258544921875,-240.26483154296875,53.1746940612793,0.727794229984283,-0.039615411311387974,1.4299491206791735,23.1922223958375,"array('d', [-240.26483154296875, -237.7975730925699, -235.3450081952868, -232.91084885835278, -230.49839351513987, -228.10997309199922, -225.74682033902485, -223.40922702641254, -221.09676898441882, -218.80852664678994, -216.54326819787315, -214.29958885983348, -212.07601134164014, -209.87105529081268, -207.68328284541593, -205.51133182127876])","array('d', [-270.258544921875, -269.8644418493232, -269.38324547256815, -268.8147786313098, -268.15976267391534, -267.4216884619874, -266.6062264527644, -265.7200969186207, -264.77026750766873, -263.7634702046969, -262.705951774591, -261.60337051123054, -260.4607761364472, -259.282633675465, -258.0728692119243, -256.8349294422377])","array('d', [-53.1746940612793, -53.255757651783846, -53.30744797980147, -53.339459441186875, -53.358251620792664, -53.3681544464778, -53.37209314817958, -53.37206472163619, -53.36945152366388, -53.36522712052235, -53.360090133432536, -53.35454932423096, -53.348975056448445, -53.343627106501515, -53.33866569436138, -53.334150982553176])","array('d', [0.727794229984283, 0.7332759650173586, 0.7382360441554083, 0.7415041477794625, 0.7249591031740216, 0.694355731631861, 0.6546906590634503, 0.6099407307245668, 0.5630823512116792, 0.5162428542463612, 0.4708800572028138, 0.4279415367597558, 0.3879895101932471, 0.35129260009797814, 0.31789067830807277, 0.2876394066239647])","array('d', [0.039615411311387974, 0.02548312833687234, 0.01602993382459451, 0.009685810762443644, 0.005419260404639519, 0.002550873922468215, 0.0006320982010980563, -0.0006337230171840685, -0.001443329922381902, -0.001928107149574874, -0.0021773278864956965, -0.0022540432958895857, -0.0022061731519655826, -0.002074388462286753, -0.00189769148243445, -0.0017171026424427998])","array('d', [1.4299491206791735, 1.3947913320516618, 1.3592628144335912, 1.323440508025139, 1.2881032557615157, 1.2544115324100475, 1.2230480493833444, 1.1943132773669694, 1.1682529042130967, 1.144764242232321, 1.1236686919091492, 1.1047558402360593, 1.0878085710049767, 1.072616864920139, 1.058985381619857, 1.0467378449591176])",-228.10997309199922,-267.4216884619874,-53.3681544464778,0.694355731631861,0.002550873922468215,1.2544115324100475,25.000000246587437,-1.0,"[-271.39721892607054, -244.63250586992368, 53.02222341364438]","[-288.11299494871713, -217.40695612921905, 77.09196112050633]","[-248.31884809459876, -221.26731091679443, 75.85764468340282]",10000000000.0,0.02057337760925293
18,-268.82818603515625,-234.87896728515625,53.366878509521484,0.7097604274749753,-0.034680694341659456,1.3861210207131245,23.198500787712714,"array('d', [-234.87896728515625, -232.43071328631967, -230.00040634970142, -227.59148402059995, -225.20676500715356, -222.84803404924955, -220.51603406928902, -218.21065994192992, -215.93118424354674, -213.67646269057445, -211.44509914922824, -209.23556909883536, -207.04630783047847, -204.8757708957808, -202.722473197132, -200.5850171934228])","array('d', [-268.82818603515625, -268.3277795531632, -267.74380491327656, -267.0761479571571, -266.32627872092456, -265.49814477058817, -264.5974171358866, -263.63053717764967, -262.60406178842857, -261.5242757019937, -260.3969934467581, -259.2274793871918, -258.0204352420244, -256.78002374889894, -255.5099106729923, -254.2133191869331])","array('d', [-53.366878509521484, -53.43730688899996, -53.481203345244644, -53.507436554566006, -53.5218768074117, -53.5284369473856, -53.52974881365243, -53.52760413112238, -53.523242322199806, -53.51753790717853, -53.51112129596568, -53.5044546843785, -53.49787701667123, -53.49162711598601, -53.48585122338549, -53.48059976241904])","array('d', [0.7097604274749753, 0.7169583041704716, 0.7234712123514714, 0.7210905229073543, 0.7012346337656326, 0.669186843328015, 0.6294248176628446, 0.5854696111747221, 0.5399446331420164, 0.4947237116645712, 0.45109140527804886, 0.4098816162242671, 0.37158564387724063, 0.33643176887746123, 0.3044418290400226, 0.27547038347488423])","array('d', [0.034680694341659456, 0.02188333664133941, 0.013377631477254208, 0.007703996821662176, 0.003911542256401489, 0.0013788278321900502, -0.0003013066647996698, -0.0013961750529676406, -0.002081835704460873, -0.002475139172194162, -0.0026551524116120925, -0.0026777658893699457, -0.0025859066930973384, -0.0024168394009217047, -0.0022073730728383797, -0.001997314158304063])","array('d', [1.3861210207131245, 1.3521588640177722, 1.3177238182394155, 1.2831503615989666, 1.249352433690112, 1.2172938448126047, 1.187520680298832, 1.160258735337745, 1.1355238256686864, 1.1132097200757276, 1.0931473749444278, 1.0751412046915012, 1.0589900876796592, 1.0444992182183044, 1.0314868580444008, 1.019788415632234])",-222.84803404924955,-265.49814477058817,-53.5284369473856,0.669186843328015,0.0013788278321900502,1.2172938448126047,25.000000246676606,-1.0,"[-268.55291060637455, -233.40536003275426, 53.418889123604934]","[-281.84379358873116, -204.4901370257618, 77.6523847031782]","[-242.5476001913451, -210.949963989461, 73.90007607057677]",10000000000.0,0.02598285675048828
19,-267.01116943359375,-229.0760955810547,53.56533432006836,0.6883859038352964,-0.03133557736873631,1.3399255285647251,23.23449079011386,"array('d', [-229.0760955810547, -226.65293586135184, -224.2506999461211, -221.87258203766896, -219.52089590982058, -217.1968754203435, -214.9007928355893, -212.6321736900012, -210.3900150324098, -208.17297276530604, -205.979507978326, -203.80799488635847, -201.65679723879398, -199.52432017919452, -197.4090432087712, -195.3095440872526])","array('d', [-267.01116943359375, -266.3998745991583, -265.709093598119, -264.93871815012346, -264.0908384774958, -263.1697365882486, -262.1810051271865, -261.1307642557455, -260.02513973293316, -258.86995892072565, -257.6705976922757, -256.43192085473794, -255.1582763277745, -253.85351849352162, -252.52104664330855, -251.1638546466264])","array('d', [-53.56533432006836, -53.628489276186926, -53.66694510861686, -53.6890561650018, -53.70031687418292, -53.70436986415228, -53.70365512452512, -53.69982965346632, -53.694039232769704, -53.68709402201329, -53.679580802141245, -53.67193270857373, -53.66446969378385, -53.657418261860414, -53.650916308804575, -53.64500761756178])","array('d', [0.6883859038352964, 0.6976178335067551, 0.7059712272246566, 0.6982352715581707, 0.6753594944968629, 0.6421142718962587, 0.6024550960337938, 0.5594586354557385, 0.5154075228773984, 0.47193052388948464, 0.430143524643118, 0.3907687128861214, 0.35422701956891317, 0.32070638767347875, 0.2902106151973896, 0.2625934475200639])","array('d', [0.03133557736873631, 0.01939328609410213, 0.011504277678282309, 0.006272101342188326, 0.002794514040392672, 0.00048638425485989314, -0.0010328324516809758, -0.0020112241593971437, -0.0026111092852159883, -0.0029395867785994173, -0.003068841879666228, -0.00304995748792855, -0.0029225879357451102, -0.002721912701428934, -0.0024836305930669147, -0.002247282322091817])","array('d', [1.3399255285647251, 1.3073353179653602, 1.2741583447839235, 1.2409696734700648, 1.208804367832699, 1.1784422591621406, 1.1503069507483816, 1.1245588743079773, 1.1011883535876286, 1.0800869470692733, 1.061095107894887, 1.0440315878826476, 1.0287107767769388, 1.0149527546887012, 1.002589228389922, 0.9914672663874311])",-217.1968754203435,-263.1697365882486,-53.70436986415228,0.6421142718962587,0.00048638425485989314,1.1784422591621406,25.00000024676001,-1.0,"[-268.55291060637455, -233.40536003275426, 53.418889123604934]","[-281.84379358873116, -204.4901370257618, 77.6523847031782]","[-242.5476001913451, -210.949963989461, 73.90007607057677]",10000000000.0,0.022020339965820312
20,-265.1020202636719,-223.7742462158203,53.74557876586914,0.6659115552902218,-0.026163952425122254,1.2999317804959156,23.272231940777193,"array('d', [-223.7742462158203, -221.3767099042029, -219.0022671033151, -216.65373018768486, -214.33291150933846, -212.04058390099138, -209.77665864049445, -207.5403980556975, -205.3306167803008, -203.1458492071483, -200.98447853350075, -198.84483142005848, -196.72524478649032, -194.62411091028557, -192.5399057171103, -190.47120710503108])","array('d', [-265.1020202636719, -264.39594721599127, -263.61457829833245, -262.75808818700614, -261.82896841847037, -260.83157032932763, -259.7712573188871, -258.6537618368812, -257.48476360247184, -256.26964500382303, -255.0133679563388, -253.72042640738198, -252.39484294765737, -251.04018988771006, -249.6596234003913, -248.25592674038137])","array('d', [-53.74557876586914, -53.79770431414331, -53.8282636506671, -53.844630108374105, -53.85162818632856, -53.85244356744328, -53.849204738101385, -53.84335638588446, -53.83589962259868, -53.82754613858372, -53.8188159065283, -53.8100970271696, -53.80167939480946, -53.79376964923526, -53.786492516055155, -53.77988259450347])","array('d', [0.6659115552902218, 0.6772822003398736, 0.6839113341071402, 0.6724697629567298, 0.6478226533205195, 0.6142564630182787, 0.5752754526007521, 0.5335899207531402, 0.4912093105938182, 0.44956969324384244, 0.40965655472288853, 0.37210737843321245, 0.3372912134684894, 0.3053677406241449, 0.27632984928793686, 0.2500336100021288])","array('d', [0.026163952425122254, 0.015714024604435134, 0.008848630087294047, 0.0043201842566793006, 0.0013281997356405228, -0.0006430110072480302, -0.001926639857076893, -0.002738502775717608, -0.0032189026695012214, -0.0034598769961871555, -0.0035232653314684003, -0.003453023993040862, -0.003283915625175129, -0.003047829726959031, -0.002778379958808227, -0.0025139824576581107])","array('d', [1.2999317804959156, 1.2687349819353912, 1.2369605752772501, 1.2053515701420487, 1.1748984657485786, 1.1462381820463616, 1.1197067673133, 1.095422527463712, 1.0733633933610347, 1.0534250868668984, 1.0354600733857247, 1.0193019519441322, 1.004780183719652, 0.9917289087151949, 0.979992361541553, 0.9694284346258789])",-212.04058390099138,-260.83157032932763,-53.85244356744328,0.6142564630182787,-0.0006430110072480302,1.1462381820463616,25.000000248847314,-1.0,"[-266.6680999796913, -227.61661116647298, 53.61232999425405]","[-278.2050425116613, -197.81006114525852, 77.66370277933353]","[-239.28545812281578, -205.65371483392977, 72.79101893860187]",10000000000.0,0.020063400268554688
21,-262.8094787597656,-218.10946655273438,53.93069076538086,0.635502457618713,-0.01998187229037297,1.2588629881527762,23.317110819043418,"array('d', [-218.10946655273438, -215.74196340864773, -213.399106120749, -211.08315745329892, -208.79539432150298, -206.53617112372865, -204.3051009558221, -202.10125053980715, -199.92331697063685, -197.7697724159521, -195.6389752410647, -193.52925168050663, -191.43895362709839, -189.36649763689374, -187.310389173008, -185.2692386053952])","array('d', [-262.8094787597656, -262.00765679304504, -261.13582830287675, -260.1946443006205, -259.18681745506376, -258.1165220480153, -256.9887046276261, -255.80857250972744, -254.58125881629152, -253.31162597309108, -252.0041645396494, -250.66295250297193, -249.29165083168616, -247.89351993327972, -246.47144788139346, -245.0279878054146])","array('d', [-53.93069076538086, -53.969709078634914, -53.991011085532094, -54.00072416533336, -54.00283885028102, -53.99998158403552, -53.99390502103134, -53.98580065572946, -53.97649863306028, -53.966595043762815, -53.95653175764655, -53.94664432190544, -53.93718754780739, -53.928344878152956, -53.92022572270168, -53.91285422332771])","array('d', [0.635502457618713, 0.6497669080978222, 0.6515239259317115, 0.6375578255235285, 0.6122285124620663, 0.5792994582446814, 0.5418212631140915, 0.50215159542011, 0.4620448879489044, 0.4227620541187372, 0.3851734289275021, 0.34984449862008543, 0.3171027690199918, 0.2870878587753832, 0.2597879838421421, 0.23506590982702427])","array('d', [0.01998187229037297, 0.011377677561768385, 0.005757905618063933, 0.002074036411590167, -0.00034198381783779106, -0.0019175463673564202, -0.002926871428760056, -0.0035462989237996117, -0.0038896092453147273, -0.004030925407936809, -0.004019908923221579, -0.003892190810318378, -0.003676838948239239, -0.0034018980407663135, -0.0030984990010082323, -0.0028036381714304595])","array('d', [1.2588629881527762, 1.229478010409478, 1.1996066875405313, 1.1701192872890473, 1.1418249043840745, 1.1152348986671434, 1.0906158187497248, 1.0680581957098836, 1.0475378597480032, 1.0289618882598741, 1.0121998521414857, 0.9971039113654879, 0.9835213925443093, 0.9713026581711766, 0.9603061906282178, 0.9504021040369033])",-206.53617112372865,-258.1165220480153,-53.99998158403552,0.5792994582446814,-0.0019175463673564202,1.1152348986671434,25.000000248867437,-1.0,"[-264.70081078511345, -222.32943098097982, 53.78482021701093]","[-274.6994778984337, -191.71284695570483, 77.50509505901655]","[-236.171071636021, -200.7517599749334, 71.68616368725267]",10000000000.0,0.019977807998657227
22,-260.52606201171875,-213.00079345703125,54.10289764404297,0.6055765748023985,-0.015295566990971567,1.220900253453527,23.332205205585858,"array('d', [-213.00079345703125, -210.66450975695574, -208.35385005345464, -206.0706147218942, -203.81564694001003, -201.5889750400161, -199.38998849254332, -197.21761451550194, -195.07047350286732, -192.94700491113267, -190.8455637989989, -188.76449194920087, -186.702168317963, -184.6570430567692, -182.6276584494747, -180.6126628949844])","array('d', [-260.52606201171875, -259.6369567379945, -258.6828984798472, -257.6648535133833, -256.5856156767935, -255.4491385669202, -254.25997271188803, -253.02285385188904, -251.7424328213351, -250.42311505264294, -249.0689760613991, -247.6837259986383, -246.27070442037189, -244.8328931019238, -243.37293949366443, -241.89318923378676])","array('d', [-54.10289764404297, -54.13197541385697, -54.14624272412582, -54.150875867701394, -54.149233326211075, -54.143520504076314, -54.135208875784976, -54.125301708127175, -54.11450293569723, -54.10332403440056, -54.092150326229756, -54.08127983894682, -54.070942748051074, -54.06130643516734, -54.05246965361489, -54.044448818595264])","array('d', [0.6055765748023985, 0.621566549392823, 0.6195533432556753, 0.6038166241251453, 0.5782534664523088, 0.5461777580389762, 0.5102603848738367, 0.4725661638345512, 0.43463725022819355, 0.39758764805493296, 0.3621901767940583, 0.32894877021204966, 0.2981551730515268, 0.2699317725186271, 0.24426309128512325, 0.22101840485814964])","array('d', [0.015295566990971567, 0.008087469368248976, 0.0034045712897247627, 0.00035285580884827114, -0.0016337487738302464, -0.002915137069949039, -0.003720738884077271, -0.004197069834492363, -0.004437956441139748, -0.004504091054930727, -0.004436040377034978, -0.004263259113294107, -0.004010651112636494, -0.003703541439527734, -0.0033714386245048424, -0.003050604177943204])","array('d', [1.220900253453527, 1.193256831943882, 1.165210839882119, 1.1376935644159263, 1.1113713825447713, 1.086660291270183, 1.0637751281630485, 1.0427863464797769, 1.0236691647140128, 1.0063404240718987, 0.9906840504246344, 0.9765678486505242, 0.9638543629646208, 0.9524079407370486, 0.942099492521848, 0.9328099094242975])",-201.5889750400161,-255.4491385669202,-54.143520504076314,0.5461777580389762,-0.002915137069949039,1.086660291270183,25.000000248884405,-1.0,"[-262.3492217869611, -216.68213853531915, 53.96066157928962]","[-270.75108253335964, -185.1099550412483, 77.03891899649614]","[-232.68900206895395, -195.440840744445, 70.36427808416275]",10000000000.0,0.021514415740966797
