,current_time,x_pos,y_pos,z_pos,roll,pitch,yaw,vel,x_traj,y_traj,z_traj,roll_traj,pitch_traj,yaw_traj,x_cmd,y_cmd,z_cmd,roll_cmd,pitch_cmd,yaw_cmd,vel_cmd,effector_dmg,effector_x,effector_y,effector_z,cost,time_solution
0,0.02109360694885254,-244.8058319091797,-190.3394317626953,49.93183135986328,0.6370481848716736,0.0293898135423661,1.347566888728414,23.16487788965645,"array('d', [-193.43551635742188, -190.98892265423862, -188.558131624328, -186.14634519750572, -183.7564008331215, -181.39121207462523, -179.05376916845717, -176.74712851921961, -174.47439628842852, -172.23871338639108, -170.04324059413335, -167.8911444547418, -165.78558378611277, -163.7296968474792, -161.72658839894595, -160.17291942353887])","array('d', [-245.67825317382812, -245.16759987741162, -244.5840109430268, -243.9261704857788, -243.19293173225904, -242.3834046112869, -241.4969548406481, -240.5332006650619, -239.492007290775, -238.3734811253423, -237.17796338960747, -235.90602338701626, -234.5584514284935, -233.13625158742025, -231.64063538789313, -230.3814804998212])","array('d', [-49.92567825317383, -49.87312425348861, -49.86460420968363, -49.868476605910374, -49.868029530706984, -49.86906459311212, -49.86956863258445, -49.870242017884785, -49.87084251838043, -49.8714554851444, -49.87205232595343, -49.87264413089819, -49.8732278684283, -49.87380697559117, -49.87437035663474, -49.87063123248091])","array('d', [0.6363372802734373, 0.6505222874017188, 0.6633574136676456, 0.6749711169753784, 0.6854796307022786, 0.6949881268349273, 0.7035917681866778, 0.7113766599186757, 0.7184207090441448, 0.7247943979797652, 0.7305614711791105, 0.735779506011334, 0.7405001838847758, 0.7447677321250401, 0.748586178070007, 0.6659270784894736])","array('d', [-0.030964421108365083, -0.01140877981684447, 0.0043301025789980584, -0.001140912970515358, 0.0007516805231666376, 8.745011777694801e-05, 0.0003120349377308887, 0.00022807394076619433, 0.000251928514349527, 0.00023866614078998807, 0.00023880420527358124, 0.00023470808624667045, 0.00023232175582049973, 0.00023098627467457543, 0.00021990350648228864, -0.0038904784203178384])","array('d', [1.3796755830433707, 1.3502419283319178, 1.3199721607591453, 1.2889307015895817, 1.2571780238245889, 1.2247707570371835, 1.1917618051423686, 1.158200476861102, 1.1241326276495618, 1.0896008113678644, 1.0546444400600776, 1.0192999517603178, 0.9836009946223883, 0.9475786995512794, 0.91126326007097, 0.8693535699016863])",-181.39121207462523,-242.3834046112869,-49.86906459311212,0.6949881268349273,8.745011777694801e-05,1.2247707570371835,25.000000242546346,-1.0,[],[],[],10000000000.0,0.027555465698242188
1,0.05962395668029785,-244.53887939453125,-189.46237182617188,49.93452453613281,0.6367619037628172,0.029062418267130876,1.3383362899210791,23.159914511013778,"array('d', [-192.5482177734375, -190.10642622615214, -187.68115135825892, -185.27558661274009, -182.89257918067048, -180.53505193897627, -178.20600232362648, -175.90849134515742, -173.64562727990386, -171.42055069982203, -169.23641967252735, -167.0963957253639, -165.00363043741274, -162.96125268265678, -160.97235571840773, -159.43065526606404])","array('d', [-245.43942260742188, -244.90613830077302, -244.30001843692432, -243.61977716294845, -242.8642983037063, -242.03272338353293, -241.12445035120746, -240.1391300865342, -239.07666069398005, -237.93718159325834, -236.72106699697702, -235.42891905005573, -234.06156063384765, -232.62002801098396, -231.105564452202, -229.83178358543478])","array('d', [-49.92695236206055, -49.87584659554537, -49.86774860342579, -49.87145022386958, -49.871038358618605, -49.872038097389975, -49.872531972064586, -49.873187165887195, -49.87377290591637, -49.87437053084746, -49.8749528025746, -49.87553030431897, -49.87610014693614, -49.87666568351982, -49.87721583641992, -49.87346682735975])","array('d', [0.6367400884628291, 0.6508867633552049, 0.663687205174681, 0.6752695246901895, 0.6857496411748727, 0.6952324423942974, 0.7038128339691069, 0.7115766882953207, 0.7186017016466327, 0.7249581654051879, 0.7307096500975528, 0.7359135719417386, 0.7406214499668142, 0.7448772580467247, 0.7486832045927437, 0.6660097384617494])","array('d', [-0.030355537310242653, -0.010857838949395427, 0.004129354691626916, -0.001081132526546573, 0.000721567650195142, 8.87795593422907e-05, 0.00030275071487204824, 0.00022273909753610578, 0.00024547366805102174, 0.00023283708114830667, 0.00023297795230931974, 0.00022908833374051454, 0.00022682354990208363, 0.00022562572020258967, 0.00021467927037310342, -0.0038951484229957406])","array('d', [1.3704310069468357, 1.3409738444842116, 1.3106823651811674, 1.2796208821897195, 1.2478497630722156, 1.215425534977435, 1.1824010027632783, 1.1488253797908041, 1.1147444301418765, 1.0802006205292498, 1.0452332802884987, 1.0098787694546913, 0.974170663659196, 0.9381400312162098, 0.9018170755864136, 0.8598997485647408])",-180.53505193897627,-242.03272338353293,-49.872038097389975,0.6952324423942974,8.87795593422907e-05,1.215425534977435,25.000000242579585,-1.0,[],[],[],10000000000.0,0.031920433044433594
2,0.07757949829101562,-244.53887939453125,-189.46237182617188,49.93452453613281,0.6367619037628172,0.029062418267130876,1.3383362899210791,23.159914511013778,"array('d', [-191.66250610351562, -189.22568678029393, -186.80608434242774, -184.4068892700032, -182.03095881205155, -179.68122486282059, -177.36069163685457, -175.07242436217354, -172.8195330615816, -170.6051576264916, -168.43245309429932, -166.3045756860523, -164.22466947775266, -162.19585371998954, -160.22120995106383, -158.69150153256032])","array('d', [-245.1920166015625, -244.63635501608962, -244.00796299222523, -243.30558537172334, -242.52813651103688, -241.67478932207385, -240.74497372396598, -239.73837294295666, -238.6549176662147, -237.49477998670707, -236.2583667481551, -234.94631255675517, -233.5594724665129, -232.09891451620197, -230.5659132999723, -229.27775577724765])","array('d', [-49.9287109375, -49.8786922434134, -49.87090799428263, -49.87447642921131, -49.874086760495246, -49.87505568860844, -49.87553780965026, -49.87617532072075, -49.876746061489655, -49.877328347502385, -49.87789595182089, -49.87845907097347, -49.87901491700515, -49.87956677418639, -49.88010357714774, -49.87634458693385])","array('d', [0.6371349692344661, 0.6512440662837913, 0.6640105062597103, 0.6755620596275639, 0.6860143377376828, 0.6954719497274913, 0.7040295490847629, 0.7117727800165133, 0.7187791321911611, 0.7251187096775341, 0.7308549123766598, 0.7360449980920117, 0.7407403247665222, 0.7449846058899787, 0.7487780983354057, 0.666090578945584])","array('d', [-0.029898501932621033, -0.010444296220860311, 0.003976267079051431, -0.0010378693308647595, 0.0006971900712578056, 8.811306065465692e-05, 0.00029414672040208224, 0.00021714665131978683, 0.00023908007064267248, 0.0002269510759672141, 0.00022712940544168257, 0.00022342767256131564, 0.00022128490676238832, 0.00022021864584283803, 0.00020940419007242235, -0.0038998639190387387])","array('d', [1.3612710694458816, 1.3317908487347325, 1.3014780737049296, 1.270396951305455, 1.238607745532029, 1.206166882939536, 1.1731270711108708, 1.1395374297745908, 1.1054436333050293, 1.0708880628691935, 1.035909966629146, 1.0005456280970992, 0.9648285518485052, 0.9287897453998545, 0.8924594292339592, 0.8505346322105155])",-179.68122486282059,-241.67478932207385,-49.87505568860844,0.6954719497274913,8.811306065465692e-05,1.206166882939536,25.000000242611648,-1.0,[],[],[],10000000000.0,0.021227359771728516
3,0.1036520004272461,-244.40252685546875,-189.02442932128906,49.9359245300293,0.636472165584564,0.028875065967440567,1.3336480567839484,23.158287484673416,"array('d', [-191.2202911376953, -188.78604309285674, -186.36935248178642, -183.97340994048687, -181.6010770854729, -179.25528948633, -176.9390539692267, -174.6554371993275, -172.40754950173766, -170.19852995569235, -168.03153170498302, -165.9097080271947, -163.83619903877508, -161.81411904688864, -159.84654366762564, -158.3227734067404])","array('d', [-245.06515502929688, -244.49830253119097, -243.858799993649, -243.1454057594887, -242.35704725442235, -241.49291091288407, -240.55244053794894, -239.53533351165567, -238.4415348792076, -237.27123122234087, -236.02484393771218, -234.7030221843676, -233.3066355086786, -231.83676632604184, -230.2947034625895, -228.9995271102558])","array('d', [-49.92970275878906, -49.88005330177091, -49.872374079165276, -49.87589470373034, -49.875510384512474, -49.87646665650865, -49.8769426812953, -49.87757214564477, -49.87813581244415, -49.87871096713173, -49.879271721591174, -49.87982813783325, -49.8803774586545, -49.88092294164576, -49.881453523062014, -49.87768988064204])","array('d', [0.6371416449546811, 0.6512501067249257, 0.6640159718754656, 0.6755670051173964, 0.6860188125926522, 0.6954759987217468, 0.7040332127142358, 0.7117760948802928, 0.71878213129424, 0.725121422581051, 0.7308573649332397, 0.7360472106963281, 0.7407423035835953, 0.7449862840638862, 0.7487784423031796, 0.6660908700944237])","array('d', [-0.029743265360593765, -0.01030383235545303, 0.003923057920807818, -0.0010240271732059616, 0.000688011544716988, 8.703161698209633e-05, 0.00029039569382645445, 0.0002144428314428151, 0.00023612884206790618, 0.00022419400537016041, 0.00022440602663832888, 0.00022078733749239014, 0.00021870408056598686, 0.00021769909748875634, 0.0002069454865257329, -0.003902061813265734])","array('d', [1.3566771010544636, 1.3271964904165052, 1.296883355272313, 1.2658019007736765, 1.2340123891639623, 1.201571245296424, 1.1685311751093654, 1.134941296750419, 1.1008472830844929, 1.0662915138532423, 1.0313132359072215, 0.995948731657008, 0.9602315051920925, 0.9241925666686438, 0.8878621776901829, 0.8459373535190275])",-179.25528948633,-241.49291091288407,-49.87646665650865,0.6954759987217468,8.703161698209633e-05,1.201571245296424,25.00000024262723,-1.0,[],[],[],10000000000.0,0.023212909698486328
4,0.15865659713745117,-244.12277221679688,-188.1498260498047,49.93854904174805,0.6363819837570187,0.028491234406828894,1.3248199830439424,23.160352612057526,"array('d', [-190.7785186767578, -188.3468728297974, -185.93312064490397, -183.54045260797312, -181.17173443341315, -178.8299051267259, -176.51797391291404, -174.23900871146364, -171.9961199953609, -169.79244590514406, -167.6311375912448, -165.51534531368378, -163.44820517965053, -161.43282652622034, -159.47227904121777, -157.95440926737078])","array('d', [-244.93618774414062, -244.35824229366904, -243.70773330286704, -242.9834319927403, -242.18427830902482, -241.30947167443227, -240.3584692523441, -239.3309820682175, -238.2269690248464, -237.0466307050116, -235.79040258390154, -234.4589479128396, -233.05315028421316, -231.57410605826342, -230.02311787703007, -228.7210315091644])","array('d', [-49.93057632446289, -49.881299007529705, -49.87372611402146, -49.87719933112613, -49.876821064157085, -49.87776525466795, -49.87823578402368, -49.87885777469065, -49.879414933290334, -49.87998350900945, -49.880537955918705, -49.88108820144477, -49.881631520229995, -49.8821711438998, -49.88269600993271, -49.878928094815834])","array('d', [0.637110412120819, 0.6512218460847475, 0.6639904005865311, 0.6755438672519205, 0.6859978765744725, 0.6954570550047376, 0.7040160716755144, 0.7117605848980268, 0.718768096965082, 0.7251087229804322, 0.730845871629632, 0.7360368043991385, 0.7407328636852252, 0.7449776264875712, 0.7487693877952868, 0.6660831544530307])","array('d', [-0.029586808755993888, -0.01016226455904796, 0.0038698059700091004, -0.0010098265890952478, 0.0006790393298287468, 8.62027945593602e-05, 0.0002868731087789796, 0.00021196897546426585, 0.00023340038544421047, 0.0002216561082120859, 0.0002218973953309831, 0.00021835807188044846, 0.00021633078352333387, 0.00021538396673363662, 0.00020468735894294186, -0.003904080415887315])","array('d', [1.3521174053337912, 1.3226386189643846, 1.2923271686142028, 1.261247267843394, 1.2294591870947371, 1.1970193591855114, 1.1639804977558075, 1.1303917283686178, 1.0962987309991798, 1.0617438921861813, 1.0267664652792228, 0.9914027389793558, 0.9556862238725121, 0.9196479394144799, 0.8833181960906071, 0.8413940846568724])",-178.8299051267259,-241.30947167443227,-49.87776525466795,0.6954570550047376,8.62027945593602e-05,1.1970193591855114,25.000000242642482,-1.0,[],[],[],10000000000.0,0.049788475036621094
5,0.22290873527526855,-243.38351440429688,-185.97314453125,49.9448356628418,0.6444739699363706,0.02044705115258695,1.305844620862279,23.18429543479284,"array('d', [-190.3394317626953, -187.91043091276396, -185.4996592332951, -183.11030542889978, -180.7452389606231, -178.40740205348064, -176.09980616327738, -173.8255203127921, -171.5876549918299, -169.38934728862878, -167.2337462640236, -165.12399908064077, -163.06323777222312, -161.0545666562255, -159.1010494551839, -157.58907874237133])","array('d', [-244.8058319091797, -244.21682954235465, -243.55535607554484, -242.8201948244782, -242.0102978233652, -241.1248770931402, -240.1634027865391, -239.12559921026326, -238.01143877316687, -236.82113571765274, -235.55513926664844, -234.2141264436468, -232.79899457775795, -231.31085367566473, -229.75101990880722, -228.44208824935149])","array('d', [-49.93183135986328, -49.88302260776108, -49.87558323247408, -49.87899628530559, -49.87862525103521, -49.879553751911985, -49.88001689380434, -49.8806289693587, -49.881177413169326, -49.881737161373636, -49.88228310283352, -49.88282499430943, -49.883360151184, -49.88389177228055, -49.88440879653343, -49.88063500534309])","array('d', [0.6370481848716736, 0.651165540535314, 0.6639394532119814, 0.675497768152494, 0.6859561643705767, 0.6954193122153302, 0.7039819205300035, 0.7117296835304145, 0.718740135925744, 0.7250834219491277, 0.730822976015896, 0.7360160806546903, 0.7407140873510965, 0.7449605165280863, 0.7487526336381934, 0.6660688792134144])","array('d', [-0.0293898135423661, -0.009984015911550922, 0.003802471862751801, -0.0009920440072711896, 0.0006675315308928021, 8.498719059223033e-05, 0.0002822358224472743, 0.0002086521437296784, 0.0002297509345726527, 0.0002182396601657822, 0.00021850901551151802, 0.00021506167692934359, 0.0002130966117058242, 0.00021221499192799223, 0.00020158184999230865, -0.003906856527082125])","array('d', [1.347566888728414, 1.3180917367274845, 1.2877836428954743, 1.2567068375409163, 1.224921607438829, 1.192484401269747, 1.1594479480140818, 1.1258613880028352, 1.091770415366748, 1.0572174301622743, 1.0222416986228293, 0.9868795217844516, 0.9511644224460646, 0.9151274348553691, 0.8787989252152268, 0.8368761325932775])",-178.40740205348064,-241.1248770931402,-49.879553751911985,0.6954193122153302,8.498719059223033e-05,1.192484401269747,25.000000242657496,-1.0,[],[],[],10000000000.0,0.05910325050354004
6,0.24513959884643555,-243.38351440429688,-185.97314453125,49.9448356628418,0.6444739699363706,0.02044705115258695,1.305844620862279,23.18429543479284,"array('d', [-188.1498260498047, -185.73479768179251, -183.33964910622262, -180.9675614334815, -178.62142110245028, -176.30418440527353, -174.01887201004314, -171.76855669449878, -169.55634744375604, -167.38537466903736, -165.2587757339605, -163.1796812248208, -161.15120187063707, -159.17641609521442, -157.25835710844402, -155.77609099368672])","array('d', [-244.12277221679688, -243.47871175256168, -242.76271186559572, -241.97361205292526, -241.1104206766759, -240.1724086968753, -239.15910725365498, -238.07030320361082, -236.90603273611714, -235.66657475149287, -234.35244368218946, -232.96438199515924, -231.5033523975363, -229.97052993508626, -228.36729536380096, -227.02481828371506])","array('d', [-49.93854904174805, -49.89187763544402, -49.885044022526756, -49.8881774243697, -49.88783496612926, -49.888687301519916, -49.88911230783298, -49.88967474896085, -49.89017910345806, -49.890694297168324, -49.891197202789215, -49.8916967915978, -49.892190560788, -49.89268155446378, -49.89315871848064, -49.88935504146295])","array('d', [0.6363819837570187, 0.6505627367795321, 0.6633940137581746, 0.6750042340572675, 0.6855095961603053, 0.695015240428886, 0.7036163009338525, 0.711398856506479, 0.7184407894789806, 0.7248125575105399, 0.7305778751213706, 0.7357942657093668, 0.740513242287193, 0.7447781005909336, 0.748580251235493, 0.6659220096010037])","array('d', [-0.028491234406828894, -0.009170947857023583, 0.003492756958929045, -0.0009125435774157767, 0.0006131257553430568, 7.76749575099293e-05, 0.00025930022067865527, 0.00019177906853713923, 0.00021137758610284248, 0.00020095131285441235, 0.00020136626224674184, 0.0001983550206262322, 0.00019668814503375523, 0.00019611635150016272, 0.00018578722505809805, -0.003920975939045659])","array('d', [1.3248199830439424, 1.295383720119645, 1.2651115435629512, 1.2340678626524495, 1.202313138701175, 1.1699039899315606, 1.1368933092906275, 1.1033303949653253, 1.0692610923829535, 1.0347279460169088, 0.9997703595288764, 0.964424764791649, 0.9287248112297343, 0.8927016709319937, 0.8563860803000883, 0.814476855396598])",-176.30418440527353,-240.1724086968753,-49.888687301519916,0.695015240428886,7.76749575099293e-05,1.1699039899315606,25.00000024272941,-1.0,[],[],[],10000000000.0,0.01861119270324707
7,0.2713766098022461,-243.0713653564453,-185.10873413085938,49.94865417480469,0.6509637236595152,0.014524273574352297,1.2984393994000294,23.196855136935067,"array('d', [-187.27699279785156, -184.86698779655921, -182.4775634201007, -180.11185017281906, -177.77274200572805, -175.46320526175072, -173.18626886035815, -170.94501094641308, -168.74254314204947, -166.58199579518825, -164.46650362360168, -162.39919208660965, -160.38316441804193, -158.42148928470294, -156.51718790743075, -155.04647838202544])","array('d', [-243.83396911621094, -243.17103368963998, -242.436126546005, -241.6281144541849, -240.7460459061135, -239.78923327991276, -238.7572492106972, -237.64992164031602, -236.4673273366163, -235.20978512818874, -233.87784862379726, -232.47229861264393, -230.9941351825654, -229.44456974418011, -227.82501840168842, -226.46989115040964])","array('d', [-49.940834045410156, -49.89902844534644, -49.89362366370276, -49.896203788199834, -49.89599749828347, -49.89674769535671, -49.89715444159835, -49.89767048202213, -49.89813916690686, -49.89861583288777, -49.89908201486528, -49.89954499190106, -49.90000278597675, -49.90045819108758, -49.900900192172266, -49.897070041552716])","array('d', [0.6379466056823728, 0.6519784653694599, 0.664675018072797, 0.6761633347909505, 0.6865583939519326, 0.6959642319565705, 0.7044749839483581, 0.7121758248336775, 0.7191438188816224, 0.7254486830783685, 0.7311534602938087, 0.7363150608419841, 0.7409844186201086, 0.7452041427118572, 0.7489625046759032, 0.6662476511813153])","array('d', [-0.02644561417400843, -0.007319994107498006, 0.0028268761629371046, -0.0007038751516572529, 0.0005184523516899846, 8.887157743147626e-05, 0.0002341026706113696, 0.00017963824261447222, 0.00019505252315600864, 0.00018642419858773846, 0.00018651978894464806, 0.00018390545395431397, 0.00018235566601404633, 0.00018197479204201843, 0.00017179592788464242, -0.0039334832335854875])","array('d', [1.3170518139984944, 1.2875241585294366, 1.2571675771817894, 1.226046057934165, 1.1942196512805343, 1.1617445764405503, 1.1286733405451614, 1.0950548704274203, 1.0609346557237123, 1.0263549015689897, 0.9913546894304609, 0.9559701467537423, 0.9202346375294771, 0.8841790742178877, 0.8478340591889909, 0.8058947423002842])",-175.46320526175072,-239.78923327991276,-49.89674769535671,0.6959642319565705,8.887157743147626e-05,1.1617445764405503,25.000000242753178,-1.0,[],[],[],10000000000.0,0.022454500198364258
8,0.29886364936828613,-242.7489776611328,-184.2465362548828,49.95370864868164,0.6581557989120481,0.00779303302988418,1.2906108061459398,23.20765931436554,"array('d', [-186.84127807617188, -184.433784703731, -182.04727528149044, -179.68484139395932, -177.34938319218907, -175.04387478328616, -172.77135165406597, -170.53489658735194, -168.33762403041868, -166.18266536920606, -164.07315466127733, -162.01221508525387, -160.00294605989632, -158.04841098457112, -156.151624397243, -154.68724565200776])","array('d', [-243.68609619140625, -243.01385943810715, -242.26952191232516, -241.4519702998326, -240.5602838610369, -239.59380617846915, -238.55214073201512, -237.43514562360355, -236.24292705549666, -234.97583248825148, -233.63444331478257, -232.2195672151153, -230.73223023979497, -229.17366880798005, -227.54532309611682, -226.18335755959168])","array('d', [-49.94188690185547, -49.90408796028527, -49.89986278524858, -49.901992549347575, -49.90190284651882, -49.90257340591744, -49.90296942285764, -49.9034514387336, -49.90389482131833, -49.90434372074593, -49.90478352115356, -49.90522011387551, -49.90565196125062, -49.906081657814205, -49.90649824822018, -49.902648969669784])","array('d', [0.6396162509918208, 0.6534892230565361, 0.6660420082799843, 0.6774002387889093, 0.6876775910643008, 0.6969769234518737, 0.7053913051348154, 0.7130049464672562, 0.7198940388685012, 0.7261275092824704, 0.7317676848976721, 0.7368708254157199, 0.7414872620746423, 0.7456589648560057, 0.7493721766637391, 0.6665966080817504])","array('d', [-0.024761237204074887, -0.005795906823388476, 0.0022810164866057634, -0.0005303059835051956, 0.0004423184061221114, 9.984230000311932e-05, 0.0002150493672842485, 0.00017129327108565088, 0.00018321393501181913, 0.0001760255232494613, 0.00017581826034881402, 0.0001734946807649852, 0.0001720080250146317, 0.000171753486618864, 0.00016168681573893004, -0.003942520109417338])","array('d', [1.3132468620922901, 1.2836214532571553, 1.2531746072178591, 1.2219698585900156, 1.1900668159627084, 1.1575212695622044, 1.1243853119099414, 1.0907074709703, 1.0565328544107457, 1.0219033032173204, 0.9868575532108257, 0.951431405215208, 0.9156579163857829, 0.879567716066214, 0.8431912053595061, 0.8012196195592891])",-175.04387478328616,-239.59380617846915,-49.90257340591744,0.6969769234518737,9.984230000311932e-05,1.1575212695622044,25.000000242765367,-1.0,[],[],[],10000000000.0,0.02421879768371582
9,0.3220663070678711,-242.7489776611328,-184.2465362548828,49.95370864868164,0.6581557989120481,0.00779303302988418,1.2906108061459398,23.20765931436554,"array('d', [-186.4060821533203, -184.0011158319438, -181.61755953959928, -179.2584656186959, -176.92674298547612, -174.62537516492856, -172.35740551174587, -170.1259224603395, -167.93404403261934, -165.78490315292515, -163.68163348663853, -161.627355984503, -159.6251661053842, -157.67812165581242, -155.78922999639178, -154.3315112624473])","array('d', [-243.5358428955078, -242.85438374026316, -242.10062799974028, -241.27348785684083, -240.3720799584913, -239.39578527557308, -238.34424401662173, -237.21735003647103, -236.0152442776681, -234.73830785272844, -233.38715467627918, -231.96262377886396, -230.46577136164126, -228.89786277592373, -227.26036594252412, -225.89127505289244])","array('d', [-49.94325637817383, -49.91000909448407, -49.907123419365554, -49.908740822405235, -49.908782942036545, -49.90936233099744, -49.90974548410443, -49.9101881491334, -49.91060208758459, -49.911018732161786, -49.911427843213055, -49.91183373362653, -49.91223536598007, -49.91263510746714, -49.913022067564434, -49.909150475487074])","array('d', [0.6417921781539914, 0.6554580835495903, 0.66782350708498, 0.6790122057103876, 0.6891361591748881, 0.698296690552749, 0.7065854798435739, 0.7140854803829584, 0.7208717461003799, 0.7270121744227386, 0.73256816010521, 0.737595115843854, 0.7421425911792919, 0.746251745341651, 0.7499064768955707, 0.6670516182585858])","array('d', [-0.022847795858979232, -0.004064553593684833, 0.001660504354787459, -0.0003333206538569916, 0.0003555250411108944, 0.00011204781334591257, 0.00019312218852915805, 0.00016153674133337015, 0.00016948148407877947, 0.0001639268391877208, 0.0001633712695416232, 0.00016137437470683776, 0.00015995518770713533, 0.00015983993786741247, 0.00014989409838737735, -0.0039530619840525295])","array('d', [1.3094860474255419, 1.279732891061563, 1.2491681068014795, 1.21785463246668, 1.1858514952268524, 1.153213921199155, 1.1199934580386277, 1.0862381098475962, 1.0519924829246792, 1.0172979405471494, 0.982192765333078, 0.9467123300234773, 0.9108892896396972, 0.874753901651755, 0.8383362904108252, 0.796322591779905])",-174.62537516492856,-239.39578527557308,-49.90936233099744,0.698296690552749,0.00011204781334591257,1.153213921199155,25.000000242777674,-1.0,[],[],[],10000000000.0,0.01956796646118164
10,0.34913039207458496,-242.58387756347656,-183.81637573242188,49.956947326660156,0.661773383617401,0.00433546351268889,1.286499426760946,23.21266707543202,"array('d', [-185.97314453125, -183.57066417047747, -181.1900423623176, -178.83428727625153, -176.5063193572024, -174.20913313159016, -171.9457810505204, -169.71935814721255, -167.53298671745733, -165.38980168939565, -163.2929365859641, -161.2455101814217, -159.2506138456422, -157.3112994998312, -155.43056688314627, -153.97974033929552])","array('d', [-243.38351440429688, -242.6930910839454, -241.93010782817686, -241.0935065042977, -240.18244776825003, -239.19635605533787, -238.1349140557321, -236.99805681956343, -235.78596517148537, -234.49905871947666, -233.13798845091557, -231.70362901182236, -230.1970707408439, -228.6196116394691, -226.97275083610032, -225.59635906557625])","array('d', [-49.9448356628418, -49.917299382682, -49.91609496493077, -49.9170706035425, -49.91727904604748, -49.91774494510752, -49.91811282316687, -49.91850693528239, -49.918884715913926, -49.91926163740936, -49.91963295455317, -49.920000999717885, -49.920365364549454, -49.92072813172182, -49.92107849022273, -49.91717932318208])","array('d', [0.6444739699363706, 0.6578846693210175, 0.6700191728866931, 0.6809989264620036, 0.6909338186046265, 0.699923280195575, 0.7080572790942995, 0.7154172193934198, 0.7220767531126767, 0.7281025088898722, 0.7335547324884912, 0.7384877934147375, 0.7429502808003129, 0.7469823726284166, 0.750565324746457, 0.6676125562487402])","array('d', [-0.02044705115258695, -0.001892270262091507, 0.000882447885119266, -8.578490155816947e-05, 0.0002469875968982675, 0.00012772125000596335, 0.00016594357126655012, 0.00014961845493273156, 0.0001525570275303752, 0.00014903885771120403, 0.00014803165891651517, 0.000146431173078491, 0.00014508318338593226, 0.00014512978890000687, 0.0001353206850310407, -0.003966089568063841])","array('d', [1.305844620862279, 1.2759334647378575, 1.2452228490406099, 1.2137749665925996, 1.1816481192365116, 1.1488968298790763, 1.1155719674794755, 1.0817208841153245, 1.0473875625302944, 1.0126127723030158, 0.9774342331876867, 0.9418867865680587, 0.9060025884741729, 0.8698114343786476, 0.8333430946252784, 0.7912774226333973])",-174.20913313159016,-239.19635605533787,-49.91774494510752,0.699923280195575,0.00012772125000596335,1.1488968298790763,25.000000242789888,-1.0,[],[],[],10000000000.0,0.023174285888671875
11,0.3673725128173828,-242.24581909179688,-182.95814514160156,49.96553039550781,0.6691538095474242,-0.0024003316648304376,1.2778324345734458,23.22492894748707,"array('d', [-185.10873413085938, -182.71145980131809, -180.33699938246582, -177.98828067418862, -175.66825904243794, -173.37995524462815, -171.12644248215418, -168.91083075518063, -166.73625198693503, -164.6058455713078, -162.5227446280274, -160.4900629329562, -158.51088255204127, -156.58824207348437, -154.72512401376625, -153.2891888714537])","array('d', [-243.0713653564453, -242.36267069159274, -241.5807396571698, -240.7245894051168, -239.79348698312603, -238.78695936591788, -237.70478878404495, -236.54700649023516, -235.3138861448659, -234.00593669374624, -232.62389490276524, -231.16871758375763, -229.6415736051307, -228.04383586552512, -226.37707489032783, -224.98515612925146])","array('d', [-49.94865417480469, -49.935207834785636, -49.93815174186611, -49.93754523204941, -49.938164974945174, -49.93835176303111, -49.93868280141932, -49.93895788326509, -49.93924715611882, -49.939526698507564, -49.93980532856669, -49.94008048850378, -49.94035332251501, -49.940625210395666, -49.94088551583755, -49.93691846271434])","array('d', [0.6509637236595152, 0.6637568418546526, 0.6753325347992173, 0.6858066555650529, 0.6952840321697371, 0.7038595165172616, 0.7116189332089132, 0.7186399372854767, 0.7249927882666986, 0.7307410444730389, 0.7359421713611937, 0.7406480144908026, 0.7449048404934301, 0.7487504590424989, 0.7521597431157778, 0.6689693407084115])","array('d', [-0.014524273574352297, 0.003466872231684166, -0.0010366168237091414, 0.0005253521652807022, -2.045272969996006e-05, 0.00016676011428326282, 9.919767063890692e-05, 0.00012051223496819564, 0.00011106366740910592, 0.00011254552204153762, 0.00011039440936807979, 0.00010974438434962523, 0.00010854287096276563, 0.00010896047562531122, 9.944268141176556e-05, -0.003998161746020188])","array('d', [1.2984393994000294, 1.2681433341030055, 1.2370776217290842, 1.2053026075389024, 1.1728747970052422, 1.1398469739940358, 1.106268331590012, 1.0721846142805935, 1.0376382696627062, 1.0026686077142701, 0.9673119662145399, 0.9316018835137878, 0.895569293289673, 0.859242860098172, 0.8226514866746347, 0.7804598405171547])",-173.37995524462815,-238.78695936591788,-49.93835176303111,0.7038595165172616,0.00016676011428326282,1.1398469739940358,25.00000024281535,-1.0,[],[],[],10000000000.0,0.017290830612182617
12,0.3890647888183594,-242.07286071777344,-182.53013610839844,49.97098922729492,0.672835886478424,-0.005597911775112176,1.2733940641072137,23.228834886753482,"array('d', [-184.67733764648438, -182.28291546541485, -179.91179595092092, -177.56689534361234, -175.25118726397793, -172.96770657305746, -170.71953729842633, -168.5097971758867, -166.3416229157581, -164.21815589387938, -162.14252856117244, -160.11785153369195, -158.147201388075, -156.23360904842923, -154.38004726486585, -152.95218866305063])","array('d', [-242.91146850585938, -242.193093804001, -241.4010978820877, -240.53454887868705, -239.59277265842076, -238.57535299261917, -237.4821270588754, -236.3131791588424, -235.06883404931824, -233.7496497733595, -232.35641016292968, -230.89011704574716, -229.35198225002944, -227.7434195881995, -226.06603853712238, -224.6658367256431])","array('d', [-49.95109558105469, -49.94246793237192, -49.94583651008324, -49.9450316126506, -49.94567037746635, -49.945801474515136, -49.94610360897868, -49.94634121493177, -49.946596687145075, -49.946841781998444, -49.94708676666556, -49.94732852101541, -49.94756833210158, -49.947807474026206, -49.94803537045066, -49.94404393036864])","array('d', [0.6545388698577878, 0.6669917682023981, 0.6782596174671265, 0.6884551897250756, 0.6976805251883728, 0.7060279532441841, 0.7135810160101802, 0.7204153032069751, 0.7265992054508941, 0.7321945896301542, 0.7372573894690314, 0.7418380597368188, 0.7459815857321539, 0.749724459410157, 0.7530378870291239, 0.6697161904592498])","array('d', [-0.011195615865290252, 0.004039265808030427, -0.0012560629642453269, 0.0005814908614402338, -5.9781302707222924e-05, 0.0001609762651205581, 8.204798490807308e-05, 0.00010761034499614673, 9.694533774720352e-05, 9.909468830742378e-05, 9.69291698060545e-05, 9.64817737337387e-05, 9.538538739060043e-05, 9.591925377660325e-05, 8.655413877751151e-05, -0.004009683188628181])","array('d', [1.2945107082512715, 1.264001029284208, 1.2327383529168545, 1.2007819785379408, 1.1681873963150435, 1.1350064088583816, 1.101287265254098, 1.0670748059819966, 1.0324106167762983, 0.997333189437811, 0.9618780882173946, 0.9260781231334744, 0.8899635455704834, 0.8535623900775012, 0.8169030821856293, 0.7746419343419759])",-172.96770657305746,-238.57535299261917,-49.945801474515136,0.7060279532441841,0.0001609762651205581,1.1350064088583816,25.00000024282903,-1.0,[],[],[],10000000000.0,0.01853632926940918
13,0.41315293312072754,-241.8972930908203,-182.10293579101562,49.97724151611328,0.6763350367546078,-0.008884822018444448,1.2687868336823318,23.23265759350776,"array('d', [-184.2465362548828, -181.8549959424623, -179.48723744563156, -177.14618277362953, -174.83482060760164, -172.55619945059075, -170.31341384348622, -168.1095889793504, -165.9478660422975, -163.83138806110998, -161.76328647381308, -159.74666838466868, -157.78460452508716, -155.88011779871985, -154.0361708262725, -152.61643612541977])","array('d', [-242.7489776611328, -242.02100181936478, -241.21900962114108, -240.34212639049244, -239.3897368739793, -238.36148248813427, -237.257256175896, -236.07719604600825, -234.8216786224151, -233.49131163971754, -232.0869265161141, -230.60957054750105, -229.06049891125633, -227.44116666575243, -225.75322252707159, -224.34478491889575])","array('d', [-49.95370864868164, -49.947745044049604, -49.950156967986864, -49.94965358396471, -49.950157306538834, -49.95030560786627, -49.95057251215796, -49.9507935884151, -49.95102645192047, -49.95125144983174, -49.95147582225114, -49.95169747030979, -49.95191729004973, -49.95213665749321, -49.9523449339038, -49.94833871089043])","array('d', [0.6581557989120481, 0.6702645012450996, 0.6812209090503737, 0.6911346773944815, 0.7001050261028751, 0.7082217325649883, 0.7155660297388583, 0.7222114178856188, 0.7282243968699785, 0.7336651223578892, 0.7385879783549576, 0.743042012219781, 0.7470709110075973, 0.7507098186928605, 0.7539259530825131, 0.6704711569772592])","array('d', [-0.00779303302988418, 0.0028446635183307298, -0.0008534313649512124, 0.00042932518576069376, -1.8870330572143315e-05, 0.0001349454382118842, 7.950288568121972e-05, 9.706514513855271e-05, 8.935429018723501e-05, 9.062287515557586e-05, 8.890373827027522e-05, 8.842273291559764e-05, 8.744929987378747e-05, 8.803489281640598e-05, 7.874129348889373e-05, -0.004016667234739701])","array('d', [1.2906108061459398, 1.2598838635417748, 1.2284209353101925, 1.1962802416287925, 1.1635162262475147, 1.1301796817224583, 1.0963178866650083, 1.0619747533433967, 1.0271909836063664, 0.9920042311182015, 0.9564492685736272, 0.920558161435498, 0.8843604643140113, 0.8478835695146516, 0.8111554271361628, 0.7688239062736403])",-172.55619945059075,-238.36148248813427,-49.95030560786627,0.7082217325649883,0.0001349454382118842,1.1301796817224583,25.000000242842464,-1.0,[],[],[],10000000000.0,0.020862817764282227
14,0.4377620220184326,-241.71937561035156,-181.67808532714844,49.98508071899414,0.6797855496406552,-0.012216466479003466,1.2640598873284201,23.237178201357533,"array('d', [-183.81637573242188, -181.42791910482612, -179.06373780165998, -176.72676479391401, -174.42000430707697, -172.1465182823395, -169.90941143423885, -167.71181599161022, -165.5568771300895, -163.44773899521562, -161.3875314294808, -159.37935740194214, -157.42628113958887, -155.53131683393144, -153.69741624226054, -152.28616281929223])","array('d', [-242.58387756347656, -241.84580757846757, -241.03332952792022, -240.14562860895208, -239.18214987133425, -238.14259356235146, -237.02690949652418, -235.8352906318824, -234.5681662435312, -233.22619468494034, -231.81025583347093, -230.32144327372578, -228.76105630258232, -227.13059194733793, -225.431738851874, -224.01480389273652])","array('d', [-49.956947326660156, -49.95368885025905, -49.955125489095664, -49.95492581070575, -49.95528950823948, -49.95545259817664, -49.95568102029613, -49.95588266082003, -49.95608993614884, -49.95629192513183, -49.95649278547606, -49.95669145299043, -49.956888421100835, -49.957085165145244, -49.957270953042475, -49.95324775883327])","array('d', [0.661773383617401, 0.6735378275454341, 0.6841827374352235, 0.6938146507817372, 0.7025299665121775, 0.710415909554813, 0.7175514032872247, 0.7240078581260244, 0.7298498828230214, 0.7351359214532329, 0.7399188078205579, 0.7442461808186478, 0.7481604251263293, 0.7516953090835709, 0.7548136291047857, 0.6712255034207838])","array('d', [-0.00433546351268889, 0.0016291756040863097, -0.0004452585772918856, 0.0002735251196880472, 2.1634936073674025e-05, 0.00010740617739374785, 7.585780633935744e-05, 8.529714447924176e-05, 8.060145081380237e-05, 8.098336343843915e-05, 7.972588843859766e-05, 7.921661877120293e-05, 7.83719618945998e-05, 7.901259265933019e-05, 6.977189797470156e-05, -0.004024685063998106])","array('d', [1.286499426760946, 1.2555540061408306, 1.2238897864937184, 1.191563886670235, 1.1586296839053651, 1.1251369426471378, 1.0911319549731688, 1.056657690777479, 1.0217539556268143, 0.9864575542716048, 0.9508024585428605, 0.9148199813820578, 0.8785389739918732, 0.8419861820126888, 0.8051890942420113, 0.7627871427247096])",-172.1465182823395,-238.14259356235146,-49.95545259817664,0.710415909554813,0.00010740617739374785,1.1251369426471378,25.00000024285653,-1.0,[],[],[],10000000000.0,0.021863222122192383
15,0.4641439914703369,-241.3557891845703,-180.8307647705078,50.0034065246582,0.6861154437065123,-0.018461702391505175,1.2548861364510395,23.24267066133036,"array('d', [-182.95814514160156, -180.57634683455123, -178.21984751515527, -175.8916185196677, -173.59469702987926, -171.33217150723326, -169.1071662190262, -166.9228263822113, -164.78230385937906, -162.6887435435055, -160.64527043783926, -158.65497745192692, -156.7209138931586, -154.84607450953428, -153.0333871660102, -151.64002569012936])","array('d', [-242.24581909179688, -241.4865334942146, -240.65204293311834, -239.7416624081718, -238.75496337417854, -237.6917686426503, -236.55214632394228, -235.33640332300456, -234.04507838827553, -232.67893481288615, -231.23895283804956, -229.72632182615146, -228.1424322805605, -226.4888679156031, -224.7673998164972, -223.3328685003778])","array('d', [-49.96553039550781, -49.96753417325179, -49.9670586384986, -49.967440322328606, -49.96752046003491, -49.96770199671264, -49.967845127355126, -49.96799874674583, -49.968146110098665, -49.96829331464261, -49.96843849054486, -49.96858257939678, -49.968725276796555, -49.96886824070915, -49.9690005773016, -49.96493705831594])","array('d', [0.6691538095474242, 0.6802159136917687, 0.6902253202054541, 0.6992822062603539, 0.7074772157192171, 0.7148923660973281, 0.7216018688695474, 0.7276728708341446, 0.733166122534279, 0.7381365759759997, 0.7426339017310429, 0.7467028627970852, 0.7503831744740888, 0.7537057070652088, 0.7566226617880081, 0.6727636125795876])","array('d', [0.0024003316648304376, -0.000744840889191368, 0.00034621213132088834, -3.4513800588913475e-05, 9.643940481435562e-05, 4.95717813611987e-05, 6.468068498541021e-05, 5.832092003535288e-05, 5.9549269937593595e-05, 5.8236267871229304e-05, 5.790989786652607e-05, 5.737018712497911e-05, 5.679729097234155e-05, 5.756110152990972e-05, 4.846001069619333e-05, -0.004043736042066511])","array('d', [1.2778324345734458, 1.246437579161599, 1.2143595344721907, 1.181653101573625, 1.148369417757657, 1.1145560926765843, 1.0802573549831118, 1.0455142074106027, 1.0103645881053294, 0.9748435362324052, 0.9389833607571902, 0.9028138146391869, 0.8663622935143106, 0.8296542104056068, 0.7927161666123266, 0.750170337457965])",-171.33217150723326,-237.6917686426503,-49.96770199671264,0.7148923660973281,4.95717813611987e-05,1.1145560926765843,25.0000002428858,-1.0,[],[],[],10000000000.0,0.024500131607055664
16,0.4896526336669922,-241.17015075683594,-180.4083251953125,50.01386642456055,0.6889729499816892,-0.021283213049173463,1.2504342655327658,23.24510213394125,"array('d', [-182.53013610839844, -180.1518285809292, -177.79933873467854, -175.475663951395, -173.1838583038093, -170.92702296696768, -168.70829131607167, -166.53081432770395, -164.3977464437986, -162.31223214400342, -160.27739321231263, -158.2963167227653, -156.37204371665683, -154.50755841592706, -152.7057759171136, -151.32160390265935])","array('d', [-242.07286071777344, -241.30274160440598, -240.45702091803514, -239.5350820414038, -238.53656111291983, -237.46134329754986, -236.30955679182338, -235.0815662997687, -233.7779660364079, -232.39957240433787, -230.94741638398514, -229.4227357081396, -227.826966895977, -226.16173735651222, -224.42885970924578, -222.9854603236579])","array('d', [-49.97098922729492, -49.97548632058649, -49.97409557066349, -49.974746919253086, -49.97468583703567, -49.97486976775469, -49.97496607053267, -49.97509065310277, -49.975203391223104, -49.975318464787314, -49.975431128437094, -49.97554326851191, -49.97565418995776, -49.97576562682294, -49.97586654412761, -49.97177926781913])","array('d', [0.672835886478424, 0.6835475949762183, 0.6932399503679569, 0.7020099566753412, 0.7099453865728383, 0.7171256596088794, 0.7236226364986426, 0.7295013369234619, 0.734820586550518, 0.7396335951173043, 0.7439884547581539, 0.7479284923941996, 0.7514920848592689, 0.7547086073836086, 0.7575242551891836, 0.6735286974592525])","array('d', [0.005597911775112176, -0.0018755542648003594, 0.0007196606033447533, -0.00018351494602522795, 0.00012942864999970432, 1.9548936401190186e-05, 5.6870684188597294e-05, 4.302632250483111e-05, 4.709627803403219e-05, 4.499758306693469e-05, 4.5131108821308103e-05, 4.458997814947904e-05, 4.415444502357711e-05, 4.4981257581142805e-05, 3.590402311686151e-05, -0.004054959818993275])","array('d', [1.2733940641072137, 1.241773095023265, 1.2094869836290214, 1.176589337554841, 1.1431301432113616, 1.1091559055063018, 1.074709797423307, 1.039831817313497, 1.0045589516950766, 0.9689253416228342, 0.9329624516352907, 0.8966992437994568, 0.8601623771427015, 0.8233765932233421, 0.7863680752677874, 0.7437504434052626])",-170.92702296696768,-237.46134329754986,-49.97486976775469,0.7171256596088794,1.9548936401190186e-05,1.1091559055063018,25.000000242900533,-1.0,[],[],[],10000000000.0,0.021027803421020508
17,0.5306828022003174,-240.79147338867188,-179.56607055664062,50.036781311035156,0.6942895054817196,-0.02626476809382444,1.2413574020054676,23.247369411279205,"array('d', [-182.10293579101562, -179.72830276661108, -177.38000875546106, -175.06108108103197, -172.77459031172685, -170.5236493871028, -168.31139985620942, -166.14099756726608, -164.01559871785005, -161.93834661228524, -159.91235911487485, -157.9407168225056, -156.02645192431376, -154.17253758024918, -152.38187560136055, -151.00706405595585])","array('d', [-241.8972930908203, -241.1159696676128, -240.2586765304032, -239.32486559415221, -238.31423650399844, -237.22673543066674, -236.06254933883497, -234.8220994556309, -233.50603423839854, -232.1152220272114, -230.6507434239112, -229.1138834685752, -227.50612368813364, -225.82913423432692, -224.08476838712986, -222.63245131186815])","array('d', [-49.97724151611328, -49.98429941506468, -49.98196456898252, -49.98289033420691, -49.98268114976888, -49.982864721652916, -49.9829100670397, -49.98300202080364, -49.98307640270367, -49.98315570459017, -49.98323221830195, -49.983308798995004, -49.98338434758326, -49.98346067343448, -49.98352663566987, -49.9794129584682])","array('d', [0.6763350367546078, 0.6867137573635513, 0.6961048128251895, 0.7046021916538486, 0.7122909379766018, 0.7192480024412458, 0.7255430117855389, 0.7312389642378526, 0.7363928561823566, 0.7410562415301312, 0.745275711987962, 0.749093228066835, 0.7525458859889016, 0.7556615748250449, 0.7583796178524724, 0.6742542456025797])","array('d', [0.008884822018444448, -0.003039538644566705, 0.0011025616577811943, -0.0003379193114555123, 0.00016222830250776953, -1.245670266450945e-05, 4.7728994468241446e-05, 2.6193274696271624e-05, 3.319543483497048e-05, 3.0294467788176062e-05, 3.09062948181408e-05, 3.0367251912636495e-05, 3.0076470132077455e-05, 3.096931862522674e-05, 2.1950921441282215e-05, -0.004067432548579908])","array('d', [1.2687868336823318, 1.236949797458931, 1.2044649473416764, 1.1713847329660045, 1.1377580256799578, 1.1036302615868705, 1.0690435937852836, 1.034037051595295, 0.9986467045679924, 0.9629058293919113, 0.9268450788212313, 0.8904926554557224, 0.8538745120283134, 0.8170147495741599, 0.7799391995825832, 0.7372533628065775])",-170.5236493871028,-237.22673543066674,-49.982864721652916,0.7192480024412458,-1.245670266450945e-05,1.1036302615868705,25.00000024291549,-1.0,[],[],[],10000000000.0,0.03249526023864746
18,0.5558009147644043,-240.79147338867188,-179.56607055664062,50.036781311035156,0.6942895054817196,-0.02626476809382444,1.2413574020054676,23.247369411279205,"array('d', [-181.67808532714844, -179.30728049497984, -176.96334173503016, -174.64933086862814, -172.36833508498043, -170.12347854359768, -167.9179103709324, -165.7547906642768, -163.63727675467842, -161.56851015035522, -159.55160418175956, -157.58963236318036, -155.68561743659706, -153.84252091442437, -152.06323071557924, -150.697983857536])","array('d', [-241.71937561035156, -240.92658597768659, -240.05746736120926, -239.1115422423287, -238.0885743077788, -236.98857098490205, -235.81177820137998, -234.55867385611586, -233.2299607645532, -231.82655928886956, -230.34959971020578, -228.80041441000557, -227.18052993647507, -225.4916591813122, -223.73569609374562, -222.2743849116354])","array('d', [-49.98508071899414, -49.99472914536535, -49.99142933481545, -49.99262648143493, -49.99226009120158, -49.992436470129384, -49.99242336059374, -49.99247553805114, -49.9925043965101, -49.992540855891356, -49.992574190802245, -49.9926082310182, -49.992641458191606, -49.99267574905653, -49.992699848508195, -49.98855454764516])","array('d', [0.6797855496406552, 0.6898359108163296, 0.6989298543479622, 0.7071583951572217, 0.7146038867495849, 0.7213408451883103, 0.7274366942825179, 0.7329524388965077, 0.7379432715304399, 0.742459113191756, 0.7465450756700381, 0.7502417705745987, 0.7535850233494025, 0.7566011951555203, 0.7592217319243229, 0.6749682067064829])","array('d', [0.012216466479003466, -0.004223366981126555, 0.001488233212450641, -0.0004973915516561783, 0.0001927661558872945, -4.765235504977789e-05, 3.5773025165950315e-05, 6.457973794213321e-06, 1.6461907634145753e-05, 1.2767231696159972e-05, 1.3882098667807198e-05, 1.3358803686291688e-05, 1.3225164670757949e-05, 1.4191409399762665e-05, 5.237523115829489e-06, -0.004082372683722177])","array('d', [1.2640598873284201, 1.2320086405330348, 1.1993268404765693, 1.1660657714488158, 1.1322731843035414, 1.0979934426826858, 1.0632676777326757, 1.0281339490613801, 0.9926274097491017, 0.9567804735916807, 0.9206229838303271, 0.8841823865415219, 0.8474839318916194, 0.8105510869161273, 0.7734093795198611, 0.730656316496999])",-170.12347854359768,-236.98857098490205,-49.992436470129384,0.7213408451883103,-4.765235504977789e-05,1.0979934426826858,25.000000242930604,-1.0,[],[],[],10000000000.0,0.02071666717529297
19,0.5874783992767334,-240.20565795898438,-178.3092041015625,50.07660675048828,0.7013741135597223,-0.031982038170099335,1.2276823083546495,23.25415275280766,"array('d', [-180.8307647705078, -178.46755545499138, -176.13221501876345, -173.82788161374967, -171.55767380433798, -169.3247352007652, -167.13222745063774, -164.98331687228148, -162.88116119403068, -160.82889684513594, -158.82962697426777, -156.8864101696431, -155.00224985174006, -153.18008411849246, -151.42277318196528, -150.07599263193893])","array('d', [-241.3557891845703, -240.5408294730632, -239.64889273712683, -238.67963918202003, -237.63295385025546, -236.5089594954929, -235.30801293303293, -234.0306985312412, -232.67782115616265, -231.25039876315324, -229.74965476904174, -228.17701025037982, -226.53407605232655, -224.82264505086266, -223.0446873642816, -221.56634129797283])","array('d', [-50.0034065246582, -50.017898571663466, -50.012770765771236, -50.014460469237925, -50.01378243424184, -50.01392899314212, -50.01379000613803, -50.0137515478455, -50.01367911729521, -50.01361944266124, -50.013556107573606, -50.01349475166727, -50.01343304863805, -50.013372980659646, -50.01330310116531, -50.009086819152834])","array('d', [0.6861154437065123, 0.6955634363365807, 0.704112334216654, 0.7118476972741521, 0.7188469431241293, 0.7251801216321266, 0.730910615371789, 0.7360957723963523, 0.7407874759352385, 0.7450326511832749, 0.7488736939673059, 0.7523487365576923, 0.7554912464117348, 0.7583245618098279, 0.7607615064071351, 0.6762728831253791])","array('d', [0.018461702391505175, -0.006452077419321175, 0.002205392743808136, -0.0008034360947642938, 0.00024354238508494092, -0.00012022686971498307, 6.916266688621843e-06, -3.695110530537006e-05, -2.1255173815980688e-05, -2.639872826914916e-05, -2.430428111595144e-05, -2.477263092055781e-05, -2.459279301577749e-05, -2.3480152544610463e-05, -3.22767062258035e-05, -0.00411590665570337])","array('d', [1.2548861364510395, 1.2224389180932569, 1.189393268084502, 1.1557982700919462, 1.1216995635898257, 1.0871394955791938, 1.0521572793921539, 1.0167891583045474, 0.9810685718399156, 0.94502632309274, 0.908690746604302, 0.8720878807134257, 0.8352416711132018, 0.79817441828714, 0.7609112609930898, 0.7180350721788191])",-169.3247352007652,-236.5089594954929,-50.01392899314212,0.7251801216321266,-0.00012022686971498307,1.0871394955791938,25.000000242958837,-1.0,[],[],[],10000000000.0,0.02743983268737793
20,0.6101551055908203,-240.005859375,-177.89202880859375,50.09142303466797,0.7035616040229795,-0.033621475100517204,1.223042354979787,23.253907164173775,"array('d', [-180.4083251953125, -178.0488827027677, -175.7177726481436, -173.41819153261096, -171.15326694739593, -168.92615009774062, -166.74000752048727, -164.59800755220746, -162.50330725173518, -160.45903984740238, -158.46830293205585, -156.5341473509827, -154.6595667571625, -152.84748759298037, -151.10075637098586, -149.76285417760502])","array('d', [-241.17015075683594, -240.34447658085176, -239.4415362163322, -238.4610626920028, -237.40299582186984, -236.26751173966224, -235.0550187518263, -233.7661506605189, -232.4017596946213, -230.9629090824139, -229.45086542726094, -227.8670909163391, -226.21323545215455, -224.49112895980744, -222.7027768815692, -221.21639185467103])","array('d', [-50.01386642456055, -50.03283839312193, -50.028286444778736, -50.02967588204234, -50.029003608806605, -50.02905105956396, -50.02885078950966, -50.02873911793975, -50.02859872485641, -50.028470228063654, -50.02833921285897, -50.028210493923446, -50.02808190553441, -50.02795524545737, -50.0278189509936, -50.023552425473184])","array('d', [0.6889729499816892, 0.6981490151700359, 0.7064518629021982, 0.7139645905554214, 0.7207623875334263, 0.7269132875228995, 0.7324788487563846, 0.7375147684773306, 0.7420714359643554, 0.7461944238542649, 0.7499249013007424, 0.7532998786102456, 0.7563517434226269, 0.7591023421318434, 0.76145383720869, 0.6768593304178354])","array('d', [0.021283213049173463, -0.005655625737170862, 0.0018882099372236555, -0.000732933851055152, 0.00017988756317056841, -0.0001366465383456752, -2.542490216123666e-05, -6.328084052901345e-05, -4.926739734178761e-05, -5.346009359007916e-05, -5.138665866211012e-05, -5.158517803832045e-05, -5.129045091822985e-05, -5.005817137701792e-05, -5.883106465120461e-05, -0.004139643304764552])","array('d', [1.2504342655327658, 1.2178069995850165, 1.1845960009260499, 1.1508493322060416, 1.1166116553190109, 1.0819243854217233, 1.0468258513592537, 1.0113514602307212, 0.9755338640252699, 0.9394031267376541, 0.9029868916420732, 0.8663105530500347, 0.8293974612694079, 0.7922693902919261, 0.7549513961315586, 0.7120197528005825])",-168.92615009774062,-236.26751173966224,-50.02905105956396,0.7269132875228995,-0.0001366465383456752,1.0819243854217233,25.00000024297197,-1.0,[],[],[],10000000000.0,0.021169662475585938
21,0.677457332611084,-239.39483642578125,-176.64935302734375,50.139976501464844,0.7095485925674435,-0.03713402152061467,1.208913401761327,23.253914454577316,"array('d', [-179.98675537109375, -177.63120395736053, -175.30443463157144, -173.00972317046165, -170.75020270289872, -168.52903114267193, -166.34937923220795, -164.21441674604182, -162.12729952338967, -160.09115708405628, -158.1090809938023, -156.1841139205967, -154.31923934982154, -152.5173716971979, -150.78134336493346, -149.45241604045685])","array('d', [-240.98204040527344, -240.14550418487613, -239.2314211532866, -238.2396047815789, -237.17004797290923, -236.02297953343793, -234.7988586262376, -233.4983678927811, -232.12240633767036, -230.67208189124662, -229.14870378743692, -227.55377478558225, -225.88898332565586, -224.15619588451838, -222.35745280941163, -220.86303901108116])","array('d', [-50.024932861328125, -50.050196914732666, -50.047467166074505, -50.04810183789138, -50.04757230110923, -50.047452243157615, -50.04719399769004, -50.04698769225585, -50.04676673145751, -50.04655390921452, -50.04634086938331, -50.04613015908103, -50.045920254824374, -50.04571257689613, -50.04549557662551, -50.04116805643412])","array('d', [0.691744208335876, 0.7006565536502243, 0.7087207777494554, 0.7160175897874503, 0.7226200182100796, 0.728594141378072, 0.7339997482431215, 0.7388909350539781, 0.7433166421942695, 0.7473211304409118, 0.7509443788040432, 0.7542223072022924, 0.7571862425231881, 0.759856463565958, 0.7621222234578231, 0.6774251380365474])","array('d', [0.02392818219959735, -0.00326236507098963, 0.0010073368853475652, -0.00047487316741660175, 4.2611070332323694e-05, -0.00013568312856259562, -7.197600556510875e-05, -9.272225172144096e-05, -8.418874155605324e-05, -8.603819908324535e-05, -8.442064912121416e-05, -8.415207318060938e-05, -8.37775813126103e-05, -8.238794944056345e-05, -9.106749786263495e-05, -0.004168459176141206])","array('d', [1.2459077397969105, 1.21310508091814, 1.1797330649029498, 1.145838747260757, 1.1114658268565125, 1.0766548020294546, 1.0414431324396285, 1.0058654043968152, 0.9699534976569303, 0.9337367521824949, 0.8972421347007732, 0.8604944098312253, 0.8235163467783858, 0.7863292110928127, 0.7489580846843216, 0.7059728603070388])",-168.52903114267193,-236.02297953343793,-50.047452243157615,0.728594141378072,-0.00013568312856259562,1.0766548020294546,25.000000242985113,-1.0,[],[],[],10000000000.0,0.06546354293823242
22,0.7056014537811279,-238.9770050048828,-175.8251953125,50.17430877685547,0.7129687666893002,-0.03868899494409563,1.1998292664673664,23.252536250575165,"array('d', [-178.72727966308594, -176.38374312663896, -174.07030136476607, -171.7904547126818, -169.5473603172267, -167.34419335519047, -165.1841330141471, -163.07034976961467, -161.005992677345, -158.99417755557528, -157.03797581117144, -155.14040397673125, -153.30441386727236, -151.53288302763832, -149.8286005281309, -148.52624899496098])","array('d', [-240.4032440185547, -239.53419893599425, -238.58689577128794, -237.56137893475605, -236.45779423242197, -235.2765186536766, -234.01815367517972, -232.68351858410412, -231.27364319576034, -229.7897604414724, -228.23329874436268, -226.60587428724355, -224.90928323758274, -223.14549426924, -221.31664586186605, -219.79901791286827])","array('d', [-50.06267166137695, -50.102887919777096, -50.10445136652961, -50.103233150767196, -50.102992545694974, -50.102421743547644, -50.10197468334543, -50.101492501295155, -50.10102962064416, -50.10056620409989, -50.100108295890585, -50.09965295706831, -50.09920013359281, -50.098750274131355, -50.098291885502306, -50.09378191990367])","array('d', [0.6991602182388302, 0.7073668375079001, 0.7147924942119531, 0.7215115065123375, 0.727591120032963, 0.7330921805870241, 0.7380697424270966, 0.7425736173924535, 0.7466488683098473, 0.7503362444728738, 0.7536725364468027, 0.7566907291874695, 0.759419205480196, 0.7618730443470019, 0.7638839230084965, 0.6789159462107168])","array('d', [0.030213864520192067, 0.0024251538334072215, -0.0011153333018623314, 0.0001201502733389547, -0.00030553308481907763, -0.00015364247085833009, -0.0002031793161594992, -0.00018290454635282345, -0.0001873262110933735, -0.00018347133065433087, -0.00018286534587265017, -0.00018142966377203285, -0.00018083897610738015, -0.00017907798511630408, -0.00018749259575219696, -0.004254651903231225])","array('d', [1.2322827736523485, 1.1990069207462768, 1.1652007764660732, 1.130908616120753, 1.0961714866708392, 1.0610273677139972, 1.0255113362985662, 0.9896557334313923, 0.9534903304552819, 0.9170424940693576, 0.8803373503312403, 0.8433979540111128, 0.806245503192806, 0.7688999327958167, 0.7313873507970764, 0.6882606418154137])",-167.34419335519047,-235.2765186536766,-50.102421743547644,0.7330921805870241,-0.00015364247085833009,1.0610273677139972,25.00000024302281,-1.0,[],[],[],10000000000.0,0.021306753158569336
23,0.7322754859924316,-238.75616455078125,-175.397216796875,50.192588806152344,0.7146469950675962,-0.039325837045907974,1.1952922801163535,23.2529586407532,"array('d', [-177.89202880859375, -175.5568886375833, -173.25271022110857, -170.98313537161258, -168.7513393482346, -166.5605064846653, -164.41381861291157, -162.31444404906216, -160.26552498301606, -158.27016607775812, -156.33142357140272, -154.4522951212914, -152.63571023044855, -150.8845208621488, -149.20148549556032, -147.91688506101855])","array('d', [-240.005859375, -239.11491250221593, -238.14531928335808, -237.09727334033292, -235.97101851089064, -234.76702504693483, -233.48598352412208, -232.1287987746168, -230.69658245709198, -229.19064569950828, -227.61249146710765, -225.96380686640208, -224.246455417609, -222.46246971569656, -220.6140504252993, -219.081369137233])","array('d', [-50.09142303466797, -50.139744637528345, -50.1436086755742, -50.1413433516497, -50.14122317683503, -50.140370015173055, -50.1397837341094, -50.13911511801613, -50.13848454886081, -50.13784887576655, -50.13722195255683, -50.1365977937953, -50.1359770974533, -50.1353597292073, -50.13473417355076, -50.130097781568765])","array('d', [0.7035616040229795, 0.7113493764151937, 0.718396044754852, 0.7247721341620961, 0.7305414581658319, 0.7357617570660301, 0.740485275059271, 0.7447592811276765, 0.7486265365441906, 0.7521257056887461, 0.755291683191496, 0.7581556938550291, 0.760744250394928, 0.7630680321774423, 0.7648896566533837, 0.6797686870943808])","array('d', [0.033621475100517204, 0.0055084873221887916, -0.002287199931115128, 0.00042961805494855324, -0.0005100818432240668, -0.0001779874911461379, -0.00028918240713078283, -0.0002464237680978468, -0.0002578410933081328, -0.00025081459953048475, -0.0002507254578246346, -0.000248636405804446, -0.00024793242175357176, -0.0002459945262366686, -0.00025431132895540443, -0.004314379053362074])","array('d', [1.223042354979787, 1.1894829764620192, 1.1554169130317185, 1.1208867290230642, 1.0859318441299615, 1.0505886966618183, 1.0148909094600744, 0.9788694564441667, 0.942552828103736, 0.905967194907274, 0.8691365693527804, 0.8320829744231807, 0.7948266669891033, 0.7573868410559548, 0.719791656780384, 0.6765839225111286])",-166.5605064846653,-234.76702504693483,-50.140370015173055,0.7357617570660301,-0.0001779874911461379,1.0505886966618183,25.000000243047086,-1.0,[],[],[],10000000000.0,0.019411563873291016
