,current_time,x_pos,y_pos,z_pos,roll,pitch,yaw,vel,x_traj,y_traj,z_traj,roll_traj,pitch_traj,yaw_traj,x_cmd,y_cmd,z_cmd,roll_cmd,pitch_cmd,yaw_cmd,vel_cmd,effector_dmg,effector_x,effector_y,effector_z,cost,time_solution
0,1.97517991065979,-247.66136169433594,-235.89346313476562,49.97920227050781,0.6301944851875302,0.031014515087008532,1.7956214259054997,23.11208067934974,"array('d', [-239.50741577148438, -237.0830023507552, -234.64116594383614, -232.18413282775467, -229.7139127808327, -227.2327025156206, -224.74288315291392, -222.24700834420779, -219.74778713809636, -217.24806780380527, -214.7508215820814, -212.25912692959406, -209.7761541789384, -207.30515071956344, -204.8494267030471, -202.90126997654002])","array('d', [-247.0242462158203, -247.63176399219304, -248.16729706881898, -248.62823925035534, -249.0122868703828, -249.31733377630067, -249.5414710037278, -249.68298866645065, -249.7403781442719, -249.71233350533285, -249.59775229303438, -249.39573566149159, -249.10558790772177, -248.7268154770415, -248.25912593019873, -247.80741301750498])","array('d', [-49.96726989746094, -49.91726569010034, -49.909447120130224, -49.913004969791196, -49.91261534315332, -49.913546120166416, -49.91398924219018, -49.914569416487716, -49.91507407811252, -49.91557878354091, -49.91605959000065, -49.916526765213575, -49.91697828481012, -49.917418021853166, -49.91783387694615, -49.91397947263901])","array('d', [0.6322925686836242, 0.6468624807216371, 0.6600458834340625, 0.6719747204413098, 0.682768379201736, 0.6925348858025364, 0.7013719859511381, 0.7093681228625517, 0.7166033215036186, 0.7231499870897979, 0.7290736226336136, 0.734433459929333, 0.739282943755696, 0.7436695477596433, 0.7476240386330916, 0.6651071787099233])","array('d', [-0.029892411082982993, -0.010438785471461933, 0.003943930947872809, -0.0010149237092741145, 0.000675030557961977, 7.952528737509758e-05, 0.00027176538303303236, 0.0001936767292620441, 0.00020978387073231536, 0.00019423977835665256, 0.00019046830597657164, 0.00018338994846579636, 0.0001779170353754392, 0.0001739389794064336, 0.00015899445292728495, -0.003944957766592786])","array('d', [1.8308500508454184, 1.8016516979196033, 1.7715993023766714, 1.740758358785069, 1.7091903874532255, 1.676953035937988, 1.6441001933104458, 1.6106821172811476, 1.5767455731456128, 1.542333982837709, 1.5074875821408276, 1.4722435845457422, 1.436636353179359, 1.4006976041945947, 1.364457050245214, 1.3226230283246865])",-227.2327025156206,-249.31733377630067,-49.913546120166416,0.6925348858025364,7.952528737509758e-05,1.676953035937988,25.00000023949576,-1.0,"[-247.86082543781015, -235.34142018598408, 49.93048378724638]","[-258.1588005098173, -226.7226268878621, 56.6139044309413]","[-243.57281926418923, -223.65671881194592, 58.301908806592834]",10000000000.0,-100.0
1,1.9766042232513428,-247.66136169433594,-235.89346313476562,49.97920227050781,0.6301944851875302,0.031014515087008532,1.7956214259054997,23.11208067934974,"array('d', [-239.05760192871094, -236.6305597792047, -234.1864159969234, -231.7274038362056, -229.2555414605754, -226.77303340006932, -224.28226792844714, -221.78580506928887, -219.28635946985634, -216.78678420789518, -214.29005453822296, -211.79925213193755, -209.3175497345161, -206.8481963464343, -204.39450292753682, -202.44830227567607])","array('d', [-247.11077880859375, -247.7077244673706, -248.23262868804215, -248.68289448784017, -249.05622581292718, -249.35052490589678, -249.56389200425332, -249.69462719939384, -249.74123254938112, -249.70241343339072, -249.57707926940643, -249.3643435826158, -249.06352347215807, -248.67413855335545, -248.19590986652597, -247.73584225852284])","array('d', [-49.96866989135742, -49.91885631002133, -49.91108513761569, -49.91460660853539, -49.914210014147656, -49.91512504007213, -49.915556387969886, -49.91612436430874, -49.91661780502118, -49.91711171524523, -49.91758226975385, -49.91803963385987, -49.91848176251282, -49.91891248171963, -49.91931968766118, -49.91545888040231])","array('d', [0.6321506500244136, 0.6467340673965923, 0.6599296902415547, 0.6718695844824104, 0.6826732482412405, 0.6924488077371683, 0.7012940992790462, 0.7092976480575454, 0.7165395532047935, 0.7230922870198638, 0.7290214131478924, 0.7343862180280817, 0.7392401949993417, 0.7436308563450009, 0.747588929531296, 0.6650772535403162])","array('d', [-0.029812267050146994, -0.010366268144340557, 0.003911090587988517, -0.0010117866203228844, 0.000666513680398864, 7.536855701780187e-05, 0.0002665209574302704, 0.00018915080176311894, 0.0002053318355714867, 0.00019005125402884424, 0.00018645238983871343, 0.00017955397707397177, 0.00017423763963079827, 0.0001704017343103856, 0.00015560982953307075, -0.003947982163583952])","array('d', [1.8264871696617937, 1.7972970483591184, 1.7672522587571837, 1.7364183326841283, 1.7048568268232633, 1.6726254241087402, 1.6397780478707353, 1.606364988845369, 1.5724330440189425, 1.5380256655994895, 1.503183118169233, 1.467942642512038, 1.4323386275612848, 1.3964028140099332, 1.3601649406902685, 1.318333677956433])",-226.77303340006932,-249.35052490589678,-49.91512504007213,0.6924488077371683,7.536855701780187e-05,1.6726254241087402,25.00000023954656,-1.0,"[-247.86459034935916, -235.31601509814587, 49.9305452488036]","[-258.15990545620684, -226.6951260696556, 56.615360819121925]","[-243.57308561013295, -223.63192271441042, 58.30102744766968]",10000000000.0,0.019406557083129883
2,1.9772062301635742,-247.66136169433594,-235.89346313476562,49.97920227050781,0.6301944851875302,0.031014515087008532,1.7956214259054997,23.11208067934974,"array('d', [-238.1561737060547, -235.72394152323415, -233.275258209228, -230.81237856753313, -228.3373360969157, -225.85234869176924, -223.35981663887398, -220.86231059305274, -218.36255445154737, -215.86340913262597, -213.36785630441648, -210.8789826070943, -208.39996429848122, -205.93405242526777, -203.48455851626773, -201.54237714769204])","array('d', [-247.27789306640625, -247.8533007953985, -248.35660028668798, -248.7852080333414, -249.13684061882776, -249.40941479575463, -249.6010470332589, -249.71005527563406, -249.73496090738058, -249.67448997208953, -249.52757375309614, -249.2933487086228, -248.97115580816185, -248.56053934844903, -248.061245745321, -247.5844953834153])","array('d', [-49.97150421142578, -49.921379843444925, -49.913499279259916, -49.91702657248589, -49.91659703132164, -49.917494736064604, -49.91790495575042, -49.918454694367874, -49.918930277176685, -49.919407461397164, -49.91986203863364, -49.92030420303344, -49.92073180577356, -49.92114861763139, -49.92154252895796, -49.91767190357717])","array('d', [0.6315596699714656, 0.6461993264824096, 0.6594458366085246, 0.6714317755684363, 0.6822771023131814, 0.6920903600356161, 0.7009697623345204, 0.7090041757785134, 0.7162740083718409, 0.722852011843049, 0.7288040025364197, 0.7341894950921571, 0.7390621875041001, 0.7434697662710391, 0.7474429631515968, 0.6649528334512048])","array('d', [-0.029942929744720497, -0.010484496624274477, 0.003939359435393798, -0.0010345462940026403, 0.0006626015146798887, 6.552276152622934e-05, 0.0002594184202655657, 0.00018166948044765673, 0.00019851573658997304, 0.00018348242503852963, 0.00018023356220049272, 0.00017360847979771513, 0.00016855797168180683, 0.0001649516916713764, 0.00015041983994645955, -0.003952619605073361])","array('d', [1.8176057944681978, 1.7884499336512165, 1.7584368015364091, 1.7276320848219209, 1.6960974913954368, 1.6638908512629513, 1.6310662301926797, 1.5976740562445988, 1.5637612581913682, 1.5293714141455568, 1.4945449084594455, 1.4593190954032393, 1.4237284711087188, 1.387804877626144, 1.3515781552733293, 1.309758362919569])",-225.85234869176924,-249.40941479575463,-49.917494736064604,0.6920903600356161,6.552276152622934e-05,1.6638908512629513,25.000000239647438,-1.0,"[-247.86459034935916, -235.31601509814587, 49.9305452488036]","[-258.15990545620684, -226.6951260696556, 56.615360819121925]","[-243.57308561013295, -223.63192271441042, 58.30102744766968]",10000000000.0,0.015208005905151367
3,1.9777076244354248,-247.66136169433594,-235.89346313476562,49.97920227050781,0.6301944851875302,0.031014515087008532,1.7956214259054997,23.11208067934974,"array('d', [-237.7046356201172, -235.2698843220494, -232.8190024758652, -230.3542593291392, -227.87769668712644, -225.3915394004452, -222.8981939449445, -220.40023644891093, -217.90039556529572, -215.40153624051482, -212.90664343470394, -210.4188063369153, -207.94120300564293, -205.4770855366856, -203.0297657520836, -201.08965413908794])","array('d', [-247.3584747314453, -247.92309455979333, -248.41557216529716, -248.83333026715542, -249.17409195402522, -249.43578148574178, -249.6165237036909, -249.7146457269809, -249.7286788434837, -249.65735966013096, -249.49963061465886, -249.25463984371748, -248.92174045372633, -248.50048927344022, -247.99064558715477, -247.5055410616837])","array('d', [-49.97290802001953, -49.9224042576017, -49.91440306276957, -49.917958945742626, -49.91750696753482, -49.9184007869301, -49.91880139275881, -49.91934416235062, -49.91981244558877, -49.92028297833077, -49.92073116124497, -49.921167279495, -49.92158911231875, -49.92200041593342, -49.92238906559941, -49.91851455400752])","array('d', [0.6312911510467526, 0.6459563604896067, 0.6592259918664618, 0.6712328518004824, 0.6820971086258427, 0.691927494992308, 0.700822395924577, 0.7088708330997394, 0.7161533548601114, 0.7227428398921466, 0.7287052193455581, 0.7341001115111863, 0.7389813072369537, 0.7433965714458741, 0.7473766284399119, 0.6648962880939127])","array('d', [-0.030102437362074862, -0.010628825077710189, 0.003984027657261584, -0.0010552520230360355, 0.0006649726374352691, 6.017217419584189e-05, 0.0002570285315379708, 0.0001784972004170615, 0.00019584007544761457, 0.00018083640879861546, 0.00017776122327678277, 0.00017124213068499535, 0.00016630647162211047, 0.00016279501504673708, 0.00014836548042974093, -0.003954455143539279])","array('d', [1.8131655464556553, 1.7840252428424792, 1.7540264865454689, 1.723235034477174, 1.6917126630841868, 1.6595172690652644, 1.6267029827881745, 1.5933202946010825, 1.559416193060849, 1.5250343134033104, 1.4902150943278332, 1.454995941607938, 1.419411400036548, 1.3834933577106079, 1.3472717014338735, 1.3054571210546386])",-225.3915394004452,-249.43578148574178,-49.9184007869301,0.691927494992308,6.017217419584189e-05,1.6595172690652644,25.00000023969693,-1.0,"[-247.86459034935916, -235.31601509814587, 49.9305452488036]","[-258.15990545620684, -226.6951260696556, 56.615360819121925]","[-243.57308561013295, -223.63192271441042, 58.30102744766968]",10000000000.0,0.01932811737060547
4,1.9781489372253418,-247.66136169433594,-235.89346313476562,49.97920227050781,0.6301944851875302,0.031014515087008532,1.7956214259054997,23.11208067934974,"array('d', [-237.25257873535156, -234.8153612809943, -232.3623314679043, -229.8957739392437, -227.41773926215217, -224.93045958913456, -222.4363478928962, -219.93798604778917, -217.43810770317234, -214.93958204313162, -212.4453974996983, -209.9586459625063, -207.4825074158778, -205.0202351049967, -202.57514122220468, -200.63714173049502])","array('d', [-247.4371337890625, -247.99097373182667, -248.47263319856802, -248.8795414592633, -249.20942849089425, -249.46022644316182, -249.63006890147864, -249.71729252015302, -249.72043883870828, -249.63825536313539, -249.46969600826458, -249.21392089844406, -248.87029557254473, -248.43838967287834, -247.91797561962855, -247.42450069336664])","array('d', [-49.97460174560547, -49.92368491487905, -49.915551800993285, -49.91913794822058, -49.91866082941786, -49.91954964300477, -49.919939040534736, -49.92047347706595, -49.92093307975605, -49.92139564426027, -49.92183614822547, -49.92226497514498, -49.92267982645928, -49.92308444262158, -49.923466688669855, -49.91958744297918])","array('d', [0.6310662031173702, 0.6457528191672928, 0.6590418200446847, 0.6710662062285397, 0.6819463214606868, 0.691791057105505, 0.7006989417968159, 0.7087591271504635, 0.7160522790722328, 0.7226513825988993, 0.7286224650382742, 0.7340252314562294, 0.7389135502732278, 0.7433352509361272, 0.7473210367353719, 0.6648488993352534])","array('d', [-0.030276102945208574, -0.010785964188960818, 0.00403220324499765, -0.001078032380745111, 0.000667222953559133, 5.4056768307104934e-05, 0.00025412373898388177, 0.00017474960404742604, 0.00019263419638932468, 0.00017766708770586563, 0.00017478417754531302, 0.00016838412603664612, 0.00016357712230528193, 0.00016017261791924242, 0.0001458629822681106, -0.00395669123259048])","array('d', [1.8087344626572466, 1.7796071873262191, 1.7496204702545832, 1.7188401271028375, 1.6873279916834356, 1.6551420165031714, 1.6223363859901545, 1.5889616426225257, 1.5550648249953118, 1.5206896161591377, 1.4858765003084233, 1.4506629263367823, 1.4150834797903546, 1.379170087383932, 1.3429526754998542, 1.3011424625921248])",-224.93045958913456,-249.46022644316182,-49.91954964300477,0.691791057105505,5.4056768307104934e-05,1.6551420165031714,25.000000239745777,-1.0,"[-247.86459034935916, -235.31601509814587, 49.9305452488036]","[-258.15990545620684, -226.6951260696556, 56.615360819121925]","[-243.57308561013295, -223.63192271441042, 58.30102744766968]",10000000000.0,0.03296947479248047
5,1.9853270053863525,-247.73220825195312,-235.4394989013672,49.98052215576172,0.6299337148666379,0.031104128807783096,1.791354269781385,23.111361225508578,"array('d', [-236.80001831054688, -234.360408578122, -231.90530103531634, -229.43699685576658, -226.9575548971636, -224.46921399457622, -221.97439300956688, -219.47567900413148, -216.9758101129786, -214.47765929524817, -211.98421803905973, -209.49858056437105, -207.02392845492545, -204.56351582096707, -202.1206549810201, -200.18476670514627])","array('d', [-247.5138397216797, -248.05699485386873, -248.52794243093203, -248.92411725164342, -249.24325551549515, -249.4832966324753, -249.64238230872837, -249.71885811201375, -249.71127521495805, -249.6183914085422, -249.43917147652124, -249.17278692996996, -248.81861514762338, -248.37623800220413, -247.84544047697355, -247.34374712281172])","array('d', [-49.976226806640625, -49.92477725474199, -49.9164773665719, -49.92010804458843, -49.9196030386519, -49.9204898529081, -49.92086897255208, -49.921396635250396, -49.92184882039856, -49.922304709260814, -49.922738750084186, -49.923161467076135, -49.923570474233756, -49.92396950439347, -49.92434641107546, -49.92046322265316])","array('d', [0.6307782530784605, 0.6454922711736939, 0.6588060664489688, 0.6708528875332028, 0.6817533027032101, 0.6916164064902297, 0.7005409113592577, 0.7086161352592993, 0.715922894590608, 0.7225343105374359, 0.728516533527171, 0.7339293797962209, 0.738826817410812, 0.7432567603116376, 0.7472499088540723, 0.6647882650582154])","array('d', [-0.030500074848532687, -0.010988622341963024, 0.004096976400944966, -0.0011056396201288945, 0.0006719805704621584, 4.788206008350374e-05, 0.00025200841971597743, 0.000171465356975876, 0.0001899739994577458, 0.00017498710113963596, 0.0001722905418796348, 0.00016598818974243414, 0.00016129582075486795, 0.00015798357798921676, 0.00014377877946122075, -0.0039585535006779185])","array('d', [1.8043451468136646, 1.775234542608454, 1.745263231437127, 1.7144971040647776, 1.682998067645582, 1.6508241460411868, 1.6180295928050643, 1.58466501707741, 1.5507775214450001, 1.5164108501107565, 1.481605545457151, 1.4463991115273636, 1.4108261859766846, 1.3749187448176607, 1.338706764006029, 1.2969021387110413])",-224.46921399457622,-249.4832966324753,-49.9204898529081,0.6916164064902297,4.788206008350374e-05,1.6508241460411868,25.00000023979317,-1.0,"[-247.86459034935916, -235.31601509814587, 49.9305452488036]","[-258.15990545620684, -226.6951260696556, 56.615360819121925]","[-243.57308561013295, -223.63192271441042, 58.30102744766968]",10000000000.0,0.02156853675842285
6,2.0055551528930664,-247.73220825195312,-235.4394989013672,49.98052215576172,0.6299337148666379,0.031104128807783096,1.791354269781385,23.111361225508578,"array('d', [-235.89346313476562, -233.44924179441634, -230.99014462758146, -228.51850833056469, -226.03640846873336, -223.54609706515683, -221.05000452672544, -218.5507280636425, -216.05101455768585, -213.5537443017487, -211.06191468708417, -208.5786243935278, -206.10705801168422, -203.65047119928636, -201.21217635432762, -199.28058456734738])","array('d', [-247.66136169433594, -248.1832503912223, -248.6328840168733, -249.0077079194564, -249.3054705778683, -249.52412578132615, -249.66183132772136, -249.71695044732752, -249.68805340109944, -249.5739183592463, -249.37353164056222, -249.0860873154794, -248.71098621782838, -248.24783444672113, -247.69644186808316, -247.1784524433582])","array('d', [-49.97920227050781, -49.92652912234531, -49.91785064983345, -49.92159083020828, -49.92102768664752, -49.92191577185313, -49.92227676601225, -49.922794102609764, -49.92323422911787, -49.92367954029258, -49.924103286503275, -49.924516334204064, -49.9249161132259, -49.92530635535216, -49.92567490242027, -49.9217855634482])","array('d', [0.6301944851875302, 0.6449640560941452, 0.658328117635801, 0.6704204215215986, 0.6813619912334166, 0.6912623331874601, 0.7002205325340107, 0.7083262444332438, 0.715660590386466, 0.7222969675930676, 0.7283017760839804, 0.7337350574749908, 0.7386509818483318, 0.7430976344456754, 0.7471057096777574, 0.6646653343889947])","array('d', [-0.031014515087008532, -0.011454107110479738, 0.004249277363019025, -0.0011667776197353868, 0.0006853652713187092, 3.593667606051788e-05, 0.0002492993359682059, 0.00016596020397949556, 0.00018580986939697783, 0.0001706912779808019, 0.00016834483417277777, 0.00016219590497726564, 0.0001577022811720318, 0.00015454411991999936, 0.00014052740745222007, -0.003961458514406831])","array('d', [1.7956214259054997, 1.7665445986737083, 1.7366045023450047, 1.705867179612245, 1.6743946860049974, 1.6422451897571813, 1.609473084301148, 1.5761291136888154, 1.5422605100311948, 1.507911141323703, 1.4731216677548178, 1.4379297050347213, 1.4023699963406246, 1.366474617523772, 1.3302736449489423, 1.2884803458890763])",-223.54609706515683,-249.52412578132615,-49.92191577185313,0.6912623331874601,3.593667606051788e-05,1.6422451897571813,25.000000239885317,-1.0,"[-247.99724415760357, -234.4203610376225, 49.93271801849369]","[-258.19841519983976, -225.72582113988355, 56.66629695793351]","[-243.58258982456417, -222.75816070113368, 58.2696185475498]",10000000000.0,0.018961668014526367
7,2.0246219635009766,-247.80108642578125,-234.98509216308594,49.98139190673828,0.6295837163925168,0.03112551942467688,1.7870857874539232,23.109055101973937,"array('d', [-235.4394989013672, -232.99308109493458, -230.53209788125872, -228.0588975802729, -225.57556340518934, -223.08435389788426, -220.58770526938972, -218.08821982788376, -215.58864884974702, -213.0918763087959, -210.6009025573823, -208.1188285110727, -205.648840267391, -203.19419426021977, -200.75820292989056, -198.8287693787357])","array('d', [-247.73220825195312, -248.2436801212251, -248.68287072626723, -249.04723227247194, -249.33451966143454, -249.54269398455665, -249.6699211521888, -249.71457326699723, -249.67523015109188, -249.55068015861855, -249.33992034858403, -249.04215602324308, -248.6567996766701, -248.18346943552677, -247.6219875041969, -247.09601589381737])","array('d', [-49.98052215576172, -49.92763586264556, -49.91888678345891, -49.922638154120285, -49.92205827591398, -49.92294018416809, -49.923291978595934, -49.92380179312321, -49.9242343704176, -49.924672651342696, -49.92508964869155, -49.925496270389985, -49.925889894055445, -49.9262742325595, -49.926637110435585, -49.92274356971737])","array('d', [0.6299337148666379, 0.6447281013286495, 0.6581146169151217, 0.6702272380620821, 0.6811871915923876, 0.6911041679119702, 0.7000774186500901, 0.708196749599148, 0.7155434185480672, 0.7221909459886515, 0.7282058434391184, 0.7336482531584808, 0.7385724353404475, 0.743026551035715, 0.7470412828802314, 0.6646104079912741])","array('d', [-0.031104128807783096, -0.011535192953100269, 0.004272141832942353, -0.0011800863470767496, 0.0006850692020141598, 3.136255047770538e-05, 0.0002464843308842985, 0.00016276391340332342, 0.000182960993392507, 0.00016791474737558123, 0.00016571974883108171, 0.0001596783938003335, 0.00015529369008935375, 0.00015222826587955713, 0.00013830632604405556, -0.003963443162626353])","array('d', [1.791354269781385, 1.7622925218064662, 1.732366361474043, 1.7016418991995688, 1.670181256657591, 1.638042666449519, 1.605280584379404, 1.5719458146635945, 1.5380856471822615, 1.5037440051504902, 1.4689616013127371, 1.4337761012035926, 1.3982222950938303, 1.3623323034276975, 1.3261362477866252, 1.2843480083978365])",-223.08435389788426,-249.54269398455665,-49.92294018416809,0.6911041679119702,3.136255047770538e-05,1.638042666449519,25.00000023992926,-1.0,"[-248.12284104004945, -233.52075105643607, 49.934711165821035]","[-258.23102327071, -224.75189006020307, 56.712006261986005]","[-243.5876122042114, -221.88151913602636, 58.238925740932785]",10000000000.0,0.017759323120117188
8,2.042606830596924,-247.86785888671875,-234.53172302246094,49.982269287109375,0.629228353500366,0.031229650601744666,1.7827198962357378,23.108018993008947,"array('d', [-234.98509216308594, -232.53651951866362, -230.0736968140989, -227.5989805411476, -225.1144603912837, -222.6224006056964, -220.12524247791222, -217.62559275422385, -215.1262065044536, -212.62997083861654, -210.13988858019408, -207.65906244307118, -205.19067964445645, -202.7379970547508, -200.30432686192023, -198.37706106549254])","array('d', [-247.80108642578125, -248.30213607236118, -248.73089119205721, -249.08481062710413, -249.36165498368794, -249.55939188908783, -249.6761946070971, -249.71044336799602, -249.66072682607424, -249.52584280735002, -249.30479841688293, -248.9968095133609, -248.60129959521362, -248.11789818083568, -247.54643919772715, -247.01257904637097])","array('d', [-49.98139190673828, -49.928454736409314, -49.91968525554936, -49.923433072903144, -49.92284393497023, -49.92371939236724, -49.924064284532335, -49.924567899764625, -49.92499450494536, -49.925427169756304, -49.925838819637434, -49.92624035783632, -49.92662913150208, -49.92700883237818, -49.92736728309717, -49.92347047534941])","array('d', [0.6295837163925168, 0.6444114095840465, 0.6578280623480903, 0.6699679527428313, 0.6809525805097841, 0.6908918830010871, 0.6998853352903349, 0.7080229453464858, 0.715386153885196, 0.7220486468911985, 0.7280770855537958, 0.733531747322851, 0.7384670137537529, 0.7429311499268674, 0.7469548515833215, 0.6645367191478744])","array('d', [-0.03112551942467688, -0.011554547977779545, 0.004274807681155703, -0.0011854607098599125, 0.0006829809629541048, 2.8306252683076167e-05, 0.00024400912470821202, 0.0001602798315937932, 0.00018066425892255693, 0.00016571694017899672, 0.00016363765153189883, 0.00015769209330280024, 0.00015339847128228767, 0.00015041206391113108, 0.0001365793137967144, -0.003964986278374457])","array('d', [1.7870857874539232, 1.75804426971544, 1.7281368063770828, 1.6974295986105143, 1.6659848567379132, 1.633860899632908, 1.6011122667040318, 1.5677898428205967, 1.5339409953114687, 1.499609721428219, 1.4648368043844684, 1.4296599765211688, 1.3941140912387675, 1.358231328662622, 1.3220418697433105, 1.2802604174753545])",-222.6224006056964,-249.55939188908783,-49.92371939236724,0.6908918830010871,2.8306252683076167e-05,1.633860899632908,25.000000239972454,-1.0,"[-248.18321627668072, -233.06599589063336, 49.935432425335335]","[-258.24292704560094, -224.25884484173878, 56.735161070481865]","[-243.58565572732502, -221.43851557139516, 58.2218151355857]",10000000000.0,0.016748666763305664
9,2.0624563694000244,-247.86785888671875,-234.53172302246094,49.982269287109375,0.629228353500366,0.031229650601744666,1.7827198962357378,23.108018993008947,"array('d', [-234.53172302246094, -232.0809963634564, -229.61633839952012, -227.14011711078618, -224.65442922256676, -222.16154487744407, -219.66391057269826, -217.16413759316225, -214.66498487985743, -212.1693427370244, -209.68021649708163, -207.20071069028813, -204.7340136520053, -202.28338266833097, -199.8521296349336, -197.9271151795415])","array('d', [-247.86785888671875, -248.3582380483755, -248.77631089241436, -249.11954244801953, -249.3856991239163, -249.5727552611082, -249.67889168028117, -249.7024969581636, -249.6421688138078, -249.49671478964473, -249.26515229170568, -248.94670799885805, -248.54081668494527, -248.04711953701414, -247.4654624871529, -246.92354033494132])","array('d', [-49.982269287109375, -49.92908444286299, -49.920236431712084, -49.92400288731825, -49.92339894020293, -49.92427186484766, -49.92461043073052, -49.92510950189452, -49.92553135051546, -49.925959704865285, -49.92636722508696, -49.92676487603593, -49.92714995586354, -49.92752614566737, -49.92788126847112, -49.923982017338425])","array('d', [0.629228353500366, 0.6440898639128363, 0.6575371157662246, 0.6697046933638197, 0.6807143735487998, 0.6906763444044213, 0.6996903078732791, 0.7078464771995033, 0.7152264788288576, 0.7219041667746505, 0.7279463541889086, 0.7334134557770243, 0.7383599762877682, 0.7428342862670032, 0.7468670926830079, 0.6644618957989551])","array('d', [-0.031229650601744666, -0.011648769758318163, 0.004304141798964554, -0.0011991661430598673, 0.000684583676632404, 2.4763179226147917e-05, 0.0002424579436405315, 0.00015820450183423663, 0.00017892867322116847, 0.00016400378279783647, 0.00016204506987634406, 0.00015617363838151883, 0.00015196051274786603, 0.00014904006410894468, 0.0001352876408629154, -0.003966140309734149])","array('d', [1.7827198962357378, 1.7536989085985595, 1.7238104200348108, 1.6931207237007428, 1.6616921197725327, 1.6295830145780044, 1.596848032284102, 1.5635381395348114, 1.5297007821930118, 1.495380032591904, 1.4606167454160999, 1.4254487207692428, 1.3899108760920147, 1.35403545206366, 1.3178526899608245, 1.2760781282461495])",-222.16154487744407,-249.5727552611082,-49.92427186484766,0.6906763444044213,2.4763179226147917e-05,1.6295830145780044,25.00000024001643,-1.0,"[-248.18321627668072, -233.06599589063336, 49.935432425335335]","[-258.24292704560094, -224.25884484173878, 56.735161070481865]","[-243.58565572732502, -221.43851557139516, 58.2218151355857]",10000000000.0,0.01887679100036621
10,2.086059331893921,-248.05613708496094,-233.16864013671875,49.984275817871094,0.6291239857673643,0.031268086284399026,1.7701011757042744,23.108191547267513,"array('d', [-233.62350463867188, -231.168652873474, -228.70049085775642, -226.22141424553428, -223.73353701013735, -221.23914388053817, -218.74069426788478, -216.24081080181037, -213.7422621972999, -211.2479469519817, -208.76087700313647, -206.28416189351813, -203.8209933786655, -201.3746305760921, -198.9483856251626, -197.02802112218748])","array('d', [-247.99545288085938, -248.46467914534063, -248.86153229894995, -249.1834927159521, -249.42834151031704, -249.59406948188723, -249.6788755108968, -249.68116772030075, -249.59956471685626, -249.43289613571704, -249.18020254374338, -248.84073471575383, -248.4139523269995, -247.89952214632063, -247.29731625306582, -246.7391401225248])","array('d', [-49.9837760925293, -49.93000645995145, -49.92097629726576, -49.924792265385136, -49.92415794809501, -49.92502934141539, -49.92535716028734, -49.925849469398315, -49.926263859806234, -49.926685627691654, -49.92708682704837, -49.92747858196796, -49.92785808913278, -49.92822901772822, -49.92857919829785, -49.92467634174719])","array('d', [0.6288743019104002, 0.6437695047567612, 0.6572472427872054, 0.6694424054197666, 0.6804770455761115, 0.6904616011439568, 0.6994960000945095, 0.7076706601822245, 0.7150673928802159, 0.7217602195670184, 0.7278161046796368, 0.7332955993132748, 0.738253329596839, 0.7427377637041768, 0.7467795256918367, 0.66438723558668])","array('d', [-0.03147551789879803, -0.011871239680255122, 0.004375975429523683, -0.001229682121080318, 0.0006902007364971467, 1.8125493834387025e-05, 0.00024042126634015714, 0.00015485346282623913, 0.00017630107336418982, 0.00016136244034465597, 0.00015962601214328294, 0.0001538738823421162, 0.00014979981856719202, 0.00014698994661330064, 0.0001333815672937912, -0.003967843080432731])","array('d', [1.7740865657713747, 1.745086022266725, 1.7152164296639338, 1.6845441726020038, 1.6531316406274006, 1.6210373270593206, 1.588315940383209, 1.5550185286021854, 1.5211926157231448, 1.486882348797928, 1.452128653649547, 1.416969397853117, 1.3814395626843177, 1.3455714495161932, 1.309395363853517, 1.267627676700429])",-221.23914388053817,-249.59406948188723,-49.92502934141539,0.6904616011439568,1.8125493834387025e-05,1.6210373270593206,25.00000024010242,-1.0,"[-248.29814223482487, -232.15512090220682, 49.93657061105858]","[-258.2614276170424, -223.2753014146245, 56.78359553144874]","[-243.57759025239187, -220.55430826117643, 58.191116937105676]",10000000000.0,0.019352436065673828
11,2.1053600311279297,-248.11468505859375,-232.71322631835938,49.98420333862305,0.6297451257705686,0.03061719983816142,1.7663564542916155,23.11311281292761,"array('d', [-233.16864013671875, -230.71192409340534, -228.242190600634, -225.76183982471383, -223.27299583820056, -220.77795326951448, -218.27918059468897, -215.77930849496403, -213.2811127338098, -210.78749784741063, -208.3014808104379, -205.8261752107769, -203.36477586990523, -200.92054400711044, -198.49679291361062, -196.57873991850218])","array('d', [-248.05613708496094, -248.51556013325256, -248.90252150710424, -249.214515056958, -249.44933281792046, -249.60497699509534, -249.67965849801467, -249.67179807771754, -249.58002749605996, -249.40319000271555, -249.1403401704741, -248.7907431058763, -248.3538730783489, -247.82941165290814, -247.21724585229126, -246.65117789320107])","array('d', [-49.984275817871094, -49.930999555277104, -49.922111682680445, -49.9258659088507, -49.92524030500682, -49.926096976016034, -49.92641870097492, -49.92690251541177, -49.92730974253637, -49.92772435532927, -49.92811882286276, -49.92850409046117, -49.92887738389475, -49.929242329470945, -49.9295867590029, -49.92567963842628])","array('d', [0.6291239857673643, 0.6439954280734699, 0.6574516666758198, 0.6696273758190686, 0.6806444137275911, 0.6906130421189146, 0.6996330295570885, 0.7077946495548884, 0.7151795830602028, 0.7218617333218226, 0.7279079578160279, 0.733378710619363, 0.7383285291079653, 0.7428057953248303, 0.7468409734153597, 0.6644396358674309])","array('d', [-0.031268086284399026, -0.011683547785251963, 0.0043064117254721975, -0.0012109845990443443, 0.0006789731851028457, 1.7399999839980978e-05, 0.00023632781411599867, 0.0001521283490669466, 0.00017330016130600958, 0.00015863472094195864, 0.00015696712466634047, 0.00015134081387672724, 0.00014736034061554467, 0.00014464149044985354, 0.00013112761596037389, -0.003969857196613467])","array('d', [1.7701011757042744, 1.741086215670854, 1.7112032981923568, 1.6805187434093218, 1.649094877858522, 1.6169901335260566, 1.5842591594482998, 1.550952946265846, 1.5171189628911994, 1.4828013037013235, 1.4480408443816088, 1.41287540499488, 1.377339922014263, 1.3414666549767489, 1.305285873773884, 1.263513362321185])",-220.77795326951448,-249.60497699509534,-49.926096976016034,0.6906130421189146,1.7399999839980978e-05,1.6169901335260566,25.000000240141453,-1.0,"[-248.35297390089963, -231.69905216324517, 49.93738133071989]","[-258.2715960020815, -222.7868540348052, 56.8071455285201]","[-243.57571626734563, -220.11514422316236, 58.18303996653162]",10000000000.0,0.01802372932434082
12,2.1258273124694824,-248.1710205078125,-232.25723266601562,49.983951568603516,0.630818426609039,0.029635475948452904,1.7628049562361578,23.11743671995225,"array('d', [-232.71322631835938, -230.25476690152433, -227.78357783912904, -225.30205017004226, -222.81231876513985, -220.31669039767482, -217.81764493882574, -215.317823247245, -212.82001006581, -210.32711770010965, -207.84216970484363, -205.36828507661778, -202.90866289888595, -200.46656753275388, -198.04531431734597, -196.1295754028282])","array('d', [-248.11468505859375, -248.5648664448015, -248.9424470939545, -249.24494045653242, -249.4701528230245, -249.61610071843177, -249.68100983924313, -249.66331620161426, -249.56166723927404, -249.3749222128639, -249.10215197698932, -248.74263812537444, -248.29587155739702, -247.76155055161266, -247.1395788749453, -246.5657285335701])","array('d', [-49.98420333862305, -49.93247520385517, -49.92404389677149, -49.92762189049591, -49.92703842695341, -49.927863030636885, -49.9281790154626, -49.92864876419605, -49.929045471971044, -49.92944896663443, -49.929833096851716, -49.93020828506002, -49.93057189597138, -49.930927465688505, -49.93126284546952, -49.927348998862335])","array('d', [0.6297451257705686, 0.6445574588409465, 0.6579602131900015, 0.6700875277747387, 0.6810607764708755, 0.6909897827383928, 0.6999739185878315, 0.7081030987116184, 0.7154586793741079, 0.722114270013822, 0.728136462187046, 0.7335854691284907, 0.7385156093595315, 0.7429750612678454, 0.7469940255391994, 0.6645701300849242])","array('d', [-0.03061719983816142, -0.011094601360415672, 0.004096065018290647, -0.0011462140519052206, 0.0006494872775355071, 2.0685354053019988e-05, 0.00022863351577770457, 0.00014850221941904073, 0.0001685298976568889, 0.0001544998807965747, 0.00015283211461245228, 0.00014740892328881202, 0.00014354428093602605, 0.00014095470584255595, 0.0001275724036853636, -0.003973034382682444])","array('d', [1.7663564542916155, 1.7373056081812595, 1.707389523387029, 1.676674359246331, 1.6452222852184255, 1.6130915804084254, 1.5803367456859476, 1.5470086287429563, 1.5131545612118182, 1.4788185062312444, 1.4440412145761965, 1.40886038792749, 1.3733108510475744, 1.3374247586987458, 1.3012322861349044, 1.2594477570484393])",-220.31669039767482,-249.61610071843177,-49.927863030636885,0.6909897827383928,2.0685354053019988e-05,1.6130915804084254,25.00000024017788,-1.0,"[-248.35471914392858, -231.68403266252565, 49.93741110483115]","[-258.2719628560546, -222.7708356675094, 56.807869348815395]","[-243.5757077132432, -220.10079713322247, 58.182998071085706]",10000000000.0,0.0187838077545166
13,2.143284797668457,-248.1710205078125,-232.25723266601562,49.983951568603516,0.630818426609039,0.029635475948452904,1.7628049562361578,23.11743671995225,"array('d', [-232.25723266601562, -229.79712958306183, -227.3245760453088, -224.84194633141797, -222.35138843633354, -219.85522438604733, -217.35594846406585, -214.85621444681473, -212.35881853247656, -209.86668300788457, -207.38283996891474, -204.91041554335973, -202.45261457458489, -200.01270585338384, -197.59400785945505, -195.680635997374])","array('d', [-248.1710205078125, -248.61239895679088, -248.98097631082246, -249.27429152384963, -249.49016921749632, -249.62664402219195, -249.6819600568419, -249.65457210610435, -249.54314664495865, -249.3465621783057, -249.06390893798522, -248.69448796118073, -248.2378095938718, -247.6935915054335, -247.06175674596454, -246.4800633415094])","array('d', [-49.983951568603516, -49.93455849364406, -49.92681702496724, -49.930131561200376, -49.92961371363964, -49.930391783884716, -49.930700862167996, -49.93115098782927, -49.93153332154932, -49.93192142866707, -49.93229125751092, -49.93265244689684, -49.93300258028485, -49.933345065536365, -49.93366778522712, -49.92974451624977])","array('d', [0.630818426609039, 0.6455286216882523, 0.6588389577525566, 0.6708826488071719, 0.6817802317964659, 0.6916407728928865, 0.7005629588832751, 0.7086360844402978, 0.7159409448021569, 0.7225506417463143, 0.7285313074109218, 0.7339427391102386, 0.738838878113362, 0.7432675559350893, 0.747258581645288, 0.6647956778651254])","array('d', [-0.029635475948452904, -0.01020630083980693, 0.0037797484518283424, -0.0010475864972276652, 0.0006057278242729636, 2.639284568746752e-05, 0.00021767874976679898, 0.00014365661457587978, 0.00016190592521163235, 0.00014879842720872598, 0.0001470930960226719, 0.00014194430625994624, 0.00013822446344681987, 0.00013580412700778857, 0.00012259206860875383, -0.0039774853357009326])","array('d', [1.7628049562361578, 1.733692026555456, 1.70371856637102, 1.672950455976497, 1.6414495923004702, 1.6092739892564247, 1.5764778907618089, 1.5431118966675925, 1.5092231006519246, 1.4748552384257863, 1.440048844348435, 1.4048414150288815, 1.3692675817105644, 1.3333593174633083, 1.297146630881616, 1.255341322830051])",-219.85522438604733,-249.62664402219195,-49.930391783884716,0.6916407728928865,2.639284568746752e-05,1.6092739892564247,25.000000240212717,-1.0,"[-248.4571413103103, -230.78544484958638, 49.93950486131901]","[-258.2939592275994, -221.81568283257934, 56.85184040152239]","[-243.57608106330684, -219.2467816548895, 58.18780787130052]",10000000000.0,0.015735387802124023
14,2.1831579208374023,-248.2772216796875,-231.34361267089844,49.98310089111328,0.6346886157989499,0.026161992922425287,1.756257162490163,23.130255396637683,"array('d', [-231.34361267089844, -228.88047659198546, -226.40543116732204, -223.9207867588431, -221.4287280294862, -218.9316198812059, -216.4319972703198, -213.93255052967865, -211.43610842457508, -208.94562180271978, -206.4641474368107, -203.99483235615375, -201.54089866421168, -199.1056289099578, -196.69235197012438, -194.78400493626285])","array('d', [-248.2772216796875, -248.70222809943377, -249.05379395744788, -249.3295324069015, -249.52732072106275, -249.64524482549754, -249.68160023085233, -249.63489331475768, -249.50384218807073, -249.28737688402308, -248.98463890607968, -248.59498016594938, -248.11796135725922, -247.55334985170478, -246.90111765555181, -246.30314761182794])","array('d', [-49.98310089111328, -49.94196993812391, -49.93667070345733, -49.939056574327296, -49.93877405206978, -49.93939001120647, -49.93967709120669, -49.94005985367282, -49.94039319991333, -49.940728493413985, -49.941049159559675, -49.94136207099096, -49.94166560419705, -49.941962729238355, -49.94224141303088, -49.93828529894266])","array('d', [0.6346886157989499, 0.6490305139993112, 0.6620076012363069, 0.6737497562546283, 0.6843744981293677, 0.6939881623505367, 0.7026869648783522, 0.7105579646821714, 0.7176799340350946, 0.7241241442150248, 0.7299550709255304, 0.7352310122448711, 0.7400045510862023, 0.7443222789496229, 0.7482127277369713, 0.6656089238626886])","array('d', [-0.026161992922425287, -0.007063363483892118, 0.002661721464295115, -0.0006969935180569176, 0.0004518113475267877, 4.769739090520829e-05, 0.00017976348234214948, 0.00012732132852226732, 0.00013915819982012885, 0.00012924202121373756, 0.00012732290956047476, 0.00012307706564539982, 0.00011980410280165968, 0.00011792725108541148, 0.0001052316054568449, -0.0039930010594612705])","array('d', [1.756257162490163, 1.7269195826003993, 1.696738558613415, 1.6657789519606865, 1.6341016650268017, 1.6017637446008268, 1.5688184981985878, 1.5353156231424916, 1.501301347223162, 1.4668185791579178, 1.431907066884602, 1.396603562267599, 1.3609419940912704, 1.3249536757846223, 1.2886680057010742, 1.2467876925659862])",-218.9316198812059,-249.64524482549754,-49.93939001120647,0.6939881623505367,4.769739090520829e-05,1.6017637446008268,25.000000240278975,-1.0,"[-248.4602747190042, -230.75574500786254, 49.93964678922221]","[-258.2947243583517, -221.78446455004533, 56.853381470154424]","[-243.5761901861791, -219.2192245053409, 58.18915665169987]",10000000000.0,0.01639389991760254
15,2.2087247371673584,-248.3754425048828,-230.404296875,49.98161315917969,0.6408757567405696,0.02097448334097857,1.7498162100699282,23.148601491313997,"array('d', [-230.88597106933594, -228.42137622588095, -225.9451359248789, -223.45952393971177, -220.96675128570405, -218.46921131747777, -215.9694657043042, -213.47022878922434, -210.97435074456348, -208.48480123150043, -206.00465333179625, -203.5370679622318, -201.08527879001568, -198.65257770545804, -196.24230080627922, -194.33673439352424])","array('d', [-248.3266143798828, -248.74359772124248, -249.08669793439404, -249.35357563230474, -249.54214282382833, -249.65051938145302, -249.67703459521874, -249.62022848728023, -249.47885258877972, -249.25187004471928, -248.93845508010557, -248.5379918620251, -248.05007280455447, -247.474496403567, -246.81126514265029, -246.20449385189022])","array('d', [-49.98263168334961, -49.9471613592717, -49.943535289384144, -49.94528516217168, -49.94516410458111, -49.94566909157674, -49.945941194080106, -49.94627782194532, -49.94657759079235, -49.94687663902915, -49.94716352599204, -49.94744322937608, -49.94771467412278, -49.94798053321942, -49.94822885579496, -49.944250101100884])","array('d', [0.6375004649162289, 0.6515747805250168, 0.6643097489987803, 0.6758328258805346, 0.6862593376414218, 0.6956936358206601, 0.7042301412240966, 0.7119542884948463, 0.7189433801463636, 0.7252673575403962, 0.73098949295657, 0.7361669953491484, 0.7408514612308432, 0.7450885839610852, 0.7489060047863105, 0.6661995937247376])","array('d', [-0.023782318457961055, -0.0049101451573209005, 0.0018957466056131324, -0.00045660601666150467, 0.0003463647901369116, 6.23625297773131e-05, 0.0001537942088510326, 0.00011613629072791234, 0.00012355502615235453, 0.00011581271925576452, 0.00011373156832024874, 0.00011009185735037943, 0.0001071136263226833, 0.0001055989290692239, 9.326491726421263e-05, -0.004003696376487402])","array('d', [1.7530779103424883, 1.7235763356554594, 1.69324383964204, 1.6621445307529132, 1.6303385769330698, 1.5978823114386707, 1.5648283516070596, 1.5312257302256778, 1.4971200381712328, 1.4625535764484519, 1.4275655156319298, 1.3921920612929097, 1.3564666273383221, 1.3204200439467286, 1.2840812612048247, 1.2421463877166858])",-218.46921131747777,-249.65051938145302,-49.94566909157674,0.6956936358206601,6.23625297773131e-05,1.5978823114386707,25.000000240312815,-1.0,"[-248.5546784853017, -229.8600768067527, 49.9439284936212]","[-258.3173845767732, -220.84360611868632, 56.90042373927369]","[-243.5794524967034, -218.38893009506452, 58.23005662932498]",10000000000.0,0.01786065101623535
16,2.226956605911255,-248.41978454589844,-229.9414825439453,49.98081970214844,0.6443263888359065,0.018016269430518136,1.7466816763069963,23.15712504221145,"array('d', [-230.404296875, -227.93822964653987, -225.46078175647693, -222.97419254601854, -220.48070639579302, -217.98275014113847, -215.48291652669013, -212.9839477950878, -210.48871897024537, -208.00022154858001, -205.5215475393233, -203.0558739832951, -200.60644798822187, -198.17657232521537, -195.76959153720298, -193.86707769064625])","array('d', [-248.3754425048828, -248.7841521863671, -249.1184554506464, -249.37606661581, -249.5549381465249, -249.6532297250554, -249.66931017799922, -249.60175878476716, -249.44936595540946, -249.2111332430224, -248.88627272179738, -248.4742057679414, -247.97456129195817, -247.38717350956313, -246.71207979606535, -246.0958057891339])","array('d', [-49.98161315917969, -49.952822183985624, -49.95117281697305, -49.95217626015579, -49.95224901913842, -49.952626380452784, -49.9528839363616, -49.95316913572005, -49.95343216833281, -49.95369121988586, -49.95394091534443, -49.9541840038714, -49.95442006405099, -49.95465142535962, -49.95486621905888, -49.95086244337324])","array('d', [0.6408757567405696, 0.6546288711412172, 0.6670732047168123, 0.6783333042438054, 0.688521864232076, 0.6977408547230786, 0.7060825416528602, 0.7136304098541733, 0.7204599975702053, 0.7266396497610683, 0.7322311941523416, 0.7372905323759108, 0.7418680770433324, 0.746008444225092, 0.749738215069498, 0.6669084151512068])","array('d', [-0.02097448334097857, -0.002369511372602379, 0.0009939084897873708, -0.00017170906149405643, 0.00022332627137249951, 8.093809685250703e-05, 0.00012438189946315884, 0.00010411566680586258, 0.00010627440986171003, 0.0001010539196535405, 9.874103028112759e-05, 9.577920110178962e-05, 9.31134161047668e-05, 9.19943082570777e-05, 8.00400970394086e-05, -0.004015516216175681])","array('d', [1.7498162100699282, 1.7201169051308682, 1.6896018340529504, 1.6583341868286177, 1.6263732362529988, 1.5937744466920065, 1.5605895958322156, 1.5268669087879123, 1.4926512030683288, 1.4579840424436024, 1.4229038976802648, 1.387446312740681, 1.3516440784387656, 1.3155274405104234, 1.279124806875365, 1.2371243685273596])",-217.98275014113847,-249.6532297250554,-49.952626380452784,0.6977408547230786,8.093809685250703e-05,1.5937744466920065,25.000000240348122,-1.0,"[-248.6424815639047, -228.92859350170284, 49.95015374093809]","[-258.3336245195469, -219.87431273712718, 56.95741768983724]","[-243.57659078657537, -217.54824116308504, 58.30624919761435]",10000000000.0,0.01703333854675293
17,2.2471213340759277,-248.41978454589844,-229.9414825439453,49.98081970214844,0.6443263888359065,0.018016269430518136,1.7466816763069963,23.15712504221145,"array('d', [-229.9414825439453, -227.47403506880457, -224.9954537376122, -222.50795085702558, -220.0138076736058, -217.51548529110678, -215.01560785440526, -212.5169457422546, -210.02239899725546, -207.53498106893304, -205.05780296799801, -202.59405789746853, -200.1470064141254, -197.71996215484987, -195.31627807456277, -193.41681252963974])","array('d', [-248.41978454589844, -248.820520038727, -249.14631711473453, -249.3949430461158, -249.564391226368, -249.6528619774222, -249.6587644689797, -249.58071797265094, -249.4175524404055, -249.16830842564335, -248.8322363755984, -248.40879533393354, -247.89765110351888, -247.29867395682533, -246.61193644224954, -245.98633193978588])","array('d', [-49.98081970214844, -49.95906602717744, -49.95949825424609, -49.959713758066506, -49.959989434003965, -49.960231010989666, -49.96047198569477, -49.960701760673025, -49.960924879692435, -49.96114060186051, -49.96134994368805, -49.96155330241549, -49.961750943888454, -49.961944833716345, -49.962123191461735, -49.95809221986983])","array('d', [0.6443263888359065, 0.6577511324598905, 0.6698983438428724, 0.6808895960678438, 0.6908348929351444, 0.6998337698308442, 0.7079762897222269, 0.7153439441100283, 0.7220104675873412, 0.728042573080739, 0.7335006115217864, 0.7384391480513439, 0.742907384999413, 0.7469488373524967, 0.7505890059855976, 0.667632794687063])","array('d', [-0.018016269430518136, 0.000307189828860857, 4.29990535800984e-05, 0.00012798624569441682, 9.313587611092858e-05, 0.00010001101977094793, 9.288757598335013e-05, 9.09644861503858e-05, 8.758707011576317e-05, 8.503326586578865e-05, 8.248274343349527e-05, 8.024162525383819e-05, 7.791044423261328e-05, 7.721305890339271e-05, 6.566579019205529e-05, -0.004028363539754283])","array('d', [1.7466816763069963, 1.7167792309982088, 1.686076654205887, 1.6546361800190668, 1.6225161504352152, 1.5897711272568316, 1.5564520169217575, 1.5226062073873754, 1.4882777154167204, 1.4535073422257896, 1.4183328354399114, 1.3827890559742648, 1.3469081519024086, 1.3107197665498487, 1.274251749246571, 1.2321842031363721])",-217.51548529110678,-249.6528619774222,-49.960231010989666,0.6998337698308442,0.00010001101977094793,1.5897711272568316,25.00000024038236,-1.0,"[-248.68221179464237, -228.46486421150092, 49.95379675993598]","[-258.33799009743933, -219.3929604184428, 56.987039748538976]","[-243.57180677299536, -217.1346902436167, 58.35087472624088]",10000000000.0,0.018558263778686523
18,2.30653977394104,-248.53778076171875,-228.5512237548828,49.980777740478516,0.6556470990180967,0.0075860163196921,1.7368322769787652,23.18532564082193,"array('d', [-229.0149383544922, -226.5447504916037, -224.06389966904948, -221.57458804298346, -219.07918176361312, -216.58021600248114, -214.08038166785778, -211.5825088331406, -209.08955044122825, -206.60456623563664, -204.13070716339695, -201.67120026855815, -199.22933413619694, -196.80844490937068, -194.41190281394165, -192.51902188651064])","array('d', [-248.5009765625, -248.88502674833418, -249.19300486296314, -249.42278376356083, -249.57244493003077, -249.6402767933378, -249.62477595883, -249.52464822883647, -249.33880897297345, -249.0663828576583, -248.70670296210668, -248.25930932160537, -247.7239469501634, -247.1005634305683, -246.38930662725463, -245.74405672973097])","array('d', [-49.980289459228516, -49.97150663769519, -49.974770736728004, -49.97387928225841, -49.9744094139644, -49.974441308746876, -49.97463711741066, -49.97476915487678, -49.97491654800614, -49.97505250367149, -49.97518676561718, -49.975316450531864, -49.97544272350786, -49.97556700462869, -49.9756776158249, -49.9715960592293])","array('d', [0.6517148017883299, 0.6644364455649738, 0.6759474658398832, 0.6863630684929859, 0.6957874960401296, 0.7043150708400794, 0.7120311389148004, 0.7190129236889935, 0.7253302978220981, 0.7310464797679498, 0.7362186583789706, 0.740898537123683, 0.7451327268627067, 0.748962384656565, 0.7524106914966027, 0.6691828640711253])","array('d', [-0.011251942254602895, 0.00397164055446053, -0.001272868656923265, 0.0005296356119000073, -9.510826903350459e-05, 0.0001170843002029666, 4.083462592276486e-05, 6.440219211154944e-05, 5.36909945470071e-05, 5.505085187763631e-05, 5.2402877739029934e-05, 5.136241125039973e-05, 4.968397071501786e-05, 4.973999576291443e-05, 3.892931796682818e-05, -0.004052259921422668])","array('d', [1.7401395897057395, 1.709798741122638, 1.6786917297688204, 1.6468786828678952, 1.6144158941224485, 1.5813559426105621, 1.547747824259548, 1.5136370945424429, 1.479066020471135, 1.444073739721181, 1.408696424822101, 1.3729674510989789, 1.3369175706027003, 1.3005751198865134, 1.2639667381732151, 1.2217552341425408])",-216.58021600248114,-249.6402767933378,-49.974441308746876,0.7043150708400794,0.0001170843002029666,1.5813559426105621,25.0000002404544,-1.0,"[-248.75376312331946, -227.53648845587182, 49.96341190198578]","[-258.3352084504708, -218.42662891410325, 57.049056867128854]","[-243.5507094642671, -216.31582855653582, 58.4501677040844]",10000000000.0,0.040073394775390625
19,2.33101224899292,-248.6035919189453,-227.62295532226562,49.9832763671875,0.6636536717414852,1.3072170077050125e-05,1.7297911802914478,23.201418310253,"array('d', [-228.5512237548828, -226.0797145388786, -223.59775410611954, -221.10757496001565, -218.61158389174906, -216.1123548151319, -213.61261369946192, -211.1152219781278, -208.62316030166005, -206.1395125985399, -203.66745061301043, -201.21021894986134, -198.7711206757784, -196.35350349778213, -193.96074644593708, -192.07134603259254])","array('d', [-248.53778076171875, -248.9133677483388, -249.21228262350553, -249.4324491372138, -249.57199682740057, -249.629261528125, -249.60278675353752, -249.49132462850324, -249.29383615848516, -249.00949086195476, -248.63766579779875, -248.1779440299076, -247.63011258141037, -246.99415996707, -246.27027386242852, -245.61490418237833])","array('d', [-49.980777740478516, -49.97488423292615, -49.97712903862883, -49.97656445193315, -49.97695890702907, -49.977015363418396, -49.977181326498034, -49.97730305313948, -49.9774341032093, -49.97755645781448, -49.97767677806258, -49.97779320080819, -49.97790649550988, -49.97801817619433, -49.978116553046995, -49.974025902630984])","array('d', [0.6556470990180967, 0.6679945355597576, 0.6791669590957207, 0.6892761867220119, 0.6984233946555312, 0.7067001307522404, 0.7141892305585332, 0.7209656459230586, 0.7270971940885488, 0.7326452336646209, 0.7376652705694243, 0.7422074852273437, 0.7463171092925749, 0.7500340451571874, 0.7533802466529345, 0.6700073744077821])","array('d', [-0.0075860163196921, 0.002699599825000149, -0.0008446292678527257, 0.00037265318742373, -5.0037782990138284e-05, 9.281974598660339e-05, 4.0818205804548765e-05, 5.6304759925174465e-05, 4.8662778552585244e-05, 4.921174704464051e-05, 4.7080012633617734e-05, 4.607495045532788e-05, 4.4585656551671544e-05, 4.475605243049011e-05, 3.412282474994928e-05, -0.00405655584701293])","array('d', [1.7368322769787652, 1.7062561522475583, 1.6749322244776865, 1.6429194646678063, 1.610273044428887, 1.5770444587262933, 1.5432816608743485, 1.5090292082160441, 1.4743284164475603, 1.439217520381317, 1.4037318390927316, 1.3679039441880625, 1.3317638335324047, 1.295339138626344, 1.2586558462565562, 1.2163675739027378])",-216.1123548151319,-249.629261528125,-49.977015363418396,0.7067001307522404,9.281974598660339e-05,1.5770444587262933,25.000000240490962,-1.0,"[-248.7607312257192, -227.43510505607412, 49.96471997553643]","[-258.33394306887527, -218.32112538907884, 57.056192998516444]","[-243.54749810343696, -216.22717106860424, 58.46203814924612]",10000000000.0,0.02115488052368164
20,2.351155996322632,-248.6035919189453,-227.62295532226562,49.9832763671875,0.6636536717414852,1.3072170077050125e-05,1.7297911802914478,23.201418310253,"array('d', [-228.0872344970703, -225.61440565932634, -223.13134066668854, -220.6403093927888, -218.14376071305836, -215.64430790815788, -213.1447124418276, -210.6478674182679, -208.15678140730986, -205.67456264493504, -203.20440371610042, -200.7495667593424, -198.31336923333936, -195.8991702638094, -193.5103574901149, -191.62457613958964])","array('d', [-248.57199096679688, -248.93887069456483, -249.22846907265355, -249.43876104397268, -249.5679254856817, -249.61434697725062, -249.57661724211326, -249.4535359764649, -249.24411101626396, -248.94755787213157, -248.5632986683998, -248.09096052978813, -247.53037346839292, -246.88156785989116, -246.14477207092173, -245.47906215901054])","array('d', [-49.98165512084961, -49.97874174856859, -49.97993197619552, -49.979702441554416, -49.979954605939014, -49.98003425159612, -49.98016731739667, -49.98027638038522, -49.98038860068179, -49.98049501226394, -49.98059908776839, -49.98070001201288, -49.9807981385634, -49.980895073049915, -49.98097904758512, -49.976877632031474])","array('d', [0.6596262454986569, 0.6715950165135042, 0.6824248092808818, 0.6922240117390542, 0.7010906972741787, 0.7091136061840431, 0.716373033629651, 0.7229416328198721, 0.7288851410919351, 0.7342630350514264, 0.7391291176268978, 0.743532028036866, 0.7475156022298448, 0.7511184725506703, 0.7543613429480802, 0.6708413066765998])","array('d', [-0.0038028382696211976, 0.0013855840095919354, -0.0004035553431779894, 0.000209697352668559, -4.394369994573722e-06, 6.692120920469867e-05, 3.998084911363726e-05, 4.7149946133419215e-05, 4.270051574198959e-05, 4.243320860586127e-05, 4.085354652481552e-05, 3.990172743785987e-05, 3.862088113956792e-05, 3.8921693339473896e-05, 2.843291838097633e-05, -0.004061641262560364])","array('d', [1.733430759110723, 1.7026151539066288, 1.6710705280365694, 1.6388546566960789, 1.6060215525438253, 1.5726215923830977, 1.5387016556765134, 1.5043052731390831, 1.469472783275829, 1.4342414946329816, 1.398645851732451, 1.3627176034888648, 1.3264859765593817, 1.2899778821662755, 1.2532186414373447, 1.2108525805764392])",-215.64430790815788,-249.61434697725062,-49.98003425159612,0.7091136061840431,6.692120920469867e-05,1.5726215923830977,25.00000024052841,-1.0,"[-248.8410806462973, -226.14187493822288, 49.983256758932384]","[-258.3031952765039, -216.97329580395433, 57.153022681435395]","[-243.49239143607636, -215.10236660540795, 58.615798650065955]",10000000000.0,0.019042253494262695
21,2.3712825775146484,-248.6590118408203,-226.69369506835938,49.989013671875,0.6717779040336606,-0.0072893472388387325,1.7218791852381568,23.216989743354684,"array('d', [-227.62295532226562, -225.14876046974868, -222.66455857430395, -220.17266482901792, -217.67557198713956, -215.17593355309535, -212.67654711330482, -210.18033791256337, -207.6903427783682, -205.20969447123613, -202.74160652353876, -200.2893586130406, -197.85628250323074, -195.44574856629328, -193.06115280018264, -191.1792309596518])","array('d', [-248.6035919189453, -248.96116389106052, -249.24083438366986, -249.440630187411, -249.55878121273636, -249.59372256144357, -249.54409591704612, -249.40875026000248, -249.1867419273522, -248.8773340477084, -248.479995390293, -247.99439867263646, -247.42041837974148, -246.75812818388795, -246.00779853061158, -245.33125676618195])","array('d', [-49.9832763671875, -49.98334500663127, -49.983473462264634, -49.98357509336333, -49.98368020258762, -49.98377880804899, -49.98387477030857, -49.98396714883946, -49.9840566295759, -49.984143310769944, -49.984227458400234, -49.98430929885515, -49.98438876019188, -49.984467531644505, -49.98453376167273, -49.98041907895559])","array('d', [0.6636536717414852, 0.6752391828066325, 0.6857221875992919, 0.6952076032933072, 0.7037903627968005, 0.7115563647846397, 0.7185833332092266, 0.724941594749283, 0.7306947815993451, 0.7359004655229131, 0.7406107257869208, 0.7448726416748002, 0.7487286363807322, 0.7522160561533251, 0.7553543317407462, 0.6716849447447286])","array('d', [-1.3072170077050125e-05, 6.665373766224959e-05, 3.661192530733527e-05, 4.4560357192903544e-05, 3.9609609763766565e-05, 3.928025290250999e-05, 3.7518936306332856e-05, 3.64025119211108e-05, 3.5202101865677846e-05, 3.4160233330144714e-05, 3.317431765589043e-05, 3.231242446869789e-05, 3.1273969286916115e-05, 3.173549638676928e-05, 2.1420606869423727e-05, -0.004067908668656126])","array('d', [1.7297911802914478, 1.6987317337777665, 1.6669624901230724, 1.6345399868532118, 1.6015170388033437, 1.5679428688045036, 1.5338632496904145, 1.4993206557082257, 1.4643544211270756, 1.4290009038056966, 1.3932936517265315, 1.3572635713681087, 1.3209391004871982, 1.284346414227692, 1.2475101543537177, 1.2050652528056893])",-215.17593355309535,-249.59372256144357,-49.98377880804899,0.7115563647846397,3.928025290250999e-05,1.5679428688045036,25.000000240568347,-1.0,"[-248.8410806462973, -226.14187493822288, 49.983256758932384]","[-258.3031952765039, -216.97329580395433, 57.153022681435395]","[-243.49239143607636, -215.10236660540795, 58.615798650065955]",10000000000.0,0.016535282135009766
