,current_time,x_pos,y_pos,z_pos,roll,pitch,yaw,vel,x_traj,y_traj,z_traj,roll_traj,pitch_traj,yaw_traj,x_cmd,y_cmd,z_cmd,roll_cmd,pitch_cmd,yaw_cmd,vel_cmd,effector_dmg,effector_x,effector_y,effector_z,cost,time_solution
0,0.4035837650299072,-163.7359161376953,-118.02474975585938,49.89625549316406,0.6300980448722837,0.0359784513711928,0.2177798310902454,23.08493149101386,"array('d', [-118.67921447753906, -118.08251977777509, -117.53763620949937, -117.03058965025312, -116.54965608680598, -116.08476127910761, -115.62705457272644, -115.16862525645669, -114.70231374020459, -114.22158294775707, -113.72042900351508, -113.19331859675297, -112.63514482197597, -112.04119608138839, -111.40713493795259, -110.86162096490888])","array('d', [-167.3439178466797, -164.91713009062684, -162.47735979659038, -160.02933926992642, -157.57604295442505, -155.119651586355, -152.66190836705695, -150.20429998749972, -147.74817682649046, -145.29483831555248, -142.84559428887627, -140.4018099281931, -137.96493852054505, -135.53654490276895, -133.11832135622677, -131.194207919315])","array('d', [-49.892024993896484, -49.82782442299079, -49.81124878957683, -49.81380127150675, -49.81442351363199, -49.81573021163533, -49.81680037265988, -49.81795395780305, -49.81907606241404, -49.82020441357468, -49.82132354876454, -49.82243695235736, -49.82354145555842, -49.82463825488974, -49.825713576935, -49.822358696827266])","array('d', [0.6308716535568236, 0.4960958763103849, 0.3741456991547693, 0.26380060612174927, 0.1639562287992376, 0.07361329365303301, -0.00813237861234882, -0.0820989214616882, -0.1490266085295081, -0.2095852570047417, -0.2643809153854979, -0.3139618741070154, -0.3588239108846449, -0.39941362759574284, -0.43610520789509766, -0.3910237658536064])","array('d', [-0.03586130589246733, -0.01583966450369116, 0.0022766584991970157, -0.0001934655027472974, 0.0006767424174943466, 0.0003736718471425775, 0.00048067201487325, 0.0004428274465777098, 0.00045465889244429754, 0.00044813095893811417, 0.0004471928678585124, 0.00044359013743171163, 0.00044007116761684054, 0.00043741271346542463, 0.0004230841119716458, -0.003709048542597212])","array('d', [0.25410790840652975, 0.22932429025990658, 0.211105065104314, 0.19817142396429036, 0.18967524130000787, 0.18501882263777075, 0.1837596924081209, 0.1855563055473056, 0.19013521661486735, 0.19727029626330897, 0.2067691018803905, 0.21846369898499385, 0.2322043566576782, 0.24785512324303904, 0.26529000950736153, 0.2867993125535385])",-116.08476127910761,-155.119651586355,-49.81573021163533,0.07361329365303301,0.0003736718471425775,0.18501882263777075,25.000000242373538,-1.0,[],[],[],10000000000.0,-100.0
1,0.40409231185913086,-163.7359161376953,-118.02474975585938,49.89625549316406,0.6300980448722837,0.0359784513711928,0.2177798310902454,23.08493149101386,"array('d', [-118.50357818603516, -117.92922821830959, -117.40676305977502, -116.92217369029207, -116.4637147242031, -116.02129631678925, -115.58605518128556, -115.15006964838871, -114.70616995783426, -114.247809009831, -113.76897258326835, -113.26411635275757, -112.72812147371717, -112.15626330034112, -111.54419009681207, -111.01616318559687])","array('d', [-166.44520568847656, -164.01303054712957, -161.568360834891, -159.11579608845145, -156.65820064203837, -154.19766173215842, -151.73584079483393, -149.2741517438874, -146.813879311564, -144.35626316289515, -141.90255837382796, -139.45407976516358, -137.01223422730888, -134.5785438581589, -132.15466165154476, -130.22567603060304])","array('d', [-49.89318084716797, -49.829056885150806, -49.812550591917756, -49.81512401752013, -49.81573964716164, -49.81704961333062, -49.818119641230815, -49.81927429277852, -49.82039698128176, -49.82152596265931, -49.82264553478604, -49.8237592177377, -49.82486378737012, -49.82596043089088, -49.82703530463402, -49.823679950125104])","array('d', [0.6304840445518491, 0.495745153144426, 0.37382835167584405, 0.26351345820917554, 0.16369640657267093, 0.07337819670281093, -0.00834510326571911, -0.08229140294942916, -0.1492007735187986, -0.20974284916828656, -0.26452351336858887, -0.31409090898991476, -0.35894068732151047, -0.39951937932416853, -0.436201819085504, -0.39111000213954966])","array('d', [-0.03582909330725664, -0.01581051735246277, 0.002303031798398361, -0.00020249327510549282, 0.0006802707423185651, 0.00037283094272732724, 0.0004813805717156313, 0.00044298126754782044, 0.0004549695686582896, 0.00044832637902266685, 0.00044734767483714847, 0.0004436602307998142, 0.0004400556476637823, 0.00043730512118841545, 0.00042283541712577965, -0.003709274624085839])","array('d', [0.24489982525375872, 0.22013652271410072, 0.2019332544522986, 0.189012772660211, 0.180527828532917, 0.17588125702801446, 0.1746309200292631, 0.17643549662099764, 0.18102169514373348, 0.18816349456977052, 0.19766853034967696, 0.2093689255229131, 0.22311499271705892, 0.23877081534285777, 0.2562104518943105, 0.27772509983385557])",-116.02129631678925,-154.19766173215842,-49.81704961333062,0.07337819670281093,0.00037283094272732724,0.17588125702801446,25.000000242329335,-1.0,[],[],[],10000000000.0,-100.0
2,0.40457749366760254,-163.7359161376953,-118.02474975585938,49.89625549316406,0.6300980448722837,0.0359784513711928,0.2177798310902454,23.08493149101386,"array('d', [-118.41874694824219, -117.85570457842165, -117.34459376511779, -116.87138610966805, -116.42432434531587, -115.99331006306852, -115.5694731170884, -115.144885956186, -114.71237341988515, -114.26538313602856, -113.79789548205164, -113.30436041283636, -112.77965290715541, -112.21904158562586, -111.61816734566943, -111.0990507726302])","array('d', [-165.9949951171875, -163.56017530514058, -161.1131060191002, -158.65831986894793, -156.19862561909562, -153.7360634441822, -151.27225350418286, -148.8085729028141, -146.3462731093628, -143.88656345877422, -141.43067119890475, -138.97988552343463, -136.5355896833859, -134.09928397464896, -131.67260132583442, -129.74119874882825])","array('d', [-49.89365768432617, -49.82961348527884, -49.81317938703101, -49.815774564466516, -49.81638313637017, -49.81769626966514, -49.81876591344618, -49.81992143151473, -49.82104451794503, -49.822173999350724, -49.82329394530918, -49.82440793055534, -49.825512689002835, -49.82660940726268, -49.827684194944574, -49.82432869904645])","array('d', [0.630385935306549, 0.49565638021873576, 0.37374802660060763, 0.2634407770624417, 0.1636306419321467, 0.07331869036217545, -0.008398946891612712, -0.08234012280132683, -0.14924485732383247, -0.2097827384129497, -0.264559607970147, -0.3141235721137225, -0.35897025235430746, -0.3995461739922587, -0.43622651544503044, -0.3911320463471474])","array('d', [-0.035795554518699535, -0.01578017020148104, 0.0023304909184092095, -0.00021193531347955697, 0.0006838493797562242, 0.0003718618713834448, 0.0004820155883371035, 0.00044304893223456063, 0.0004552172427486112, 0.00044848029161610904, 0.000447492971396747, 0.0004437575699211428, 0.0004401100765111661, 0.00043731128885933783, 0.00042276173293542797, -0.0037093424253476994])","array('d', [0.24025030533340969, 0.21549214343963918, 0.19729291329850754, 0.18437576190180335, 0.175893662192279, 0.17124958304803062, 0.1700014717192845, 0.17180806399783063, 0.1763961071325844, 0.1835396075061144, 0.19304622033089466, 0.204748083229524, 0.21849551994323704, 0.2341526231956609, 0.25159346864321835, 0.2731094829355785])",-115.99331006306852,-153.7360634441822,-49.81769626966514,0.07331869036217545,0.0003718618713834448,0.17124958304803062,25.00000024230639,-1.0,[],[],[],10000000000.0,-100.0
3,0.4050416946411133,-163.7359161376953,-118.02474975585938,49.89625549316406,0.6300980448722837,0.0359784513711928,0.2177798310902454,23.08493149101386,"array('d', [-118.33589935302734, -117.78409193041036, -117.28426075741669, -116.8223588636457, -116.38661761185976, -115.96693030815568, -115.55442019621746, -115.14115406073518, -114.71995153844979, -114.28425516683885, -113.82804009291378, -113.34575071475719, -112.83225599151407, -112.28281796286672, -111.693070309058, -111.18280732722901])","array('d', [-165.54420471191406, -163.10681476971547, -160.65741678765235, -158.20047818892286, -155.73875326301126, -153.27423538791447, -150.80850373475855, -148.34289884780836, -145.87863916357324, -143.4169038942238, -140.95889264778555, -138.50586916081085, -136.059193197852, -133.62034338922138, -131.19093271858, -129.25717223455612])","array('d', [-49.8942985534668, -49.83022953867325, -49.81377297918409, -49.81636195351118, -49.81697375227089, -49.818286913482765, -49.8193577439612, -49.82051404859262, -49.82163803040214, -49.82276830544906, -49.823888987788074, -49.825003610655166, -49.82610889915459, -49.82720602728317, -49.82828106100867, -49.82492567256921])","array('d', [0.6302877664566039, 0.49556755336056385, 0.3736676527253159, 0.2633680517597471, 0.16356483733798322, 0.07325914787067182, -0.008452823226745598, -0.08238887224677315, -0.14928896789976048, -0.2098226518665043, -0.2645957244427248, -0.314156254938504, -0.3589998349393634, -0.39957298334746866, -0.43625121098622555, -0.3911540898020744])","array('d', [-0.035805989056825464, -0.015789611763884222, 0.0023219478455688337, -0.00020855366481417563, 0.0006831178322276781, 0.000372591379088125, 0.0004822438012249798, 0.00044344713395140387, 0.0004555366587733368, 0.0004487958529495935, 0.00044776720402990876, 0.00044399406367584494, 0.00044029842752763227, 0.00043745163385648, 0.00042281959919415545, -0.003709292693208985])","array('d', [0.23563583294418863, 0.21088281420618377, 0.192687624319055, 0.17977380517162467, 0.17129455152185843, 0.16665296621489678, 0.16540708189986253, 0.16721569109893794, 0.17180557998588708, 0.17895078236543266, 0.18845897322041122, 0.2001623047618406, 0.2139111118446751, 0.22956949648443045, 0.24701155117365575, 0.26852893179671494])",-115.96693030815568,-153.27423538791447,-49.818286913482765,0.07325914787067182,0.000372591379088125,0.16665296621489678,25.000000242283228,-1.0,[],[],[],10000000000.0,-100.0
4,0.4058821201324463,-163.28265380859375,-117.95203399658203,49.896610260009766,0.6301510930061337,0.035881150513887294,0.2133413116124011,23.083457018496116,"array('d', [-118.25506591796875, -117.71436393428277, -117.22568072740289, -116.77495171177084, -116.35039745861654, -115.9419032791974, -115.54058606688126, -115.13850717061253, -114.72848123306825, -114.30394589603071, -113.85887126195615, -113.38769635259524, -112.88528428514789, -112.34689069509594, -111.7681422228168, -111.2666323246173])","array('d', [-165.0928955078125, -162.6530224342313, -160.2013770175058, -157.74236411129152, -155.2786852031957, -152.8122873607392, -150.34470926362272, -147.8772553310329, -145.41111136306773, -142.94742680669853, -140.4873739557505, -138.03219138561684, -135.58321564317117, -133.14190393620277, -130.70984952168806, -128.77380051598215])","array('d', [-49.89488983154297, -49.83065012783442, -49.814039074368196, -49.816584011777984, -49.817215260927966, -49.81852570535795, -49.819601639307955, -49.82076031329424, -49.82188758626372, -49.823020756441984, -49.82414436553255, -49.825261767206456, -49.82636972287648, -49.82746937547378, -49.82854675296773, -49.825193051835896])","array('d', [0.6301921010017394, 0.49548099166817916, 0.3735893284570587, 0.26329718101853844, 0.16350071082097295, 0.07320112376708018, -0.00850532566594153, -0.08243637853625385, -0.14933195361423574, -0.20986154748693012, -0.26463091990324933, -0.3141881042971882, -0.3590286630662281, -0.3995991087176428, -0.4362752729401645, -0.391175567690153])","array('d', [-0.03587776049971576, -0.015854553255580717, 0.002263186532217139, -0.0001863722344204288, 0.000676969313851982, 0.0003764003604648742, 0.000482575603688186, 0.0004449906025591688, 0.0004566335678814665, 0.0004500130426253442, 0.00044889294143594, 0.00044509183845353094, 0.0004413354037791112, 0.0004384351252557575, 0.0004237126324678678, -0.0037084967812288628])","array('d', [0.2310796538975575, 0.20633164657019762, 0.1881403935990907, 0.17522982156254016, 0.16675334131261016, 0.1621141862117167, 0.16087047211144886, 0.16268104680666184, 0.1672727343965115, 0.1744195954041827, 0.18392932407575405, 0.19563408683645633, 0.2093842293692578, 0.22504386273839963, 0.24248709576000058, 0.2640058076579075])",-115.9419032791974,-152.8122873607392,-49.81852570535795,0.07320112376708018,0.0003764003604648742,0.1621141862117167,25.000000242260036,-1.0,[],[],[],10000000000.0,0.028534650802612305
5,0.4116384983062744,-163.28265380859375,-117.95203399658203,49.896610260009766,0.6301510930061337,0.035881150513887294,0.2133413116124011,23.083457018496116,"array('d', [-118.0994873046875, -117.58055020149109, -117.11372145285934, -116.68490120907752, -116.28228847668288, -115.89575262974103, -115.51639799391867, -115.13627522628104, -114.74818919337673, -114.34556798157084, -113.92237185991452, -113.47302937046761, -112.99239223537653, -112.4757035855148, -111.91857630019652, -111.43427703337346])","array('d', [-164.188720703125, -161.74413713968454, -159.28823926513115, -156.82531104898945, -154.35795151165266, -151.88801712252692, -149.4169673040417, -146.94603569620992, -144.47634410779742, -142.00898358000418, -139.5450727725244, -137.0858008196168, -134.63245861394086, -132.1864612088396, -129.749363014778, -127.80893723403216])","array('d', [-49.895877838134766, -49.831215169917805, -49.814221281826505, -49.81665771178497, -49.81733810908044, -49.81864260538015, -49.81973201838158, -49.820897378570656, -49.822033642034945, -49.82317484025508, -49.82430658604355, -49.82543179395801, -49.826547322385274, -49.827654240662156, -49.82873850473478, -49.82538983533183])","array('d', [0.6300913095474241, 0.49538979177800657, 0.3735068073708235, 0.2632225128334169, 0.1634331482226531, 0.0731399905442233, -0.008560641402569902, -0.08248643050661422, -0.14937724297740892, -0.20990252802209827, -0.2646680030066731, -0.31422166456542044, -0.3590590480430964, -0.3996266796180384, -0.4363010242025981, -0.3911985534460067])","array('d', [-0.03605560958385453, -0.016015477772502694, 0.00211757642956876, -0.00013092231751191826, 0.0006620124384613728, 0.00038618597636935856, 0.000483717425473992, 0.0004491474469417217, 0.000459687518496733, 0.00045337636519242444, 0.00045204254315430207, 0.0004481881193734713, 0.0004442995340070654, 0.0004412854385144427, 0.0004263747242813976, -0.0037061222972816954])","array('d', [0.2221660176899771, 0.1974232896676989, 0.17923618423413806, 0.1663290331232215, 0.15785547479114773, 0.15321888007561607, 0.1519774524695893, 0.1537900979918542, 0.158383680694891, 0.16553228925443608, 0.17504363822645816, 0.18674990905805833, 0.20050145899672495, 0.2161624093699071, 0.23360689455635864, 0.25512703114744795])",-115.89575262974103,-151.88801712252692,-49.81864260538015,0.0731399905442233,0.00038618597636935856,0.15321888007561607,25.000000242213524,-1.0,[],[],[],10000000000.0,0.020065784454345703
6,0.4325854778289795,-162.83030700683594,-117.88123321533203,49.89715576171875,0.6301052570343016,0.03573828190565101,0.20889242092636606,23.082427659573373,"array('d', [-118.02474975585938, -117.51653948245874, -117.06048822197425, -116.64247678912993, -116.25069256089549, -115.87499681133785, -115.5064874962629, -115.13720989759341, -114.75996399649586, -114.36817312845052, -113.955792688784, -113.51724603463188, -113.04737925422377, -112.54142929630099, -111.99500223508406, -111.519223047322])","array('d', [-163.7359161376953, -161.2890751795546, -158.8311519837582, -156.36636635594436, -153.89726424913553, -151.42565778129227, -148.9529673367969, -146.48039167910497, -144.0090210386481, -141.53991761207052, -139.0741735460292, -136.6129535142239, -134.15752580322194, -131.70928457586606, -129.26976497499652, -127.32723256709826])","array('d', [-49.89625549316406, -49.831776324031075, -49.81494852517067, -49.81743417828851, -49.81809690109815, -49.81940732088662, -49.82049441437888, -49.821660352219425, -49.822796151491644, -49.823937193404674, -49.82506859120855, -49.82619341063372, -49.82730843650099, -49.82841475058357, -49.82949827936529, -49.82614899694163])","array('d', [0.6300980448722837, 0.4953958861512439, 0.37351232178555926, 0.26322750247699195, 0.16343766302753143, 0.07314407568476233, -0.008556945064309115, -0.082483086025761, -0.14937421698849168, -0.20989979048438637, -0.2646655271219172, -0.31421942721219187, -0.3590570324178554, -0.3996248928814966, -0.43629979105556166, -0.39119745273230805])","array('d', [-0.0359784513711928, -0.01594566213242997, 0.0021807480158978786, -0.0001532883775749741, 0.0006697369396772832, 0.00038337600304662306, 0.0004846100250401908, 0.0004487386780291254, 0.00045971761260523743, 0.0004532242647657642, 0.0004519158323379519, 0.0004480049801003282, 0.000444081212223197, 0.0004410211714008278, 0.0004260517384895435, -0.0037064128748595534])","array('d', [0.2177798310902454, 0.19303675030194425, 0.17484936772247295, 0.1619419880162633, 0.1534682344323969, 0.14883146862339114, 0.1475898882270555, 0.14940239537347164, 0.15399585144924888, 0.16114434325766025, 0.17065558401894745, 0.18236175423503395, 0.1961132105728709, 0.2117740745645809, 0.22921848907814674, 0.25073855742803236])",-115.87499681133785,-151.42565778129227,-49.81940732088662,0.07314407568476233,0.00038337600304662306,0.14883146862339114,25.00000024219006,-1.0,[],[],[],10000000000.0,0.016475677490234375
7,0.4541139602661133,-162.83030700683594,-117.88123321533203,49.89715576171875,0.6301052570343016,0.03573828190565101,0.20889242092636606,23.082427659573373,"array('d', [-117.95203399658203, -117.45469140020911, -117.00956349228701, -116.60251068285618, -116.22170808886473, -115.85700850583363, -115.49950325446795, -115.14123204842983, -114.77498983384382, -114.39419507094907, -113.9927981696947, -113.5652171946318, -113.10629249019566, -112.61125470649564, -112.0757029864641, -111.60858528820623])","array('d', [-163.28265380859375, -160.8335746743622, -158.37364836326535, -155.90702939109028, -153.43620979790407, -150.9629568765731, -148.48865148922283, -146.01445706034002, -143.54143179570627, -141.07060861871477, -138.60305275027395, -136.13990400656888, -133.68240768660618, -131.23193669692463, -128.79000656295545, -126.84537316502735])","array('d', [-49.896610260009766, -49.8323624940723, -49.81574414319796, -49.81829162551618, -49.81893164722007, -49.8202491588679, -49.82133292750266, -49.82249920072573, -49.82363402750857, -49.82477449954146, -49.82590510431523, -49.82702910279827, -49.828143189732536, -49.82924846443585, -49.83033079666653, -49.82698053363729])","array('d', [0.6301510930061337, 0.4954438860907877, 0.37355575392815416, 0.26326680150266646, 0.1634732222479799, 0.07317625097677963, -0.008527831703371545, -0.08245674326911455, -0.14935038129598596, -0.20987822354368504, -0.26464601368036694, -0.31420177362038054, -0.3590410675444774, -0.39961048408939903, -0.43628713389925955, -0.3911861548715577])","array('d', [-0.035881150513887294, -0.015857620672959157, 0.002260410939800164, -0.000181685208248151, 0.000679338989133196, 0.0003796694560707357, 0.0004855786939136495, 0.0004480657011226081, 0.0004596032786645441, 0.00045288642312082885, 0.0004516185728585675, 0.0004476465070054701, 0.00044368910006616335, 0.00044058255594936333, 0.0004255344261338417, -0.0037068770595264666])","array('d', [0.2133413116124011, 0.18859545230036645, 0.17040588683681923, 0.15749670665999888, 0.1490214152339972, 0.14438330185988543, 0.1431405180517102, 0.14495193529956993, 0.14954439396955932, 0.15669196606414176, 0.1662023541536349, 0.1779077309414086, 0.19165844736075127, 0.20731862117726274, 0.22476240054613628, 0.246281768566857])",-115.85700850583363,-150.9629568765731,-49.8202491588679,0.07317625097677963,0.0003796694560707357,0.14438330185988543,25.000000242165914,-1.0,[],[],[],10000000000.0,0.019551753997802734
8,0.47887539863586426,-161.92416381835938,-117.7457504272461,49.89810562133789,0.6301106810569762,0.03551457449793804,0.19980688492325321,23.078960831453685,"array('d', [-117.88123321533203, -117.3947863891364, -116.9605981085216, -116.56451048013278, -116.19468789681777, -115.84097590112022, -115.49446011717245, -115.14717544540319, -114.79191242517474, -114.4220851812456, -114.03163961445526, -113.61498892701375, -113.16696811596621, -112.68280190403185, -112.15808285524714, -111.69959096808255])","array('d', [-162.83030700683594, -160.3790314943482, -157.91714862890504, -155.44874532490485, -152.97625845156372, -150.50141025407612, -148.02554192510618, -145.54978149885426, -143.07515516138554, -140.60266661051392, -138.13335421719478, -135.66833303527218, -133.20882548344434, -130.75618332575428, -128.311902585923, -126.36521741701102])","array('d', [-49.89715576171875, -49.83324777028978, -49.81693695587409, -49.81957369568614, -49.82017786688062, -49.82150355421302, -49.82258007602009, -49.82374451399363, -49.82487558787438, -49.82601293344816, -49.827140126544585, -49.82826072871071, -49.82937131225202, -49.83047300921161, -49.83155163056714, -49.82819849483462])","array('d', [0.6301052570343016, 0.4954024119833917, 0.37351822659786826, 0.2632328453614267, 0.16344249744658434, 0.07314845000067174, -0.008552987117958405, -0.08247950493361067, -0.1493709771208247, -0.20989685989646104, -0.26466287766367397, -0.31421703562739656, -0.3590548857550083, -0.39962302334106103, -0.43629885100988836, -0.39119661364384706])","array('d', [-0.03573828190565101, -0.015728347805484003, 0.0023773814293750854, -0.0002245826585560647, 0.0006926188823961542, 0.0003732585929033939, 0.00048607683848709855, 0.00044613979479257894, 0.00045851292437408433, 0.0004514808680603344, 0.0004502934441258246, 0.00044625567797067434, 0.0004422775599889813, 0.0004391325426079862, 0.0004240168658673639, -0.003708234888438247])","array('d', [0.20889242092636606, 0.1841489623942885, 0.1659612830463976, 0.15305365856052777, 0.1445796959018242, 0.13994274688745742, 0.13870100288608078, 0.1405133618650432, 0.14510668235927227, 0.15225504917382074, 0.1617661741154545, 0.17347223672008213, 0.1872235931840266, 0.20288436595690573, 0.22032871494454054, 0.24184873130615597])",-115.84097590112022,-150.50141025407612,-49.82150355421302,0.07314845000067174,0.0003732585929033939,0.13994274688745742,25.000000242141414,-1.0,[],[],[],10000000000.0,0.02113056182861328
9,0.49811768531799316,-161.47035217285156,-117.6811294555664,49.89850997924805,0.6298155784606935,0.0352379865944385,0.1950284997608998,23.07910588581584,"array('d', [-117.7457504272461, -117.281592331316, -116.86978963877824, -116.4961463501307, -116.1488045017446, -115.8175943962561, -115.49358979535556, -115.16881564841971, -114.8360534412233, -114.4887084285652, -114.1207173068864, -113.72648335996811, -113.30083067441443, -112.83897187030273, -112.33648606669274, -111.89570302462612])","array('d', [-161.92416381835938, -159.46855644588936, -157.00282712472261, -154.53092714748982, -152.05518206861433, -149.57722210266502, -147.09830737867156, -144.61949353171377, -142.14174119398442, -139.66599418050296, -137.19323580577623, -134.72453030969308, -132.26105312409592, -129.8041125620751, -127.35516453698543, -125.40439334675293])","array('d', [-49.89810562133789, -49.83472966013356, -49.81890039474956, -49.82167791125138, -49.82222765306117, -49.82356768242215, -49.824634478491966, -49.825797642859, -49.826924432026615, -49.82805844155164, -49.82918181061602, -49.830298559184484, -49.83140505834866, -49.83250248553478, -49.833576533179254, -49.83021978942632])","array('d', [0.6301106810569762, 0.4954073198400469, 0.37352266740536105, 0.26323686355957554, 0.1634461332401645, 0.0731517397560405, -0.00855001052111296, -0.08247681180000317, -0.14936854070415548, -0.20989465628481746, -0.26466088596161086, -0.3142152391012856, -0.3590532771987353, -0.3996216392732976, -0.4362983338914881, -0.3911961520628167])","array('d', [-0.03551457449793804, -0.015525928965672939, 0.0025605367869954983, -0.0002909538379290773, 0.0007139829559688351, 0.0003638809772888416, 0.0004874937888905132, 0.00044376717664388997, 0.0004574361543797994, 0.0004498972539789464, 0.000448816060178247, 0.00044465228561614415, 0.0004406144466749667, 0.0004373813070427463, 0.0004221117004466611, -0.003709941086808615])","array('d', [0.19980688492325321, 0.17506314230071715, 0.15687523976227197, 0.14396743118544097, 0.13549331128860562, 0.13085622449213175, 0.1296143574501006, 0.1314266049998502, 0.13601982353313166, 0.14316809635564734, 0.15267913421963333, 0.1643851159577316, 0.1781363974883152, 0.19379710230148636, 0.21124140707970424, 0.2327613948487935])",-115.8175943962561,-149.57722210266502,-49.82356768242215,0.0731517397560405,0.0003638809772888416,0.13085622449213175,25.00000024209014,-1.0,[],[],[],10000000000.0,0.015830039978027344
10,0.5189192295074463,-161.01605224609375,-117.61865234375,49.899227142333984,0.6285840868949889,0.03491504117846479,0.19034655491379274,23.08071803190306,"array('d', [-117.6811294555664, -117.22868752933432, -116.82861741652867, -116.46670908729061, -116.1310971973573, -115.81160752769586, -115.49931023833904, -115.18622714373545, -114.86513669852543, -114.52944097012735, -114.17307311417952, -113.79043237332337, -113.37633818328624, -112.92599782449908, -112.4349843276459, -112.00333274862773])","array('d', [-161.47035217285156, -159.01254206986755, -156.5448780683157, -154.07123311807163, -151.59387066126084, -149.11437231326178, -146.63395548726072, -144.15363790526655, -141.67434602049056, -139.1969925563304, -136.72253233955146, -134.25200339719504, -131.78655698547013, -129.32747911137028, -126.87620513642166, -124.92339313236162])","array('d', [-49.89850997924805, -49.835791814880324, -49.82055792892846, -49.823508266875315, -49.8239885774747, -49.82534433645696, -49.82639698828574, -49.82755647960594, -49.828675905604186, -49.829803805549076, -49.830920572788145, -49.83203082510374, -49.833130711208646, -49.83422148038089, -49.83528874376966, -49.8319268030673])","array('d', [0.6298155784606935, 0.49514029994337655, 0.37328105778701004, 0.263018246111057, 0.1632483199632016, 0.07297275086148323, -0.008711966433800273, -0.08262335568513644, -0.14950113932392128, -0.21001463696599845, -0.26476945009139075, -0.3143134748302522, -0.3591421731024613, -0.39970211137604766, -0.43637151417153625, -0.39126147315867105])","array('d', [-0.0352379865944385, -0.015275661871281387, 0.002786986714507854, -0.00037398354723908525, 0.0007396543466266082, 0.0003514292561296697, 0.0004884071600749918, 0.0004399935560846674, 0.0004552920552413577, 0.000447163524761387, 0.00044626527676208184, 0.00044200763219925086, 0.0004379686708848208, 0.0004347012431333244, 0.0004193654628162814, -0.0037123966879965484])","array('d', [0.1950284997608998, 0.1703002108188197, 0.15212444991317123, 0.13922665637771398, 0.13076109095457392, 0.12613150037972556, 0.1248963277987093, 0.126714638449689, 0.1313134056462731, 0.13846679505694987, 0.1479825767859094, 0.1596929733729198, 0.17344837372136432, 0.18911292734074267, 0.20656083938849681, 0.22808487645559294])",-115.81160752769586,-149.11437231326178,-49.82534433645696,0.07297275086148323,0.0003514292561296697,0.12613150037972556,25.000000242062757,-1.0,[],[],[],10000000000.0,0.01663970947265625
11,0.5445420742034912,-160.56124877929688,-117.55835723876953,49.899925231933594,0.6254854202270506,0.03425510600209228,0.1857384006169179,23.082667431305605,"array('d', [-117.61865234375, -117.17763632856068, -116.78889945078234, -116.43823854877667, -116.11379507097716, -115.80540047998336, -115.50412900547725, -115.20200535484068, -114.8918098793766, -114.56694563956404, -114.22134592017348, -113.84940924594983, -113.44595349358549, -113.00618354628357, -112.52566919811915, -112.10235078263237])","array('d', [-161.01605224609375, -158.55614632487303, -156.08666711844222, -153.61140309393625, -151.13255320963805, -148.65165043552486, -146.16987026754816, -143.68819389846027, -141.20751536098544, -138.72871829428448, -136.25273120335999, -133.78056816265232, -131.3133585568683, -128.85236839405914, -126.39901475908222, -124.4443795016039])","array('d', [-49.899227142333984, -49.83727703040693, -49.82273831318789, -49.82588869556005, -49.82628507309054, -49.82765665641104, -49.82869009726017, -49.829842633133964, -49.83095077896513, -49.832068878528695, -49.83317529072712, -49.83427534352836, -49.835364933947545, -49.836445401695855, -49.83750227720239, -49.83413242982766])","array('d', [0.6285840868949889, 0.49402600019276444, 0.3722727975841269, 0.2621059344647983, 0.16242282616355666, 0.07222581309375051, -0.009387823781678567, -0.08323489685356789, -0.15005448490951376, -0.21051532525057046, -0.26522249266896203, -0.3147234074000279, -0.35951310345299414, -0.4000377764847982, -0.43667557766306436, -0.3915328797118474])","array('d', [-0.03491504117846479, -0.01498344876365124, 0.003051390458372786, -0.0004723004010121223, 0.0007687000834246852, 0.0003357884539223467, 0.0004884180757022481, 0.00043450994248918443, 0.0004517196515782805, 0.0004429070345604866, 0.0004422339770592807, 0.0004378809114554027, 0.0004338585650406759, 0.00043057055222920113, 0.0004151866490830541, -0.003716132009391657])","array('d', [0.19034655491379274, 0.16568269601295918, 0.14755757217720425, 0.1347015558884066, 0.126271680735756, 0.12167336896888394, 0.12046613220477785, 0.12230974565887603, 0.1269316698697905, 0.13410641374777776, 0.14364199472956887, 0.1553708173948891, 0.16914340764009028, 0.18482402103214712, 0.20228695384125314, 0.2238278181257002])",-115.80540047998336,-148.65165043552486,-49.82765665641104,0.07222581309375051,0.0003357884539223467,0.12167336896888394,25.00000024203635,-1.0,[],[],[],10000000000.0,0.019158363342285156
12,0.5752565860748291,-159.65005493164062,-117.44441986083984,49.90153503417969,0.6112088561058043,0.032004445791244375,0.17650564114121012,23.093535252875185,"array('d', [-117.55835723876953, -117.12846659475031, -116.75054988555195, -116.41044989921335, -116.09634184470835, -115.79808275977153, -115.50676582630629, -115.21443031392036, -114.91386798045461, -114.59849092145049, -114.26223958544279, -113.89951812616115, -113.50514874488087, -113.0743395077726, -112.60266236348372, -112.18630599600634])","array('d', [-160.56124877929688, -158.09933411861553, -155.62816725767703, -153.15143095373983, -150.67125011760587, -148.18910838811036, -145.70614002036135, -143.2232916232471, -140.7414275463785, -138.26140564567186, -135.78413177453479, -133.31059996511553, -130.8419217765397, -128.37934731626612, -125.924279472061, -123.96814961093287])","array('d', [-49.899925231933594, -49.83954464455242, -49.82642649784342, -49.82998547614225, -49.83020989840406, -49.831613308119806, -49.83260695012244, -49.833744718633504, -49.83482928734585, -49.83592688617255, -49.837011744008024, -49.83809066236219, -49.83915904558298, -49.84021843006936, -49.841254255459496, -49.83786849177504])","array('d', [0.6254854202270506, 0.4912222103908842, 0.3697358234274815, 0.25981038510724686, 0.16034572701276195, 0.07034637587162659, -0.011088409100011284, -0.08477365030816875, -0.15144680692436066, -0.21177515083186033, -0.26636243105173657, -0.3157548688233898, -0.36044641570799263, -0.4008823027633963, -0.4374400454987745, -0.39221522750668075])","array('d', [-0.03425510600209228, -0.014386314699758438, 0.0035916946206120434, -0.0006733592399218068, 0.0008278538389579597, 0.00030361927106707805, 0.00048821492234748316, 0.000423086383300996, 0.00044421612019431256, 0.0004340328403598485, 0.0004338563948519868, 0.00042935343493572827, 0.00042541881759150757, 0.0004221434765342079, 0.0004067733972279742, -0.00372365013337813])","array('d', [0.1857384006169179, 0.16123623635152567, 0.1432383038500081, 0.13048728996221012, 0.1221471589083673, 0.11762752478351148, 0.11649057424360106, 0.11839786099283799, 0.12307806659943858, 0.1303065604764878, 0.13989198030469113, 0.15166718726364584, 0.16548305079096254, 0.18120409158193582, 0.19870482197709083, 0.22028801115988147])",-115.79808275977153,-148.18910838811036,-49.831613308119806,0.07034637587162659,0.00030361927106707805,0.11762752478351148,25.000000242011748,-1.0,[],[],[],10000000000.0,0.02897334098815918
13,0.5986106395721436,-159.19366455078125,-117.39082336425781,49.90266036987305,0.5996009111404416,0.030367465689778262,0.1719491044667105,23.098900855739178,"array('d', [-117.44441986083984, -117.03630688655572, -116.67864853675536, -116.35754475854506, -116.06135337841303, -115.78006589407296, -115.5048760615169, -115.22790147759999, -114.94199686215269, -114.640626339034, -114.3177743807129, -113.96788316878083, -113.58580833843811, -113.16678779164663, -112.70642042137638, -112.29871089933681])","array('d', [-159.65005493164062, -157.184306663989, -154.71010308192015, -152.23083464581524, -149.74844992808525, -147.26432739480643, -144.77951984066652, -142.2949110573383, -139.8113160039656, -137.329553448262, -134.85049813627248, -132.3751193549901, -129.9045090490311, -127.43990189558876, -124.98268878542662, -123.02473931982503])","array('d', [-49.90153503417969, -49.84650737236918, -49.8375394312704, -49.84206674449111, -49.84185914447327, -49.84332159695834, -49.84420146824445, -49.84528569257327, -49.846295463202964, -49.84732570917241, -49.84834076864079, -49.84935104350677, -49.85035079915898, -49.851342080885786, -49.8523102027221, -49.84887338800756])","array('d', [0.6112088561058043, 0.4783042398025126, 0.35804715921352126, 0.24923404339641514, 0.15077585640704003, 0.06168719804736966, -0.018923557981352528, -0.09186318697960401, -0.15786168587913488, -0.21757957457147012, -0.27161449295180756, -0.3205071355252198, -0.3647464571558584, -0.40477319230404346, -0.4409611717091373, -0.3953578326804778])","array('d', [-0.032004445791244375, -0.012349833059407005, 0.004887814073765295, -0.0011649831483667638, 0.0009633974707101155, 0.00021898291707271182, 0.0004805506508715567, 0.00038836664437832356, 0.0004189398523789801, 0.0004054814534025609, 0.00040654834218897633, 0.0004017515931950581, 0.0003981136499273646, 0.00039496432729210795, 0.00037978648387660205, -0.0037477626374704982])","array('d', [0.17650564114121012, 0.15274078565027793, 0.13532485365526933, 0.12305549735853477, 0.11512777370091173, 0.1109701730884836, 0.11015696231976498, 0.11235774417654966, 0.11730673604463726, 0.12478321433405082, 0.1345986365377856, 0.14658794227297772, 0.16060356663871292, 0.17651123899503077, 0.19418643880320624, 0.21596491743089688])",-115.78006589407296,-147.26432739480643,-49.84332159695834,0.06168719804736966,0.00021898291707271182,0.1109701730884836,25.00000024196903,-1.0,[],[],[],10000000000.0,0.01872086524963379
14,0.6170985698699951,-158.73678588867188,-117.3395004272461,49.90454864501953,0.5850508809089661,0.02832136675715441,0.16746945778397096,23.103568478117793,"array('d', [-117.39082336425781, -116.99317579060217, -116.64473143338455, -116.33180457146344, -116.04290640127755, -115.76813950058214, -115.49878148143085, -115.227015627532, -114.94574992577712, -114.64849303919442, -114.32926773725468, -113.9825499645189, -113.60322578651964, -113.18656105673162, -112.72818074842307, -112.3217569870301])","array('d', [-159.19366455078125, -156.72611956168072, -154.25058906582436, -151.77027267022822, -149.28702794375783, -146.80217540752912, -144.31672886186652, -141.83154505033028, -139.34742058284456, -136.86516225466778, -134.38563770810097, -131.90981286813914, -129.43877921599574, -126.97377319569678, -124.51618915535931, -122.557973075105])","array('d', [-49.90266036987305, -49.85152623153022, -49.84369373565597, -49.84777568544156, -49.84767825837632, -49.84905515208376, -49.84991780761604, -49.85096058823517, -49.851937256867146, -49.85293143043404, -49.85391150145225, -49.854886534766344, -49.85585133292916, -49.85680781411701, -49.8577412465339, -49.854278164319375])","array('d', [0.5996009111404416, 0.4678009359003505, 0.3485433759690458, 0.2406346639238974, 0.14299481537956854, 0.054646620325754645, -0.025294136751794812, -0.09762752560744768, -0.1630774757649363, -0.22229901714931424, -0.2758848222667228, -0.3243710913756927, -0.3682427145137142, -0.4079367588911466, -0.443823930186621, -0.39791250390126626])","array('d', [-0.030367465689778262, -0.010868632152969702, 0.004348706756136066, -0.0009940142849481325, 0.0008847313984416345, 0.0002277434988674208, 0.00045853094138719965, 0.00037705278838354113, 0.00040383534397012865, 0.0003917058685297712, 0.0003923403777801197, 0.00038776265996718804, 0.000384136394282429, 0.00038109927656558134, 0.00036590034442642987, -0.003760168912898588])","array('d', [0.1719491044667105, 0.14877474021864928, 0.13182730351928454, 0.1199470790979987, 0.11235342225653487, 0.10848965683946277, 0.10793958240862037, 0.11037917419227046, 0.1155470437016914, 0.12322557535868134, 0.13322847423849915, 0.14539233983220634, 0.15957086016744795, 0.17563073383213793, 0.19344821455361794, 0.21538588529000333])",-115.76813950058214,-146.80217540752912,-49.84905515208376,0.054646620325754645,0.0002277434988674208,0.10848965683946277,25.000000241951916,-1.0,[],[],[],10000000000.0,0.0161740779876709
15,0.6396448612213135,-158.28042602539062,-117.29052734375,49.90731430053711,0.5678407549858091,0.025850122794508816,0.1631447831776479,23.109802115910796,"array('d', [-117.3395004272461, -116.9519563988772, -116.61205241852682, -116.30636870921381, -116.02360682611142, -115.754007673649, -115.48895368666177, -115.22071060670139, -114.94225360585808, -114.64714784119114, -114.32946498192615, -113.98372441427425, -113.604851693149, -113.18814928046929, -112.72927664071446, -112.32208653543739])","array('d', [-158.73678588867188, -156.2675335692662, -153.79080240408013, -151.30957994493278, -148.82562823868307, -146.34020934318258, -143.8543000785392, -141.36873369725907, -138.88429310638202, -136.40177851473246, -133.92205635486627, -131.44609540868794, -128.97499309322197, -126.50999407698306, -124.05250257629312, -122.09444657749084])","array('d', [-49.90454864501953, -49.85828128713577, -49.85186513056608, -49.855385668120924, -49.855421819811525, -49.85668742978218, -49.85752429070231, -49.85851099806878, -49.85944206103822, -49.86038696545941, -49.8613191856598, -49.86224612781304, -49.86316328524449, -49.864072427694566, -49.86495901840281, -49.86146069385648])","array('d', [0.5850508809089661, 0.4546355229215857, 0.33663081660357386, 0.2298557334889775, 0.1332416349097706, 0.0458215768842432, -0.033279367018168284, -0.10485286144901003, -0.1696152306985097, -0.22821462323572575, -0.28123748508475843, -0.32921438291252475, -0.3726251107051646, -0.41190213329111314, -0.44741214186714495, -0.40111411574702127])","array('d', [-0.02832136675715441, -0.009017245227389187, 0.003672586812055401, -0.0007818446828340923, 0.000784634050818635, 0.00023698976895225108, 0.0004292910066277198, 0.0003612106162996685, 0.0003832717464557629, 0.00037282605788092394, 0.00037294808083709934, 0.00036867691153526927, 0.0003651085877736951, 0.0003622530591433649, 0.00034726959195874866, -0.003776813926213546])","array('d', [0.16746945778397096, 0.14502435077696663, 0.1286584236185227, 0.11726293627495467, 0.11008651360072258, 0.10659044589319132, 0.10637012708604136, 0.10910930813304978, 0.11455197626604503, 0.12248432657273488, 0.13272282535593405, 0.14510611538399767, 0.15948943033582913, 0.17574066726537235, 0.19373703751434546, 0.21587477587726886])",-115.754007673649,-146.34020934318258,-49.85668742978218,0.0458215768842432,0.00023698976895225108,0.10659044589319132,25.00000024193788,-1.0,[],[],[],10000000000.0,0.01760578155517578
16,0.6570813655853271,-158.28042602539062,-117.29052734375,49.90731430053711,0.5678407549858091,0.025850122794508816,0.1631447831776479,23.109802115910796,"array('d', [-117.29052734375, -116.91255881740823, -116.58039660632022, -116.28092844896929, -116.00307674052156, -115.737243563159, -115.47493405927362, -115.20851095645237, -114.93102883908286, -114.63611999681618, -114.31791454489465, -113.9709841161791, -113.59030206981856, -113.17121548062403, -112.7094261266576, -112.29946820927752])","array('d', [-158.28042602539062, -155.80958184202314, -153.33178717799893, -150.8498037639329, -148.36529719106898, -145.87947229004325, -143.3932719113457, -140.9075099754127, -138.4229606700165, -135.94042316122756, -133.46076859219235, -130.98497474950054, -128.51415123983944, -126.04955721183244, -123.59261291590614, -121.63513559893947])","array('d', [-49.90731430053711, -49.86692519481953, -49.8622169194093, -49.86505463054151, -49.86524787607219, -49.86637472982495, -49.867176135697626, -49.86809085817676, -49.86896262803951, -49.869843878016404, -49.87071422568145, -49.87157908182609, -49.87243477872573, -49.873282909596256, -49.87410918420501, -49.87056550343511])","array('d', [0.5678407549858091, 0.43906315560771564, 0.32254035469541936, 0.21710615516291537, 0.12170533833013081, 0.035383103122023855, -0.04272448953815381, -0.11339916253956114, -0.1773482445091438, -0.23521174434032793, -0.2875687431626021, -0.3349431439118632, -0.3778087121657944, -0.4165924652555412, -0.45165629515328465, -0.4049003517749669])","array('d', [-0.025850122794508816, -0.006781171209237046, 0.002853802927071342, -0.0005272300824812089, 0.0006619879881419787, 0.0002464274200681287, 0.00039226443165514915, 0.0003403791116837882, 0.00035676346301629914, 0.0003483764402099535, 0.0003479094924402548, 0.000344039989194021, 0.0003405753511511181, 0.00033797280646554503, 0.0003232919068447967, -0.00379823550604479])","array('d', [0.1631447831776479, 0.1415473440644003, 0.12586137927513633, 0.11503511440185453, 0.10835017274154875, 0.10528823263636547, 0.10545791067680399, 0.10855185998853863, 0.1143202415625056, 0.12255363850617738, 0.13307170448073988, 0.14571544667535236, 0.1603418921536646, 0.17682033270247713, 0.19502909669507243, 0.2174042526433564])",-115.737243563159,-145.87947229004325,-49.86637472982495,0.035383103122023855,0.0002464274200681287,0.10528823263636547,25.000000241927076,-1.0,[],[],[],10000000000.0,0.01635432243347168
17,0.6822514533996582,-157.3661346435547,-117.19922637939453,49.91543960571289,0.5264386534690856,0.020001301541924383,0.15463955799606813,23.120837908316133,"array('d', [-117.19922637939453, -116.83971495616986, -116.52167963575626, -116.2327122326374, -115.96224385331111, -115.70105085171551, -115.44092572755552, -115.1744602261066, -114.89489796543052, -114.59603232406425, -114.27213478227029, -113.91790433469146, -113.52843175153616, -113.0991744565536, -112.62593957457621, -112.2057894304476])","array('d', [-157.3661346435547, -154.89233857870053, -152.41267245238842, -149.92943919642042, -147.44411640633462, -144.95779894212285, -142.47136914642184, -139.98561231349515, -137.50129716463255, -135.01923414897348, -132.54031815562436, -130.06555990013757, -127.59610857379292, -125.13326750753804, -122.67850402022445, -120.72319162920189])","array('d', [-49.91543960571289, -49.888963712694704, -49.88828990298539, -49.889497642346775, -49.89005012307962, -49.89083596671088, -49.89154092397541, -49.89227294637492, -49.892992201473895, -49.89371082360493, -49.89442296437566, -49.89512933087893, -49.89582824376395, -49.89652088060875, -49.897193533822104, -49.89353436851633])","array('d', [0.5264386534690856, 0.4016009815794848, 0.28864317480658286, 0.18643471565834197, 0.09395266968786635, 0.010271447801967398, -0.06544645698559036, -0.13395885082989262, -0.19595142162696513, -0.25204459698671366, -0.3027997403138224, -0.3487247233390969, -0.39027880771964923, -0.4278758968636152, -0.4618661634705156, -0.4140056721903341])","array('d', [-0.020001301541924383, -0.0014889393959711065, 0.000909874496041023, 7.03224498501189e-05, 0.0003667176746733385, 0.00026367617223232553, 0.0002996888778029922, 0.0002861548197436144, 0.00028919848794321676, 0.000285756637539564, 0.0002839855298334967, 0.00028115490171567607, 0.0002780275916451888, 0.0002761138429255667, 0.000262240260567001, -0.003852778017672237])","array('d', [0.15463955799606813, 0.13502024986729083, 0.12093775840710454, 0.11146397393699957, 0.10595327157284554, 0.10393280137361631, 0.10504093234780466, 0.10899048786596677, 0.1155456963557795, 0.12450718810571383, 0.1357019480364925, 0.14897644712209948, 0.1641918779955672, 0.18122079098985416, 0.19994413727865126, 0.2228939484432337])",-115.70105085171551,-144.95779894212285,-49.89083596671088,0.010271447801967398,0.00026367617223232553,0.10393280137361631,25.000000241912264,-1.0,[],[],[],10000000000.0,0.01631784439086914
18,0.7057170867919922,-156.4499969482422,-117.11639404296875,49.92866134643555,0.4775186181068419,0.013656998984515554,0.14621670643356816,23.13184851187149,"array('d', [-117.15679168701172, -116.80630731731475, -116.49487464160076, -116.21046554811184, -115.94278759214156, -115.68282238947948, -115.42252153157952, -115.1546047221093, -114.87242210926927, -114.56985860314613, -114.24126663393191, -113.88141865433246, -113.4854735950482, -113.04895330765156, -112.5677267236644, -112.14059288699615])","array('d', [-156.9082794189453, -154.43311358599172, -151.95260694840172, -149.4688456965036, -146.98322012266422, -144.49677370141188, -142.01036242613566, -139.52476199262537, -137.0407437265967, -134.55912954228876, -132.08083235318531, -129.60688568647052, -127.13846494636758, -124.67690194056877, -122.22369377502277, -120.2698966168653])","array('d', [-49.92125701904297, -49.90230856313465, -49.903811169876484, -49.90412607565021, -49.90486300233185, -49.90545433809187, -49.906097175513324, -49.90672053605598, -49.907347559121305, -49.90796861152039, -49.908585707145456, -49.909197020295416, -49.90980195154995, -49.910401456388236, -49.91098218094367, -49.907253950695406])","array('d', [0.502765595912933, 0.38018071136461795, 0.269261311057917, 0.1688972785203532, 0.07808413891181779, -0.0040869939179673095, -0.07843851350925975, -0.1457145508108499, -0.20658841989277796, -0.261669352093804, -0.31150858009068594, -0.35660480918998155, -0.39740900789632383, -0.43432758240709557, -0.46770409992670087, -0.4192100742624359])","array('d', [-0.01683708466589445, 0.0013741609020648442, -0.00014670427002450452, 0.0003896809170491432, 0.00020297505734624205, 0.00026899225224090233, 0.0002456668006056496, 0.00025290095394278687, 0.00024878614248640947, 0.000248067762281686, 0.00024564908889208696, 0.000243438316793985, 0.00024055480150179958, 0.00023907380262343185, 0.00022572854656844723, -0.0038853968188308106])","array('d', [0.15041907230881232, 0.13189543619444263, 0.11871103576836689, 0.11000087121232122, 0.10515707569927614, 0.1037306983505721, 0.10537589739115907, 0.1098162821514431, 0.11682365073519774, 0.126204069402273, 0.13778851026261288, 0.15142643196503186, 0.16698131875580524, 0.18432752611671688, 0.20334747193462857, 0.22662814874065662])",-115.68282238947948,-144.49677370141188,-49.90545433809187,-0.0040869939179673095,0.00026899225224090233,0.1037306983505721,25.000000241907433,-1.0,[],[],[],10000000000.0,0.016112565994262695
19,0.7252161502838135,-155.9912567138672,-117.0779037475586,49.937686920166016,0.450978487730026,0.010347401723265582,0.14204068581131468,23.135151209400405,"array('d', [-117.11639404296875, -116.77484174671638, -116.46979482713861, -116.18961318335138, -115.92428804659644, -115.66501315710428, -115.40390568850978, -115.13381943538256, -114.84821689016522, -114.54108006351241, -114.20684772788681, -113.84037106873464, -113.43688237942229, -112.99197310133117, -112.50157911719381, -112.06648186683135])","array('d', [-156.4499969482422, -153.97353090544803, -151.49223349559253, -149.0079907925683, -146.52211238848517, -144.03559369572642, -141.54926720225652, -139.06390204899046, -136.58027537647453, -134.09922393466857, -131.621682131095, -129.14870982015873, -126.68151212358116, -124.22145276690473, -121.77006197160625, -119.81802446222424])","array('d', [-49.92866134643555, -49.91727823605532, -49.92096142364183, -49.92036739864608, -49.92127933601005, -49.92166460623124, -49.92223454719495, -49.92273832653536, -49.923262379797336, -49.92377521871758, -49.92428676300797, -49.92479265105831, -49.92529337175518, -49.9257896594016, -49.9262685037028, -49.92246372451622])","array('d', [0.4775186181068419, 0.3573362990856595, 0.24859083016441746, 0.1501938522666973, 0.061160577459522775, -0.01940006695702669, -0.09229435624826167, -0.15825183694924594, -0.2179326266176898, -0.27193401591978594, -0.3207964332292104, -0.3650088079026356, -0.40501326351267947, -0.4412082074465217, -0.4739300651562276, -0.424758753009003])","array('d', [-0.013656998984515554, 0.004251602265805499, -0.0012138723716142925, 0.0007066147478466225, 3.415316456751974e-05, 0.00027012650603826395, 0.00018720948561257248, 0.0002153446353732216, 0.0002040857935505396, 0.00020615089256962978, 0.00020313485430822241, 0.0002016011741979393, 0.000199018476431516, 0.00019802818228170708, 0.0001852603163080412, -0.003921550216250808])","array('d', [0.14621670643356816, 0.1288359608195642, 0.11659578676225085, 0.10869308862089679, 0.10455748205644515, 0.10376395580196829, 0.1059825946514935, 0.11094794813751434, 0.11843952769761205, 0.12826896144769434, 0.14027131729610634, 0.15429913596711467, 0.17021827704866166, 0.18790497734555245, 0.20724319027149554, 0.23087859761041785])",-115.66501315710428,-144.03559369572642,-49.92166460623124,-0.01940006695702669,0.00027012650603826395,0.10376395580196829,25.000000241903887,-1.0,[],[],[],10000000000.0,0.015903711318969727
20,0.7437222003936768,-155.9912567138672,-117.0779037475586,49.937686920166016,0.450978487730026,0.010347401723265582,0.14204068581131468,23.135151209400405,"array('d', [-117.0779037475586, -116.74518672367563, -116.44633839537875, -116.17011039002345, -115.90677917024891, -115.64775416538659, -115.38532223826022, -115.11247561544576, -114.82279354222403, -114.51035956517727, -114.16970324551292, -113.79575896118062, -113.38383684468829, -112.92960242263591, -112.42906304205798, -111.98518722987085])","array('d', [-155.9912567138672, -153.5135575856983, -151.03150252360243, -148.5468156888678, -146.0607246286595, -143.5741798057083, -141.08799305173372, -138.60293000738673, -136.11977666180454, -133.6393876968034, -131.16272211998552, -128.6908692044414, -126.22506682360563, -123.76671355985532, -121.31737555611288, -119.3673172056674])","array('d', [-49.937686920166016, -49.92988855122824, -49.93322064240495, -49.93264371946658, -49.933442212363964, -49.933759373420166, -49.934244982568266, -49.934670089440786, -49.93511369372025, -49.93554713282732, -49.93597953202545, -49.936406979405604, -49.936829955997034, -49.937249317431046, -49.937652212793054, -49.93379038655152])","array('d', [0.450978487730026, 0.3333217938674694, 0.22686160530095334, 0.1305324347659742, 0.043370189601923424, -0.03549747703410995, -0.1068598965527518, -0.1714312840597907, -0.2298578846726669, -0.28272443677908327, -0.33056001104224775, -0.37384326011249774, -0.4130070094712223, -0.4484412573176733, -0.4804749123288309, -0.43058972639615145])","array('d', [-0.010347401723265582, 0.003871443235308197, -0.001122458444950508, 0.0006316578785284376, 1.738376949365796e-05, 0.00023275229820554484, 0.00015699873926623803, 0.000182658698006632, 0.0001723959277983801, 0.0001743232062240847, 0.0001716408987041628, 0.00017033873036111186, 0.00016808022572722205, 0.0001674199536238351, 0.00015510187928561835, -0.0039484930074737785])","array('d', [0.14204068581131468, 0.12583519239239788, 0.11457377635888306, 0.10751296657988822, 0.10411892387267499, 0.10399019456637787, 0.10681264866238396, 0.11233174122062038, 0.12033470975484402, 0.13063877778731556, 0.14308315158523238, 0.15752350053954922, 0.1738281083175774, 0.19187514334887085, 0.21155014599757405, 0.23556057850091905])",-115.64775416538659,-143.5741798057083,-49.933759373420166,-0.03549747703410995,0.00023275229820554484,0.10399019456637787,25.000000241901446,-1.0,[],[],[],10000000000.0,0.016310691833496094
21,0.7830214500427246,-155.0730743408203,-117.00618743896484,49.96125411987305,0.3944472670555114,0.0035611686762420727,0.13367970387009204,23.139985332748484,"array('d', [-117.00618743896484, -116.69109184321955, -116.40437959425282, -116.13557527697921, -115.87552426793776, -115.61607239117991, -115.34985416570618, -115.07014871394954, -114.77077982019247, -114.44604575713785, -114.09066973416695, -113.6997648839918, -113.26880960881529, -112.7936303587586, -112.27039027352183, -111.80693975302816])","array('d', [-155.0730743408203, -152.59303530903605, -150.10954043063413, -147.6240368228122, -145.1375994808908, -142.65109929559944, -140.16531601112385, -137.6810170953046, -135.19901489789876, -132.72020855901314, -130.24561478524447, -127.77639002059604, -125.31384571742902, -122.8594578927029, -120.41487180514294, -118.4693764825862])","array('d', [-49.96125411987305, -49.95864616004619, -49.95991728696431, -49.95982747061143, -49.960216501607576, -49.960437929503186, -49.960717558317306, -49.96097557339413, -49.961239250928664, -49.961498476316216, -49.9617562816687, -49.96201122711227, -49.962263218690126, -49.96251353587958, -49.96274951138125, -49.95876228177639])","array('d', [0.3944472670555114, 0.2821702254835078, 0.18057774804677265, 0.08865306508040817, 0.005476165433279362, -0.06978541113777365, -0.13788490515811233, -0.1995038753585792, -0.2552590181665532, -0.3057083352540036, -0.3513567050089098, -0.39266089028944645, -0.4300339108279849, -0.46384784869126794, -0.4944154716572602, -0.4430028841509509])","array('d', [-0.0035611686762420727, 0.0013921667382484134, -0.00034626454257049563, 0.00026422724105251694, 5.056191770634591e-05, 0.00012533306566784861, 9.88124014280048e-05, 0.00010745547479166896, 0.00010355167456148973, 0.00010382408991250711, 0.0001024432270576873, 0.00010152838976461499, 0.00010008888953260824, 0.00010016362506533678, 8.880627003638499e-05, -0.0040077198778609])","array('d', [0.13367970387009204, 0.1198985824350309, 0.11068056109753915, 0.10539291897700061, 0.10357094996338018, 0.10485839131226293, 0.10897172707401909, 0.11567775110667053, 0.1247789338982521, 0.13610360921384765, 0.14949925975438216, 0.16482786178711312, 0.1819626300896992, 0.2007857032620267, 0.22118591694492065, 0.24600262957972172])",-115.61607239117991,-142.65109929559944,-49.960437929503186,-0.06978541113777365,0.00012533306566784861,0.10485839131226293,25.00000024189882,-1.0,[],[],[],10000000000.0,0.019935131072998047
22,0.8109118938446045,-154.15406799316406,-116.94039916992188,49.993408203125,0.33464038372039784,-0.0026063995901496368,0.12599332729843654,23.14175303079725,"array('d', [-116.97264862060547, -116.66567225973272, -116.38427031763445, -116.1183413387591, -115.85900990186434, -115.59833903460189, -115.32913859302698, -115.04483416487076, -114.73937579248452, -114.40717375817424, -114.0430532111437, -113.64222212317016, -113.20024875240765, -112.71304592493965, -112.17686072655029, -111.70231440851914])","array('d', [-154.6136474609375, -152.13258299598962, -149.6484782412927, -147.1626643623586, -144.67615157972259, -142.18977913128631, -139.70431765435094, -137.2205417510219, -134.73928275106314, -132.26146749688453, -129.788146734227, -127.32051539786963, -124.85992633405723, -122.40789855564007, -119.96612080650466, -118.0233042804411])","array('d', [-49.976104736328125, -49.975916251480214, -49.97619248997815, -49.976306583309295, -49.97647812858362, -49.976629583893626, -49.976787658943394, -49.976942579970526, -49.977097390538226, -49.9772506980526, -49.97740269819876, -49.97755312163245, -49.97770160706652, -49.977849632064384, -49.97798446119195, -49.97392111947726])","array('d', [0.36486166715621937, 0.25540006523600167, 0.15635510317518256, 0.06673550765208956, -0.014355662437809452, -0.08772999269604832, -0.154121835492621, -0.21419565885315542, -0.26855269490600436, -0.3177369526706422, -0.36224064951807433, -0.4025090923164231, -0.4389449356910525, -0.4719108883374195, -0.5017114177146089, -0.4494955157904575])","array('d', [-0.0003766487934625934, 0.00021597477294951647, 8.477491899544787e-06, 8.157771486835488e-05, 5.6083792735451316e-05, 6.493283450967223e-05, 6.158308466909877e-05, 6.234109090587085e-05, 6.152104230083034e-05, 6.113146726623624e-05, 6.047952489233505e-05, 5.9869400396151434e-05, 5.8934543921036766e-05, 5.947642041792081e-05, 4.85688587255562e-05, -0.004043666887637933])","array('d', [0.12977250019577544, 0.11722275677816836, 0.10905481090918195, 0.10468623460413, 0.1036843004807604, 0.10571394760093192, 0.11050618408591865, 0.11783802064459635, 0.1275192799030411, 0.13938369910327553, 0.1532828184899719, 0.16908173405358434, 0.1866561249292925, 0.20589013702201062, 0.22667429652548696, 0.25191716076680604])",-115.59833903460189,-142.18977913128631,-49.976629583893626,-0.08772999269604832,6.493283450967223e-05,0.10571394760093192,25.000000241900082,-1.0,[],[],[],10000000000.0,0.01846909523010254
23,0.8294703960418701,-153.69540405273438,-116.90877532958984,50.0142936706543,0.30408889055252064,-0.005466103553772107,0.12224181095627336,23.140820359685673,"array('d', [-116.94039916992188, -116.64122608317446, -116.36479633375278, -116.10137071213032, -115.84234699977368, -115.58000283771484, -115.30732291818546, -115.01788010619005, -114.70575238376868, -114.36546432025217, -113.99194570314792, -113.5805023436067, -113.12679557223741, -112.6268279587178, -112.07693400470737, -111.59066462352861])","array('d', [-154.15406799316406, -151.67204947063172, -149.1873850036899, -146.7013038421539, -144.21475886402592, -141.7285627811477, -139.24348136744766, -136.7603000336586, -134.27987241412356, -131.80315610473252, -129.33123871047457, -126.86535625653131, -124.40690536149249, -121.9574501843082, -119.51872486705064, -117.57881154181514])","array('d', [-49.993408203125, -49.995471538532605, -49.994791211405726, -49.99507458452771, -49.995019985506644, -49.99508381127162, -49.995106059569416, -49.995142654677636, -49.99517395628806, -49.99520676345486, -49.99523863199731, -49.99527040062329, -49.995301469311656, -49.99533350436463, -49.99535381195629, -49.99120439717482])","array('d', [0.33464038372039784, 0.22805471468641453, 0.13161200454848387, 0.04434702414892312, -0.03461360188139957, -0.10606013598449872, -0.17070763653896773, -0.2292031136489579, -0.2821320028711035, -0.3300240199147775, -0.3733584490719823, -0.41256889498686244, -0.44804742404474546, -0.4801471665704385, -0.5091639905611799, -0.4561245698565458])","array('d', [0.0026063995901496368, -0.0008972818343888452, 0.0003325048058856989, -9.861438170451046e-05, 5.2415683007424034e-05, -4.7278652917966527e-07, 1.7963864542223277e-05, 1.1421363699828334e-05, 1.3583849853870673e-05, 1.2677011266366838e-05, 1.2815512108265638e-05, 1.2602934921423669e-05, 1.2257774103407172e-05, 1.3352015347929897e-05, 3.0656574903941294e-06, -0.004084318536794726])","array('d', [0.12599332729843654, 0.11467851560978912, 0.10757165054965957, 0.10413695829026694, 0.10397173252752062, 0.10676100103933114, 0.11224963546024257, 0.12022445912936522, 0.1305023952722308, 0.1429224283667748, 0.1573400620954384, 0.17362346020607483, 0.1916507437563375, 0.21130806463130014, 0.23248765040669506, 0.25816886736136974])",-115.58000283771484,-141.7285627811477,-49.99508381127162,-0.10606013598449872,-4.7278652917966527e-07,0.10676100103933114,25.000000241902516,-1.0,[],[],[],10000000000.0,0.017654895782470703
