,x_pos,y_pos,z_pos,roll,pitch,yaw,vel,x_traj,y_traj,z_traj,roll_traj,pitch_traj,yaw_traj,x_cmd,y_cmd,z_cmd,roll_cmd,pitch_cmd,yaw_cmd,vel_cmd,effector_dmg,effector_x,effector_y,effector_z,cost,time_solution
0,-200.53269958496094,-118.90261840820312,44.9563102722168,0.6285365223884583,0.03197294101119041,1.387910739579473,23.094623951400564,"array('d', [-121.13668823242188, -118.67578308795517, -116.22828472294997, -113.79741967493206, -111.38586396056257, -108.99636480977397, -106.63189664788302, -104.29546407458642, -101.99014933353423, -99.71907558398321, -97.4853988240198, -95.2922909304243, -93.14292652661918, -91.04046944784128, -88.98805956808134, -87.39245737601273])","array('d', [-201.07369995117188, -200.63695109184232, -200.12792484986838, -199.54514077756272, -198.88725774199054, -198.15318146346587, -197.34210964162003, -196.45348017898, -195.48698510745737, -194.44255824147615, -193.32037189948556, -192.1208296075411, -190.84455975779156, -189.49240855232497, -188.06543366298348, -186.8597136576707])","array('d', [-44.952606201171875, -44.901995118905624, -44.8977189871824, -44.92488791397455, -44.95761929067756, -44.98745671742474, -45.01739166561227, -45.046445154663864, -45.075015266464675, -45.103021235158444, -45.130547572923625, -45.15762024329623, -45.18428417280767, -45.210578556806695, -45.23653111552081, -45.251899704444256])","array('d', [0.628317296504974, 0.6432655053458063, 0.6567912051510606, 0.6690297653167391, 0.6801036730156811, 0.6901237589480539, 0.6991903062546887, 0.7073940534436783, 0.7148171007008607, 0.7215337266725245, 0.7276111171720793, 0.7331099858163178, 0.7380849492223475, 0.7425835111774698, 0.7466217932382433, 0.6642527123280558])","array('d', [-0.030147558078169902, -0.010669651093861414, 0.006954686992258224, 0.014652520452340194, 0.011584519486051228, 0.012274478976483356, 0.01168390395684398, 0.011561453022040783, 0.01129950365346302, 0.011108919134492298, 0.010915817297167637, 0.010745582228542279, 0.010588585137550862, 0.010449628893940481, 0.010315039264953772, 0.005139033027502916])","array('d', [1.4095599065211153, 1.3805915057849683, 1.3507516231745194, 1.320106786928974, 1.2887195268962468, 1.2566484729877885, 1.2239484661234044, 1.1906706821607815, 1.156862768048492, 1.1225689887168369, 1.0878303830746665, 1.0526849285263808, 1.0171677196890359, 0.9813112147411982, 0.9451464536633146, 0.9033941264001962])",-108.99636480977397,-198.15318146346587,-44.98745671742474,0.6901237589480539,0.012274478976483356,1.2566484729877885,25.00000024170597,-1.0,"[-200.3472095694653, -117.75598949034, 44.90833626257072]","[-205.40172243883595, -106.42607409072143, 53.33952340856934]","[-190.65076469098196, -108.319851803009, 51.38431203956878]",10000000000.0,0.018105506896972656
1,-200.30308532714844,-118.01309204101562,44.956825256347656,0.6293634772300717,0.03249490261077877,1.3791801045325138,23.09203728341852,"array('d', [-120.24160766601562, -117.7846131376473, -115.34161722788757, -112.91588255151544, -110.51010928360681, -108.12704633464803, -105.76967787277398, -103.44101200015795, -101.14413364410491, -98.88216612774879, -96.65826373886892, -94.47559462305455, -92.33732777473291, -90.24661953619258, -88.20660046063595, -86.62146091801132])","array('d', [-200.86293029785156, -200.40488661351225, -199.87468829038454, -199.27088604887993, -198.5921641250168, -197.8374493706473, -197.0059654231363, -196.09717516819217, -195.11079676104012, -194.0467903460452, -192.9053549421301, -191.68692091325883, -190.39214354587142, -189.02189586629117, -187.57726221200545, -186.35781967146596])","array('d', [-44.95447540283203, -44.90215153058548, -44.89632526787823, -44.92294181741013, -44.95570186331911, -44.985385108721346, -45.015247242368645, -45.04421639014541, -45.0727219417138, -45.100671338114225, -45.12815237731632, -45.15518913731812, -45.181826518527515, -45.2081031262217, -45.23404569175785, -45.249409313052425])","array('d', [0.628245890140533, 0.6432008941883255, 0.656732742550255, 0.668976866157487, 0.6800558078600673, 0.690080448732101, 0.6991511174831347, 0.7073585938256117, 0.7147850151579437, 0.7215046936076157, 0.7275848447222791, 0.7330862071210634, 0.7380634119894104, 0.7425639261155946, 0.746603103543087, 0.6642367743851303])","array('d', [-0.030867667868733396, -0.011321233422102827, 0.006365111032160234, 0.014788081529480149, 0.011475969717112953, 0.01225813685526152, 0.011642409894107522, 0.01153521501702822, 0.011274076579034249, 0.011088993758761172, 0.010899442398651149, 0.01073316118788702, 0.010579707220827775, 0.010444226990117435, 0.010312400100705828, 0.005136699274955328])","array('d', [1.400895194211278, 1.3719309122584344, 1.3420948368086025, 1.3114535144809465, 1.2800694930818612, 1.2480014200070355, 1.2153041531278608, 1.1820288846644837, 1.1482232772902012, 1.1139316109879442, 1.0791949390398168, 1.0440512526072736, 1.008535659787586, 0.9726806340517268, 0.9365172611892121, 0.8947664017578653])",-108.12704633464803,-197.8374493706473,-44.985385108721346,0.690080448732101,0.01225813685526152,1.2480014200070355,25.000000241744953,-1.0,"[-200.26003732506035, -117.4283877713822, 44.90835903151863]","[-205.26986607189323, -106.08673168564997, 53.35042353970499]","[-190.52755970368403, -108.0161610393703, 51.365050699440324]",10000000000.0,0.01752948760986328
2,-200.18533325195312,-117.56887817382812,44.956878662109375,0.6297267675399779,0.03275267407298087,1.3749378184464318,23.09280781127033,"array('d', [-119.7945785522461, -117.33961157281598, -114.89893572964176, -112.47583438422308, -110.07302155487923, -107.69324613957482, -105.33949765890871, -103.0147858623532, -100.72219707270632, -98.46485466950504, -96.24591206327175, -94.0685354894581, -91.93589107163793, -89.85113133553313, -87.81738209468996, -86.23753359910128])","array('d', [-200.7548370361328, -200.28616757460267, -199.7454014633243, -199.13110603832388, -198.44197911208366, -197.67695819949867, -196.83528042669866, -195.9164214706208, -194.9201128954875, -193.846328310164, -192.69528037142513, -191.46741312506194, -190.16339554797878, -188.78411430098913, -187.3306672591944, -186.10437753970635])","array('d', [-44.95527648925781, -44.9018992178489, -44.895119584453596, -44.921409929639836, -44.95420824574193, -44.983812384581434, -45.0136448532284, -45.0425753077956, -45.0710529962495, -45.098978027447686, -45.12644036681429, -45.15346299243219, -45.180090881985684, -45.2063623442536, -45.23230395303848, -45.24766837681635])","array('d', [0.6282431483268734, 0.6431984132919019, 0.6567304977408168, 0.6689748349668263, 0.6800539699561552, 0.6900787857132916, 0.6991496126885336, 0.707357232154999, 0.7147837828866854, 0.7215035781571429, 0.7275838342595354, 0.7330852894968174, 0.7380625705664805, 0.7425631140024694, 0.7466018656332273, 0.6642357183951104])","array('d', [-0.03131055459380151, -0.01172197393084613, 0.00600250608589847, 0.0148820971577284, 0.011415156891284702, 0.012254702879094902, 0.011622386936228713, 0.011524132190896326, 0.011262869538124139, 0.011080659496058591, 0.010892787867688379, 0.010728474718628738, 0.01057677073999206, 0.010443018081532985, 0.010312816451462965, 0.00513708533461637])","array('d', [1.3965669582274294, 1.3676028344166424, 1.3377669051445837, 1.3071257177360935, 1.27574182068715, 1.2436738620650147, 1.2109767003926561, 1.177701528520257, 1.143896009729324, 1.1096044245920964, 1.0748678269732037, 1.0397242086536085, 1.0042086785701392, 0.9683537123462672, 0.9321904141482662, 0.8904396533859231])",-107.69324613957482,-197.67695819949867,-44.983812384581434,0.6900787857132916,0.012254702879094902,1.2436738620650147,25.00000024176416,-1.0,"[-200.01756745823718, -116.54132284526088, 44.90809147997241]","[-204.90375615989552, -105.17088616753227, 53.383840988396464]","[-190.18606420234804, -107.19862690929301, 51.3155540337054]",10000000000.0,0.016503095626831055
3,-200.0656280517578,-117.12503814697266,44.9565544128418,0.6299976110458374,0.03298843279480935,1.3707752833750586,23.093044458575083,"array('d', [-119.3479232788086, -116.89504732389096, -114.45676418938474, -112.03637547713133, -109.63660810139184, -107.26021237049405, -104.91018302407463, -102.58953183853512, -100.30134666867212, -98.04875109323227, -95.83489771340889, -93.66295087865656, -91.53607381575739, -89.4574151642159, -87.43009588625833, -85.85567299268006])","array('d', [-200.64456176757812, -200.16516577680432, -199.61372212839606, -198.98881556624974, -198.2891583710673, -197.51370007022552, -196.66169224980513, -195.73262445570447, -194.72624264512964, -193.64253485445192, -192.48172829166032, -191.2442815580498, -189.93087815094322, -188.5424191534017, -187.0800167241111, -185.8467687797396])","array('d', [-44.95582580566406, -44.9015924000608, -44.894037923475786, -44.92005463897635, -44.95287108522923, -44.98240116741708, -45.012200297119634, -45.04109144289308, -45.06953964087782, -45.0974390950461, -45.12488145437901, -45.15188877533098, -45.178506059832564, -45.204771346107165, -45.23071106937273, -45.246075640304674])","array('d', [0.628325581550598, 0.6432730019633625, 0.656797988366493, 0.66903590301289, 0.6801092266077275, 0.6901287839890007, 0.699194852969655, 0.7073981671796209, 0.7148208222455886, 0.7215370922972094, 0.7276141579049049, 0.7331127240135581, 0.7380873827404423, 0.7425855118730286, 0.7466216039804567, 0.6642525493939178])","array('d', [-0.031670507043600166, -0.01204767239893152, 0.005707801970559246, 0.014951811292629291, 0.011361998840920935, 0.012247839258643223, 0.011602789938251753, 0.011512152970051256, 0.011251248872931243, 0.011071771671747539, 0.010885661318943808, 0.010723323860332609, 0.010573407257476823, 0.010441411191411681, 0.010312886861011998, 0.005137161514620882])","array('d', [1.3921967754748203, 1.3632278968231166, 1.3333875724576212, 1.3027423284848465, 1.2713546926693182, 1.2392832928950173, 1.2065829681181397, 1.173304892306006, 1.1394967106028715, 1.1052026862439686, 1.0704638566092846, 1.0353181979201367, 0.999800804685279, 0.9639441403835045, 0.9277793150194105, 0.8860270064862565])",-107.26021237049405,-197.51370007022552,-44.98240116741708,0.6901287839890007,0.012247839258643223,1.2392832928950173,25.000000241783543,-1.0,"[-199.8935767594181, -116.09834583746752, 44.90775843428551]","[-204.7195530986773, -104.71391148629542, 53.39920159059074]","[-190.01422973507124, -106.7893690405076, 51.29066164255919]",10000000000.0,0.0183258056640625
4,-199.94395446777344,-116.68157958984375,44.956077575683594,0.6302559971809383,0.03321941196918494,1.366490514078412,23.093547858862465,"array('d', [-118.90261840820312, -116.45183830723632, -114.015953277682, -111.59828165126861, -109.20156271904969, -106.82854931795684, -104.48224147040926, -102.1656533789911, -99.8818746543491, -97.63402929246553, -95.42526924367813, -93.25875709282624, -91.1376532514086, -89.06510252021157, -87.04422102626273, -85.47523084275163])","array('d', [-200.53269958496094, -200.04278288757584, -199.4808507107154, -198.84550626850447, -198.13547745958817, -197.34972724866694, -196.48752279525573, -195.54836866292095, -194.5320262450664, -193.4384989960762, -192.26802959445848, -191.02109205383562, -189.69838518532924, -188.3008252271926, -186.8295392962447, -185.58938695311213])","array('d', [-44.9563102722168, -44.90135754309231, -44.89315203973813, -44.91893289955494, -44.95175545334779, -44.981216359371395, -45.01098085730358, -45.039833281801165, -45.06825170341161, -45.096125412952915, -45.12354742877188, -45.1505390210273, -45.17714519079625, -45.20340373345215, -45.22934094689219, -45.24470517094539])","array('d', [0.6285365223884583, 0.643463869143148, 0.6569706921469808, 0.6691921718669822, 0.6802506245205397, 0.690256726108346, 0.6993106197636354, 0.7075029172380747, 0.7149156038400749, 0.7216228537755237, 0.7276917568923916, 0.7331829349966085, 0.7381509005096417, 0.7426429311582261, 0.7466730212391026, 0.6642963931549061])","array('d', [-0.03197294101119041, -0.012321325988497242, 0.00546018999892166, 0.015005703069875004, 0.011314682681063486, 0.012239166061090545, 0.011583925772041374, 0.011499927305334239, 0.011239641581479703, 0.011062739029083658, 0.010878388807363705, 0.01071798049784227, 0.010569828885331067, 0.010439565465165612, 0.010312696992540567, 0.005137003617411275])","array('d', [1.387910739579473, 1.3589296911145945, 1.329078117851675, 1.298422491561196, 1.2670252869198517, 1.2349450801290913, 1.2022366600425174, 1.1689511522762404, 1.1351361555297563, 1.1008358886322722, 1.0660913467080637, 1.0309404659867107, 0.9954183034813676, 0.9595572888531526, 0.9233885180204565, 0.8816321751074978])",-106.82854931795684,-197.34972724866694,-44.981216359371395,0.690256726108346,0.012239166061090545,1.2349450801290913,25.00000024180242,-1.0,"[-199.76775527127197, -115.65574438392184, 44.90708073796706]","[-204.53457013655964, -104.25698994661991, 53.412718475265876]","[-189.8416325060515, -106.37953899485393, 51.26507573871999]",10000000000.0,0.017114639282226562
5,-199.94395446777344,-116.68157958984375,44.956077575683594,0.6302559971809383,0.03321941196918494,1.366490514078412,23.093547858862465,"array('d', [-118.01309204101562, -115.56672245409229, -113.13588138366535, -110.72391977247027, -108.33360221848478, -105.967689373017, -103.62919275809602, -101.32113268497903, -99.04660307705159, -96.80872937766945, -94.61066258547493, -92.45556188610112, -90.3465819750783, -88.28685969282604, -86.27950102663831, -84.72192369270199])","array('d', [-200.30308532714844, -199.79173722543527, -199.20839047684066, -198.55169056655637, -197.82040182434434, -197.01351950600682, -196.13034686121802, -195.1704233677989, -194.1335459304, -193.01975329855688, -191.82932334409335, -190.56276495862184, -189.22081143173907, -187.80441296298713, -186.314730039994, -185.060273645316])","array('d', [-44.956825256347656, -44.90063107951415, -44.891301990278905, -44.91666314725308, -44.9494767903301, -44.97880341049296, -45.008493937245284, -45.03726730808322, -45.06562362466897, -45.09344381836923, -45.12082319190723, -45.14778164679548, -45.17436415042571, -45.200608056693774, -45.226539410592416, -45.24190242964328])","array('d', [0.6293634772300717, 0.6442121288934609, 0.6576477456261726, 0.6698047952385751, 0.6808049491072643, 0.6907582997513647, 0.6997644623351219, 0.7079135708521587, 0.7152871782358163, 0.7219590672406181, 0.7279959728526391, 0.7334581935189112, 0.738399939396938, 0.7428681540127803, 0.746875640758953, 0.664469159231088])","array('d', [-0.03249490261077877, -0.01279361640780896, 0.005032844012389619, 0.01508876176587741, 0.011227338864959606, 0.012217970400800221, 0.011546215816886673, 0.011474190396546943, 0.011215661951597233, 0.01104381892537662, 0.010863131925781606, 0.010706660269298073, 0.010562154312340465, 0.0104354705626616, 0.010312046542624171, 0.0051364468304715815])","array('d', [1.3791801045325138, 1.3501513117100996, 1.3202556091966757, 1.2895592551955672, 1.2581245157439842, 1.2260097639531977, 1.1932695918229983, 1.1599549350235883, 1.1261132098202342, 1.0917884606275463, 1.0570215165844967, 1.0218501567237748, 0.9863092902144857, 0.9504312108179133, 0.9142469256440908, 0.8724746796416951])",-105.967689373017,-197.01351950600682,-44.97880341049296,0.6907582997513647,0.012217970400800221,1.2260097639531977,25.000000241840993,-1.0,"[-199.63979118269117, -115.21358685545768, 44.90625762187303]","[-204.3456235368239, -103.80008169120872, 53.42606053746093]","[-189.6656961929632, -105.9711942317673, 51.238366885415246]",10000000000.0,0.01602339744567871
6,-199.68910217285156,-115.7774658203125,44.95450210571289,0.6314010620117185,0.03307964652776722,1.358090371885572,23.097647989104026,"array('d', [-117.56887817382812, -115.124719210538, -112.69639530400238, -110.28727293397253, -107.90012882590649, -105.53772709953012, -103.20308461386081, -100.89922438416717, -98.62924219671365, -96.39626398310385, -94.20344008645216, -92.05392786730182, -89.9508790898086, -87.8974265908285, -85.89667131191015, -84.34466217884541])","array('d', [-200.18533325195312, -199.66358850177656, -199.06986039459593, -198.40281465543057, -197.6612330262488, -196.84412602224577, -195.95081406899044, -194.98085322474202, -193.9340572820729, -192.81048177761627, -191.61042133040573, -190.3344014342004, -188.98317179565976, -187.55769878911173, -186.05915879928958, -184.79781995191442])","array('d', [-44.956878662109375, -44.90007139977164, -44.890187426819935, -44.91534451546303, -44.94815876718455, -44.977423126530695, -45.00708120968583, -45.0358193254442, -45.064148586592495, -45.09194576424546, -45.11930731438988, -45.146252467114195, -45.17282618336714, -45.19906560720512, -45.224996637156174, -45.24036093080931])","array('d', [0.6297267675399779, 0.6445408475886604, 0.6579451826272306, 0.6700739273880931, 0.6810484699620063, 0.6909786465377386, 0.6999638403357471, 0.7080939754622994, 0.7154504148959777, 0.7221067694019316, 0.7281296180120341, 0.7335791169228453, 0.7385093427194003, 0.7429670876030057, 0.7469645747935407, 0.6645449851523815])","array('d', [-0.03275267407298087, -0.013026857688652011, 0.00482179860017225, 0.015132300826681953, 0.011185708293691646, 0.012209240119479157, 0.011529128809651469, 0.01146297354771498, 0.011205220130046845, 0.011035806246175579, 0.010856856061273986, 0.010702262453743628, 0.0105594928616446, 0.010434517372935784, 0.010312713529781595, 0.005137054858057438])","array('d', [1.3749378184464318, 1.345888033425998, 1.315972929307921, 1.285258670193547, 1.253807430200501, 1.2216774929789416, 1.1889233638293373, 1.1555958947797746, 1.1217424217755816, 1.0874069124563244, 1.0526301229112485, 1.01744976301116, 0.9819006769239971, 0.9460150988664477, 0.9098239993862647, 0.8680447723342536])",-105.53772709953012,-196.84412602224577,-44.977423126530695,0.6909786465377386,0.012209240119479157,1.2216774929789416,25.000000241859134,-1.0,"[-199.37261694940418, -114.31207307108632, 44.90489168488456]","[-203.95873826125674, -102.87408406863244, 53.45707847498193]","[-189.30481076899486, -105.14391632958636, 51.19648772062945]",10000000000.0,0.031835079193115234
7,-199.56100463867188,-115.33534240722656,44.953407287597656,0.6325640678405758,0.032352905720472384,1.3543419996884207,23.100751586834228,"array('d', [-117.12503814697266, -114.68308905492039, -112.25727363826452, -109.85097248048847, -107.46697341977583, -105.10804372508863, -102.7772050210427, -100.47748265577283, -98.21197393758892, -95.9838050281974, -93.79612541854893, -91.65209051220812, -89.55484906953983, -87.5075299082642, -85.51322896192082, -83.96665785047811])","array('d', [-200.0656280517578, -199.53369732240242, -198.9298111529536, -198.2526540474749, -197.5010238083181, -196.6739449973963, -195.77075394808082, -194.79102209640354, -193.7345789396434, -192.60149565730455, -191.39208250523407, -190.1068805064934, -188.74665474955043, -187.3123867868658, -185.80526794270142, -184.5372671674423])","array('d', [-44.9565544128418, -44.89918642329817, -44.88879495212754, -44.91376530712449, -44.94658017671926, -44.975788040624025, -45.005417198466475, -45.03412410537854, -45.06242992463033, -45.09020760454437, -45.11755464243761, -45.144489642272575, -45.171057550388234, -45.19729531170212, -45.22322870035352, -45.238596256445874])","array('d', [0.6299976110458374, 0.6447859169487964, 0.6581669305730623, 0.6702745732420868, 0.6812300218483008, 0.691142921477605, 0.7001124824269599, 0.7082284723190868, 0.7155721124996564, 0.7222168854680008, 0.7282292538646239, 0.7336692674326919, 0.7385909015648118, 0.7430408263065684, 0.7470307068613109, 0.6646013678975912])","array('d', [-0.03298843279480935, -0.013240181016940319, 0.004628775693541889, 0.015172049556367223, 0.01114775088112627, 0.012201494160602174, 0.01151385842386475, 0.011453183780406759, 0.011196241642875209, 0.011029146890151597, 0.010851876891792945, 0.0106990887210132, 0.01055799191565726, 0.010434660793676158, 0.01031443091176639, 0.005138601914837621])","array('d', [1.3707752833750586, 1.3417098410655657, 1.3117802664626972, 1.2810526534004945, 1.2495891073634233, 1.217447845209651, 1.184683307515596, 1.1513462838737742, 1.1174840502802417, 1.0831405170785045, 1.0483563858527711, 1.0131693148934122, 0.9776140999697385, 0.9417229313759714, 0.905526757863392, 0.8637423399988006])",-105.10804372508863,-196.6739449973963,-44.975788040624025,0.691142921477605,0.012201494160602174,1.217447845209651,25.000000241876517,-1.0,"[-199.23902115579813, -113.87111142828242, 44.904886394605484]","[-203.7717172928422, -102.42629055444185, 53.47639389882718]","[-189.12940750340076, -104.74432416456415, 51.18958734549335]",10000000000.0,0.01643991470336914
8,-199.42913818359375,-114.88935852050781,44.951202392578125,0.6341788172721861,0.031065721064805995,1.3506927053120472,23.10793069483702,"array('d', [-116.68157958984375, -114.24194876404151, -111.8187588101498, -109.41540419921918, -107.03468384260198, -104.67936824296362, -102.35248371530021, -100.05705788783038, -97.79618949890633, -95.57300483050021, -93.39065238756613, -91.25228546191708, -89.1610496343688, -87.12006950767277, -85.132435791118, -83.59147908414572])","array('d', [-199.94395446777344, -199.40154975885991, -198.7872224792544, -198.09967621818973, -197.33772509111904, -196.5004079369822, -195.5870772475197, -194.597320089902, -193.53098192675023, -192.3881498452948, -191.16915000600875, -189.87453923040277, -188.5050982577562, -187.0618240861607, -185.54592324477048, -184.2711053141854])","array('d', [-44.956077575683594, -44.89816022942546, -44.88727154901485, -44.912057491111234, -44.94487076822905, -44.974021711599384, -45.00362111982956, -45.032296335481966, -45.06057830779358, -45.08833624516964, -45.115668650592774, -45.1425935082196, -45.16915574271306, -45.1953920984318, -45.221328223918974, -45.236699374917386])","array('d', [0.6302559971809383, 0.6450197144126889, 0.6583784792844115, 0.6704659904461039, 0.6814032233056929, 0.6912996406355038, 0.7002542877615416, 0.7083567830178839, 0.7156882126252553, 0.7223219366995307, 0.7283243067931453, 0.733755270926672, 0.7386687072836879, 0.7431111654457162, 0.7470937252448794, 0.6646550944214371])","array('d', [-0.03321941196918494, -0.013449179631574881, 0.004439665948215642, 0.015209839806952787, 0.011109948254738617, 0.012193263989852406, 0.011498407697696325, 0.011443188815712975, 0.011187142882670911, 0.011022411223804889, 0.010846876926365259, 0.010695943507364533, 0.010556569238894207, 0.010434930695388157, 0.010316323524146367, 0.005140306431278479])","array('d', [1.366490514078412, 1.3374101290582228, 1.307466744736173, 1.2767263878218658, 1.2452510982400058, 1.2130990290521122, 1.1803245590178786, 1.1469784181035794, 1.1131078250582473, 1.0787566355170046, 1.0439654990269094, 1.008772024644741, 0.9732109619773659, 0.9373144596006205, 0.901113447769134, 0.8593240833061345])",-104.67936824296362,-196.5004079369822,-44.974021711599384,0.6912996406355038,0.012193263989852406,1.2130990290521122,25.000000241894394,-1.0,"[-199.1018000819276, -113.4262525647295, 44.9046113058382]","[-203.58249874412462, -101.97761444275487, 53.49833137636965]","[-188.95143918634142, -104.34638761943852, 51.191599954200065]",10000000000.0,0.01625967025756836
9,-199.29501342773438,-114.4440689086914,44.94890213012695,0.6362415552139279,0.02925773896276952,1.347174094119344,23.116152156422025,"array('d', [-115.7774658203125, -113.34248904230914, -110.92460580717162, -108.5272219890929, -106.15314908286722, -103.80517284280087, -101.48632770293914, -99.19964831082517, -96.94823715725757, -94.73522180727406, -92.56374942076492, -90.43696949044592, -88.3580214134354, -86.3300213305259, -84.35604927316169, -82.82660485804799])","array('d', [-199.68910217285156, -199.1261402001761, -198.4912441507591, -197.78315941053253, -197.00073681799742, -196.14305269595462, -195.20949746275372, -194.19969608135992, -193.11353178385747, -191.9511291671609, -190.71285150978392, -189.39929224692452, -188.01126811739564, -186.5498114090121, -185.01616316570582, -183.72755627624971])","array('d', [-44.95450210571289, -44.896917174731385, -44.886329355463076, -44.91112855452693, -44.943793548797366, -44.972867730900056, -45.0023808873931, -45.030987712723224, -45.05920913704535, -45.08691728461603, -45.114209146616, -45.141102770777415, -45.16764264722588, -45.193865307482994, -45.21979614466185, -45.23516639652504])","array('d', [0.6314010620117185, 0.6460558120103352, 0.6593159792417841, 0.6713142755578226, 0.6821707834718926, 0.6919941578261632, 0.7008827128872983, 0.7089254054651589, 0.7162027231199174, 0.7227874840336583, 0.7287455486657194, 0.7341364181539248, 0.7390135554714523, 0.7434230659406841, 0.7473746171731735, 0.664894553479287])","array('d', [-0.03307964652776722, -0.013322714619915127, 0.0045540962130047324, 0.015109593177022682, 0.01109021451880419, 0.012151944591923262, 0.011470497177415814, 0.011416365353377847, 0.0111654394457069, 0.011004221744578673, 0.010832565043826745, 0.010685207515432801, 0.010549358967795786, 0.010431127159793791, 0.0103158407822839, 0.005139888614533313])","array('d', [1.358090371885572, 1.3289437010669778, 1.2989390610377403, 1.2681421799862893, 1.236614806317745, 1.20441480946538, 1.1715962934171047, 1.1382097231559924, 1.1043020630659923, 1.0699169257247363, 1.03509472947371, 0.9998728644693089, 0.9642858743769421, 0.9283657177186619, 0.8921431906851974, 0.8503317638647268])",-103.80517284280087,-196.14305269595462,-44.972867730900056,0.6919941578261632,0.012151944591923262,1.20441480946538,25.000000241929065,-1.0,"[-198.96251112503953, -112.98204403413871, 44.90502178268279]","[-203.39308108829746, -101.53285149740842, 53.52395675503035]","[-188.77283234277056, -103.95419288606529, 51.20330329134902]",10000000000.0,0.021999835968017578
10,-199.29501342773438,-114.4440689086914,44.94890213012695,0.6362415552139279,0.02925773896276952,1.347174094119344,23.116152156422025,"array('d', [-115.33534240722656, -112.90247438153153, -110.4870459238131, -108.09244979043973, -105.72149305373097, -103.37697815547992, -101.06194185782104, -98.77942470527444, -96.53253187736884, -94.32439266663488, -92.15815430574044, -90.03696501759927, -87.96396156663067, -85.94225619118492, -83.97492378934194, -82.45108640550221])","array('d', [-199.56100463867188, -198.98882747547503, -198.34463216893369, -197.62718645031305, -196.83536196403756, -195.96826177893746, -195.0252994880151, -194.00612443165738, -192.9106433032697, -191.73900392376487, -190.49159222271814, -189.1690237663802, -187.7721368221699, -186.3019845804216, -184.7598283351739, -183.46459608812793])","array('d', [-44.953407287597656, -44.89755083866566, -44.88852741484663, -44.913750311053626, -44.946182687968175, -44.975258702169356, -45.004699044976306, -45.03326552597503, -45.061441736574125, -45.08911260963651, -45.116370524068586, -45.14323497781778, -45.1697498077311, -45.19595163825315, -45.22186565220221, -45.2372246323253])","array('d', [0.6325640678405758, 0.6471081432965529, 0.6602681680509213, 0.6721758516969403, 0.6829503698658772, 0.6926995568162623, 0.7015209843134615, 0.7095029373081356, 0.7167252953948258, 0.7232603265286004, 0.7291733929488791, 0.7345235437568732, 0.7393638275979869, 0.7437399412867239, 0.7476606897475848, 0.6651384003068109])","array('d', [-0.032352905720472384, -0.012665132295419709, 0.00514910123556463, 0.01486751448211618, 0.011141290553811623, 0.012103986231003777, 0.011459582528125638, 0.01139517386685901, 0.011150355759647852, 0.01098947831858222, 0.01082011061332006, 0.0106742984861528, 0.010540200437867814, 0.01042359387142627, 0.010309888386540112, 0.005134560619196292])","array('d', [1.3543419996884207, 1.325127894548803, 1.2950609444081682, 1.2642065724851401, 1.2326262294420194, 1.2003774951172275, 1.1675141930397717, 1.1340865178167723, 1.1001411743756655, 1.0657215274440526, 1.030867759645569, 0.9956170379408104, 0.9600036957251641, 0.9240594956387992, 0.8878150722501419, 0.8459811624687875])",-103.37697815547992,-195.96826177893746,-44.975258702169356,0.6926995568162623,0.012103986231003777,1.2003774951172275,25.00000024194448,-1.0,"[-198.96251112503953, -112.98204403413871, 44.90502178268279]","[-203.39308108829746, -101.53285149740842, 53.52395675503035]","[-188.77283234277056, -103.95419288606529, 51.20330329134902]",10000000000.0,0.017116785049438477
11,-199.019775390625,-113.55559539794922,44.94441223144531,0.6416143774986265,0.024178577587008514,1.3403236577895026,23.13543158036794,"array('d', [-114.88935852050781, -112.45855766035676, -110.04557802192076, -107.65378207606251, -105.28596479162232, -102.94495340523007, -100.63378558919844, -98.35550975477513, -96.11323435907454, -93.91009119621191, -91.74922801429548, -89.63379206868574, -87.56691760744053, -85.55171293138979, -83.59124762513015, -82.07321771249407])","array('d', [-199.42913818359375, -198.84795578277158, -198.19461578365863, -197.46790925741078, -196.66673118015754, -195.79021861790415, -194.8378122507959, -193.80919079268972, -192.70428869229755, -191.52328122866626, -190.26658092007943, -188.93482919551587, -187.52888934919153, -186.0498387558736, -184.49896202832315, -183.1969287603734])","array('d', [-44.951202392578125, -44.8984074527257, -44.89215485491212, -44.918157140120734, -44.95022174881404, -44.97933447945573, -45.00867760974212, -45.03719980367759, -45.06531968761947, -45.092944672000954, -45.12015921178308, -45.14698545063146, -45.173466188057944, -45.19963830156558, -45.22552672349815, -45.24086784266286])","array('d', [0.6341788172721861, 0.6485692291349922, 0.6615902133073206, 0.6733720878193585, 0.6840327691628361, 0.693678952276976, 0.702407178021801, 0.7103047985296832, 0.7174508493028761, 0.7239168344094022, 0.7297674245277214, 0.7350610417274838, 0.7398501617328929, 0.7441799276122772, 0.7480581219600193, 0.6654771196652097])","array('d', [-0.031065721064805995, -0.011500439370529206, 0.006202958814925047, 0.014461533702597899, 0.01124453343749549, 0.012033024276617192, 0.011451716449388374, 0.011367931228020932, 0.011132379628478493, 0.010970753745725597, 0.010804088326414244, 0.010659722954224632, 0.01052746967253038, 0.010412522044238528, 0.010300458111943613, 0.00512611638610733])","array('d', [1.3506927053120472, 1.3213847879549732, 1.2912311659444111, 1.2602968360749163, 1.2286428328189405, 1.1963263313660495, 1.1634007635216024, 1.1299159464099575, 1.0959182228702913, 1.0614506118758054, 1.0265529673377152, 0.9912621450504523, 0.9556121852525751, 0.9196345769778189, 0.8833597219322694, 0.8414945613145605])",-102.94495340523007,-195.79021861790415,-44.97933447945573,0.693678952276976,0.012033024276617192,1.1963263313660495,25.00000024195962,-1.0,"[-198.96251112503953, -112.98204403413871, 44.90502178268279]","[-203.39308108829746, -101.53285149740842, 53.52395675503035]","[-188.77283234277056, -103.95419288606529, 51.20330329134902]",10000000000.0,0.01630854606628418
12,-198.87850952148438,-113.1124496459961,44.94247817993164,0.6448662281036374,0.02084828540682794,1.3369263867524004,23.143900951075867,"array('d', [-114.4440689086914, -112.01527925639691, -109.60472378519165, -107.21571673332727, -104.85103613737331, -102.51354223232954, -100.2062724091183, -97.9322847949861, -95.69469168261297, -93.4966280870451, -91.34124267873234, -89.23168201745466, -87.17107793135128, -85.1625347376378, -83.20911652566436, -81.69705467692867])","array('d', [-199.29501342773438, -198.70511343091817, -198.04286037887127, -197.3070690266709, -196.49666082612185, -195.61081415191666, -194.64900067798322, -193.6109334000181, -192.49657873675022, -191.30614356598315, -190.0400708361316, -188.69903146885653, -187.28391717856283, -185.7958326988677, -184.23608892044385, -182.92713045010947])","array('d', [-44.94890213012695, -44.90040752686297, -44.89804685031496, -44.925155459364525, -44.95672095612212, -44.98589790045865, -45.01511599712738, -45.04358523817495, -45.07163347634991, -45.09919962973152, -45.12635713132505, -45.153131883647134, -45.17956528463871, -45.205694609534014, -45.23154447389347, -45.246857947266726])","array('d', [0.6362415552139279, 0.65043567177704, 0.6632790406006355, 0.6749002020833363, 0.68541546424811, 0.6949300666287163, 0.7035392331732243, 0.7113291244060506, 0.7183776975738055, 0.7247554809747669, 0.7305262619961026, 0.7357476621469959, 0.7404714270019812, 0.7447420021585172, 0.7485659960399393, 0.6659098808967023])","array('d', [-0.02925773896276952, -0.009864509399075055, 0.0076832091398472534, 0.013900422299803181, 0.011394456997526475, 0.011938551858389112, 0.011444696144282788, 0.01133305123134311, 0.011109735274915527, 0.010946359622267084, 0.010782797431832023, 0.010639799449308755, 0.01050948948883281, 0.010396241115511818, 0.01028586319771291, 0.005113044669870003])","array('d', [1.347174094119344, 1.3177460239018253, 1.2874814142884305, 1.2564447122030808, 1.224696415673492, 1.192293178585003, 1.1592879283667499, 1.1257299963755287, 1.0916652597513246, 1.0571362930124681, 1.0221825277317749, 0.9868404200807168, 0.9511436338919281, 0.9151233066010515, 0.8788095353892177, 0.8369044124684107])",-102.51354223232954,-195.61081415191666,-44.98589790045865,0.6949300666287163,0.011938551858389112,1.192293178585003,25.00000024197444,-1.0,"[-198.6772189649167, -112.09568444402935, 44.90814789868247]","[-203.01014806558612, -100.65401770781881, 53.58651109147783]","[-188.41103852638747, -103.18784504080536, 51.252904503149644]",10000000000.0,0.018042802810668945
13,-198.73472595214844,-112.6700668334961,44.941219329833984,0.6483713388442989,0.017189938575029363,1.3332774351027348,23.154772229017354,"array('d', [-113.55559539794922, -111.13080128819747, -108.7251659880717, -106.34184552506241, -103.98358308489054, -101.65333130327954, -99.35412417529359, -97.08904428913043, -94.86121298154123, -92.67377345650328, -90.52987706375363, -88.43266938622921, -86.38527730027525, -84.39079661216093, -82.4522794675377, -80.95285708655024])","array('d', [-199.019775390625, -198.412815393486, -197.73295776981925, -196.97906173202378, -196.15011433390208, -195.24539923272587, -194.26446191136492, -193.2070985028001, -192.07335191234043, -190.86350453447042, -189.578071624556, -188.21779391624477, -186.7836300992886, -185.2767491189972, -183.69852328849487, -182.37510735117252])","array('d', [-44.94441223144531, -44.90799929761596, -44.91657219720308, -44.94680805539677, -44.97700032907441, -45.00637824198111, -45.03526343307108, -45.0635981908234, -45.09145612992469, -45.11886459155987, -45.14586622152204, -45.17249756120517, -45.198796172856106, -45.22480052807825, -45.250534593209544, -45.265763791520605])","array('d', [0.6416143774986265, 0.6552972028606167, 0.667677936231149, 0.6788804878048277, 0.689016976020268, 0.6981888495128885, 0.706487902070316, 0.7139971904443451, 0.7207918633784717, 0.7269399076681362, 0.7325028102394602, 0.7375361081858465, 0.7420896484326908, 0.7462060777866041, 0.7498891712829551, 0.6670369121581617])","array('d', [-0.024178577587008514, -0.0052686938507199394, 0.011841672577942365, 0.012339302263754246, 0.011823705079771502, 0.011681537609999045, 0.011431303673659323, 0.011240176075285012, 0.011049811940831765, 0.010880225543377626, 0.010724102783200174, 0.010583713914913478, 0.010457666443143243, 0.010348022845970348, 0.010241374912129793, 0.0050731945393114545])","array('d', [1.3403236577895026, 1.310580955043943, 1.2800258207263369, 1.2487212416778994, 1.216726292810308, 1.1840962465418388, 1.1508826952212436, 1.1171336858724015, 1.0828938657652936, 1.0482046369398665, 1.0131043179866344, 0.9776283129518076, 0.9418092954240213, 0.9056774778284148, 0.8692621473525203, 0.8272527721174843])",-101.65333130327954,-195.24539923272587,-45.00637824198111,0.6981888495128885,0.011681537609999045,1.1840962465418388,25.00000024200416,-1.0,"[-198.53096930818182, -111.65360147807024, 44.91120801720422]","[-202.81542361224425, -100.21922902852053, 53.62318701174843]","[-188.22694193298574, -102.81445989205686, 51.29059637923537]",10000000000.0,0.015736103057861328
14,-198.5883331298828,-112.22845458984375,44.94047927856445,0.6520144939422605,0.013274216093123035,1.329459981122289,23.163691147847654,"array('d', [-113.1124496459961, -110.68969144439292, -108.28660681116936, -105.90623187253492, -103.55129904557906, -101.2248231188697, -98.92983486038295, -96.6694314729019, -94.44673926963227, -92.2649062211678, -90.1270852334273, -88.03642142035348, -85.99603894806714, -84.00902892783449, -82.0784368965167, -80.58574403695131])","array('d', [-198.87850952148438, -198.26305521317968, -197.5743629907805, -196.81130888304654, -195.97292066881516, -195.05854678868417, -194.06777523300448, -193.00045077548685, -191.85666055923494, -190.63673064950413, -189.34121793417916, -187.9709032366224, -186.526783583222, -185.0100645664917, -183.42215344773942, -182.09115335535287])","array('d', [-44.94247817993164, -44.91398741547582, -44.92972913925345, -44.962020755503474, -44.99132057651953, -45.02083568203846, -45.04950719313674, -45.077757028620525, -45.10549229789288, -45.1327982901829, -45.159697500943935, -45.1862334603371, -45.21244122105929, -45.23836004668449, -45.26401317532365, -45.2791826791822])","array('d', [0.6448662281036374, 0.6582395992322744, 0.6703403268075505, 0.6812895186364039, 0.6911967574509201, 0.7001611974814191, 0.7082725564447063, 0.7156120125674181, 0.722253014783241, 0.7282620116939612, 0.7336990979697656, 0.7386185493769246, 0.7430690646849037, 0.7470922079209645, 0.7506901377002934, 0.6677188280449051])","array('d', [-0.02084828540682794, -0.002255320739311771, 0.014568277653159515, 0.011319933747148044, 0.01210732482626179, 0.011515186306055891, 0.01142404561406759, 0.011180368619813877, 0.011011125125869506, 0.010837007564297268, 0.010685306870077642, 0.010546180224713576, 0.010422476285719219, 0.010314753587430166, 0.010209862241744078, 0.005044967741866495])","array('d', [1.3369263867524004, 1.3069920689344294, 1.2762600787042189, 1.2447924990237074, 1.2126475248200972, 1.1798795753884534, 1.1465394197234693, 1.1126743138769584, 1.0783281487044312, 1.0435416060575864, 1.008352321715408, 0.9727950549761736, 0.9369018732017096, 0.9007024228124128, 0.864225491716826, 0.8221529114540176])",-101.2248231188697,-195.05854678868417,-45.02083568203846,0.7001611974814191,0.011515186306055891,1.1798795753884534,25.000000242019386,-1.0,"[-198.38184024255483, -111.21239510091154, 44.91543569183356]","[-202.61411901407195, -99.78623121462529, 53.663612372942225]","[-188.03740168822634, -102.44805414646567, 51.33251591806926]",10000000000.0,0.017588138580322266
15,-198.5883331298828,-112.22845458984375,44.94047927856445,0.6520144939422605,0.013274216093123035,1.329459981122289,23.163691147847654,"array('d', [-112.6700668334961, -110.24955466836568, -107.84925300805874, -105.47207465198225, -103.12076878387202, -100.79839776172193, -98.50799567302016, -96.25267285728088, -94.03556145820593, -91.8598139983366, -89.72858482681123, -87.64501820358952, -85.61223507205155, -83.63332117736012, -81.71131464295112, -80.22590918048381])","array('d', [-198.73472595214844, -198.11016009689203, -197.41198479990527, -196.6390945683839, -195.79057009143716, -194.86582413446396, -193.8644932981692, -192.78647420907225, -191.63190227057984, -190.40115070155264, -189.0948214672678, -187.7137387053838, -186.2589408529822, -184.73167305179385, -183.13338025763724, -181.79425378423042])","array('d', [-44.941219329833984, -44.921431454095014, -44.943434794712914, -44.97699025294925, -45.00566631342518, -45.035219596237226, -45.06370649223306, -45.09185641985386, -45.11946979223021, -45.146669069720595, -45.17346383349869, -45.19990209052687, -45.226017272594895, -45.25184913426855, -45.277420447466355, -45.29252983078862])","array('d', [0.6483713388442989, 0.6614111548719055, 0.6732100692830265, 0.6838861692417819, 0.6935463042881633, 0.7022871555547368, 0.7101962029988621, 0.7173526000179212, 0.7238279633483659, 0.729687083591683, 0.7349885547006189, 0.7397852927697548, 0.7441247584949308, 0.7480473454652634, 0.7515534106324007, 0.6684535190975286])","array('d', [-0.017189938575029363, 0.0010548884445065697, 0.016293961675047715, 0.010645474684172724, 0.01226879880220692, 0.011389054551379793, 0.011400759951317344, 0.011124270303876352, 0.010969459185205898, 0.010793330148778299, 0.01064535965282468, 0.010507932805885712, 0.010386616886675618, 0.010281002916294435, 0.010178123548528116, 0.005016540388864441])","array('d', [1.3332774351027348, 1.3031355628130876, 1.272212071760271, 1.240568052965136, 1.2082607365724414, 1.1753436075435446, 1.1418665341397032, 1.1078759080589304, 1.073414794453625, 1.0385230898242743, 1.0032376860808063, 0.9675926407626252, 0.9316193619783647, 0.8953468812488158, 0.8588034466851519, 0.8166626669871155])",-100.79839776172193,-194.86582413446396,-45.035219596237226,0.7022871555547368,0.011389054551379793,1.1753436075435446,25.000000242036055,-1.0,"[-198.22986402855244, -110.77205372955564, 44.920568539164805]","[-202.40743484775433, -99.35457682400883, 53.7063026099103]","[-187.84342624487317, -102.08685143608186, 51.37728374793756]",10000000000.0,0.015683412551879883
16,-198.28753662109375,-111.34774017333984,44.94123077392578,0.6596125960350032,0.004784121178090559,1.321102635064397,23.180962991394217,"array('d', [-112.22845458984375, -109.81035928151834, -107.41297870387477, -105.03915313977018, -102.69169663669472, -100.37366506467332, -98.08811225036459, -95.8381560170869, -93.62693613960329, -91.45760884647649, -89.33332982463918, -87.25724198768238, -85.23246256892989, -83.2620713451918, -81.34909835853313, -79.8713565337083])","array('d', [-198.5883331298828, -197.9542520664151, -197.24615956801046, -196.46298432687894, -195.60387835313162, -194.66830360806526, -193.65595381310015, -192.5667775930218, -191.40096176301765, -190.1589285819429, -188.84132727929133, -187.44902722241628, -185.98311011614393, -184.44486237699596, -182.83576828313042, -181.48819095949537])","array('d', [-44.94047927856445, -44.93000683921995, -44.9547193537622, -44.987173943913994, -45.016076789896246, -45.04540233536785, -45.07382603069236, -45.101862615173495, -45.129387281555374, -45.15649661702907, -45.18320926859732, -45.20957010743168, -45.235613646309304, -45.261379230557374, -45.286889573019955, -45.30195464059174])","array('d', [0.6520144939422605, 0.6647076182226697, 0.6761928329395263, 0.6865850856499051, 0.6959883850583204, 0.7044968417995757, 0.7121956099397779, 0.719161738300398, 0.7254649392581621, 0.7311682801049708, 0.7363287949369601, 0.7409979865010099, 0.7452220281036314, 0.7490400933378782, 0.7524506187048499, 0.6692167908347574])","array('d', [-0.013274216093123035, 0.004597980708734156, 0.014998932812767466, 0.011031667391312816, 0.012073741461732517, 0.011398497596117678, 0.011341892650073493, 0.011092013440082302, 0.010930852862040095, 0.01075989239053511, 0.010613084486832229, 0.01047822709865362, 0.010358970566340943, 0.010255587257044656, 0.010154726391229245, 0.004995588012944394])","array('d', [1.329459981122289, 1.2991012494757141, 1.267977747354842, 1.2361495147415282, 1.2036727606279332, 1.1705999822115196, 1.1369800966561052, 1.1028585840624057, 1.068277639752507, 1.033276333814411, 0.9978907762088911, 0.9621542875119563, 0.92609758415295, 0.8897490531825857, 0.8531363791658444, 0.8109246383826203])",-100.37366506467332,-194.66830360806526,-45.04540233536785,0.7044968417995757,0.011398497596117678,1.1705999822115196,25.00000024205364,-1.0,"[-198.22986402855244, -110.77205372955564, 44.920568539164805]","[-202.40743484775433, -99.35457682400883, 53.7063026099103]","[-187.84342624487317, -102.08685143608186, 51.37728374793756]",10000000000.0,0.017071247100830078
17,-198.28753662109375,-111.34774017333984,44.94123077392578,0.6596125960350032,0.004784121178090559,1.321102635064397,23.180962991394217,"array('d', [-111.34774017333984, -108.93517655848919, -106.54433912647409, -104.17797660655563, -101.83906027199036, -99.53063296549529, -97.25578928240502, -95.01766140397133, -92.81940374922077, -90.66417883819992, -88.55514363100876, -86.49543663323662, -84.48816567905934, -82.53639638361814, -80.6431401733267, -79.18210683116425])","array('d', [-198.28753662109375, -197.63271159090868, -196.9030241545733, -196.0974899806147, -195.21542073523312, -194.2563835367144, -193.2201943549426, -192.1069126252329, -190.91683473333177, -189.65048732485926, -188.3086201706644, -186.89219877303663, -185.40239673676786, -183.84058808381323, -182.20834050745339, -180.84266878892078])","array('d', [-44.94123077392578, -44.95095648443645, -44.98153072265814, -45.011579644279166, -45.0409590870345, -45.06977541074074, -45.098047622959115, -45.12582436771882, -45.15314310546506, -45.18004418024408, -45.20656587302829, -45.232746201254464, -45.25862200702106, -45.284231721439184, -45.30959838087314, -45.32455908242441])","array('d', [0.6596125960350032, 0.6715826659245271, 0.682413633912883, 0.6922138996461001, 0.7010815470302729, 0.7091053257128422, 0.7163655389179836, 0.7229348461920733, 0.728878988191103, 0.7342574380421983, 0.7391239764435658, 0.7435271578208199, 0.7475104676116633, 0.7511105165852824, 0.7543214562406111, 0.6708073518731488])","array('d', [-0.004784121178090559, 0.012280134837363592, 0.012181510510312264, 0.011863510384222708, 0.011644242483172133, 0.01141318137137624, 0.011208485094259209, 0.01101656929887255, 0.010841771681819488, 0.010682165872824065, 0.010537991386898841, 0.010408809064715125, 0.010294118699783758, 0.01019565460566949, 0.01009962603312948, 0.004946242751102634])","array('d', [1.321102635064397, 1.2902878537706863, 1.258743987031697, 1.2265288141953008, 1.1936963519481971, 1.1602969809918955, 1.126377584564405, 1.0919816970693352, 1.0571496607214068, 1.0219187880998657, 0.9863235289730158, 0.950395641677619, 0.9141643786204796, 0.8776567653113756, 0.8408993079162375, 0.7985393089450854])",-99.53063296549529,-194.2563835367144,-45.06977541074074,0.7091053257128422,0.01141318137137624,1.1602969809918955,25.000000242092305,-1.0,"[-197.91688012024449, -109.89427456962356, 44.934054619533136]","[-201.97422868069287, -98.49459782386916, 53.79888923453491]","[-187.4395726435301, -101.38105662222964, 51.47249084072203]",10000000000.0,0.017664432525634766
18,-198.13304138183594,-110.90869140625,44.942962646484375,0.6634529232978817,0.0005526882596314371,1.3166243592884879,23.18957073554667,"array('d', [-110.90869140625, -108.49922014155504, -106.11196701534189, -103.74966991053941, -101.4153879226347, -99.1121588242617, -96.84309716027227, -94.6113418007804, -92.42005379426158, -90.2723980351097, -88.17153125148648, -86.1205888017229, -84.12267280834051, -82.18084073408801, -80.2980935694208, -78.84595523523053])","array('d', [-198.13304138183594, -197.4671512051182, -196.72596203054596, -195.90854357880875, -195.01429335180654, -194.04283355239014, -192.99404357713476, -191.86804030981972, -190.66517687021528, -189.38603391910726, -188.03141321165097, -186.6023299226386, -185.10000510931434, -183.52585800026637, -181.8814993087345, -180.50637466399377])","array('d', [-44.942962646484375, -44.962754878472154, -44.99624142225216, -45.02507741824889, -45.05468314483976, -45.08323429828068, -45.111420493005994, -45.13905765785813, -45.16626424032361, -45.19305247112326, -45.21947041299383, -45.24555263812693, -45.27133713451458, -45.29686186043733, -45.3221500215389, -45.33705364927115])","array('d', [0.6634529232978817, 0.6750575380439559, 0.6855578285133288, 0.6950588848252894, 0.7036557963003787, 0.7114346029685061, 0.7184731562793808, 0.7248418972931097, 0.7306045592174658, 0.7358187985381054, 0.7405367514739459, 0.7448054818989691, 0.7486671151274311, 0.7521569573327602, 0.755266900244271, 0.671610637433306])","array('d', [-0.0005526882596314371, 0.016108871870028532, 0.010770254813703991, 0.012273970512573909, 0.011425322007849794, 0.011416248426657323, 0.011137829531344836, 0.010975067722082612, 0.010793654069896038, 0.010639905386645132, 0.010497221620968542, 0.010371041976743565, 0.010258793645236812, 0.01016294172718573, 0.010069493957405936, 0.004919257408105359])","array('d', [1.3166243592884879, 1.2855771021100542, 1.2538190844416142, 1.2214069061727082, 1.188393442458841, 1.1548279742167418, 1.1207563299786791, 1.086221037213346, 1.0512614809542236, 1.01591406762332, 0.9802123924637369, 0.9441874109910418, 0.9078676244321674, 0.8712793610242345, 0.8344485278096961, 0.7920134556077588])",-99.1121588242617,-194.04283355239014,-45.08323429828068,0.7114346029685061,0.011416248426657323,1.1548279742167418,25.000000242112844,-1.0,"[-197.75587534104167, -109.45688388099848, 44.942133614137134]","[-201.74855923957304, -98.06653829874396, 53.84822719119006]","[-187.23048398705782, -101.03317716190227, 51.51916196713482]",10000000000.0,0.015322446823120117
19,-197.97401428222656,-110.46739196777344,44.94614791870117,0.6672686934471127,-0.003864428726956293,1.3119298676636555,23.199353813454348,"array('d', [-110.46739196777344, -108.06117737239923, -105.67767816208593, -103.31969930015958, -100.99030585257377, -98.69255543704999, -96.4295732831426, -94.2045073029167, -92.0205235823204, -89.88078907059148, -87.78845947026468, -85.74666631897904, -83.75850528086886, -81.82702491633094, -79.95521500155982, -78.51232506424869])","array('d', [-197.97401428222656, -197.29654363635925, -196.54334090447307, -195.71355489596937, -194.80664462696558, -193.8222971589669, -192.76045283674426, -191.62128806095924, -190.4052130102235, -189.11286325696523, -187.74509316055224, -186.30296822551597, -184.78775754482075, -183.20092610704964, -181.5441281594022, -180.15930360679792])","array('d', [-44.94614791870117, -44.970375405964866, -45.00316723608488, -45.032093544973044, -45.06152422197985, -45.089999967094435, -45.11808405668335, -45.14563654295131, -45.17276070677033, -45.1994741485351, -45.22582311203617, -45.251842819511864, -45.27757102905533, -45.30304576418071, -45.32829022412028, -45.343163105712954])","array('d', [0.6672686934471127, 0.6785101899660112, 0.6886819174458075, 0.6978856776418425, 0.7062135844378468, 0.7137489855723382, 0.7205672963969627, 0.7267367536676405, 0.7323190959693496, 0.7373701747301031, 0.7419404921018294, 0.7460756305674614, 0.7498163623762808, 0.753196686834022, 0.7562060782957913, 0.6724082501114])","array('d', [0.003864428726956293, 0.015326755348144375, 0.010979994197501128, 0.012142182742875755, 0.011415033309704848, 0.011366858823297942, 0.011105249428322084, 0.01093994327662277, 0.010762768983355089, 0.010610924060965032, 0.010470971613339163, 0.010347234397305697, 0.010237526970256074, 0.010144172025825893, 0.010053258656301913, 0.004904722795174325])","array('d', [1.3119298676636555, 1.2806502853620272, 1.248678347444206, 1.216069456274039, 1.1828753296370575, 1.1491441350183291, 1.1149206346795264, 1.0802463395149993, 1.0451596694801166, 1.0096961184918516, 0.9738884222779102, 0.9377667297248747, 0.901358788135134, 0.864690227006137, 0.8277863602045374, 0.7852766230343895])",-98.69255543704999,-193.8222971589669,-45.089999967094435,0.7137489855723382,0.011366858823297942,1.1491441350183291,25.000000242134103,-1.0,"[-197.59003973270364, -109.01738164214991, 44.95194454736396]","[-201.51477421788604, -97.63575276245221, 53.899289587410834]","[-187.01467096165084, -100.68662915663386, 51.56708917022058]",10000000000.0,0.016676902770996094
20,-197.812255859375,-110.02722930908203,44.95044708251953,0.6710859537124632,-0.008369153365492727,1.3071187893536425,23.208637643411485,"array('d', [-110.02722930908203, -107.62440942579269, -105.24480709748197, -102.89131467944114, -100.566988655505, -98.27491062943511, -96.01821448900733, -93.80005718843594, -91.62360911928009, -89.49203875707971, -87.4085001486977, -85.3761203900083, -83.39798804420991, -81.47714212080749, -79.61656052153945, -78.18315845022664])","array('d', [-197.812255859375, -197.12293897121282, -196.35745675825646, -195.51504492563308, -194.59522029072954, -193.5977374630788, -192.52259799838555, -191.3700388764377, -190.14052800179897, -188.83475657483265, -187.45363216760424, -185.99827117834653, -184.46999123788203, -182.87030354717646, -181.20090629326214, -179.806264459315])","array('d', [-44.95044708251953, -44.97814440681614, -45.009576770886106, -45.038825369124815, -45.06800196349345, -45.09643142538009, -45.12440513309651, -45.15187781690422, -45.1789200103337, -45.205560791266, -45.23184245332841, -45.257801607950206, -45.28347552018628, -45.308902369044496, -45.33410522773222, -45.34894892727977])","array('d', [0.6710859537124632, 0.6819641902009805, 0.6918072263822971, 0.7007135743635861, 0.7087723714296521, 0.7160642719758203, 0.7226622543032244, 0.7286323499997484, 0.7340343022400612, 0.7389221566640174, 0.7433447806356912, 0.7473462743665049, 0.7509660551681454, 0.7542368064150137, 0.7571454621578197, 0.6732056770553724])","array('d', [0.008369153365492727, 0.0137002520546478, 0.011483290020651833, 0.011909020312648715, 0.011440599255115529, 0.011305710479776273, 0.011077529063369868, 0.010903955723272366, 0.010733071445183552, 0.010582468898046198, 0.01044553233068376, 0.010324188845839116, 0.010217088880809154, 0.010126257022807705, 0.010037849158830431, 0.004890927660264744])","array('d', [1.3071187893536425, 1.2756054410960598, 1.2434183498441689, 1.2106116935775852, 1.177236008502389, 1.143338327070812, 1.1089623261682855, 1.0741484833449246, 1.038934238856615, 1.0033541614428365, 0.9674401163926044, 0.93122143660302, 0.8947251075171523, 0.8579760535353627, 0.8209989951624398, 0.7784144791554249])",-98.27491062943511,-193.5977374630788,-45.09643142538009,0.7160642719758203,0.011305710479776273,1.143338327070812,25.000000242155654,-1.0,"[-197.42132043967231, -108.57912299214145, 44.9630006660187]","[-201.27625197735875, -97.20644379168225, 53.95197561554398]","[-186.7951888079529, -100.34351420789616, 51.61582521640588]",10000000000.0,0.01578235626220703
21,-197.31031799316406,-108.71388244628906,44.970767974853516,0.6818701028823849,-0.02152881957590587,1.2920893589642384,23.23068194445345,"array('d', [-109.15045166015625, -106.75487658040463, -104.3835243409789, -102.03948395048177, -99.72579734463226, -97.44559155114207, -95.20201562345032, -92.9982422159591, -90.83744809805472, -88.72280261926316, -86.65745443713729, -84.64451977796526, -82.68707111451069, -80.78812655993976, -78.95063855053272, -77.53672432445461])","array('d', [-197.48040771484375, -196.76663367123322, -195.97586939321735, -195.10753234606597, -194.16125473134997, -193.13692557066253, -192.03466781562577, -190.85483856565546, -189.59802008170175, -188.26501370334879, -186.85683229360524, -185.37469289757172, -183.82000908258283, -182.19438334431797, -180.49960064551763, -179.08520769564214])","array('d', [-44.96270751953125, -44.997217971623726, -45.02594221134493, -45.055800701535794, -45.0844517395723, -45.11276668746249, -45.14050047954287, -45.16779453358587, -45.19465468052937, -45.221132575239274, -45.24726264912405, -45.27308420104983, -45.29863347728586, -45.323948923767794, -45.34905340229518, -45.363827420950166])","array('d', [0.6784296631813047, 0.688609053916595, 0.6978197482520202, 0.706153929613998, 0.713695008855509, 0.7205184588710121, 0.7266925695178251, 0.7322791300309254, 0.7373340447432764, 0.7419078851776058, 0.7460463733083654, 0.749790756429794, 0.7531778394159167, 0.7562377367882215, 0.7589519340118787, 0.6747381746145177])","array('d', [0.017240637913346294, 0.010481410703266187, 0.012465393465446136, 0.011439088240938897, 0.011481535626572503, 0.011176003749707224, 0.01101418429850084, 0.010824654298319072, 0.010666514609774955, 0.010518663501717712, 0.010387956597193826, 0.010271593435284946, 0.010169880390389992, 0.010084252207709294, 0.01000105885549977, 0.00485798346747111])","array('d', [1.297144846120153, 1.2651779105279133, 1.2325736183707974, 1.1993837146820827, 1.1656563931246124, 1.131436440973363, 1.0967653928651682, 1.061681691064264, 1.026220850008238, 0.990415623155035, 0.9542961708613991, 0.9178902303382869, 0.8812232996311659, 0.8443189299809334, 0.8072007098525741, 0.7644721073410624])",-97.44559155114207,-193.13692557066253,-45.11276668746249,0.7205184588710121,0.011176003749707224,1.131436440973363,25.000000242199288,-1.0,"[-197.0750946976436, -107.7064805263524, 44.98856719527025]","[-200.78483667286454, -96.35085103013762, 54.059812601606744]","[-186.34512533482598, -99.66317098941467, 51.70964814746844]",10000000000.0,0.025568723678588867
22,-197.137451171875,-108.27853393554688,44.97990417480469,0.6853411197662349,-0.025688508525490775,1.2871291498329975,23.237202682472113,"array('d', [-108.71388244628906, -106.3220836372963, -103.95500003627083, -101.61582698337098, -99.30760036866315, -97.03346814160084, -94.79658566642762, -92.60013207766998, -90.44728614605184, -88.34121656714436, -86.2850683374855, -84.28195139332661, -82.33492941674854, -80.44700943008218, -78.6211305858293, -77.21699980143964])","array('d', [-197.31031799316406, -196.58419949664258, -195.78070956339252, -194.8993584364888, -193.93983445188044, -192.90209187078392, -191.78631235110055, -190.59291108296466, -189.322525581169, -187.9760103773833, -186.55442915674786, -185.05904752185236, -183.49132530338497, -181.85290900307794, -180.14562539689783, -178.72152068828802])","array('d', [-44.970767974853516, -45.008561145580465, -45.03596048547168, -45.066100961720146, -45.09448490487307, -45.122732336571, -45.15033837719359, -45.177534806386895, -45.20429606897573, -45.23068471911877, -45.256731343440016, -45.2824765122833, -45.307955945232344, -45.333208192213306, -45.35825583353022, -45.372989097220795])","array('d', [0.6818701028823849, 0.6917220927741164, 0.7006365425478657, 0.7087026707189548, 0.7160012053754252, 0.7226051919397959, 0.7285807237871358, 0.7339876026539736, 0.7388799344022656, 0.743306662914014, 0.747312036398274, 0.7509359649095886, 0.7542140264259314, 0.7571751135750089, 0.7597979423284976, 0.6754554170441074])","array('d', [0.02152881957590587, 0.00891745353802942, 0.012935443671791428, 0.011206368686413821, 0.011496434679864082, 0.011108463590780836, 0.010978977635840824, 0.010781882645240822, 0.010630068702399272, 0.010483685280470717, 0.010356119137591015, 0.010242279087383734, 0.010143272055102716, 0.010060254797198388, 0.009979542806640254, 0.004838713322695194])","array('d', [1.2920893589642384, 1.259908143862008, 1.2271068877396272, 1.1937361592966338, 1.159843022158715, 1.1254711829608655, 1.0906611474665244, 1.0554503824417523, 1.0198734810721408, 0.9839623300048271, 0.9477462768451178, 0.9112522993342793, 0.874505188726054, 0.8375278453849581, 0.8003433304507849, 0.7575471202767411])",-97.03346814160084,-192.90209187078392,-45.122732336571,0.7226051919397959,0.011108463590780836,1.1254711829608655,25.000000242220707,-1.0,"[-196.89774451005664, -107.27209867974112, 45.00305870967665]","[-200.53367216980772, -95.92429847996951, 54.1139017375814]","[-186.11583450432823, -99.32390070275554, 51.75410052165027]",10000000000.0,0.018437862396240234
