,current_time,x_pos,y_pos,z_pos,roll,pitch,yaw,vel,x_traj,y_traj,z_traj,roll_traj,pitch_traj,yaw_traj,x_cmd,y_cmd,z_cmd,roll_cmd,pitch_cmd,yaw_cmd,vel_cmd,effector_dmg,effector_x,effector_y,effector_z,cost,time_solution
0,2.5506789684295654,-176.49404907226562,-121.64757537841797,49.99808883666992,0.6344162821769711,0.032882399857044116,0.3649342815068106,23.11187863791392,"array('d', [-123.2647476196289, -122.29244147629214, -121.36973648482821, -120.48344458521919, -119.62238683470063, -118.7769228894117, -117.93855948105137, -117.09969656123764, -116.2534581301151, -115.39357747208969, -114.51431783882973, -113.61041712939479, -112.67704907441211, -111.70979600006453, -110.70463079162278, -109.86443922401389])","array('d', [-181.33505249023438, -179.03262315928163, -176.70921748116174, -174.3716193386422, -172.0245921915817, -169.67189651646598, -167.3166587534261, -164.9615989418975, -162.60918115750002, -160.26171894226607, -157.92145061728138, -155.5905939661384, -153.27138586982588, -150.96611058870053, -148.67711875271425, -146.86221676396949])","array('d', [-50.00154113769531, -49.947613089392526, -49.938483544498865, -49.94211429424605, -49.94126965128252, -49.94199563377039, -49.942171793190774, -49.94254067322445, -49.942841664658594, -49.94316557376508, -49.94348019010901, -49.94379647447489, -49.94411002817427, -49.94442352267348, -49.944724229768454, -49.94078692880949])","array('d', [0.6346688866615295, 0.4995317552954217, 0.37725461146596456, 0.2666136668990829, 0.16650159237216963, 0.07591643549660286, -0.006048406527303422, -0.08021325910498785, -0.14732037704859796, -0.2080413647876524, -0.26298387309017485, -0.31269759433785893, -0.3576793792630667, -0.39837557933009, -0.4351387324300074, -0.39016105990391575])","array('d', [-0.0315421223640441, -0.011931505436393331, 0.0043560604645678245, -0.0013561643048888182, 0.0006470324975531541, -5.454281928546458e-05, 0.00019136807134721248, 0.00010517384530591995, 0.00013511974326250236, 0.00012418987267912905, 0.0001274488358377425, 0.00012560934395802943, 0.00012523978414765214, 0.00012555064044057738, 0.00011518794092955498, -0.003984125968585866])","array('d', [0.41269417206314596, 0.38771102244919603, 0.3693352095031326, 0.3562725116284704, 0.3476661585785507, 0.34291324042239985, 0.3415679596110363, 0.34328656565335175, 0.3477941005947812, 0.35486336988268474, 0.36430116296495296, 0.375938978167621, 0.389626649958646, 0.4052278492288492, 0.42261569421140915, 0.44407156043831375])",-118.7769228894117,-169.67189651646598,-49.94199563377039,0.07591643549660286,-5.454281928546458e-05,0.34291324042239985,25.000000242957224,-1.0,"[-175.09358571459956, -121.11253290997062, 49.94877412494579]","[-162.48937757347412, -108.36433082980186, 58.81541276979697]","[-155.35547799417628, -123.27281960605092, 47.55288910940229]",10000000000.0,0.06419157981872559
1,2.551285982131958,-176.49404907226562,-121.64757537841797,49.99808883666992,0.6344162821769711,0.032882399857044116,0.3649342815068106,23.11187863791392,"array('d', [-123.1096420288086, -122.14724020579193, -121.23453117603991, -120.3583000427847, -119.50734718580149, -118.67201572767235, -117.8437986510528, -117.01508397367729, -116.17898490673424, -115.32922462348088, -114.46005660760339, -113.56620909115986, -112.64284606293391, -111.68553990540354, -110.69025324997696, -109.85789574445009])","array('d', [-180.90264892578125, -178.59607394848703, -176.26872492309602, -173.92733720659186, -171.5766275255384, -169.2203152478069, -166.86149041407617, -164.5028404406215, -162.14679984919994, -159.7956552206699, -157.4516201734216, -155.1168898150971, -152.79368021479715, -150.4842565721573, -148.19095214363227, -146.37244393360302])","array('d', [-50.0019416809082, -49.947513566956886, -49.93823650500883, -49.94192174052161, -49.9410605685466, -49.94179499787788, -49.941970852537665, -49.94234249859801, -49.94264517237051, -49.94297112591852, -49.943287634088044, -49.94360583022809, -49.94392124786084, -49.944236577966784, -49.94453905988185, -49.94060307165628])","array('d', [0.6347213983535764, 0.4995792698404655, 0.3772976044016072, 0.2666525685059878, 0.1665367919770048, 0.07594828536126862, -0.006019587695879923, -0.08018718300043903, -0.1472967829628217, -0.20802001721213037, -0.26296455995106277, -0.3126801268193408, -0.35766359807745335, -0.39836140580696694, -0.4351271603750504, -0.39015073011719914])","array('d', [-0.03175237029790861, -0.012121745643811934, 0.004423975607627466, -0.0013789770728214142, 0.0006560903835104094, -5.6656859770742795e-05, 0.00019317292834463868, 0.00010560473024393535, 0.00013602678575367805, 0.00012492131280935484, 0.00012823002626491067, 0.00012635811371067315, 0.0001259822660282264, 0.00012627691441343756, 0.00011588205971826382, -0.003983506102375905])","array('d', [0.408399657407079, 0.38341374198589195, 0.3650357602094348, 0.35197127582383336, 0.3433633983234396, 0.33860914528565245, 0.33726267301906787, 0.3389802004176151, 0.34348674854641514, 0.350555108100113, 0.3599920579403584, 0.3716290887106958, 0.3853160294683699, 0.4009165488289465, 0.4183037907776889, 0.4397590172982151])",-118.67201572767235,-169.2203152478069,-49.94179499787788,0.07594828536126862,-5.6656859770742795e-05,0.33860914528565245,25.000000242945475,-1.0,"[-175.09358571459956, -121.11253290997062, 49.94877412494579]","[-162.48937757347412, -108.36433082980186, 58.81541276979697]","[-155.35547799417628, -123.27281960605092, 47.55288910940229]",10000000000.0,0.020162582397460938
2,2.5519394874572754,-176.49404907226562,-121.64757537841797,49.99808883666992,0.6344162821769711,0.032882399857044116,0.3649342815068106,23.11187863791392,"array('d', [-122.80490112304688, -121.86232631665885, -120.96962701697373, -120.11353413061346, -119.28280708036286, -118.46775638185473, -117.65984794964935, -116.85144632741515, -116.03564351054158, -115.20614278429875, -114.35717840592793, -113.48345956032789, -112.58013101831835, -111.64274552079824, -110.66724542034376, -109.8505820654167])","array('d', [-180.03546142578125, -177.72073367924835, -175.38563907825915, -173.03681368919896, -170.6788804535032, -168.31547644630035, -165.9496188678855, -163.5839298498413, -161.22078476554282, -158.86241622783416, -156.5109883974042, -154.16865096976366, -151.8375783211805, -149.5199974512466, -147.2182067792294, -145.39259670073974])","array('d', [-50.00239181518555, -49.94711833146789, -49.93759299302845, -49.94137204141893, -49.9404843742391, -49.94123465221739, -49.941411520122635, -49.94178938715095, -49.942096440108266, -49.942427379962005, -49.942748605660164, -49.9430715406568, -49.94339160130536, -49.94371151054849, -49.94401844815975, -49.94008577090305])","array('d', [0.6348369121551511, 0.49968379105392136, 0.3773921791025634, 0.2667381432159761, 0.166614223129935, 0.07601834786090474, -0.005956192750687172, -0.08012982136665206, -0.14724488106485667, -0.20797305680433315, -0.26292207406300844, -0.312641698798391, -0.35762887298309887, -0.39833018716136986, -0.4351012858829888, -0.3901276332559036])","array('d', [-0.03210780024528496, -0.012443351976916206, 0.00453965732138445, -0.001417043236035484, 0.0006720589639157209, -5.9630526756554984e-05, 0.00019684630577498878, 0.00010694701447926168, 0.00013817441460890788, 0.00012676775296990216, 0.00013015627761265824, 0.0001282239554360917, 0.00012783112042206825, 0.0001280919344174849, 0.00011763267177779016, -0.003981942592057625])","array('d', [0.39982529083755974, 0.37483329064151416, 0.35645053760382767, 0.343382123126523, 0.334770892092656, 0.33001370257877277, 0.32866460937038483, 0.3303797640027791, 0.3348841413796514, 0.3419504997329702, 0.35138559462018143, 0.3630208997437708, 0.37670623212306953, 0.3923052547096678, 0.4096911591798096, 0.4311449553685679])",-118.46775638185473,-168.31547644630035,-49.94123465221739,0.07601834786090474,-5.9630526756554984e-05,0.33001370257877277,25.000000242921377,-1.0,"[-175.09358571459956, -121.11253290997062, 49.94877412494579]","[-162.48937757347412, -108.36433082980186, 58.81541276979697]","[-155.35547799417628, -123.27281960605092, 47.55288910940229]",10000000000.0,0.02227020263671875
3,2.552464485168457,-176.49404907226562,-121.64757537841797,49.99808883666992,0.6344162821769711,0.032882399857044116,0.3649342815068106,23.11187863791392,"array('d', [-122.6490478515625, -121.71681937518485, -120.83455081373113, -119.9889464650016, -119.16874594375835, -118.36424398245018, -117.56689335536788, -116.76904717079431, -115.96378704913545, -115.14480650988612, -114.30633032932771, -113.44305826055466, -112.55012552023925, -111.6230750487767, -110.65783904721626, -109.8493159800327])","array('d', [-179.58248901367188, -177.26358353036866, -174.92452905778214, -172.57190747046894, -170.21029200184677, -167.8432764287367, -165.47383976709665, -163.10457001149118, -160.73781166779335, -158.3757692285505, -156.02058111607028, -153.6743734156424, -151.3392988428604, -149.01756456147953, -146.7114509058662, -144.88222110503284])","array('d', [-50.0024528503418, -49.94682777939183, -49.9371998210045, -49.94101886997423, -49.940121020263206, -49.94087879702875, -49.94105697001632, -49.94143831726003, -49.94174807832468, -49.942081975239454, -49.942406039190956, -49.94273181315203, -49.94305466288239, -49.94337732385476, -49.943686942014956, -49.93975625716025])","array('d', [0.6348052024841309, 0.4996550989515021, 0.3773662174061076, 0.2667146520865064, 0.16659296744827787, 0.07599911486756895, -0.005973595599941383, -0.08014556836154219, -0.14725913006408123, -0.20798595101539183, -0.2629337440362644, -0.3126522655716901, -0.35763845697646446, -0.3983389587386739, -0.43511038146539666, -0.3901357524193666])","array('d', [-0.0322556234896182, -0.012577107987140878, 0.004588271375019266, -0.0014325863697938967, 0.0006790796581721646, -6.052022938946882e-05, 0.0001987337459974801, 0.00010786000238884063, 0.00013942232538628792, 0.00012788762693309287, 0.00013130650005277234, 0.00012934538490097267, 0.00012894114667485394, 0.00012918359801817366, 0.00011868608578553027, -0.003981001707541281])","array('d', [0.395359949269567, 0.37036961948982994, 0.3519881762552963, 0.33892084065140016, 0.330310530209554, 0.3255541467968786, 0.32420577307315757, 0.3259215790712944, 0.33042655237990215, 0.3374934601715197, 0.3469290644732905, 0.35856484384057713, 0.37225061927871583, 0.3878500585756699, 0.40523638264690853, 0.42669068157934137])",-118.36424398245018,-167.8432764287367,-49.94087879702875,0.07599911486756895,-6.052022938946882e-05,0.3255541467968786,25.00000024290858,-1.0,"[-175.09358571459956, -121.11253290997062, 49.94877412494579]","[-162.48937757347412, -108.36433082980186, 58.81541276979697]","[-155.35547799417628, -123.27281960605092, 47.55288910940229]",10000000000.0,0.018352270126342773
4,2.5529794692993164,-176.49404907226562,-121.64757537841797,49.99808883666992,0.6344162821769711,0.032882399857044116,0.3649342815068106,23.11187863791392,"array('d', [-122.50021362304688, -121.5779138232712, -120.7056556029207, -119.87011792907833, -119.06002142272874, -118.26564569590711, -117.47843094863744, -116.69071936151475, -115.89558264844153, -115.08670500808566, -114.25830216792869, -113.40506487682975, -112.52211922623373, -111.60499879070309, -110.6496260645023, -109.84892665496666])","array('d', [-179.1428985595703, -176.82003566291192, -174.4772310549537, -172.12101565044492, -169.75591520874917, -167.38548206034366, -165.0126586249304, -162.64000016683028, -160.26982158204854, -157.90430037823592, -155.54555026873535, -153.19567466414188, -150.85680546929595, -148.53113078240108, -146.2209135468446, -144.38824562110065])","array('d', [-50.001949310302734, -49.94593625513333, -49.93619706068806, -49.940063549334525, -49.93915735821852, -49.939926451230654, -49.94010906132936, -49.94049726218988, -49.94081301602982, -49.941153176626564, -49.94148336430438, -49.941815252928116, -49.94214415062161, -49.94247280542323, -49.94278832895273, -49.93886207078184])","array('d', [0.6347939968109128, 0.4996449596353809, 0.377357042966814, 0.26670635069764903, 0.16658545601521924, 0.07599231818925863, -0.005979745597699745, -0.08015113333889717, -0.14726416595821876, -0.20799050878708117, -0.26293787070332936, -0.31265600639425983, -0.35764186307383566, -0.3983421335882577, -0.43511433173165537, -0.3901392786180942])","array('d', [-0.03241875022649747, -0.012724711170736112, 0.004643497943487927, -0.001448671359209, 0.0006880731593679961, -6.031414087649398e-05, 0.00020202586524987443, 0.00011006884776713262, 0.0001420015220437238, 0.0001303217952253146, 0.00013377081001126362, 0.00013177341040913394, 0.00013135178189229896, 0.00013156845647041953, 0.00012102626884194727, -0.003978911002963187])","array('d', [0.3910830775883536, 0.3660933380906227, 0.34771235771092857, 0.3346454033591431, 0.3260354182379113, 0.321279319688777, 0.3199312002222746, 0.3216472364098047, 0.3261524203270091, 0.3332195223164885, 0.3426553067185589, 0.35429125387896204, 0.367977186465597, 0.383576775195746, 0.4009632669358534, 0.42241778416101483])",-118.26564569590711,-167.38548206034366,-49.939926451230654,0.07599231818925863,-6.031414087649398e-05,0.321279319688777,25.000000242896053,-1.0,"[-175.09358571459956, -121.11253290997062, 49.94877412494579]","[-162.48937757347412, -108.36433082980186, 58.81541276979697]","[-155.35547799417628, -123.27281960605092, 47.55288910940229]",10000000000.0,0.018304109573364258
5,2.5662178993225098,-176.49404907226562,-121.64757537841797,49.99808883666992,0.6344162821769711,0.032882399857044116,0.3649342815068106,23.11187863791392,"array('d', [-122.35327911376953, -121.44091610337608, -120.57867240909071, -119.75320255110752, -118.95320875140207, -118.1689559556256, -117.39187215601217, -116.61428891393015, -115.82926830392677, -115.030485440946, -114.21214721817671, -113.36893557734635, -112.49596766798989, -111.58876787095416, -110.64324913706474, -109.85036618319896])","array('d', [-178.70274353027344, -176.3759696857574, -174.02946217754663, -171.669700982911, -169.30116423956835, -166.9273627236009, -164.55120219012727, -162.17520513677422, -159.80165683295272, -157.43270779782765, -155.07044704014078, -152.71695530460292, -150.37434369586626, -148.04478125683892, -145.73051354778408, -143.89445038175867])","array('d', [-50.00135040283203, -49.94492920771207, -49.93507319961333, -49.938989973436, -49.93807537783149, -49.938856748874315, -49.9390444001839, -49.939440184340164, -49.93976261537497, -49.94010973730441, -49.940446737932824, -49.94078542858672, -49.941121056644626, -49.94145638318382, -49.941778485898816, -49.937857163148976])","array('d', [0.6347568631172178, 0.49961135967410764, 0.3773266404561668, 0.2666788413540916, 0.16656056450509077, 0.07596979536678813, -0.006000125197643923, -0.08016957378796981, -0.1472808520489045, -0.20800560806348936, -0.26295153564602675, -0.3126683776091797, -0.35765307764049264, -0.39835237092363057, -0.4351246335006745, -0.3901484744801685])","array('d', [-0.032590351998805875, -0.012879982883988533, 0.004701752210593244, -0.001465445623190294, 0.0006976836764812688, -5.994801756197821e-05, 0.0002056385515043541, 0.00011254181098056548, 0.00014486381984022114, 0.00013303111556165788, 0.00013651132971211663, 0.0001344751616321276, 0.00013403463753362563, 0.0001342234558748312, 0.00012363538413363742, -0.003976580010768549])","array('d', [0.38680930534866836, 0.36182152188687966, 0.34344207529850423, 0.33037638433388267, 0.32176747725861793, 0.3170123226889266, 0.31566504577371696, 0.3173818447431308, 0.32188772652421604, 0.32895547192382435, 0.33839185284590145, 0.3500283552844218, 0.36371480645831983, 0.3793148821830415, 0.39670185611846726, 0.41815694272631815])",-118.1689559556256,-166.9273627236009,-49.938856748874315,0.07596979536678813,-5.994801756197821e-05,0.3170123226889266,25.000000242883353,-1.0,"[-175.09358571459956, -121.11253290997062, 49.94877412494579]","[-162.48937757347412, -108.36433082980186, 58.81541276979697]","[-155.35547799417628, -123.27281960605092, 47.55288910940229]",10000000000.0,0.018148183822631836
6,2.591642141342163,-175.1624755859375,-121.24759674072266,49.996307373046875,0.6338313817977904,0.033455338329076684,0.35131473938492314,23.11313975496252,"array('d', [-122.0651626586914, -121.17265122973846, -120.33040561327944, -119.5250318458141, -118.74519687406809, -117.98113763324174, -117.22425880479213, -116.4668716446724, -115.70201975956267, -114.9233608171701, -114.1250846927032, -113.30185630504671, -112.44877544642806, -111.56134850481799, -110.63546885896727, -109.85816134827641])","array('d', [-177.8208465576172, -175.48639869383277, -173.13264083461402, -170.76594577646884, -168.390695523404, -166.01031749840467, -163.6276440937419, -161.24513231551416, -158.86500826613823, -156.4893685974325, -154.12025303038496, -151.75969710272506, -149.40977044326232, -147.0726041206895, -144.75040930818312, -142.90769810026185])","array('d', [-49.99988555908203, -49.942943178481286, -49.932930336534035, -49.936909746691796, -49.93599124594863, -49.93679225067438, -49.93699130960555, -49.937401397683075, -49.937737086859514, -49.93809776809895, -49.9384481325386, -49.93880012052911, -49.939149070986794, -49.93949682315586, -49.93983798861693, -49.935936657518624])","array('d', [0.6346105933189391, 0.4994790091339373, 0.37720688441892003, 0.26657048095764924, 0.16646251462048292, 0.07588107340611223, -0.00608040981236946, -0.08024223005257093, -0.1473466189336236, -0.2080651704133673, -0.26300555427844863, -0.31271757013627166, -0.3576985266163048, -0.39839737999805486, -0.4352042879443044, -0.3902195778709568])","array('d', [-0.03280948475003232, -0.013078261964485667, 0.004770110233755851, -0.0014822732235440699, 0.0007108861986146365, -5.726805471667322e-05, 0.00021202288951999593, 0.00011762235969893861, 0.0001503824757275507, 0.00013836302260752503, 0.00014187002396375906, 0.000139755639744678, 0.0001394104846262116, 0.00013880141443358088, 0.00013420760228805768, -0.003967141489981021])","array('d', [0.37828941742447386, 0.3533093379351289, 0.3349359325196456, 0.32187521783406586, 0.31327055712899204, 0.30851912097710443, 0.3071751631344547, 0.30889496728136623, 0.3134035991674669, 0.32047388157008744, 0.32991261802763416, 0.3415513217754214, 0.3552398541412224, 0.3708419847938525, 0.38823190158953164, 0.4096913910454005])",-117.98113763324174,-166.01031749840467,-49.93679225067438,0.07588107340611223,-5.726805471667322e-05,0.30851912097710443,25.000000247408842,-1.0,"[-174.85175192448253, -121.04314872957406, 49.948317087633164]","[-162.20950537946004, -108.31762709670687, 58.79335532758984]","[-155.12152536747033, -123.24177100780707, 47.52257594591419]",10000000000.0,0.02105998992919922
7,2.62538743019104,-174.71441650390625,-121.11760711669922,49.99514389038086,0.6335365772247314,0.033640608191490104,0.34675701061752834,23.115128254016803,"array('d', [-121.92401885986328, -121.04181173500028, -120.20995034294681, -119.4150130388258, -118.64564814154413, -117.89207808030918, -117.14569552148389, -116.39880127494695, -115.64442945899312, -114.8762287828583, -114.08838038722209, -113.27554046136002, -112.43279992632206, -111.5556561142282, -110.63999382097447, -109.8707964787704])","array('d', [-177.37908935546875, -175.04072486320712, -172.6832765776416, -170.31305566012097, -167.93439342327835, -165.55067401265046, -163.16469178561246, -160.77886977673947, -158.39540338452292, -156.0163612923655, -153.64375761795858, -151.27960440241802, -148.9259497000904, -146.58490478285967, -144.25866249032876, -142.41255119659903])","array('d', [-49.99906539916992, -49.94224833704467, -49.93228594320332, -49.93626340757353, -49.93535174103072, -49.936156593640476, -49.93636055632371, -49.93677518328203, -49.93711552445375, -49.93748078722807, -49.93783570668914, -49.93819221225113, -49.93854547373108, -49.93889825592712, -49.939237551929416, -49.93532911416008])","array('d', [0.6345590949058529, 0.49943241157238716, 0.37716472148680746, 0.2665323309645825, 0.16642799633999766, 0.07584984257370506, -0.00610866328708683, -0.0802677837627081, -0.14736971749944217, -0.20808601994507211, -0.2630243026478958, -0.31273423899552427, -0.3577127304340316, -0.3984066033884909, -0.43517663994916383, -0.3901948979272982])","array('d', [-0.0327567942440509, -0.01303058606575723, 0.00476369667524274, -0.001477601247569704, 0.0007117451929856785, -5.5071062161128934e-05, 0.00021375662665088958, 0.00011951704244944285, 0.00015221050138614908, 0.00014020007472448178, 0.00014367748354478872, 0.00014156225334846235, 0.00014105539045685116, 0.00014116849232563659, 0.00013044720219344374, -0.003970494607851578])","array('d', [0.3738772431996205, 0.34889987577735476, 0.33052859713792326, 0.3174696343590833, 0.3088664685731213, 0.3041163413904262, 0.30277355173586407, 0.30449441315492154, 0.30900401163615016, 0.31607518366515863, 0.32551474131772345, 0.33715420037396493, 0.35084341130833196, 0.36644607237135474, 0.3838355392029104, 0.4052935004782912])",-117.89207808030918,-165.55067401265046,-49.936156593640476,0.07584984257370506,-5.5071062161128934e-05,0.3041163413904262,25.000000242843768,-1.0,"[-173.3044949999167, -120.60812109204628, 49.944692495244425]","[-160.4206973003109, -108.0276951821831, 58.647602397229846]","[-153.62755030493835, -123.05174220221596, 47.32809865196337]",10000000000.0,0.026949644088745117
8,2.6453697681427,-174.26597595214844,-120.98966217041016,49.99394607543945,0.6330090165138245,0.03359777480363837,0.3421774665501455,23.117980360752433,"array('d', [-121.64757537841797, -120.78630829389243, -119.97553778817353, -119.2017908970339, -118.45368009929913, -117.72139937583817, -116.99631785196091, -116.27071586153943, -115.53760890186848, -114.79062806725534, -114.02393727933276, -113.23217545918119, -112.41041588621876, -111.55413764306137, -110.65920647572759, -109.90645946257516])","array('d', [-176.49404907226562, -174.14789842997212, -171.78311475484685, -169.4058917873675, -167.02045959271302, -164.6301142151024, -162.23757270112938, -159.84518907559263, -157.45509639008637, -155.06930654982835, -152.68978170317965, -150.3184862011391, -147.95742431405372, -145.60866717423443, -143.27437096378586, -141.4214911875375])","array('d', [-49.99808883666992, -49.94097303453398, -49.93080930603871, -49.93475579058189, -49.93386901040094, -49.93467935096692, -49.93489562245701, -49.93532018128162, -49.935671256378996, -49.936046909331786, -49.93641224669596, -49.936779041182845, -49.9371424936944, -49.93750534293981, -49.93785453419181, -49.93395349862911])","array('d', [0.6344162821769711, 0.49930318925477923, 0.37704779627736884, 0.26642653262824423, 0.1663322659919974, 0.07576322207006299, -0.006187040964519968, -0.08033870324051771, -0.14743388899852544, -0.20814408672346452, -0.2630768483737171, -0.31278179664012584, -0.35775580030033144, -0.39844573904777336, -0.4352139146395474, -0.390228171043473])","array('d', [-0.032882399857044116, -0.013144238730492556, 0.004715190575814939, -0.0014550643415940114, 0.0007095302943844518, -4.861052224041803e-05, 0.00021719357175577632, 0.0001240080072649573, 0.00015631315490206307, 0.00014440781102764932, 0.00014780540130204114, 0.0001456658808136518, 0.00014510548158556494, 0.00014517280483797635, 0.00013436060734401263, -0.003966998769796147])","array('d', [0.3649342815068106, 0.33996443416345884, 0.3215990529595065, 0.30854494831655566, 0.29994592821960453, 0.29519943132497783, 0.29385988199511637, 0.2955836770173383, 0.300095959452661, 0.307169605978377, 0.31661145766243415, 0.3282530517629701, 0.3419442554549307, 0.3575487827482991, 0.3749400424862482, 0.39640006422791413])",-117.72139937583817,-164.6301142151024,-49.93467935096692,0.07576322207006299,-4.861052224041803e-05,0.29519943132497783,25.000000242815254,-1.0,"[-172.8537339927544, -120.48663753872557, 49.94355889407888]","[-159.90006602897762, -107.94828607121119, 58.60336424762482]","[-153.1930709398498, -123.0051251827772, 47.276060382943214]",10000000000.0,0.017473697662353516
9,2.6873364448547363,-172.91796875,-120.6184310913086,49.99038314819336,0.6223505139350888,0.03203569352626785,0.32871373096970086,23.13664491091923,"array('d', [-121.37895202636719, -120.53896413894437, -119.7495946731458, -118.99732664960334, -118.2707412497755, -117.56000642892664, -116.85646979589892, -116.152392873121, -115.4407739434501, -114.71522770154277, -113.96990192151229, -113.19941921573589, -112.39883609176752, -111.56361417840562, -110.68960090615788, -109.95345066569975])","array('d', [-175.60687255859375, -173.2530400307999, -170.88103028780077, -168.496922403537, -166.10484574408747, -163.7080057002413, -161.30904043960462, -158.91023379423004, -156.5136555432188, -154.1212600657043, -151.7349569266306, -149.35666227302974, -146.9883361538758, -144.63200918258136, -142.289800546969, -140.43026445944216])","array('d', [-49.99693298339844, -49.93897930135492, -49.92805764827922, -49.931790983776644, -49.9310039035792, -49.931804430886494, -49.932049323380944, -49.932489051615725, -49.93285996267438, -49.933253725644725, -49.93363764250767, -49.93402267903702, -49.934404285539706, -49.93478509053292, -49.935152014326725, -49.931264284708284])","array('d', [0.6340602636337278, 0.4989810503213491, 0.37675631288001576, 0.2661627874984551, 0.16609361946410556, 0.07554728565123858, -0.006382428523561692, -0.08051549763045734, -0.14759386005189887, -0.20828883644739504, -0.263207827875126, -0.3129003235553191, -0.3578630840522246, -0.39854296969652164, -0.43530364836544777, -0.39030827132649915])","array('d', [-0.03323468938469874, -0.013463003488990702, 0.004427090231332659, -0.0013441408402060807, 0.0006806982170966304, -2.8446408439325616e-05, 0.00022021228080921004, 0.00013302476698380628, 0.00016320068403866134, 0.00015199659762969213, 0.0001550853655844957, 0.00015297899764058162, 0.0001523172487315531, 0.00015232660379404248, 0.00014139483884996747, -0.003960714421775071])","array('d', [0.3558723489430287, 0.33092124271312184, 0.31257056026881846, 0.2995285649135411, 0.29093987881617794, 0.2862024315232847, 0.28487095991635136, 0.28660206818093786, 0.29112104156804913, 0.2982008568591322, 0.30764842724945085, 0.3192953431869093, 0.33299151234533364, 0.3486006826522591, 0.36599632806902743, 0.3874613104372921])",-117.56000642892664,-163.7080057002413,-49.931804430886494,0.07554728565123858,-2.8446408439325616e-05,0.2862024315232847,25.000000242785468,-1.0,"[-171.95104543194526, -120.2497728577233, 49.9422104273809]","[-158.8603712231403, -107.76751234475093, 58.4761087889282]","[-152.32322400710723, -122.93337092418929, 47.19504324420298]",10000000000.0,0.039598941802978516
10,2.7130582332611084,-172.46759033203125,-120.49896240234375,49.989166259765625,0.6137208342552183,0.030917242169380018,0.32417483727005525,23.145258726525864,"array('d', [-121.24759674072266, -120.41833462922189, -119.63974446544803, -118.89828902265663, -118.18253499067787, -117.48263804166348, -116.7899356214728, -116.09668034062167, -115.39586229626816, -114.68108835076102, -113.94649853068503, -113.1867075875726, -112.39676390984957, -111.57212064376287, -110.70861628758743, -109.98080412032259])","array('d', [-175.1624755859375, -172.80485594845703, -170.42928844597856, -168.04179520527498, -165.64645523177973, -163.24642804346456, -160.84431200245186, -158.44235556341246, -156.04259664756282, -153.64696069040778, -151.25733081498737, -148.8755989383968, -146.50370288739413, -144.1436529163259, -141.7975496242436, -139.93473424254546])","array('d', [-49.996307373046875, -49.93782890636318, -49.92643231124479, -49.93003154555562, -49.92930619271825, -49.93009987126402, -49.93036198306146, -49.93081050531231, -49.931193135556875, -49.93159754071763, -49.93199239978367, -49.93238817498504, -49.9327804756058, -49.933171862407754, -49.93354927502503, -49.9296694422283])","array('d', [0.6338313817977904, 0.49877394945080433, 0.3765689202411461, 0.26599322760130617, 0.16594019528935816, 0.07540846166038398, -0.006508041768225549, -0.08062915739807759, -0.14769670408765545, -0.208381894513576, -0.26329203248696725, -0.3129765207128312, -0.35793204751049235, -0.3986054455539927, -0.43536101908762215, -0.3903594828127865])","array('d', [-0.033455338329076684, -0.013662654917814083, 0.004246461549757484, -0.0012749610300955198, 0.0006623602845909866, -1.6099373021509338e-05, 0.00022181984350238195, 0.00013838973615701758, 0.00016723329008899943, 0.0001564703841869703, 0.0001593685216671651, 0.0001572863752269354, 0.00015656614147896257, 0.00015654368913137272, 0.00014556952107324576, -0.003956984783552424])","array('d', [0.35131473938492314, 0.3263756773720158, 0.30803444240907407, 0.29500023083917853, 0.2864181877913593, 0.2816865581573881, 0.28036027959852006, 0.2820960895539596, 0.28661936463602, 0.2937031459459266, 0.30315439301635716, 0.31480473044335194, 0.32850409181599394, 0.34411624632553295, 0.3615147030530616, 0.38298285716667574])",-117.48263804166348,-163.24642804346456,-49.93009987126402,0.07540846166038398,-1.6099373021509338e-05,0.2816865581573881,25.000000242770163,-1.0,"[-171.49900963920882, -120.1344407101986, 49.94233782692541]","[-158.34088368825502, -107.65539463752016, 58.37662087735741]","[-151.88767860678848, -122.91498597057382, 47.17389725652628]",10000000000.0,0.02378535270690918
11,2.740318536758423,-172.01663208007812,-120.38164520263672,49.9882926940918,0.6021717786788938,0.029492352157830998,0.3196661035206657,23.1552414945901,"array('d', [-121.11760711669922, -120.29908323043867, -119.5312770037759, -118.80063214992508, -118.09570187723479, -117.40663048567896, -116.72474595556488, -116.04229255577789, -115.35225268040989, -114.64822578066327, -113.92434451213772, -113.17521610925222, -112.39588116040973, -111.58178462960709, -110.72875636890568, -110.00925543970334])","array('d', [-174.71441650390625, -172.35305821498332, -169.97398530981422, -167.58316110833258, -165.1846134150641, -162.78145571729698, -160.37624645257262, -157.9711986451151, -155.5683183485819, -153.1695020761581, -150.77660655036703, -148.39149951266648, -146.01609662916675, -143.65238785967588, -141.3024552781358, -139.4364139666073])","array('d', [-49.99514389038086, -49.93622478559351, -49.924429389489305, -49.92791864009706, -49.92724937928307, -49.92804101814788, -49.92832150320897, -49.92878125432685, -49.929177585870704, -49.92959476546619, -49.93000263420163, -49.93041122259495, -49.93081627019673, -49.931220277316356, -49.93161018259387, -49.92773974474022])","array('d', [0.6335365772247314, 0.4985071992156748, 0.3763275546204795, 0.26577483092650134, 0.16574258176733472, 0.07522965349208799, -0.006669834193815259, -0.08077555344059331, -0.14782916912224403, -0.2085017547468881, -0.26340048864819826, -0.3130746614309763, -0.3580208658474292, -0.3986858846953466, -0.4354346161542341, -0.3904251784333638])","array('d', [-0.033640608191490104, -0.013830294028601307, 0.00409478562984606, -0.0012148063093425099, 0.0006483169687273467, -4.121881836184254e-06, 0.00022469284420465675, 0.00014444671405780733, 0.00017215626901879744, 0.00016176082313589324, 0.00016448865928826535, 0.00016241662265174855, 0.00016163451138085416, 0.0001615722382530253, 0.00015053613502049367, -0.003952547535213408])","array('d', [0.34675701061752834, 0.3218334568369379, 0.30350438783603073, 0.2904802005715353, 0.28190671321115557, 0.27718257653597717, 0.275862986658502, 0.27760485255796136, 0.2821336684628264, 0.2892225582784573, 0.2986785411858212, 0.3103332857170349, 0.32403675872452087, 0.3396527562779461, 0.35705482639404457, 0.3785270495563715])",-117.40663048567896,-162.78145571729698,-49.92804101814788,0.07522965349208799,-4.121881836184254e-06,0.27718257653597717,25.000000242754606,-1.0,"[-171.0463990156994, -120.02140067138428, 49.94279778441984]","[-157.81964010767922, -107.5262726758577, 58.24488337567441]","[-151.45215036155304, -122.91145609830636, 47.16556907421202]",10000000000.0,0.02163100242614746
12,2.7670140266418457,-171.11306762695312,-120.15350341796875,49.988162994384766,0.5705590844154356,0.0255789402872323,0.3104385892536975,23.170389549990766,"array('d', [-120.98966217041016, -120.18192564107362, -119.42492938715753, -118.70510044696546, -118.01098098513374, -117.33270657631611, -116.66159768698017, -115.98989180307092, -115.310564910261, -114.61721016246996, -113.90395383062088, -113.1653965279013, -112.39657187382203, -111.59291743467428, -110.75025516750581, -110.03897319800267])","array('d', [-174.26597595214844, -171.90090326236583, -169.51836813817917, -167.12426531257245, -164.72256674595928, -162.3163393715971, -159.90810122059472, -157.50002963136203, -155.0940986950765, -152.69217602662235, -150.29609205385887, -147.907690505834, -145.52886508940173, -143.16158569472387, -140.8079161068141, -138.93872652698784])","array('d', [-49.99394607543945, -49.935128843626856, -49.923425648834, -49.92694699434145, -49.926275664829355, -49.92707732039458, -49.92736360179204, -49.92783063197127, -49.928233701305444, -49.928657765188944, -49.92907240510097, -49.92948772591261, -49.92989942710266, -49.930310013963826, -49.930706409988225, -49.926840846990956])","array('d', [0.6330090165138245, 0.49802984249875804, 0.37589562435752183, 0.2653840042175051, 0.16538894708488, 0.07490967152828575, -0.006959365961074438, -0.0810375328244157, -0.1480662182870482, -0.20871624659737692, -0.2635945709831245, -0.31325027975570063, -0.35817978829852154, -0.3988297542733866, -0.4355655775113152, -0.39054207917941586])","array('d', [-0.03359777480363837, -0.013791536776088425, 0.004129852842710239, -0.0012234680045546437, 0.0006550666119610218, -2.7681495314501955e-06, 0.00022794451953294325, 0.00014702944714551253, 0.00017496008018711104, 0.00016446608639121845, 0.0001672002320975418, 0.00016509159515113922, 0.00016428285389091593, 0.00016418822899981434, 0.00015311338891481243, -0.003950245298545684])","array('d', [0.3421774665501455, 0.31728165121789437, 0.29897434626051816, 0.28596809390787953, 0.2774099152191978, 0.27269918653409875, 0.27139156602906184, 0.27314426939663544, 0.27768300117706773, 0.2847810333417657, 0.29424549171790615, 0.30590812333779166, 0.3196189542829642, 0.33524182743556635, 0.3526503447924868, 0.3741298093498172])",-117.33270657631611,-162.3163393715971,-49.92707732039458,0.07490967152828575,-2.7681495314501955e-06,0.27269918653409875,25.00000024273884,-1.0,"[-170.59324073981912, -119.91047579314385, 49.94406057867954]","[-157.29846266722407, -107.37914585456348, 58.08129880616711]","[-151.01620387398572, -122.92133616899733, 47.1737993363208]",10000000000.0,0.02193737030029297
13,2.806424379348755,-170.20469665527344,-119.93363952636719,49.9913330078125,0.5288668870925902,0.020788315683603134,0.30130000511673477,23.189527651087285,"array('d', [-120.74005889892578, -119.95334647583223, -119.2170028537683, -118.51749491557361, -117.84339487510292, -117.18486089340814, -116.53322873687992, -115.88074649183152, -115.22039736729333, -114.54577915478612, -113.85102065756399, -113.13072322308754, -112.37991960763006, -111.59404505236579, -110.76891780346199, -110.07144450282576])","array('d', [-173.3677978515625, -170.99560571580642, -168.60659889455698, -166.20648123832686, -163.79908692217185, -161.3873821732016, -158.97380105303517, -156.5604497916676, -154.14924110966948, -151.7419889494683, -149.34047632867032, -146.94650482206768, -144.56193050356677, -142.18868960796786, -139.8288158452628, -137.95443015132832])","array('d', [-49.99152755737305, -49.93440791875882, -49.924240850272795, -49.92821694403877, -49.92738055025421, -49.92823464894391, -49.92849708621081, -49.92896697633491, -49.929363518026804, -49.929784297711336, -49.930194468636195, -49.93060568075104, -49.931013086788276, -49.93141938383827, -49.931811397054894, -49.92794248490791])","array('d', [0.6281735897064207, 0.49365456699159105, 0.3719367109983536, 0.26180183093470255, 0.16214766233268085, 0.07197683546382767, -0.00961310616590469, -0.08343873679937551, -0.1502389183828148, -0.21068218866366667, -0.265373432714382, -0.31485986992009607, -0.35963623441561643, -0.400147723502725, -0.4367594592612515, -0.3916077516388451])","array('d', [-0.032884012907743336, -0.013145698286089809, 0.0047139740242021924, -0.0014305889807961277, 0.0007255058552872776, -2.9629715351720846e-05, 0.00023516227021009065, 0.0001422989726128715, 0.00017439888892927143, 0.00016242461252207496, 0.00016565818478239078, 0.00016335001362400447, 0.00016258754124387788, 0.0001624523689916572, 0.00015134356883742185, -0.003951827782546027])","array('d', [0.33316345612076304, 0.3085210525566936, 0.29041279659953473, 0.27757070015039714, 0.2691527187376437, 0.2645648318908047, 0.26336690668086454, 0.2652189545249077, 0.2698485979948407, 0.27703045996045655, 0.2865726394652469, 0.2983075996784953, 0.31208590544210413, 0.3277718164547174, 0.34523929235585926, 0.36678480788389445])",-117.18486089340814,-161.3873821732016,-49.92823464894391,0.07197683546382767,-2.9629715351720846e-05,0.2645648318908047,25.00000024270925,-1.0,"[-169.2304580849924, -119.59113261652823, 49.95440094930539]","[-155.72835733203533, -106.85773060591296, 57.40783965188125]","[-149.70804628808875, -123.03501910176847, 47.305800656906236]",10000000000.0,0.03790569305419922
14,2.833061456680298,-169.74859619140625,-119.82670593261719,49.99466323852539,0.505095303058624,0.018217209726571877,0.29668636719254066,23.19722576717545,"array('d', [-120.49896240234375, -119.73264076049345, -119.01527057431016, -118.3335379534195, -117.67617898401043, -117.033471161816, -116.39683997130157, -115.75860348796397, -115.11180142936841, -114.45007858955013, -113.76760391038829, -113.05901380563365, -112.31937226735083, -111.5441428105089, -110.72916959083562, -110.03940775576538])","array('d', [-172.46759033203125, -170.08862025505934, -167.69383100260157, -165.28860117876908, -162.87658091079126, -160.4606100184017, -158.04302870431474, -155.62587107409223, -153.2109934267507, -150.80016500100984, -148.39513314387543, -145.99767086405436, -143.60961134982713, -141.23287254013485, -138.86947359150034, -136.99223724456417])","array('d', [-49.989166259765625, -49.9367244749095, -49.92809399491577, -49.93165669860688, -49.93094104741569, -49.93172828136708, -49.931989531011766, -49.932435121533466, -49.9328154017686, -49.93321707268776, -49.93360912671969, -49.93400189189771, -49.934391003379666, -49.93477900767567, -49.93515274494289, -49.93126997682832])","array('d', [0.6137208342552183, 0.48057717187977145, 0.36010379349498123, 0.25109496343327214, 0.15245968708646507, 0.06321079210975719, -0.01754495103289743, -0.09061576772407624, -0.15673296563329076, -0.2165582473233984, -0.27069031370055746, -0.3196707902730239, -0.3639893568292638, -0.40408668155177085, -0.4403245370450898, -0.39478967018557887])","array('d', [-0.030917242169380018, -0.01136609045068954, 0.00420191502231105, -0.001260621482952534, 0.0006561252823590159, -1.5140062320152296e-05, 0.00022021360899353632, 0.00013763635995128057, 0.00016611278322268118, 0.0001554026179533919, 0.0001581940408219429, 0.00015605380641653567, 0.00015524881322010763, 0.00015515618336584623, 0.00014401945854605644, -0.0039583727649841255])","array('d', [0.32417483727005525, 0.30028115029729424, 0.2827632852413963, 0.27040942962107023, 0.2624092677898721, 0.25818802012840103, 0.25731785668135065, 0.2594669810222491, 0.26436864698479007, 0.27180145005322387, 0.2815763553191304, 0.2935279376787276, 0.3075083521600081, 0.32338308606625327, 0.34102708954745775, 0.3627702249709897])",-117.033471161816,-160.4606100184017,-49.93172828136708,0.06321079210975719,-1.5140062320152296e-05,0.25818802012840103,25.0000002426846,-1.0,"[-168.77257890247952, -119.48859285967131, 49.96015278017737]","[-155.20288527871583, -106.66356021468641, 57.128273357585236]","[-149.26892972277076, -123.09101888422857, 47.38523619658904]",10000000000.0,0.021051406860351562
15,2.8651394844055176,-168.83544921875,-119.61873626708984,50.005855560302734,0.4532273113727568,0.01244843751192082,0.28772993485001114,23.212079320281607,"array('d', [-120.38164520263672, -119.62530295891919, -118.91674253583604, -118.24283770977182, -117.5924633178943, -116.95599830645287, -116.32494526654627, -115.69168317058251, -115.04930160778493, -114.3914875509119, -113.71244666239777, -113.00684814568527, -112.26978591625787, -111.49675129317959, -110.68361463613215, -109.99502786256497])","array('d', [-172.01663208007812, -169.63439462228655, -167.2369732330215, -164.82953621920674, -162.4156225816591, -159.99799928509157, -157.5789558839194, -155.1604903758707, -152.7444333044854, -150.33253572572116, -147.9265325047835, -145.52818851423294, -143.13933214242812, -140.76187908191966, -138.39784817664167, -136.52018115017378])","array('d', [-49.9882926940918, -49.939240047685836, -49.931607009291504, -49.93479581492133, -49.934187747157246, -49.93491342873511, -49.935172339337385, -49.93559476770545, -49.93595914968299, -49.93634238113353, -49.93671692009228, -49.93709190903471, -49.93746342527933, -49.93783388270287, -49.93819022423887, -49.934294352632314])","array('d', [0.6021717786788938, 0.4701271533049243, 0.3506482248121881, 0.24253921030258124, 0.1447181208053908, 0.05620593261101438, -0.02388321063279832, -0.09635086279029631, -0.16192229492448154, -0.22125374753111854, -0.27493897945064133, -0.32351514511097823, -0.3674678814831227, -0.4072342163478394, -0.44317297662459415, -0.39733163240287656])","array('d', [-0.029492352157830998, -0.010076796604676674, 0.003739817347887954, -0.001107900016829567, 0.0005930701735365876, -2.588133356256103e-06, 0.0002062330605634835, 0.00013293243283327505, 0.0001581524279411131, 0.00014859221477326475, 0.00015099880515044207, 0.00014902527252778702, 0.00014820147066704374, 0.00014816508885493238, 0.0001370928894826869, -0.0039645621080485055])","array('d', [0.3196661035206657, 0.29636163817530176, 0.2793107974713708, 0.26734457807062517, 0.25967702771317686, 0.2557482238822655, 0.25513987679142586, 0.2575265633637332, 0.26264592994646696, 0.270279677566882, 0.2802410162456033, 0.2923661781636594, 0.30650856883368915, 0.32253464261006226, 0.3403201250618687, 0.3622215720055602])",-116.95599830645287,-159.99799928509157,-49.93491342873511,0.05620593261101438,-2.588133356256103e-06,0.2557482238822655,25.00000024267455,-1.0,"[-168.31436847867633, -119.38824926372908, 49.96733893533191]","[-154.67637781745347, -106.46768184114256, 56.827670428983964]","[-148.8302888989453, -123.15403066082334, 47.47946164735985]",10000000000.0,0.028186559677124023
16,2.8864617347717285,-168.37847900390625,-119.51744842529297,50.0140266418457,0.4254632294178007,0.009345022961497192,0.2833567420628407,23.2192466137496,"array('d', [-120.15350341796875, -119.41716429475282, -118.72540472107057, -118.06560765336701, -117.42702564093466, -116.80031577781953, -116.1771939029483, -115.55020892858326, -114.91259090237487, -114.25814673398116, -113.58118754770486, -112.87647768820098, -112.13919879668144, -111.3649245438528, -110.54960369631456, -109.85850214604137])","array('d', [-171.11306762695312, -168.72438911257348, -166.3220424744083, -163.91069557752405, -161.49363393743982, -159.07346282291016, -156.65236424607258, -154.23226416391228, -151.81494626974342, -149.40213305251262, -146.99554440892632, -144.59694042075657, -142.2081522924911, -139.83110412754, -137.46782716099597, -135.5910861552644])","array('d', [-49.988162994384766, -49.94841895453011, -49.94351588810163, -49.94566213617365, -49.94533583037927, -49.945878086178595, -49.946116406400456, -49.946461027831326, -49.946767629410836, -49.947086175838116, -49.94739866785636, -49.947711005250646, -49.94802049127363, -49.94832918240454, -49.94862428799106, -49.94468228060755])","array('d', [0.5705590844154356, 0.4415228020611197, 0.32476593514482494, 0.2191199440243075, 0.1235274904458409, 0.03703185558770588, -0.04123263461419578, -0.11204927235574891, -0.17612680490751606, -0.23410652153522485, -0.28656865295022554, -0.3340381137486631, -0.37698946943609674, -0.41584975114963685, -0.4509690812450268, -0.4042873319081908])","array('d', [-0.0255789402872323, -0.006535795064540115, 0.0024632044522775727, -0.0006935442108586102, 0.0004140231340718904, 2.6250329840620004e-05, 0.0001621389533902995, 0.00011435531583609652, 0.0001306540508778367, 0.00012428926699177114, 0.00012568112800562562, 0.00012421327491237533, 0.00012338929289415238, 0.00012356076257825666, 0.00011270484054287602, -0.003986353584086583])","array('d', [0.3104385892536975, 0.2887083021897875, 0.27291548709852176, 0.2619996022822349, 0.2552371720279773, 0.25210671487668174, 0.25221479347162806, 0.2552526756322042, 0.2609695601646959, 0.26915534526529156, 0.27962918602178866, 0.29223171790351854, 0.3068196806314828, 0.32326211669463345, 0.34143682042299556, 0.3637734830754299])",-116.80031577781953,-159.07346282291016,-49.945878086178595,0.03703185558770588,2.6250329840620004e-05,0.25210671487668174,25.000000242658384,-1.0,"[-167.39722485796364, -119.1931049266572, 49.98718338629478]","[-153.62758269041294, -106.07834095571062, 56.18395033075633]","[-147.95249815131106, -123.28899866263743, 47.72305931567716]",10000000000.0,0.019925594329833984
17,2.907270669937134,-168.37847900390625,-119.51744842529297,50.0140266418457,0.4254632294178007,0.009345022961497192,0.2833567420628407,23.2192466137496,"array('d', [-120.04265594482422, -119.3160903315688, -118.63212663400836, -117.97845659018705, -117.34456237241075, -116.72127138946678, -116.10043119609198, -115.47469659297805, -114.83738588961188, -114.18238199056083, -113.50406338492567, -112.7972556629805, -112.05719735254485, -111.27951588943517, -110.4602115468844, -109.7654583011421])","array('d', [-170.66046142578125, -168.26870129899174, -165.86411345705048, -163.45109588048138, -161.03279971246903, -158.61174549540138, -156.19006084573712, -153.7696374398469, -151.35223896919612, -148.93957825529407, -146.53337315317077, -144.13538733441294, -141.74745971119873, -139.37152501788708, -137.00962707748678, -135.13423603697336])","array('d', [-49.989288330078125, -49.955059657492335, -49.951769255620945, -49.95328978783783, -49.95312333488261, -49.95354955586055, -49.95376840641606, -49.954059664698946, -49.95432480869502, -49.95459785137015, -49.95486645606489, -49.95513460845734, -49.955400345241976, -49.955665515127684, -49.955917538688595, -49.95194311647523])","array('d', [0.5508658885955809, 0.4237036599898995, 0.3086425071823856, 0.20453086177598134, 0.11032674173493952, 0.025087323117210198, -0.05204049553760107, -0.12182863027124145, -0.18497553480290554, -0.24211318445161734, -0.29381338243490945, -0.34059341818806443, -0.38292095912929575, -0.4212168048853259, -0.45582572184115333, -0.40861922653691857])","array('d', [-0.023260351270437143, -0.004437849037030699, 0.0017030795848869981, -0.0004507237769569187, 0.0003049551807186662, 4.043433538274906e-05, 0.00013310025553308242, 0.0001004510233338254, 0.00011148018370599196, 0.00010702822275812627, 0.00010784195767184142, 0.00010669902323062058, 0.00010590367554100572, 0.00010622685128031478, 9.556980832500935e-05, -0.0040016641236780915])","array('d', [0.30584283272293583, 0.2850664724740393, 0.27004324944453695, 0.2597742719025522, 0.2535720812631634, 0.2509375905656616, 0.25149195675280805, 0.2549363105060235, 0.261026711641669, 0.2695579476699303, 0.2803527338393082, 0.2932543531560649, 0.308121558950642, 0.32482496456401655, 0.3432436287142753, 0.365852858956208])",-116.72127138946678,-158.61174549540138,-49.95354955586055,0.025087323117210198,4.043433538274906e-05,0.2509375905656616,25.00000024265241,-1.0,"[-166.9383583322041, -119.09809658568322, 50.0000093114265]","[-153.10495611348014, -105.88873462809053, 55.843787175814036]","[-147.5135982520169, -123.35767146614994, 47.87052165828959]",10000000000.0,0.01772594451904297
18,2.9372074604034424,-167.4639129638672,-119.31962585449219,50.03531265258789,0.367431879043579,0.003422453068196653,0.2749638120320178,23.22986675808819,"array('d', [-119.93363952636719, -119.21662633969312, -118.54002787144768, -117.89187105122947, -117.26188800744266, -116.64109260848093, -116.02147756521919, -115.39581513351345, -114.75752212544145, -114.10056674981813, -113.41940352064663, -112.70892748846595, -111.96444198228906, -111.18163591983247, -110.35656867323031, -109.65669211217813])","array('d', [-170.20469665527344, -167.80997306591752, -165.4032949239092, -162.98878834859292, -160.56946948767654, -158.147773846434, -155.7257755135649, -153.30533379695584, -150.8881950676366, -148.47606572032743, -146.07066519156172, -143.6737646057363, -141.28721456502777, -138.91296443409394, -136.55307455046346, -134.67959082708023])","array('d', [-49.9913330078125, -49.96298490213247, -49.96141059330686, -49.96225836096485, -49.962257337912625, -49.962554691817616, -49.96274768598399, -49.96297697096358, -49.9631928666121, -49.96341238446647, -49.963629227888575, -49.9638453453892, -49.96405955637305, -49.96427348851077, -49.96447476498889, -49.96046214036674])","array('d', [0.5288668870925902, 0.4037981384691779, 0.2906312448553348, 0.18823359620168215, 0.09558036469548692, 0.01174424817715405, -0.06411381012643047, -0.13275301810425108, -0.19486033067634298, -0.25105731864696484, -0.3019063709093257, -0.34791625866321507, -0.38954694244244364, -0.42721225305082866, -0.4612507729416872, -0.41345697914876334])","array('d', [-0.020788315683603134, -0.0022010589924511275, 0.0008900455593238087, -0.00019375149939958447, 0.0001865882334572201, 5.3514818483500413e-05, 0.00010010332423814316, 8.359996682972703e-05, 8.902603309260193e-05, 8.662824912173957e-05, 8.684290700117602e-05, 8.606408608909448e-05, 8.531716350964275e-05, 8.582016314799255e-05, 7.537528469359119e-05, -0.0040197082443739545])","array('d', [0.30130000511673477, 0.2815669169418035, 0.26739156670944936, 0.25783907490066216, 0.2522597924590925, 0.25017833471838985, 0.2512314023541558, 0.2551306824119178, 0.2616396077090713, 0.2705582382209745, 0.2817131409130936, 0.29495047280677816, 0.3101311812494938, 0.32712759831514177, 0.34582016774873153, 0.3687352054576158])",-116.64109260848093,-158.147773846434,-49.962554691817616,0.01174424817715405,5.3514818483500413e-05,0.25017833471838985,25.000000242647864,-1.0,"[-166.47935122289118, -119.00458184017042, 50.01407259475946]","[-152.58418669615818, -105.70306067598072, 55.49074471326667]","[-147.07459918749294, -123.42215911372179, 48.02897575155241]",10000000000.0,0.027983903884887695
19,2.9615273475646973,-167.4639129638672,-119.31962585449219,50.03531265258789,0.367431879043579,0.003422453068196653,0.2749638120320178,23.22986675808819,"array('d', [-119.82670593261719, -119.11935839319997, -118.45009240907896, -117.80728392603451, -117.18092645537043, -116.5622300546468, -115.94334121581846, -115.31715745641223, -114.67720127532661, -114.01753291534958, -113.33268931897648, -112.61764117214761, -111.86776262229577, -111.07880997735901, -110.24690754008644, -109.5410106328284])","array('d', [-169.74859619140625, -167.3509296488846, -164.94219788161493, -162.52626011767265, -160.10599928579182, -157.68376628509915, -155.26158242643288, -152.84127595513144, -150.42457768043803, -148.0131896869947, -145.60883536353785, -143.21329582172413, -140.82843597001022, -138.45622242963842, -136.09873462534262, -134.2275124857574])","array('d', [-49.99466323852539, -49.97243154197396, -49.972637463833436, -49.972777640533906, -49.97294171964651, -49.97309786255984, -49.97325687156819, -49.973414631314085, -49.9735722826072, -49.97372915906525, -49.97388525050292, -49.97404039096225, -49.974194216288716, -49.97434812551269, -49.97448995712674, -49.970432583427765])","array('d', [0.505095303058624, 0.3822887178026828, 0.2711687144350947, 0.17062316883427148, 0.07964578962228396, -0.002673952900878522, -0.07715993916127452, -0.1445576449263357, -0.20554159978993594, -0.26072213168050734, -0.31065145657214605, -0.35582914097516327, -0.3967068172033416, -0.4336907837888712, -0.4671129149292042, -0.418683111619924])","array('d', [-0.018217209726571877, 0.0001253731418897888, 4.077559974398573e-05, 7.086382801544393e-05, 6.057116300746231e-05, 6.42812744599454e-05, 6.294816991188032e-05, 6.325451525059775e-05, 6.287288457901728e-05, 6.263229451804043e-05, 6.224727792080845e-05, 6.187136073630937e-05, 6.120010002141583e-05, 6.191535265362896e-05, 5.1720033621965576e-05, -0.00404084451916422])","array('d', [0.29668636719254066, 0.27805596802647015, 0.2647837487150179, 0.25599872403062973, 0.2510894268470371, 0.24960461824853947, 0.2511969401210437, 0.2555889633614229, 0.2625517557224305, 0.2718908578346913, 0.28343685508527133, 0.2970389143461315, 0.3125602904924656, 0.3298751320714558, 0.3488653539349991, 0.3721124541803144])",-116.5622300546468,-157.68376628509915,-49.97309786255984,-0.002673952900878522,6.42812744599454e-05,0.24960461824853947,25.000000242643925,-1.0,"[-166.02026888314867, -118.91236007684441, 50.030178983007545]","[-152.06560809513036, -105.52441635383074, 55.13217909676325]","[-146.63539772649332, -123.48164670817631, 48.20031835427014]",10000000000.0,0.01653909683227539
20,2.9994056224823,-166.0915069580078,-119.03234100341797,50.083168029785156,0.2779981791973113,-0.004403023514896766,0.26285858551529456,23.236604621254042,"array('d', [-119.61873626708984, -118.92997228453049, -118.2742993737554, -117.64081051510053, -117.02004008974214, -116.40360859852224, -115.78398795516331, -115.1543436900784, -114.50842672007936, -113.84049803583997, -113.1452758485061, -112.4178983516503, -111.65389746066347, -110.84918033359274, -110.00001716958937, -109.27911677989356])","array('d', [-168.83544921875, -166.43228053271943, -164.01981419077902, -161.60141385467787, -159.17971273457067, -156.756902097335, -154.33490586958374, -151.91549847091855, -149.5003881078184, -147.09127700585674, -144.689905336202, -142.2980830471487, -139.91771235929946, -137.55080280503773, -135.19947994741074, -133.3339900969125])","array('d', [-50.005855560302734, -49.9961128552651, -49.999544576385716, -49.99835111302177, -49.998780183238324, -49.998640505048016, -49.99870006138213, -49.99868984469995, -49.99870401102417, -49.998709598604236, -49.99871811876775, -49.99872556263183, -49.99873307406226, -49.99874164244075, -49.998739519913016, -49.99457377199489])","array('d', [0.4532273113727568, 0.33535661387954535, 0.22870278685610396, 0.13219840509268427, 0.04487762246149593, -0.034133494361288506, -0.10562571203329432, -0.17031454375130153, -0.2288474078661951, -0.28181010105956816, -0.32973264254199725, -0.3730945143587587, -0.41232917532016256, -0.44782647621919025, -0.4799033314950844, -0.4300805695179312])","array('d', [-0.01244843751192082, 0.004373534479078808, -0.0015296753173011624, 0.0005403719125401568, -0.00018501483773964903, 6.903424168617374e-05, -1.99054831189829e-05, 1.1213018867320826e-05, 3.0205698148852625e-07, 4.1045734860700736e-06, 2.734414272056211e-06, 3.2126982729645866e-06, 2.8032761197569127e-06, 4.030946963380883e-06, -5.568826064885113e-06, -0.004092032697507932])","array('d', [0.28772993485001114, 0.2714258412295923, 0.26008200978964646, 0.2529501204179927, 0.24949334499412493, 0.24930829482287487, 0.2520795389476673, 0.25755163117868685, 0.2655111689936625, 0.27577491121548486, 0.28818171918017266, 0.30258699941544204, 0.3188588261642552, 0.3368751739477758, 0.356521077025913, 0.38049867461877473])",-116.40360859852224,-156.756902097335,-49.998640505048016,-0.034133494361288506,6.903424168617374e-05,0.24930829482287487,25.000000242639093,-1.0,"[-165.1020286407475, -118.73157448537073, 50.068123872744955]","[-151.03098733461144, -105.19536642916893, 54.4013522327821]","[-145.75784798590863, -123.58422536296072, 48.56663985578633]",10000000000.0,0.03476691246032715
21,3.038520336151123,-165.17372131347656,-118.84359741210938,50.12849807739258,0.21923311054706557,-0.008362904191017262,0.2556294957783559,23.239243762978894,"array('d', [-119.51744842529297, -118.83769660569588, -118.18841495063747, -117.55906137158331, -116.94044186097229, -116.32438678336067, -115.7035366461871, -115.07119744972435, -114.42124107968614, -113.74803583418277, -113.04639760514073, -112.31155546776375, -111.53912740888309, -110.72510323924567, -109.8658333478686, -109.13621125645693])","array('d', [-168.37847900390625, -165.97271949383278, -163.55852000163972, -161.13903862867656, -158.71678659261792, -156.2938802262909, -153.87219928288775, -151.45349555065476, -149.03947008791934, -146.6318292761055, -144.2323256873826, -141.84278759062784, -139.4651396117246, -137.10141628677732, -134.7537695502422, -132.89167545334976])","array('d', [-50.0140266418457, -50.00667450153964, -50.00918963452376, -50.0082409354544, -50.00850694366577, -50.0083471509712, -50.00833653724711, -50.008273838304525, -50.008229586841686, -50.00817917977443, -50.00813127953122, -50.00808293878682, -50.00803498345121, -50.0079885513664, -50.00793194676002, -50.00372520858715])","array('d', [0.4254632294178007, 0.3102346313754616, 0.20597147501405996, 0.11163026171532014, 0.026266795027828565, -0.050973268934733335, -0.1208629715750358, -0.18410178761904525, -0.24132262321522782, -0.2930981438717987, -0.33994648723867404, -0.3823363845088332, -0.4206915668600594, -0.45539308609038126, -0.4867501321162772, -0.4361785830927188])","array('d', [-0.009345022961497192, 0.0032531001656850725, -0.0011672514902240877, 0.00038244020204744925, -0.0001605750561067409, 2.956892123694015e-05, -3.695022854144134e-05, -1.3598478751805756e-05, -2.166807428532986e-05, -1.8706976236916708e-05, -1.9598348284832633e-05, -1.9082846843846293e-05, -1.927816385036275e-05, -1.789065203686167e-05, -2.7237121990927983e-05, -0.004111393549715767])","array('d', [0.2833567420628407, 0.2682579815541297, 0.257925363186864, 0.251667965541991, 0.24898454089303937, 0.24949483423160143, 0.25289902008163323, 0.2589524921388537, 0.2674495629280309, 0.27821260244192364, 0.29108463984214544, 0.3059242473891336, 0.32260196524642104, 0.3409977447057962, 0.36099825589514256, 0.385370356969844])",-116.32438678336067,-156.2938802262909,-50.0083471509712,-0.050973268934733335,2.956892123694015e-05,0.24949483423160143,25.00000024263789,-1.0,"[-164.1826123876622, -118.55327707770358, 50.11466399926664]","[-150.0028659747759, -104.90481971364994, 53.6719668044615]","[-144.8784695238445, -123.65189496559076, 48.95097850626063]",10000000000.0,0.036279916763305664
