,current_time,x_pos,y_pos,z_pos,roll,pitch,yaw,vel,x_traj,y_traj,z_traj,roll_traj,pitch_traj,yaw_traj,x_cmd,y_cmd,z_cmd,roll_cmd,pitch_cmd,yaw_cmd,vel_cmd,effector_dmg,effector_x,effector_y,effector_z,cost,time_solution
0,0.4533107280731201,-140.2489013671875,-117.48636627197266,49.9432373046875,0.6310779452323911,0.029872050508856645,3.130833176181679e-05,23.155808855328676,"array('d', [-117.32585906982422, -117.27915693923546, -117.28591575485723, -117.33144439464827, -117.40364424673167, -117.49220305513295, -117.58809990565888, -117.68328812027042, -117.77048429880263, -117.84302385610238, -117.89476025369977, -117.91999390418763, -117.91342180666301, -117.87010197077515, -117.7854289428362, -117.67807031052834])","array('d', [-143.46597290039062, -140.96701576066997, -138.46709411939725, -135.96753252835344, -133.46858354840023, -130.9701554763293, -128.47199587457138, -125.9738093425369, -123.47533287159686, -120.97639101675617, -118.47693600100192, -115.97707778625146, -113.47710629565105, -110.97750744540548, -108.47897403474836, -106.48190856388102])","array('d', [-49.931907653808594, -49.88182646918396, -49.87427789500906, -49.87819032817839, -49.87807744884849, -49.87939086527995, -49.880208241790015, -49.8812004400634, -49.882128139375574, -49.88307155939227, -49.8839993623833, -49.88491971534934, -49.885827011330946, -49.886722930784515, -49.88759080338956, -49.884075464628076])","array('d', [0.6313524842262266, 0.4965309498807271, 0.3745393699285014, 0.26415681397414414, 0.1642785385529737, 0.07390493063810008, -0.007868496528285446, -0.08186015521693481, -0.14881057271254777, -0.20938979908685867, -0.26420410270899397, -0.3138020018985185, -0.3586795966247856, -0.39928448418727736, -0.4360029439260012, -0.39093248351238086])","array('d', [-0.02992477454245079, -0.010468068725719195, 0.004184706513610699, -0.0009687846703805841, 0.0008481707562315261, 0.00021315575951226515, 0.000437011102363584, 0.0003580645163197092, 0.00038366782994172236, 0.00037127493434945777, 0.0003709725178135214, 0.00036540278839581567, 0.0003605155553271219, 0.00035629054539204743, 0.0003383076740015855, -0.0037848811877803975])","array('d', [0.03171153465775037, 0.00690270160044807, -0.011336325091591666, -0.024286294126050302, -0.03279642008798068, -0.037465054954332465, -0.03873509329842959, -0.03694835842605344, -0.03237848655722455, -0.02525174118611845, -0.015760661032906277, -0.004073249808441556, 0.009660714598223612, 0.025305269601874725, 0.04273473346791651, 0.06423838104893483])",-117.49220305513295,-130.9701554763293,-49.87939086527995,0.07390493063810008,0.00021315575951226515,-0.037465054954332465,25.00000024076064,-1.0,"[-138.74957057270817, -117.48631933042671, 49.89843589262881]","[-125.7652197134838, -111.2016342659027, 54.01053589193677]","[-125.76475029802431, -123.31250558210101, 45.160293197968755]",10000000000.0,-100.0
1,0.4539318084716797,-140.2489013671875,-117.48636627197266,49.9432373046875,0.6310779452323911,0.029872050508856645,3.130833176181679e-05,23.155808855328676,"array('d', [-117.34256744384766, -117.30744904417459, -117.32580046846662, -117.38292354115383, -117.46671797578463, -117.5668716117385, -117.67436447514667, -117.78115109348458, -117.87994916433135, -117.96409482266445, -118.02744167671766, -118.06428956626824, -118.0693340902104, -118.03763095249612, -117.96457143140368, -117.86649691868227])","array('d', [-143.006103515625, -140.506949204756, -138.00708487313008, -135.50776122448505, -133.0091741534328, -130.51118400494798, -128.0134964947525, -125.51577885952547, -123.01773426186213, -120.519156283666, -118.0199685694407, -115.52025456807115, -113.02027952358206, -110.52050634325492, -108.02160637627125, -106.02406346665069])","array('d', [-49.93348693847656, -49.88378106035617, -49.87633765137664, -49.88019995736482, -49.880091371776814, -49.88139002428193, -49.882199314137765, -49.88318108998577, -49.8840991840778, -49.885032710118594, -49.885950715867665, -49.88686123256794, -49.88775869969864, -49.88864479021622, -49.88950278252185, -49.88597992199986])","array('d', [0.6313943862915039, 0.496568864440033, 0.37457367644208817, 0.26418785579104753, 0.16430662634658802, 0.07393034551390577, -0.007845500222677512, -0.08183934735347885, -0.14879174509622986, -0.20937276341297387, -0.26418868879041746, -0.3137880563192179, -0.3586669826484037, -0.39927308920040283, -0.4359928160753733, -0.3909234432169202])","array('d', [-0.029766986146569252, -0.010325295881741189, 0.004129373281149976, -0.0009547112126601644, 0.000837937772794187, 0.0002114355890310338, 0.00043231164949464936, 0.00035440861971000555, 0.0003796456601497969, 0.0003673798036636846, 0.0003670306343844881, 0.00036147541662776873, 0.0003565799826376409, 0.00035236283740973254, 0.0003343319423616987, -0.0037884343298037024])","array('d', [0.027077392735753207, 0.0022663616219258174, -0.01597439104315046, -0.028925783168494534, -0.0374371243212221, -0.042106823817131774, -0.04337781276784777, -0.04159193874401711, -0.037022854608873015, -0.029896835574162613, -0.02040642879332877, -0.008719644161585141, 0.005013735849961378, 0.020657745455693394, 0.03808670434314389, 0.059589791792102303])",-117.5668716117385,-130.51118400494798,-49.88139002428193,0.07393034551390577,0.0002114355890310338,-0.042106823817131774,25.000000240711046,-1.0,"[-138.74957057270817, -117.48631933042671, 49.89843589262881]","[-125.7652197134838, -111.2016342659027, 54.01053589193677]","[-125.76475029802431, -123.31250558210101, 45.160293197968755]",10000000000.0,0.02445054054260254
2,0.4545567035675049,-140.2489013671875,-117.48636627197266,49.9432373046875,0.6310779452323911,0.029872050508856645,3.130833176181679e-05,23.155808855328676,"array('d', [-117.36137390136719, -117.33803874626439, -117.36818150449396, -117.43709716494995, -117.53268396806774, -117.64463004862776, -117.76391656657911, -117.88249943678055, -117.99309762128084, -118.08904812422644, -118.16420483001747, -118.2128671140484, -118.22972926130561, -118.20984473338608, -118.14860158036637, -118.05997431190286])","array('d', [-142.54617309570312, -140.04687520105787, -137.54712454730478, -135.04809814628487, -132.54993441154338, -130.05244494409058, -127.55529289572893, -125.0581075019958, -122.56055751595923, -120.06240501286008, -117.56354456298368, -115.06403263828388, -112.56410936711927, -110.06421423558498, -107.56499675269319, -105.56701241488213])","array('d', [-49.935089111328125, -49.88567330437601, -49.878310124041406, -49.88213188664915, -49.88202501877612, -49.88331061805977, -49.884112029349225, -49.88508411880408, -49.88599315645421, -49.88691739802176, -49.887826187603636, -49.88872744985051, -49.889615658591396, -49.89049248235232, -49.89134114047072, -49.88781116336821])","array('d', [0.6314398050308228, 0.4966099610178874, 0.37461086216538436, 0.2642215028248688, 0.1643370714381705, 0.07395789336132355, -0.007820573924341809, -0.08181679316016707, -0.1487713373350286, -0.20935429796439875, -0.2641719811572026, -0.31377294013590334, -0.3586533094571386, -0.3992607357537747, -0.43598182029823107, -0.39091362819090275])","array('d', [-0.029645033180713595, -0.010214948276913782, 0.004085778650046606, -0.0009444498564194901, 0.0008293647834513178, 0.00020945600819389568, 0.0004280268328537309, 0.000350930858023727, 0.00037588302023806603, 0.00036371326143262624, 0.00036332489628544435, 0.00035777746171203263, 0.00035287140245428473, 0.00034865795005237314, 0.00033057042355532534, -0.003791796119769096])","array('d', [0.02236385742691538, -0.0024495563442482296, -0.020692179902494896, -0.03364511458809151, -0.04215777293556743, -0.04682862641899272, -0.048100645758844034, -0.046315704829522006, -0.04174747453588338, -0.03462224279193477, -0.025132565893614442, -0.013446460442211993, 0.00028628611688663976, 0.015929704495085448, 0.033358115548116275, 0.054860594851813514])",-117.64463004862776,-130.05244494409058,-49.88331061805977,0.07395789336132355,0.00020945600819389568,-0.04682862641899272,25.000000240659748,-1.0,"[-138.74957057270817, -117.48631933042671, 49.89843589262881]","[-125.7652197134838, -111.2016342659027, 54.01053589193677]","[-125.76475029802431, -123.31250558210101, 45.160293197968755]",10000000000.0,0.019089937210083008
3,0.45516276359558105,-140.2489013671875,-117.48636627197266,49.9432373046875,0.6310779452323911,0.029872050508856645,3.130833176181679e-05,23.155808855328676,"array('d', [-117.4052963256836, -117.4046151717375, -117.45739340545379, -117.5489199359689, -117.66709490170066, -117.80161043619283, -117.94345249434467, -118.08458173328229, -118.21772125210016, -118.33621117381854, -118.43390717821141, -118.5051088806455, -118.54450907781698, -118.54715788931136, -118.50843807813804, -118.4378139458549])","array('d', [-141.626220703125, -139.12681104026808, -136.62743547307178, -134.1291349127066, -131.63193775951154, -129.1355621457849, -126.63958969285723, -124.14357700272609, -121.64712716915665, -119.14994223976882, -116.6518614628267, -114.15289003623484, -111.65322039680741, -109.15324759153582, -106.65357971621584, -104.65487807349561])","array('d', [-49.93834686279297, -49.88907567299721, -49.88174553199309, -49.88553521332293, -49.885418648309916, -49.88668688022128, -49.88747359383875, -49.88843005779955, -49.88932377355532, -49.890232550012506, -49.8911258732035, -49.89201160679507, -49.892884235594906, -49.89374543563309, -49.89457830323627, -49.891036261340666])","array('d', [0.6312633752822874, 0.49645032076402396, 0.3744664136744299, 0.26409080040763866, 0.16421880697767846, 0.073850883217716, -0.007917400766376212, -0.08190440582426306, -0.14885061278398493, -0.20942602985460332, -0.2642368879933965, -0.3138316731366475, -0.35870646180037263, -0.3993088651445584, -0.43602571375240257, -0.3909528082419736])","array('d', [-0.029584232717752307, -0.010159933750841408, 0.004058568212428963, -0.0009433763673546848, 0.0008206961004718206, 0.00020417428995565595, 0.000421570015967833, 0.00034488049833793466, 0.00036967843651126254, 0.00035754514775411067, 0.00035712050179344257, 0.00035155916318787585, 0.0003466261962358778, 0.0003424043176882375, 0.00032419369554817767, -0.003797495584102871])","array('d', [0.013295129933629232, -0.011509029108664111, -0.029744385539988302, -0.042691328331015625, -0.051198870118241965, -0.05586524096188079, -0.05713325774242968, -0.05534469216613052, -0.050773145053216805, -0.043644854957676976, -0.03415234260783592, -0.022463598403095298, -0.008728389968727745, 0.006917329277065871, 0.024347900155861624, 0.04585280770065747])",-117.80161043619283,-129.1355621457849,-49.88668688022128,0.073850883217716,0.00020417428995565595,-0.05586524096188079,25.00000024055865,-1.0,"[-138.74957057270817, -117.48631933042671, 49.89843589262881]","[-125.7652197134838, -111.2016342659027, 54.01053589193677]","[-125.76475029802431, -123.31250558210101, 45.160293197968755]",10000000000.0,0.015656709671020508
4,0.4557337760925293,-140.2489013671875,-117.48636627197266,49.9432373046875,0.6310779452323911,0.029872050508856645,3.130833176181679e-05,23.155808855328676,"array('d', [-117.43036651611328, -117.44077439152095, -117.50463519474751, -117.6072345037803, -117.73647319468336, -117.88204527806533, -118.03493904116273, -118.18711748416325, -118.33130577462171, -118.46084561727963, -118.5695936311727, -118.65184961055935, -118.70230568297704, -118.71601038716983, -118.68834394733132, -118.62655701882673])","array('d', [-141.16624450683594, -138.6668610608699, -136.16774466111508, -133.6698744009312, -131.17322538926012, -128.67747011075429, -126.18215025891051, -123.68678685057816, -121.19095078936697, -118.69431467959319, -116.19669061911175, -113.69805862817778, -111.19858771147136, -108.69865106869334, -106.1988364230128, -104.19984209035012])","array('d', [-49.939971923828125, -49.89046714561801, -49.883064451009815, -49.88687315126561, -49.88674306556917, -49.88800936469996, -49.88879007550669, -49.88974197281354, -49.89063059962866, -49.89153443308355, -49.892422708717, -49.893303363969295, -49.89417084513526, -49.89502684139716, -49.89585436600234, -49.89230819748837])","array('d', [0.6312134861946104, 0.4964051792460362, 0.3744255679348175, 0.2640538416479208, 0.16418536530011735, 0.07382062392181002, -0.00794478053673861, -0.08192918011853116, -0.14887302960290663, -0.20944631366960084, -0.26425524209497364, -0.31384828199344755, -0.35872149421729427, -0.3993224839461545, -0.43603820189487347, -0.3909639553596087])","array('d', [-0.029682438820600395, -0.010248794313955374, 0.004087420584290905, -0.0009563163301845034, 0.000822572350989136, 0.0002008387579630406, 0.00042007263517721146, 0.000342735361596847, 0.00036774882512904743, 0.00035552191881103146, 0.00035510554645926736, 0.0003495119844349431, 0.0003445556573775257, 0.0003403121953547655, 0.00032201289842186484, -0.0037994452939535696])","array('d', [0.008857087292943436, -0.015944455147608626, -0.03417775683948304, -0.047123005400374826, -0.05562910042696391, -0.06029420373518574, -0.061561088715425476, -0.05977149819023852, -0.055199013165505934, -0.048069858238806426, -0.038576544079021925, -0.02688705366752685, -0.01315114899333137, 0.0024952211596225514, 0.01992640484391012, 0.04143200326812136])",-117.88204527806533,-128.67747011075429,-49.88800936469996,0.07382062392181002,0.0002008387579630406,-0.06029420373518574,25.000000240507692,-1.0,"[-138.74957057270817, -117.48631933042671, 49.89843589262881]","[-125.7652197134838, -111.2016342659027, 54.01053589193677]","[-125.76475029802431, -123.31250558210101, 45.160293197968755]",10000000000.0,0.015123844146728516
5,0.4567232131958008,-139.3338165283203,-117.55026245117188,49.94667053222656,0.6310769319534301,0.02985217049717894,-0.008975191912378793,23.153135247211075,"array('d', [-117.4574966430664, -117.47896429148295, -117.5538742245751, -117.66750957902221, -117.80777261227647, -117.96435969826327, -118.1282618410307, -118.29144469850561, -118.446635773471, -118.58717858515347, -118.70693090027986, -118.80019288277214, -118.86165616888958, -118.88636788493514, -118.86970587769613, -118.81671707533198])","array('d', [-140.70628356933594, -138.2069776811864, -135.70816891503858, -133.21077649527658, -130.71472257319456, -128.21963417286048, -125.72501320734139, -123.2303452587195, -120.73516918563875, -118.23912829095406, -115.74200765849844, -113.24376226130751, -110.7445377955043, -108.24468572956853, -105.74477352189247, -103.74552663549306])","array('d', [-49.94142532348633, -49.89156856411447, -49.884059768340734, -49.88790255635416, -49.88775690565236, -49.88902527956368, -49.88980188071804, -49.89075184792777, -49.89163775220862, -49.89253908423793, -49.89342469945804, -49.89430264688113, -49.895167314764244, -49.8960204072917, -49.89684485137394, -49.89329625440692])","array('d', [0.6311361193656921, 0.4963351748373699, 0.3743622253193842, 0.26399652687137415, 0.16413350473527222, 0.07377369852616807, -0.007987240418742573, -0.081967599462539, -0.1489077929728842, -0.20947776910341082, -0.26428370468790585, -0.31387403737122854, -0.3587448026861788, -0.39934359096604516, -0.4360574629153749, -0.3909811480464406])","array('d', [-0.029830420389771416, -0.010382693582600732, 0.004133435116085947, -0.0009739979305153982, 0.0008274260119157773, 0.00019777696759679542, 0.0004198001720102457, 0.0003414801413217921, 0.0003668205635509395, 0.0003544514127465272, 0.0003540475136696969, 0.00034840457743573927, 0.00034341302565709867, 0.00033913245850169176, 0.00032072993900653785, -0.0038005930612149646])","array('d', [0.004429892697606287, -0.020367592292445356, -0.03859770770642722, -0.051540328981770286, -0.06004418045012208, -0.06470731811370894, -0.06597244792960127, -0.0641812679344961, -0.05960732841118201, -0.05247683231837516, -0.04298227473162956, -0.03129162714342708, -0.01755464284743789, -0.0019072636434131146, 0.015524867548479298, 0.03703153150211908])",-117.96435969826327,-128.21963417286048,-49.88902527956368,0.07377369852616807,0.00019777696759679542,-0.06470731811370894,25.000000240455993,-1.0,"[-138.74957057270817, -117.48631933042671, 49.89843589262881]","[-125.7652197134838, -111.2016342659027, 54.01053589193677]","[-125.76475029802431, -123.31250558210101, 45.160293197968755]",10000000000.0,0.01680731773376465
6,0.45731258392333984,-139.3338165283203,-117.55026245117188,49.94667053222656,0.6310769319534301,0.02985217049717894,-0.008975191912378793,23.153135247211075,"array('d', [-117.48636627197266, -117.51882307835366, -117.60471274398087, -117.72931581783153, -117.88053588678441, -118.04807167821548, -118.22291692429846, -118.3970399678363, -118.56317068359951, -118.71465444902631, -118.84535022715973, -118.94955860391919, -119.02197077946616, -119.05763252508471, -119.05191936939484, -119.00768550779266])","array('d', [-140.2489013671875, -137.74971600896615, -135.25126078093717, -132.75439156348634, -130.25897749132807, -127.76460033014692, -125.27072246056463, -122.77679423447115, -120.2823226472616, -117.78692185679232, -115.2903500697608, -112.79253733090505, -110.29360613083064, -107.79388629522003, -105.29392509262422, -103.29446536449004])","array('d', [-49.9432373046875, -49.89328152628496, -49.88573825209456, -49.88958280692184, -49.88942583165755, -49.8906875933919, -49.89145591037021, -49.89239818540734, -49.89327618164705, -49.89416966708303, -49.89504739447078, -49.89591744455724, -49.89677419040076, -49.89761934848976, -49.89843577530848, -49.89488105205065])","array('d', [0.6310779452323911, 0.4962825366994338, 0.37431459635696485, 0.2639534303973846, 0.16409450942386952, 0.07373841409450299, -0.00801916711955397, -0.08199648798826298, -0.14893393249905176, -0.20950142135549818, -0.2643051066590652, -0.31389340400736254, -0.35876233030320964, -0.3993594669266712, -0.43607198741346065, -0.3909941128306577])","array('d', [-0.029872050508856645, -0.010420362077612743, 0.004142736593084872, -0.000981603880564728, 0.0008258713629163124, 0.00019407765173678422, 0.0004168594912305928, 0.00033827155287614923, 0.0003637012298101478, 0.00035129410494292966, 0.0003508944838838753, 0.0003452399313518354, 0.0003402401765242392, 0.00033595778679618025, 0.00031749185684027293, -0.0038034870615833846])","array('d', [3.130833176181679e-05, -0.02476312600718174, -0.042990845707069306, -0.05593149152746057, -0.0644336560412065, -0.06909531570068839, -0.07035912576599292, -0.06856675060269972, -0.06399171739464526, -0.056860212830745605, -0.047364720260707496, -0.03567320253352002, -0.021935406387386388, -0.006287268290494469, 0.0111455764890414, 0.032653044027681086])",-118.04807167821548,-127.76460033014692,-49.8906875933919,0.07373841409450299,0.00019407765173678422,-0.06909531570068839,25.000000240403732,-1.0,"[-138.74957057270817, -117.48631933042671, 49.89843589262881]","[-125.7652197134838, -111.2016342659027, 54.01053589193677]","[-125.76475029802431, -123.31250558210101, 45.160293197968755]",10000000000.0,0.01965045928955078
7,0.47503042221069336,-139.3338165283203,-117.55026245117188,49.94667053222656,0.6310769319534301,0.02985217049717894,-0.008975191912378793,23.153135247211075,"array('d', [-117.55026245117188, -117.60522649981675, -117.71361453286622, -117.86070002389607, -118.03438824336428, -118.22438211706537, -118.42168059139269, -118.6182572915828, -118.80684683203509, -118.9807983390308, -119.13397320559652, -119.26067288163547, -119.35558768171401, -119.41376060873868, -119.43056244340362, -119.40433753811699])","array('d', [-139.3338165283203, -136.8350238970459, -134.33744343891507, -131.8417976489442, -129.34784670607308, -126.85507956174311, -124.36287751828782, -121.870618610567, -119.37774438032314, -116.88380906876229, -114.38851558659032, -111.8917426528598, -109.39356494299028, -106.89426765285906, -104.3943563844484, -102.39457941350538])","array('d', [-49.94667053222656, -49.896762039262654, -49.88922214520197, -49.89304354683604, -49.89287212056531, -49.89411658127548, -49.8948685650099, -49.89579418123704, -49.896655621318885, -49.89753249407357, -49.898393598759625, -49.89924699335568, -49.90008705250605, -49.90091550868578, -49.9017150816506, -49.89814748979126])","array('d', [0.6310769319534301, 0.49628161984543145, 0.3743137667504979, 0.26395267973291026, 0.1640938301832392, 0.07373779946891333, -0.008019723303606625, -0.081996991343596, -0.14893438816326704, -0.20950183411434609, -0.26430548119067626, -0.31389374555455873, -0.3587626472545179, -0.3993597863018334, -0.43607259447569335, -0.3909946547030794])","array('d', [-0.02985217049717894, -0.010402373908464388, 0.004127998752793578, -0.000985568372327967, 0.0008183346400520065, 0.00018775332813732428, 0.0004101240770196744, 0.0003316775591146673, 0.00035705123087739434, 0.00034465379647694976, 0.00034423691817418896, 0.0003385732559759812, 0.00033355775919987783, 0.00032927862145107773, 0.0003106899842506769, -0.0038095659603918507])","array('d', [-0.008975191912378793, -0.03376957311686429, -0.05199725108901153, -0.06493786250112903, -0.07343999763114954, -0.07810163154564961, -0.07936541862107814, -0.07757302263515901, -0.07299797036631873, -0.06586644821301675, -0.056370939303450746, -0.04467940628934529, -0.03094159564399295, -0.015293443060350161, 0.0021394236776272365, 0.023646924986448336])",-118.22438211706537,-126.85507956174311,-49.89411658127548,0.07373779946891333,0.00018775332813732428,-0.07810163154564961,25.000000240293662,-1.0,"[-138.72149155181222, -117.4886943177599, 49.89854215433755]","[-125.7350690552459, -111.2068760142209, 54.00848005435487]","[-125.73874320823367, -123.31782032214316, 45.158337994986276]",10000000000.0,0.017599821090698242
8,0.5057508945465088,-138.4185333251953,-117.6223373413086,49.95011901855469,0.6310832500457764,0.029856860637664673,-0.01820246776076773,23.14950565723685,"array('d', [-117.58527374267578, -117.65173664183453, -117.77162069724896, -117.93019555265492, -118.11536727666962, -118.31684095557671, -118.52561825734169, -118.73367558611098, -118.93375006968316, -119.11919284652609, -119.2838666486688, -119.42207346255974, -119.52850324094467, -119.59819765695073, -119.62652514302856, -119.60952120528923])","array('d', [-138.87619018554688, -136.37767791980022, -133.88062299344574, -131.385680903689, -128.89255629391826, -126.40069071247389, -123.90942401433887, -121.41809725462774, -118.92611849110084, -116.43301130187147, -113.93845028704987, -111.44228787587062, -108.94457424004155, -106.44557169214058, -103.9457644581736, -101.94588784105048])","array('d', [-49.94829559326172, -49.89833979268853, -49.89078145137308, -49.89460023574391, -49.89442029109826, -49.89565844069969, -49.8964033292447, -49.89732213504399, -49.898176654115275, -49.89904662274173, -49.89990078503409, -49.900747209811094, -49.901580259788105, -49.90240167645845, -49.903194091835644, -49.89962100412866])","array('d', [0.6311054229736326, 0.4963073995883237, 0.3743370932273168, 0.2639737864011681, 0.1641129282825625, 0.07375508013380017, -0.008004087133788251, -0.08198284320015824, -0.14892158649678716, -0.20949025091377638, -0.2642950007997866, -0.31388426382529083, -0.3587540717606594, -0.399352043056742, -0.43606574561207, -0.3909885413058689])","array('d', [-0.029872059822082426, -0.010420370519326753, 0.004130888769567548, -0.0009904229978200032, 0.0008163270700983098, 0.00018472897250324284, 0.0004074661678627612, 0.0003288893001716425, 0.0003543020295369991, 0.00034188010351697816, 0.0003414568030341735, 0.0003357777719729477, 0.0003307461728327391, 0.00032645873836826276, 0.0003077852127022261, -0.00381216222916098])","array('d', [-0.013576432070459991, -0.03837230731498344, -0.05660115858280803, -0.06954273747392514, -0.07804569879240898, -0.08270805656282987, -0.08397248998928823, -0.08218067933848255, -0.07760616269899394, -0.07047513443196157, -0.060980083395277884, -0.049288976438758916, -0.035551563133315756, -0.01990378127232462, -0.002471256896000361, 0.01903586560862899])",-118.31684095557671,-126.40069071247389,-49.89565844069969,0.07375508013380017,0.00018472897250324284,-0.08270805656282987,25.000000240235888,-1.0,"[-137.35918703444355, -117.60734132857769, 49.903566027843354]","[-124.27270536007765, -111.4661461889892, 53.907279259829416]","[-124.47895429269262, -123.57928062434183, 45.06253870236424]",10000000000.0,0.025594711303710938
9,0.5272500514984131,-137.96084594726562,-117.66146850585938,49.95189666748047,0.6310667395591736,0.029884653165936352,-0.022844239077295925,23.1489386959796,"array('d', [-117.6223373413086, -117.70035619788132, -117.8317863154841, -118.00189498248376, -118.1985900971359, -118.41157967505116, -118.63186870485688, -118.85143685559733, -119.06302417433956, -119.25998415942686, -119.43618118588107, -119.5859180470825, -119.70388457783883, -119.78512134397683, -119.82499463448534, -119.81722731264766])","array('d', [-138.4185333251953, -135.9203544710244, -133.42388054572123, -130.92969827153829, -128.43745632361424, -125.94654862022017, -123.45627343849868, -120.96593476287717, -118.47490710802765, -115.98268335043612, -113.48890975655648, -110.99341245353054, -108.49621710461926, -105.99756313920793, -103.49791341014208, -101.49797961338722])","array('d', [-49.95011901855469, -49.900199369878024, -49.89264572370024, -49.89645043577431, -49.896262675292846, -49.89749090507993, -49.898226588316106, -49.89913594379624, -49.89998109593386, -49.9008416658347, -49.901686437304015, -49.902523465576, -49.90334711788987, -49.90415914565974, -49.90494210744826, -49.90136181044585])","array('d', [0.6310832500457764, 0.49628733669112457, 0.37431893956430107, 0.26395736028343353, 0.16409806530970653, 0.07374163154716512, -0.00801625594284796, -0.08199385404380373, -0.14893154962426303, -0.20949926615025283, -0.26430315864209997, -0.3138916466554763, -0.3587607559140954, -0.3993581071539837, -0.436071388593882, -0.39099357832891873])","array('d', [-0.029856860637664673, -0.010406617733443063, 0.00412128200933431, -0.000992204649315878, 0.0008119001800599224, 0.00018120494839415178, 0.000403631132917743, 0.00032516227749316645, 0.00035053615308665943, 0.0003381267895175259, 0.0003376975571696164, 0.0003320197923094182, 0.0003269860571819506, 0.00032270758357740427, 0.00030397448918863463, -0.0038155676249482205])","array('d', [-0.01820246776076773, -0.042997180275075486, -0.061225118431699935, -0.07416594438790163, -0.08266826273013589, -0.08733005716366925, -0.0885939875699391, -0.08680172138188592, -0.08222678788324364, -0.07509537523192485, -0.06559996781135342, -0.053908529162702, -0.04017080631240149, -0.024522734814359837, -0.007089935571327013, 0.01441749921192791])",-118.41157967505116,-125.94654862022017,-49.89749090507993,0.07374163154716512,0.00018120494839415178,-0.08733005716366925,25.00000024017681,-1.0,"[-136.90656891945085, -117.65092489054635, 49.9053892512594]","[-123.78673018749087, -111.55760122506794, 53.872912200794]","[-124.0615893813082, -123.6712462981663, 45.03073738536686]",10000000000.0,0.019666671752929688
10,0.5430946350097656,-137.96084594726562,-117.66146850585938,49.95189666748047,0.6310667395591736,0.029884653165936352,-0.022844239077295925,23.1489386959796,"array('d', [-117.66146850585938, -117.75108128016731, -117.89409495326024, -118.07577459620663, -118.28403010919587, -118.50857260584675, -118.74041055563937, -118.97152704190229, -119.19466516996145, -119.40318092665909, -119.59094044849323, -119.75224744421877, -119.8817917291841, -119.97461285046789, -120.0260750322631, -120.02757979640678])","array('d', [-137.96084594726562, -135.46305743639672, -132.9672204611016, -130.47385433346417, -127.98255175665078, -125.49265890087115, -123.00343233122916, -120.51413884197372, -118.02411929214081, -115.5328357506115, -113.03990604801709, -110.54512990986724, -108.048508392945, -105.5502579462538, -103.05081995265687, -101.05087165915472])","array('d', [-49.95189666748047, -49.90191091310087, -49.89433245815913, -49.898135242416124, -49.89793713188462, -49.899158093604136, -49.89988540756901, -49.900786787545734, -49.90162381887868, -49.9024763059689, -49.903312962899335, -49.90414186531963, -49.90495736935191, -49.905761239071296, -49.90653595199907, -49.90294934583507])","array('d', [0.6310667395591736, 0.49627239738311907, 0.37430542191693505, 0.26394512900653666, 0.16408699798620427, 0.07373161740652147, -0.008025317136134472, -0.08200205299964078, -0.14893896844909096, -0.20950597920382824, -0.2643092333772808, -0.3138971445976311, -0.3587657345063185, -0.399362627813007, -0.4360756332130124, -0.39099736713776545])","array('d', [-0.029884653165936352, -0.010431765458827883, 0.004126082626361526, -0.0009983646634557856, 0.0008097138637912343, 0.00017760046774944585, 0.0004005317699252676, 0.0003218842184075971, 0.000347316592259207, 0.0003348805466367575, 0.0003344521546189997, 0.0003287646752303806, 0.00032372268632697396, 0.00031944450866592985, 0.0003006396714767993, -0.0038185479364955606])","array('d', [-0.022844239077295925, -0.04763808581555025, -0.0658653440585894, -0.07880560936723813, -0.08730744893693881, -0.09196882389760526, -0.09323237974312734, -0.09143977435033486, -0.08686453044652191, -0.07973283156981804, -0.07023715876984392, -0.05854547311845472, -0.04480751972912531, -0.029159232405504335, -0.011726227337838282, 0.009781442351453482])",-118.50857260584675,-125.49265890087115,-49.899158093604136,0.07373161740652147,0.00017760046774944585,-0.09196882389760526,25.000000240116353,-1.0,"[-136.46190691945574, -117.69571658513932, 49.90707635987348]","[-123.30947375498289, -111.64941166308348, 53.83844999304521]","[-123.65195454778237, -123.76327092361512, 44.998929603194014]",10000000000.0,0.014525651931762695
11,0.5768692493438721,-137.04544067382812,-117.74609375,49.95523452758789,0.6293956637382507,0.02985616028308858,-0.03168038924666835,23.152265410271994,"array('d', [-117.74609375, -117.85765940109043, -118.02241362250027, -118.2256554856985, -118.4553240614646, -118.70115419745453, -118.95417412662505, -119.20638350829142, -119.45053928822603, -119.68000880093118, -119.88866717445717, -120.07082482880975, -120.2211760557812, -120.33476267571665, -120.40694900596856, -120.42499420776178])","array('d', [-137.04544067382812, -134.5485345654582, -132.05403796599825, -129.56233655255318, -127.07291660571686, -124.58503526489295, -122.09787247513812, -119.61062755296456, -117.12258096611853, -114.63314005241325, -112.14187258655546, -109.64853220904294, -107.15307735681567, -104.65568495729022, -102.15675970818305, -100.15689238440464])","array('d', [-49.95523452758789, -49.905316544714644, -49.89774704805265, -49.901523800539636, -49.90131133687051, -49.90251393102118, -49.90322419523552, -49.90410802106541, -49.904927627536466, -49.90576260159102, -49.90658173905653, -49.90739309389193, -49.90819103603949, -49.90897735286806, -49.90973439320847, -49.90613431283185])","array('d', [0.6293956637382507, 0.4947603453140587, 0.3729372605007615, 0.26270716524648935, 0.1629668419426263, 0.07271805819183429, -0.008942423564961378, -0.08283188537762791, -0.1496898320936916, -0.2101853892027471, -0.26492398998045386, -0.31445340184424, -0.35926906410762927, -0.3998180888294393, -0.43648803699898037, -0.3913654816613894])","array('d', [-0.02985616028308858, -0.010405984042010112, 0.0041081967271353, -0.0010015494897673593, 0.000801500071838723, 0.00017109175853587648, 0.00039341089046340176, 0.00031495852357445224, 0.0003403038490732459, 0.00032788261355708664, 0.0003274348384318554, 0.00032174397919489524, 0.0003166940069752874, 0.0003124306274621604, 0.00029351729072587033, -0.0038249125258900465])","array('d', [-0.03168038924666835, -0.05638669798861885, -0.07454518699280792, -0.08742873230275268, -0.09588212650076852, -0.10050105090893764, -0.10172669768865927, -0.09989975926235621, -0.0952930959500466, -0.0881324247188328, -0.07860989047508735, -0.06689320693741412, -0.05313193315783438, -0.037461859192234735, -0.020008481527402, 0.0015220066116660446])",-118.70115419745453,-124.58503526489295,-49.90251393102118,0.07271805819183429,0.00017109175853587648,-0.10050105090893764,25.00000024000092,-1.0,"[-136.4253792712881, -117.69962321784081, 49.907210876800896]","[-123.2704077532424, -111.65676565418674, 53.83539071290754]","[-123.61817542996157, -123.77120928503133, 44.996877650286756]",10000000000.0,0.02078843116760254
12,0.6004230976104736,-136.12994384765625,-117.83930206298828,49.958595275878906,0.6203193068504332,0.028946334496140372,-0.039820357165064435,23.160128043335902,"array('d', [-117.79163360595703, -117.91333123892181, -118.0878245236569, -118.30048641058642, -118.53930784188411, -118.7940615395829, -119.05580461106109, -119.31655945632497, -119.56910136401378, -119.80681271617439, -120.02358112044173, -120.21372740454964, -120.37195454408769, -120.49331156938842, -120.5731687157508, -120.59726654584533])","array('d', [-136.58770751953125, -134.0912610390209, -131.59742470401991, -129.10650903382225, -126.61795029683618, -124.13096677238276, -121.64470682828703, -119.15834328153473, -116.67113396705678, -114.18246660682236, -111.69189180218432, -109.19914804131878, -106.70418031787801, -104.20715358550271, -101.70846185231233, -99.70865850230592])","array('d', [-49.95676803588867, -49.907488313064896, -49.90009886560796, -49.90379298568376, -49.90359023745247, -49.904769832521104, -49.905468445508546, -49.90633652879548, -49.907141767215194, -49.907961872971285, -49.908766338955004, -49.909563011988965, -49.91034636725256, -49.91111819222349, -49.91186080729498, -49.908249814370414])","array('d', [0.6260782480239868, 0.4917586231725003, 0.37022118974186785, 0.26024956256956633, 0.16074311087663823, 0.07070594292491761, -0.010763060931228762, -0.08447926638010815, -0.15118044428686936, -0.21153415120132535, -0.26614440085077407, -0.31555767646459465, -0.360268256454256, -0.40072220888637, -0.43730624787876315, -0.39209580415333567])","array('d', [-0.02958782017230981, -0.010163179869087803, 0.004015040832624194, -0.0009764721882121566, 0.0007848905421770872, 0.000169058852522528, 0.00038620904284263313, 0.00030953664277449526, 0.00033424196483083246, 0.00032204609885353326, 0.00032153521983932303, 0.0003158972733268105, 0.0003108708127115413, 0.0003066594665143389, 0.00028774819968565896, -0.003830066344169115])","array('d', [-0.0358288725230357, -0.06036192502784293, -0.0783841670069465, -0.09115525672433399, -0.09951255079052704, -0.1040472344170356, -0.10519763122338452, -0.10330252683588005, -0.09863347264298043, -0.09141526327378707, -0.08183937889767613, -0.0700730439486992, -0.05626544945064786, -0.04055210179015532, -0.023058270495823187, -0.0014824879864987585])",-118.7940615395829,-124.13096677238276,-49.904769832521104,0.07070594292491761,0.000169058852522528,-0.1040472344170356,25.00000023995027,-1.0,"[-135.5468615038037, -117.79358521070819, 49.9104569402397]","[-122.33132789202932, -111.83404638237845, 53.761894114813806]","[-122.80624249911116, -123.96206205179824, 44.94794539484225]",10000000000.0,0.01938915252685547
13,0.6237804889678955,-135.67417907714844,-117.88886260986328,49.96064376831055,0.611832559108734,0.027889627963304377,-0.04378358920546973,23.164388065792682,"array('d', [-117.83930206298828, -117.9705747581404, -118.15397109911693, -118.37499265904857, -118.62171816213579, -118.8839833273124, -119.15289252791847, -119.42050492999391, -119.67962526389694, -119.92366007106476, -120.14651719496736, -120.34253471164229, -120.50643051788764, -120.63326671374841, -120.71842509844737, -120.74661561226063])","array('d', [-136.12994384765625, -133.63395109650756, -131.1407492261939, -128.6505603137028, -126.16277245319841, -123.67656966444498, -121.19107454741014, -118.7054397799475, -116.21890730334304, -113.73085219492096, -111.24081500274964, -108.74852625877078, -106.25392472455613, -103.75717054878456, -101.25865412137695, -99.2589046276925])","array('d', [-49.958595275878906, -49.910841371218645, -49.90388741357057, -49.907392637364104, -49.90722085307183, -49.90835348587102, -49.90903224028783, -49.90987075897789, -49.91064977237468, -49.91144252830428, -49.912220185909185, -49.91299010082915, -49.913747001893704, -49.91449266329689, -49.91520945475451, -49.91157904450785])","array('d', [0.6203193068504332, 0.4865477172384158, 0.36550616664348945, 0.2559832328557615, 0.1568827757613332, 0.06721296694294493, -0.013923636602516339, -0.08733907380496282, -0.15376810536647742, -0.21387556415904405, -0.2682629995059236, -0.31747466500627014, -0.36200282262629024, -0.40229172188390816, -0.43872652333257334, -0.3933634620843751])","array('d', [-0.028946334496140372, -0.009582739622086495, 0.003796333585930365, -0.0009135802485614901, 0.0007484272032015515, 0.00016737222528674412, 0.0003722141395344263, 0.0002998086862279962, 0.0003230149101063211, 0.00031138386898736046, 0.0003107527514861268, 0.00030527064956366133, 0.0003003326009622764, 0.0002962644334316092, 0.0002774821846571001, -0.003839236115349678])","array('d', [-0.039820357165064435, -0.06405427700943875, -0.08184085235146835, -0.09441717454906565, -0.10260787053690287, -0.10699641341059235, -0.10801619907743777, -0.10600273379971248, -0.1012253157547241, -0.09390715062826922, -0.08423857263960592, -0.07238596217910244, -0.058497874979748614, -0.04270932754211703, -0.025145199278887774, -0.0034907215429674948])",-118.8839833273124,-123.67656966444498,-49.90835348587102,0.06721296694294493,0.00016737222528674412,-0.10699641341059235,25.000000239905955,-1.0,"[-134.63176081185807, -117.89899179913381, 49.91518183734376]","[-121.35866644592932, -111.99852979599278, 53.65811038363465]","[-121.95556380738464, -124.20429398332202, 44.959660283576675]",10000000000.0,0.018837690353393555
14,0.6420009136199951,-135.67417907714844,-117.88886260986328,49.96064376831055,0.611832559108734,0.027889627963304377,-0.04378358920546973,23.164388065792682,"array('d', [-117.88886260986328, -118.02945956785538, -118.22120111964564, -118.4497763231627, -118.70339058340821, -118.97197002526899, -119.24668647851361, -119.51965135273313, -119.78371111973009, -120.03230660804702, -120.25937453112506, -120.45927782768672, -120.626756247651, -120.75689145394303, -120.84508304149749, -120.87547960049113])","array('d', [-135.67417907714844, -133.1786447302622, -130.6860640676971, -128.1965555410521, -125.70946002628396, -123.22393119254548, -120.73907118648746, -118.25401857609236, -115.7680059445083, -113.28040259433604, -110.79074612143035, -108.29876634514193, -105.80440310716664, -103.30781906336021, -100.80940823286375, -98.80969157361167])","array('d', [-49.96064376831055, -49.91540335263156, -49.909169753185175, -49.91236877953971, -49.912252419275696, -49.91331233038042, -49.913962983221914, -49.91475746889534, -49.915497975915656, -49.91625040889768, -49.91698866505194, -49.91771929014391, -49.9184374276205, -49.91914482090929, -49.91982395805395, -49.91616529466535])","array('d', [0.611832559108734, 0.4788685896289766, 0.3585578040153211, 0.24969609378574475, 0.1511939365610194, 0.06206549189717656, -0.018581265068656996, -0.09155347073540174, -0.15758144982354966, -0.2173260213921308, -0.271385102994605, -0.320299662313095, -0.3645589890575186, -0.4046046490946186, -0.44081946424223656, -0.3952313676676066])","array('d', [-0.027889627963304377, -0.00862659201029594, 0.003438407606485122, -0.0008083396682886652, 0.0006902519545470789, 0.00016641558984377655, 0.0003510269990430573, 0.00028565212771805776, 0.0003064072554316252, 0.0002957174623902275, 0.00029490108669100884, 0.0002896859961398664, 0.0002849037824148645, 0.0002810747677781438, 0.00026254419432105656, -0.0038525781505484285])","array('d', [-0.04378358920546973, -0.0675803971864012, -0.0850216198049154, -0.09731194678515878, -0.10525765129604617, -0.10943105282086216, -0.1102584040050014, -0.10807044874344786, -0.10313320834018942, -0.09566757487825986, -0.08586221219580668, -0.07388226906737172, -0.05987537318026971, -0.04397582457973175, -0.026307932580223854, -0.004537321313441764])",-118.97197002526899,-123.22393119254548,-49.91331233038042,0.06206549189717656,0.00016641558984377655,-0.10943105282086216,25.000000239867134,-1.0,"[-134.17619937615405, -117.954491479997, 49.9188147495114]","[-120.87517027133977, -112.07321646924048, 53.5921278318302]","[-121.53145897267696, -124.35091715291233, 44.99984344043225]",10000000000.0,0.015811443328857422
15,0.6809959411621094,-134.30624389648438,-118.05058288574219,49.968013763427734,0.5686986446380615,0.022581512108445074,-0.05636064609023539,23.17972575164137,"array('d', [-117.99451446533203, -118.1541966860419, -118.36208036137229, -118.6044085754956, -118.86976057899929, -119.1483295075459, -119.43148641521302, -119.71149702628442, -119.98133126135781, -120.23453168263282, -120.46512117718078, -120.66753757834147, -120.83658729239245, -120.96741259656532, -121.05546925681824, -121.08507553745754])","array('d', [-134.76231384277344, -132.26779365792171, -129.77649064647116, -127.28827893899546, -124.80240700676349, -122.31797728466779, -119.83406484066792, -117.34979649537249, -114.86440449819162, -112.37726633537144, -109.88793440479753, -107.39615846609443, -104.90190227849416, -102.40535541761805, -99.90694098756734, -97.90721405694866])","array('d', [-49.96516418457031, -49.92755184002368, -49.92351009640551, -49.92578895908225, -49.925848702723115, -49.92669644910486, -49.92727023711657, -49.92793968822808, -49.92857198311153, -49.92921078264564, -49.9298382645178, -49.93045851433759, -49.93106792127128, -49.93166811629439, -49.93224200565912, -49.92850448935323])","array('d', [0.5858123898506162, 0.4553245647291989, 0.3372542873864286, 0.23041987305868894, 0.13375208918691175, 0.04628345431483983, -0.03286144452501217, -0.10447471267673364, -0.16927307422340332, -0.22790504191605498, -0.2809573982542934, -0.32896103598326204, -0.37239613049369263, -0.41169601158602376, -0.44723620972248224, -0.4009571503976145])","array('d', [-0.02468279376626003, -0.005724928521609967, 0.0023567053270245122, -0.0004861891785656722, 0.0005172448149582023, 0.0001667984436312755, 0.0002901738187195244, 0.00024612194499183107, 0.00025949094149282063, 0.00025167900666877576, 0.00025032901545458106, 0.00024594399870806556, 0.0002416531437463555, 0.00023855459985998003, 0.00022085230099995107, -0.0038898142428641894])","array('d', [-0.05211488803359466, -0.07459787013928694, -0.09099407804640727, -0.10241485413781828, -0.10961307363588457, -0.11312836968176396, -0.11336594555947997, -0.11064245148890428, -0.105214177899675, -0.0972951265979835, -0.08706897370457713, -0.07469718083606514, -0.06032458953854196, -0.044083342258905686, -0.026096028252590043, -0.00396810993271881])",-119.1483295075459,-122.31797728466779,-49.92669644910486,0.04628345431483983,0.0001667984436312755,-0.11312836968176396,25.000000239801274,-1.0,"[-134.17619937615405, -117.954491479997, 49.9188147495114]","[-120.87517027133977, -112.07321646924048, 53.5921278318302]","[-121.53145897267696, -124.35091715291233, 44.99984344043225]",10000000000.0,0.019509553909301758
16,0.699648380279541,-133.85008239746094,-118.10884094238281,49.97121047973633,0.5490046739578245,0.02022218331694594,-0.060613079867090906,23.18499421943945,"array('d', [-118.05058288574219, -118.21976420816105, -118.43525278815906, -118.68363889416786, -118.9537370700081, -119.23590936917205, -119.52165336929457, -119.80333313395792, -120.07399754822676, -120.32725454526023, -120.55718270315788, -120.75826860110287, -120.92536239530301, -121.05364652741702, -121.1386143688666, -121.16529745445794])","array('d', [-134.30624389648438, -131.81227484045425, -129.3216101707303, -126.83399361007238, -124.34863210939456, -121.86460870607581, -119.38099252345181, -116.89691307043721, -114.4116117026068, -111.92447978442016, -109.4350872649351, -106.94320425940975, -104.44881699185882, -101.95213901718601, -99.45361841316121, -97.45385140023126])","array('d', [-49.968013763427734, -49.935399919338124, -49.93279394103814, -49.934468612537, -49.93464251284471, -49.935350201460835, -49.935872580229095, -49.93645918935976, -49.93701973782563, -49.937583344249596, -49.93813760178079, -49.9386849890684, -49.93922270839229, -49.939752311761666, -49.94025700030592, -49.93646768822206])","array('d', [0.5686986446380615, 0.43983940629637763, 0.323242735344052, 0.21774169533839316, 0.12228039855356596, 0.03590343843756718, -0.04225367215362752, -0.11297315247513146, -0.17696278131889562, -0.23486297743178733, -0.2872531996361142, -0.33465771419139817, -0.3775507016034955, -0.41636007356632415, -0.4514565749910379, -0.4047221960719468])","array('d', [-0.022581512108445074, -0.0038236104341116775, 0.001647554789307159, -0.00027573302087336723, 0.00040352194283704276, 0.00016658159031920266, 0.00024993098948342216, 0.00021985799254585272, 0.0002284376543515465, 0.00022254577401402794, 0.000220887909799704, 0.00021708536003725652, 0.00021315566691420867, 0.00021057018966422238, 0.00019346606322110903, -0.003914273109178149])","array('d', [-0.05636064609023539, -0.07799996987308405, -0.09371963414558086, -0.10457417109488736, -0.11128356213986419, -0.11436712372738017, -0.11421688606888035, -0.1111406323354303, -0.10538850453140243, -0.09717013504086087, -0.08666602653137, -0.07403528681006398, -0.05942097232737435, -0.042953837421905665, -0.024755359241419708, -0.0023913911116591937])",-119.23590936917205,-121.86460870607581,-49.935350201460835,0.03590343843756718,0.00016658159031920266,-0.11436712372738017,25.0000002397749,-1.0,"[-133.26480663965594, -118.07262761579757, 49.928143753244626]","[-119.90544808482886, -112.21314970250597, 53.420142835033786]","[-120.6865795894842, -124.70579026210801, 45.154323733394726]",10000000000.0,0.01669931411743164
17,0.7190432548522949,-133.39390563964844,-118.16921997070312,49.97532653808594,0.5270557403564452,0.01770126447081547,-0.06475250323745217,23.189132290594515,"array('d', [-118.10884094238281, -118.28739668762906, -118.51011707251271, -118.76397554410921, -119.038047789735, -119.32288437246157, -119.61012469040823, -119.89224346237359, -120.16237877142048, -120.41421269681483, -120.64188726887865, -120.83994488091126, -121.00328604892587, -121.12713970224216, -121.20704298028906, -121.22915144969741])","array('d', [-133.85008239746094, -131.35669473220392, -128.86666019845526, -126.37959401163631, -123.89466681562368, -121.41094715873419, -118.92750360163653, -116.44347422193086, -113.95811573170766, -111.47083990356771, -108.98124096081352, -106.48911621561209, -103.99448124506993, -101.49758045141066, -98.99889366923476, -96.99907208080835])","array('d', [-49.97121047973633, -49.94420913313497, -49.943214892799716, -49.94421003877089, -49.944510957614085, -49.94506046650055, -49.945524178394415, -49.94601695622708, -49.946496189224824, -49.946974698289836, -49.94744614178427, -49.947911195879406, -49.94836796964583, -49.94881792070343, -49.9492445857373, -49.9453969001199])","array('d', [0.5490046739578245, 0.4220195631021117, 0.30711867297908346, 0.20315203905941176, 0.10907913044031627, 0.023958435997884414, -0.05306195831020933, -0.1227528951309465, -0.18581185928735805, -0.24286995518724636, -0.29449821376828444, -0.34121327566499954, -0.3834824223763737, -0.4217273288014517, -0.45631319182020946, -0.4090539743056744])","array('d', [-0.02022218331694594, -0.001688801915252363, 0.0008510397913561844, -4.00576938909466e-05, 0.00027552816703034044, 0.00016590763043773307, 0.00020441942974090048, 0.0001900426683497418, 0.0001932895643226934, 0.00018957957750827904, 0.00018760810725801104, 0.0001844872351839928, 0.00018099012670067666, 0.00017900387879208834, 0.00016260183936549335, -0.0039418380189082435])","array('d', [-0.060613079867090906, -0.08130028327459776, -0.09625130037763106, -0.10645941452778536, -0.11260878875158176, -0.1151964520486186, -0.11459990186401162, -0.11111709572827567, -0.10499133806048021, -0.09642738710892214, -0.08560219540052459, -0.07267222986558418, -0.05777853772861008, -0.04105030523454146, -0.022607748992066905, 2.8898733809847667e-05])",-119.32288437246157,-121.41094715873419,-49.94506046650055,0.023958435997884414,0.00016590763043773307,-0.1151964520486186,25.00000023975321,-1.0,"[-132.78756268413915, -118.13809932660732, 49.93445836458066]","[-119.3973507121993, -112.28225458766947, 53.312520788511385]","[-120.24511015741814, -124.91879495369992, 45.27516105407588]",10000000000.0,0.015601158142089844
18,0.7367322444915771,-133.39390563964844,-118.16921997070312,49.97532653808594,0.5270557403564452,0.01770126447081547,-0.06475250323745217,23.189132290594515,"array('d', [-118.16921997070312, -118.35675501758597, -118.58611058536508, -118.84466743355081, -119.1217808090634, -119.40820440765133, -119.69573126789834, -119.97695655385346, -120.24511589302881, -120.49397283963916, -120.71773950316046, -120.91102024926055, -121.06877181641661, -121.18627531619491, -121.25911727554772, -121.27499078228293])","array('d', [-133.39390563964844, -130.90111414513493, -128.41167866937027, -125.92509477691962, -123.4405041158012, -120.95696666140152, -118.47355633087506, -115.98942596577953, -113.50385403389791, -111.0162792776656, -108.52632685586777, -106.03382798192253, -103.53883427495927, -101.04162760116459, -98.54272604050566, -96.54284664116877])","array('d', [-49.97532653808594, -49.95432224124713, -49.955045954089535, -49.955307506892154, -49.955737333128354, -49.95611101478559, -49.95650528968098, -49.95689119919864, -49.95727705132779, -49.95765829044878, -49.958035055164004, -49.958406107339655, -49.95877052749428, -49.95912967285163, -49.959467453835984, -49.9555532970297])","array('d', [0.5270557403564452, 0.40215934489580873, 0.2891484027893243, 0.1868918647079732, 0.09436631493092207, 0.010645728791396155, -0.06510779502850914, -0.13365241994303587, -0.19567415814266312, -0.25179373319680814, -0.3025727831488196, -0.3485194498268487, -0.3900933256160594, -0.42770913359229934, -0.4617258754399806, -0.41388059033340185])","array('d', [-0.01770126447081547, 0.0005922185652626144, -3.313617586912067e-06, 0.0002090138140001286, 0.00013606411949400156, 0.00016244118255089428, 0.00015313399447682748, 0.00015555325988493059, 0.0001531682291640022, 0.0001518451386068706, 0.00014960402018461406, 0.00014727654971815067, 0.00014430908458974603, 0.00014302858183067222, 0.00012745604324892272, -0.003973226734415582])","array('d', [-0.06475250323745217, -0.08440070104760578, -0.09850677732419272, -0.10800055676497129, -0.11352868417264525, -0.1155646521224623, -0.11447051467508584, -0.11053373663768379, -0.10399029129715513, -0.0950396927692629, -0.0838550614451104, -0.07059000397355512, -0.05538338325716696, -0.03836267346659725, -0.01964670851082956, 0.0032951763352274477])",-119.40820440765133,-120.95696666140152,-49.95611101478559,0.010645728791396155,0.00016244118255089428,-0.1155646521224623,25.00000023973714,-1.0,"[-132.33976295036342, -118.20164167108145, 49.94110910012681]","[-118.92082318902575, -112.34500437108684, 53.2017616755943]","[-119.83110879872295, -125.13167120429772, 45.41250423953255]",10000000000.0,0.0163881778717041
19,0.7795653343200684,-132.02542114257812,-118.36235809326172,49.995235443115234,0.45035615563392617,0.009206632152199575,-0.07733397086593098,23.2006064699051,"array('d', [-118.29606628417969, -118.50153073303152, -118.74365889976667, -119.01068294730216, -119.29255090554322, -119.58045229129576, -119.866513095946, -120.14359182937227, -120.40513922704939, -120.64510001730855, -120.85784342444592, -121.03811385688564, -121.18099605155327, -121.28189072756733, -121.33649829045926, -121.33644694407536])","array('d', [-132.48155212402344, -129.99008802522874, -127.50186305910891, -125.01617184464055, -122.5321147203794, -120.04874772838596, -117.56516845161, -115.08057308914016, -112.59429807713195, -110.10585111126869, -107.61493460022267, -105.12146314168733, -102.62557604999135, -100.12764559541021, -97.62828153156738, -95.62834237723541])","array('d', [-49.98713302612305, -49.97776255389719, -49.98129506700308, -49.98027691951721, -49.98086349553722, -49.98088687508589, -49.98110795086809, -49.981258928360155, -49.98143284539078, -49.98159646668107, -49.981760803138556, -49.981921548830925, -49.982079476317054, -49.982235829403244, -49.98237527054033, -49.978312857868914])","array('d', [0.47734835743904097, 0.3571822408079304, 0.24845143237235784, 0.1500677197411897, 0.0610464476600692, -0.019503336616952523, -0.09238780002434976, -0.15833639152820136, -0.21800914143554698, -0.2720032639937306, -0.3208591252851504, -0.3650656199364499, -0.4050649265245395, -0.441256021737508, -0.4739838119745276, -0.42480664547499813])","array('d', [-0.012144040316343184, 0.004372035550774124, -0.0014489149738486364, 0.0006002132822666921, -0.00011895529227978335, 0.00013344833593456707, 4.48896240811495e-05, 7.538366717895892e-05, 6.394084533352402e-05, 6.690670961518699e-05, 6.460092124183635e-05, 6.400556508795659e-05, 6.236381429062749e-05, 6.27128401610988e-05, 4.90677201807121e-05, -0.004043235537787708])","array('d', [-0.07312302192183945, -0.09049614501519322, -0.10272999631077781, -0.11062727172108643, -0.11475811205695749, -0.11554737231615439, -0.11332486335300335, -0.10835596371713865, -0.10086111107432186, -0.09102864036757344, -0.07902345602197067, -0.06499299530634571, -0.04907137772046935, -0.03138233054327065, -0.012041636668868042, 0.011596845591698693])",-119.58045229129576,-120.04874772838596,-49.98088687508589,-0.019503336616952523,0.00013344833593456707,-0.11554737231615439,25.000000239713504,-1.0,"[-131.87052199801553, -118.27036303582896, 49.9493583246494]","[-118.42247249479597, -112.40790393251993, 53.076903339670736]","[-119.39666783065175, -125.36445432547475, 45.58165515415888]",10000000000.0,0.02014756202697754
20,0.8042078018188477,-131.56935119628906,-118.43035888671875,50.00518035888672,0.4224123060703277,0.006212977226823461,-0.08145587047072857,23.203550712770728,"array('d', [-118.36235809326172, -118.5767757235307, -118.82513601340314, -119.09609464010202, -119.37990080653108, -119.66796794442439, -119.95259495696726, -120.22677847345888, -120.4840831200904, -120.71855041984887, -120.92463426372038, -121.09715513394283, -121.23126780207228, -121.3224388408054, -121.36643167931143, -121.3571565330137])","array('d', [-132.02542114257812, -129.53468769814927, -127.04707193824876, -124.56180491530284, -122.07796781664364, -119.59461996710345, -117.11087627365221, -114.62596035707448, -112.13924351665625, -109.6502739416872, -107.15879875965189, -104.66478037495104, -102.16840801935369, -99.6701051270623, -97.17053308109905, -95.17061715498669])","array('d', [-49.995235443115234, -49.988101719909146, -49.99073365889766, -49.98992211620461, -49.99032376726693, -49.990299455773595, -49.990424509199634, -49.99049673279461, -49.990586550008764, -49.99066899127818, -49.99075247782537, -49.99083386498238, -49.99091373125914, -49.990993544865525, -49.991058090976644, -49.98693968596037])","array('d', [0.45035615563392617, 0.33275868440837164, 0.22635208266009707, 0.13007139939699983, 0.04295302715011638, -0.03587494200255298, -0.10720144252781842, -0.17174033081552914, -0.23013752843963817, -0.2829774835707501, -0.33078901115491394, -0.37405055419034866, -0.41319483532370976, -0.4486122822264618, -0.4806402141834894, -0.430736972233392])","array('d', [-0.009206632152199575, 0.003291119948572905, -0.0011121119502342574, 0.000437034869440201, -0.00010664436503039071, 8.401459933150407e-05, 1.7143680688036425e-05, 4.024973970097825e-05, 3.174589215268186e-05, 3.416673842620993e-05, 3.264783743656941e-05, 3.246493959301714e-05, 3.144509621577999e-05, 3.239002952554032e-05, 1.946252639411956e-05, -0.004069676050167447])","array('d', [-0.07733397086593098, -0.09351220911684495, -0.10475083414913604, -0.11179198161981325, -0.11516866697972926, -0.11528181035037428, -0.11244518286513709, -0.10691308075856899, -0.09889808980194469, -0.08858285803107802, -0.07612808355306692, -0.061678023347928546, -0.04536433258942104, -0.02730877443703454, -0.007625514786212703, 0.01639442245175887])",-119.66796794442439,-119.59461996710345,-49.990299455773595,-0.03587494200255298,8.401459933150407e-05,-0.11528181035037428,25.0000002397046,-1.0,"[-130.5114669088445, -118.48125257092671, 49.982008457176036]","[-116.9799493055581, -112.59823711175511, 52.68166777996064]","[-118.14128230158904, -126.07404328106949, 46.19676579462593]",10000000000.0,0.023671388626098633
21,0.8213808536529541,-131.1150360107422,-118.49954986572266,50.01821517944336,0.39368808269500727,0.003317572409286993,-0.08539669116469815,23.20507983764294,"array('d', [-118.43035888671875, -118.65348734538004, -118.90779260655344, -119.1823441674146, -119.46768862974511, -119.75546249302889, -120.03813825723967, -120.30885222119748, -120.5612849717139, -120.78957723526307, -120.98827021751704, -121.15226330452609, -121.27678427881553, -121.35736866449471, -121.38984611505181, -121.37059658661248])","array('d', [-131.56935119628906, -129.0793645206779, -126.59234522548651, -124.10747111913437, -121.62380972500826, -119.14042789521334, -116.65646178191886, -114.17116619549562, -111.68395100645238, -109.19440855916548, -106.70233430982812, -104.20774200670058, -101.71087423730579, -99.21220891102794, -96.7124621971914, -94.71261925209497])","array('d', [-50.00518035888672, -50.00031711619525, -50.002014918220446, -50.00139917259913, -50.00159746435721, -50.00150975579704, -50.0015223781837, -50.00149995740538, -50.0014899414857, -50.00147579054106, -50.00146331303693, -50.00145055670485, -50.00143790936283, -50.00142706864634, -50.00140290973842, -49.9972181663711])","array('d', [0.4224123060703277, 0.3074740414301068, 0.20347358952059763, 0.1093700808618239, 0.02422169783928991, -0.052823751193133185, -0.12253736067969694, -0.1856168446954801, -0.2426935186569726, -0.29433861456865623, -0.34106898897816756, -0.3833522647303815, -0.42161137497488665, -0.45622789539975034, -0.4875312394572599, -0.43687412200788905])","array('d', [-0.006212977226823461, 0.0021823185516113702, -0.00077474659185953, 0.0002648082272447025, -0.00010008763171096737, 2.77875711687283e-05, -1.6943459273629165e-05, -1.2548799638956409e-06, -6.667561409092037e-06, -4.686246508482797e-06, -5.285755758544331e-06, -4.9253226918197995e-06, -5.188166386553687e-06, -3.512363075095347e-06, -1.5612906029031076e-05, -0.004101002194692937])","array('d', [-0.08145587047072857, -0.09642371851044139, -0.10664602224991601, -0.11280771161857324, -0.11540629464142226, -0.11481958201793295, -0.11134574351856831, -0.1052282314451043, -0.09667190942042998, -0.08585380628705647, -0.07293044419228473, -0.058042906361086305, -0.04132037407134037, -0.022882625360168638, -0.0028421809366829674, 0.021575082996401325])",-119.75546249302889,-119.14042789521334,-50.00150975579704,-0.052823751193133185,2.77875711687283e-05,-0.11481958201793295,25.000000239698153,-1.0,"[-130.05971608320175, -118.55482878708574, 49.99641875606134]","[-116.50159361998696, -112.66600686649505, 52.54575036651167]","[-117.72397749220087, -126.31077410764411, 46.43624100783019]",10000000000.0,0.015919923782348633
