,current_time,x_pos,y_pos,z_pos,roll,pitch,yaw,vel,x_traj,y_traj,z_traj,roll_traj,pitch_traj,yaw_traj,x_cmd,y_cmd,z_cmd,roll_cmd,pitch_cmd,yaw_cmd,vel_cmd,effector_dmg,effector_x,effector_y,effector_z,cost,time_solution
0,7.674432754516602,-187.74131774902344,-125.92784881591797,49.90590286254883,0.6325562000274656,0.029898788779973904,0.47635229031113174,23.16964938887428,"array('d', [-126.86939239501953, -125.69920803267291, -124.57639847428811, -123.48844786757441, -122.42466152844115, -121.37578530851908, -120.33364726176376, -119.29092699156126, -118.24100094949016, -117.17783806048668, -116.0959276822571, -114.99022958358503, -113.85613895048225, -112.68946192690429, -111.4864001810845, -110.48942502247753])","array('d', [-189.8406524658203, -187.6321706069364, -185.39858136962994, -183.14775016089635, -180.88538043398768, -178.61605359706735, -176.34362184082465, -174.0714573429463, -171.80261545125944, -169.53994944012774, -167.28619203840455, -165.04401451504623, -162.8160693542712, -160.60502063829023, -158.41356398241282, -156.67982935689284])","array('d', [-49.904014587402344, -49.85158572575489, -49.84322389896684, -49.84722225094559, -49.8468903775702, -49.848078318603704, -49.84873496801269, -49.84957787227825, -49.850354829567486, -49.85115333854411, -49.851942040702504, -49.852731352966856, -49.85351688431358, -49.85430116581949, -49.855071611129944, -49.85148945857186])","array('d', [0.6326226592063902, 0.49768025204829125, 0.3755793020785629, 0.2650977845167971, 0.16512996592232904, 0.0746753380568995, -0.007171394663144872, -0.0812293737100177, -0.14823977998877366, -0.2088732395112838, -0.2637364988506275, -0.3133783701709335, -0.3582946472474243, -0.39892902780776285, -0.43559719631115945, -0.3905703484479668])","array('d', [-0.03091180883347988, -0.011361174119071992, 0.0044085576108269554, -0.0011176818219128203, 0.0008198610043624281, 0.00014180322136592426, 0.0003795502147085083, 0.0002961642483155979, 0.00032492185345745004, 0.0003140664239684562, 0.00031684889274862015, 0.0003146378142883818, 0.0003138012361994515, 0.0003136269116864246, 0.0003029082407830459, -0.0038163615226292423])","array('d', [0.5003085891392567, 0.47543307662394635, 0.4571417045663456, 0.4441485836263109, 0.4356016145383883, 0.43090070432682365, 0.42960184913054844, 0.43136248889682044, 0.4359084817070408, 0.4430132070565362, 0.4524838667154357, 0.46415225920457, 0.47786843359765657, 0.493496167098535, 0.5109077232209439, 0.5323889335910514])",-121.37578530851908,-178.61605359706735,-49.848078318603704,0.0746753380568995,0.00014180322136592426,0.43090070432682365,25.00000024315848,-1.0,"[-186.40890333707006, -125.24034530715808, 49.86106136099286]","[-178.3073735896683, -114.91748273320886, 57.12767845778024]","[-171.43233850206937, -125.5468995815489, 49.080977891181]",10000000000.0,0.01784539222717285
1,7.695834398269653,-186.47508239746094,-125.3885498046875,49.90896224975586,0.6328580975532528,0.028949275612830967,0.46186442772415676,23.163517744466905,"array('d', [-126.48653411865234, -125.33763483678761, -124.23633722637642, -123.1700457337061, -122.1280131041199, -121.10094343601078, -120.08062969170024, -119.05972065412512, -118.03156477346505, -116.99010474894924, -115.929804753105, -114.84559987221829, -113.73286072266224, -112.58736870552873, -111.40530026385682, -110.42493024084787])","array('d', [-189.0029754638672, -186.7833188037254, -184.53904136158266, -182.27786856767656, -180.0053971420106, -177.72611795573437, -175.44380385185792, -173.1617561288481, -170.8829661652906, -168.61022909149145, -166.34622458910113, -164.09357546446776, -161.85488996731078, -159.63279192640704, -157.42994059392825, -155.68676253850487])","array('d', [-49.90449142456055, -49.85322411492522, -49.845204601863266, -49.8490747630255, -49.84877943911502, -49.84994634927224, -49.850602156138564, -49.85143715588794, -49.85220865651955, -49.8530008007986, -49.85378338130953, -49.8545663892651, -49.85534556320719, -49.85612337252275, -49.85688725310262, -49.853300095433354])","array('d', [0.6324086785316466, 0.497486634297094, 0.3754041094510457, 0.2649392636050639, 0.16498653014819442, 0.07454555176371416, -0.007288830643354099, -0.0813356352061015, -0.14833593161219386, -0.20896024622569892, -0.263815238257733, -0.31344965013000625, -0.3583592520381432, -0.39898798281646514, -0.43565745070721745, -0.3906241277209289])","array('d', [-0.030423454940318923, -0.010919293225435105, 0.0042505446990986255, -0.0010657248431608368, 0.0007983688826168951, 0.0001460414059497311, 0.0003747881381641129, 0.0002945501962811221, 0.00032218923907311223, 0.00031170115207386875, 0.00031431958294610266, 0.0003121234278756213, 0.00031123063639350887, 0.0003110203586044102, 0.00030026364329606604, -0.003818726749265192])","array('d', [0.4906841079380851, 0.4658198358458692, 0.4475372859476949, 0.43455143660833045, 0.426010675321367, 0.42131520281357565, 0.4200212023164474, 0.42178623800100573, 0.42633625316331547, 0.4334446873534384, 0.4429187857420357, 0.454590379219771, 0.46830954283161846, 0.48394008277101225, 0.5013544394108794, 0.5228389817687231])",-121.10094343601078,-177.72611795573437,-49.84994634927224,0.07454555176371416,0.0001460414059497311,0.42131520281357565,25.00000024313988,-1.0,"[-185.55919187763496, -124.89181048810651, 49.86395617677989]","[-177.33605999411196, -114.63559593850897, 57.08823227468832]","[-170.58987349334112, -125.32070106781654, 49.00630824185663]",10000000000.0,0.020207643508911133
2,7.715681791305542,-186.0509490966797,-125.21260070800781,49.91054916381836,0.6328811645507811,0.02866035699844345,0.4571878472950793,23.15991680289177,"array('d', [-126.29798126220703, -125.15961472188961, -124.06896289625708, -123.013393676347, -121.98213381597694, -120.96586658791563, -119.95636745132697, -118.94626985572992, -117.92890834277364, -116.89821260122649, -115.84863431712766, -114.77509634222719, -113.67295711304727, -112.53798576132557, -111.36634622070089, -110.39422823394946])","array('d', [-188.58262634277344, -186.35754693493033, -184.10807639306628, -181.84187829895245, -179.56449789433066, -177.2803817313831, -174.99326361001252, -172.7064098933867, -170.4227803780881, -168.14514145267893, -165.87614654540474, -163.61839445236265, -161.3744714849801, -159.1469814875995, -156.93856563669937, -155.19077225242])","array('d', [-49.904930114746094, -49.8537737096572, -49.84578658144611, -49.84964386835635, -49.84935143854696, -49.85051579948456, -49.85117097500597, -49.85200467686356, -49.85277509925907, -49.8535660598125, -49.85434745122062, -49.8551292169544, -49.85590710044935, -49.856683562326474, -49.857446021941904, -49.85385775367639])","array('d', [0.6323699355125425, 0.4974515781547273, 0.37537238932682615, 0.2649105620224472, 0.16496055982890162, 0.0745220527388929, -0.007310093665050352, -0.08135487526197152, -0.14835334178223863, -0.20897600198985206, -0.26382950047045284, -0.31346257071843586, -0.358370993104102, -0.3989988364932352, -0.43567041928462646, -0.39063572119473783])","array('d', [-0.030376827344298304, -0.010877102830818663, 0.004235222483227504, -0.0010610359076201864, 0.0007961111134401176, 0.00014621916953153438, 0.00037411941963177634, 0.0002941756932292656, 0.000321703016918124, 0.00031123997587910847, 0.0003138299515454891, 0.00031161951997065856, 0.00031070258923593695, 0.0003104708135785425, 0.0002996770349478368, -0.003819251943404516])","array('d', [0.48594315449265013, 0.46108091726083456, 0.4427999645262841, 0.4298154316861119, 0.4212757943317969, 0.41658130635053486, 0.4152881848405015, 0.41705401646283874, 0.42160475994844276, 0.42871386574151576, 0.4381885869284955, 0.4498607604302189, 0.4635804665847429, 0.4792115198118268, 0.4966264370776365, 0.5181116970587833])",-120.96586658791563,-177.2803817313831,-49.85051579948456,0.0745220527388929,0.00014621916953153438,0.41658130635053486,25.00000024313042,-1.0,"[-185.13281019942545, -124.72040293698205, 49.86554440139398]","[-176.84912631502957, -114.49691893023791, 57.06699953679867]","[-170.1676576379751, -125.21030575569867, 48.96877015960864]",10000000000.0,0.015796661376953125
3,7.735564231872559,-186.0509490966797,-125.21260070800781,49.91054916381836,0.6328811645507811,0.02866035699844345,0.4571878472950793,23.15991680289177,"array('d', [-126.11134338378906, -124.98365900170909, -123.90381960460213, -122.8591516131152, -121.83885365753984, -120.83358676933192, -119.8351078466089, -118.8360341524393, -117.82968560288202, -116.80997824675596, -115.77135071105613, -114.70871307564697, -113.61741108015937, -112.49320107988824, -111.33223399693213, -110.36856500080204])","array('d', [-188.16127014160156, -185.9307485741052, -183.67606652695932, -181.40482244749936, -179.1225099098152, -176.83353105061437, -174.5415804302507, -172.2498891693517, -169.96138511227807, -167.6788054948712, -165.4047770596095, -163.1418741509605, -160.89266070149628, -158.65972013885016, -156.4456751444527, -154.69320912177102])","array('d', [-49.90514373779297, -49.85439541163434, -49.84652878285186, -49.85034137030488, -49.85006206260138, -49.851219363243985, -49.85187456049633, -49.85270580975393, -49.853474633497726, -49.854263669449495, -49.855043209979584, -49.855823045863616, -49.85659896275643, -49.857373394308595, -49.85813375920316, -49.85454387876268])","array('d', [0.6324701309204099, 0.49754223871137415, 0.37545442238645377, 0.2649847885867457, 0.1650277227576457, 0.07458282417133065, -0.0072551056126416245, -0.08130512047711079, -0.14830832281125061, -0.20893526947342891, -0.2637926498326799, -0.3134292420927507, -0.35834088479498694, -0.39897181635072837, -0.435648986417366, -0.39061656613640516])","array('d', [-0.030205259099602595, -0.0107218614576031, 0.004179896496801263, -0.0010426985251596596, 0.0007887009387551066, 0.000147830608625896, 0.000372577961849765, 0.00029373667996385243, 0.00032086968675004756, 0.00031053154114921925, 0.00031305873117441963, 0.00031084688409038053, 0.0003099024029241443, 0.00030964713177596424, 0.0002988254060904449, -0.0038200138570856084])","array('d', [0.48114927212265524, 0.45628177223205757, 0.4379966888857425, 0.4250087513261207, 0.41646620729076783, 0.4117691731797808, 0.410473778511705, 0.41223755180555016, 0.41678641192902205, 0.4238937812851361, 0.4333668928335327, 0.4450375688939491, 0.45875587957202296, 0.4743856354413365, 0.49179941758152973, 0.5132834916967992])",-120.83358676933192,-176.83353105061437,-49.851219363243985,0.07458282417133065,0.000147830608625896,0.4117691731797808,25.000000243120585,-1.0,"[-184.70555574571188, -124.55073285789189, 49.86756451359838]","[-176.36344679608357, -114.35920080533057, 57.04683276977508]","[-169.74476829492428, -125.09969513918126, 48.93296338687191]",10000000000.0,0.014989137649536133
4,7.7576072216033936,-185.62583923339844,-125.03857421875,49.9122428894043,0.6328587532043456,0.028257859870791286,0.4527380029347281,23.158709360626375,"array('d', [-125.92784881591797, -124.81087578537115, -123.74187802705893, -122.7081388148412, -121.69882883256605, -120.7045871614395, -119.71715242125171, -118.7291259315144, -117.73381319976889, -116.72511682941828, -115.69746256547543, -114.6457478780755, -113.56530595934838, -112.45188052628735, -111.30160962039385, -110.34640913993016])","array('d', [-187.74131774902344, -185.50539652880065, -183.24555204329826, -180.96931272682835, -178.68211971499474, -176.3883304329209, -174.09160005212615, -171.79512432757883, -169.50179905505118, -167.21433223430384, -164.93532384908283, -162.66732372555097, -160.41287335484108, -158.17453568734174, -155.9549148473255, -154.19781863790377])","array('d', [-49.90590286254883, -49.85588348635739, -49.848229692680874, -49.851958686694026, -49.85169960777685, -49.85284081453549, -49.85349264745996, -49.854316078646164, -49.855078636238616, -49.85586084602749, -49.85663373126135, -49.85740681819986, -49.85817597721494, -49.858943604906884, -49.859697123406484, -49.856102040637126])","array('d', [0.6325562000274656, 0.49762011726152233, 0.37552488980769916, 0.2650485501285806, 0.16508541654338513, 0.07463502757175881, -0.007207870229067837, -0.08126238058063728, -0.1482696511357493, -0.2089002801369019, -0.26376099560959637, -0.31340061473315, -0.358315028191422, -0.3989486325408937, -0.43563084174539285, -0.3906003662676357])","array('d', [-0.029898788779973904, -0.010444555634645667, 0.004079170491699163, -0.0010110557752937104, 0.000774014091836028, 0.00014937163291567303, 0.00036844020845655664, 0.0002915868140237932, 0.0003180183336256553, 0.00030791799661413903, 0.00031034963253722656, 0.00030815651364327523, 0.0003071868903077282, 0.00030691975371646083, 0.0002960760341717582, -0.0038224717494123135])","array('d', [0.47635229031113174, 0.45148026921712764, 0.43319163735584537, 0.4202007749579227, 0.4116557339753527, 0.40695651267610866, 0.40565916533082247, 0.4074211705047974, 0.41196841281841456, 0.4190742905868996, 0.42854601948768156, 0.4402154093229617, 0.45393252149784624, 0.46956116371921963, 0.48697397780446455, 0.5084570484731117])",-120.7045871614395,-176.3883304329209,-49.85284081453549,0.07463502757175881,0.00014937163291567303,0.40695651267610866,25.000000243110556,-1.0,"[-184.27749855441894, -124.38269217781749, 49.86986174039511]","[-175.87993594955955, -114.22210360924251, 57.02831005253726]","[-169.32111554023444, -124.98900799984594, 48.90084767601254]",10000000000.0,0.017076492309570312
5,7.799744606018066,-184.3445587158203,-124.52812194824219,49.91774368286133,0.6274473667144773,0.02701397426426389,0.43963237206009437,23.160513420045287,"array('d', [-125.5664291381836, -124.4711020498728, -123.42402069338932, -122.4123801450509, -121.42529416357065, -120.45335724064185, -119.48827096567177, -118.52260442535845, -117.54963404203929, -116.56323530338389, -115.55780798618763, -114.52822414172871, -113.46979166166108, -112.37822876751156, -111.24964750895263, -110.3116251058835])","array('d', [-186.89820861816406, -184.65157002317906, -182.38148360375027, -180.09533657671832, -177.7984648117754, -175.4951358173491, -173.18892544204178, -170.88295812412622, -168.58006496111346, -166.28289487319307, -163.99399372103156, -161.71586169537773, -159.4509948166663, -157.20191450712824, -154.97118721508934, -153.2048608241959])","array('d', [-49.90781784057617, -49.85935287645208, -49.85215165415188, -49.85570038307166, -49.85548271086783, -49.85658774828421, -49.85723059561271, -49.85803552946891, -49.85878290906672, -49.85954875272441, -49.86030564776526, -49.86106255813957, -49.861815537597565, -49.86256690418222, -49.8633040922632, -49.85969661615794])","array('d', [0.6328362226486204, 0.497873492219454, 0.3757541529494075, 0.2652559959716505, 0.1652731212287192, 0.07480486961762246, -0.007054191180225073, -0.08112332687422841, -0.14814383200860531, -0.2087864385503401, -0.2636579978151689, -0.31330744609003974, -0.35823081361908754, -0.3988728313751722, -0.4355675033642772, -0.39054381951677297])","array('d', [-0.029245277866721042, -0.009853234487288386, 0.0038633812508827854, -0.0009441944370808423, 0.0007419287591343075, 0.0001519433387061083, 0.00035888237053715, 0.00028627593946883157, 0.0003112117632064841, 0.0003016231253962074, 0.00030385567006577046, 0.0003017084583444328, 0.0003006920792117453, 0.00030040599405497083, 0.00028952606089024333, -0.003828326918341923])","array('d', [0.4666960994389393, 0.44180936549142896, 0.4235091869546994, 0.41050880779539284, 0.401955642623345, 0.3972493051798593, 0.3959456048115046, 0.39770185749105624, 0.40224383635873184, 0.4093448612890705, 0.4188120915936249, 0.43047729598470835, 0.44419050632273593, 0.4598155147771244, 0.47722506752337224, 0.4987046355449087])",-120.45335724064185,-175.4951358173491,-49.85658774828421,0.07480486961762246,0.0001519433387061083,0.3972493051798593,25.00000024308971,-1.0,"[-183.4185580543142, -124.05232387968326, 49.87462343075044]","[-174.91188419939976, -113.93991258453241, 56.97220313962451]","[-168.47177460756043, -124.77360686710557, 48.83856578375228]",10000000000.0,0.021468400955200195
6,7.825608730316162,-183.91546630859375,-124.36183166503906,49.919551849365234,0.6215052604675292,0.026406601071357592,0.4353266517308097,23.164399795191247,"array('d', [-125.3885498046875, -124.30408587761411, -123.26798801476893, -122.26741062288224, -121.29144102541042, -120.33065290080708, -119.3767304923279, -118.42222773969199, -117.46040735333405, -116.48513199564569, -115.49078912037288, -114.4722386773219, -113.42477647550402, -112.3441085250422, -111.22633439499003, -110.29687007990938])","array('d', [-186.47508239746094, -184.2231648404491, -181.9480426460602, -179.65703175134593, -177.35541447996943, -175.04741273302128, -172.7365622706966, -170.4259516046617, -168.11837932074184, -165.81646470956554, -163.52272652984036, -161.2396401471614, -158.969678859887, -156.71534335069737, -154.47918125539923, -152.70833655378294])","array('d', [-49.90896224975586, -49.861201349772685, -49.85420422978094, -49.857669873274716, -49.857469709173195, -49.858557049167246, -49.859194534117364, -49.85998978863709, -49.86072899515428, -49.86148612685168, -49.862234481187464, -49.86298276719531, -49.86372712226596, -49.86446982836114, -49.865198330616096, -49.86158426987882])","array('d', [0.6328580975532528, 0.49789328544852307, 0.37577206259504925, 0.26527220126944323, 0.16528778434608749, 0.07481813726525, -0.007042186305465426, -0.08111246481876018, -0.1481340044988024, -0.20877754826041822, -0.263649958393731, -0.31330018462635717, -0.3582242840936705, -0.39886710799927677, -0.4355647059666508, -0.3905413161043098])","array('d', [-0.028949275612830967, -0.009585400564165972, 0.003764943706327052, -0.0009143652535291448, 0.0007268551286003862, 0.00015259667219653605, 0.0003540309642129022, 0.0002833517268463298, 0.00030760883346581894, 0.0002982526095127936, 0.00030039512352276316, 0.0002982691569984887, 0.00029723221337220573, 0.0002969376098726057, 0.00028604597826541373, -0.003831437760959818])","array('d', [0.46186442772415676, 0.4369765442210975, 0.41867546356708624, 0.40567434091649557, 0.39712054106831185, 0.3924136477142643, 0.3911094510633725, 0.39286525438785685, 0.39740682212788864, 0.40450746805509785, 0.41397434714402576, 0.42563922508813423, 0.4393521320983528, 0.45497686239575164, 0.47238621655401175, 0.4938656297953489])",-120.33065290080708,-175.04741273302128,-49.858557049167246,0.07481813726525,0.00015259667219653605,0.3924136477142643,25.000000243078993,-1.0,"[-182.555841975995, -123.72949228262989, 49.879946550985075]","[-173.94284677170103, -113.61447672145147, 56.84433983453298]","[-167.61945294760932, -124.57486946593065, 48.789249429565025]",10000000000.0,0.01942300796508789
7,7.854615926742554,-183.4873046875,-124.19857025146484,49.921730041503906,0.6127779483795165,0.025549117475748024,0.4310522834446766,23.168997863235543,"array('d', [-125.21260070800781, -124.13867563126999, -123.11323210349927, -122.12338551003356, -121.15819782604973, -120.20822277595603, -119.26512798441085, -118.32145288397997, -117.3704470533975, -116.40596086948881, -115.42236997584878, -114.41452271674362, -113.37770330465622, -112.30760601987166, -111.20031843435524, -110.2791593840263])","array('d', [-186.0509490966797, -183.79397206643284, -181.5140262338832, -179.21835837289586, -176.91219889708668, -174.59972547295604, -172.28443498472342, -169.96938110211045, -167.65733088018908, -165.35087487130932, -163.05250554409736, -160.76467417831623, -158.48983202184039, -156.23045962487853, -153.9890863533377, -152.2139072706656])","array('d', [-49.91054916381836, -49.863475482713724, -49.85667588793033, -49.860057700674034, -49.85987225144498, -49.860939805963625, -49.861569589064764, -49.86235291190863, -49.8630816656546, -49.863827821960385, -49.86456537625757, -49.865302789672405, -49.86603628270227, -49.86676810505539, -49.86748570512047, -49.86386338145129])","array('d', [0.6328811645507811, 0.49791415732825317, 0.3757909482448817, 0.26528928969370447, 0.16530324655203377, 0.07483212796366823, -0.007029527175668617, -0.08110101074389621, -0.1481236412525097, -0.20876817308881707, -0.2636414799206577, -0.3132925250428986, -0.35821739157940385, -0.39886104336511125, -0.43556141998755715, -0.39053838146453457])","array('d', [-0.02866035699844345, -0.009323976183976294, 0.003667529682710831, -0.0008861124628514833, 0.0007111082405125136, 0.00015225813580711878, 0.0003482980108399858, 0.00027950782598442936, 0.00030310158304730034, 0.0002939757037117133, 0.00029603341282727715, 0.0002939323770119015, 0.00029287962400601696, 0.0002925832347008021, 0.00028167881341998203, -0.0038353413334462037])","array('d', [0.4571878472950793, 0.4322987515571091, 0.4139967196067114, 0.4009948129382901, 0.392440343821782, 0.3877328642597355, 0.3864281442793465, 0.38818347375885426, 0.392724607962331, 0.3998248542219336, 0.40929136292903756, 0.4209558965658145, 0.4346684835069232, 0.4502929196490305, 0.4677020556546784, 0.4891812872656844])",-120.20822277595603,-174.59972547295604,-49.860939805963625,0.07483212796366823,0.00015225813580711878,0.3877328642597355,25.00000024306846,-1.0,"[-182.12495957850038, -123.57203420352535, 49.883410534498104]","[-173.45938508704631, -113.43032088263018, 56.74296370142071]","[-167.1940246076514, -124.48658498863084, 48.77400629899989]",10000000000.0,0.02433300018310547
8,7.886868953704834,-182.62770080566406,-123.87761688232422,49.926902770996094,0.5864246487617492,0.022820474579930198,0.4223067323353627,23.175980837246687,"array('d', [-125.03857421875, -123.9746938419186, -122.9594012020765, -121.97977387763946, -121.02485037188674, -120.08516602068607, -119.15237314183251, -118.21899778586507, -117.2782774016219, -116.3240509987439, -115.35068327504486, -114.35301179999954, -113.32631000145628, -112.26626123349547, -111.16894187708267, -110.25567747322589])","array('d', [-185.62583923339844, -183.36409014315893, -181.0796036298699, -178.7795559997095, -176.46912746688457, -174.1524532725876, -171.8329931437586, -169.51376748813425, -167.19751329363763, -164.88679372847363, -162.58407622509225, -160.2917891359799, -158.01236272537778, -155.74825838810912, -153.5019881061109, -151.72273467549883])","array('d', [-49.9122428894043, -49.86612658990156, -49.85960340352989, -49.86287051295048, -49.86270739976753, -49.86374927986267, -49.86437020105813, -49.86513877430289, -49.86585484122528, -49.86658759103785, -49.86731199424182, -49.86803617017541, -49.86875645807505, -49.86947506502547, -49.87017944863353, -49.86654711673048])","array('d', [0.6328587532043456, 0.49789387869729207, 0.3757725993702415, 0.2652726869254518, 0.16528822370670757, 0.07481853465101075, -0.007041827079807628, -0.08111214050954788, -0.14813371264728434, -0.2087772877980713, -0.2636497314215018, -0.3133000023828455, -0.35822419233795333, -0.39886735412118374, -0.43556912340099624, -0.39054525654658967])","array('d', [-0.028257859870791286, -0.008959781712895205, 0.003532790427176209, -0.0008460522070704079, 0.0006899382668897536, 0.00015253086098158584, 0.00034106103762455536, 0.000274901239366792, 0.0002975740732936506, 0.00028877260665220934, 0.0002907175166352002, 0.0002886576017842684, 0.0002875905333139016, 0.0002872999062814598, 0.0002763890812475866, -0.0038400692939334173])","array('d', [0.4527380029347281, 0.4278500849760901, 0.4095489772837287, 0.3965478323504378, 0.38799401348321494, 0.38328710347528094, 0.3819828919667328, 0.3837386818594364, 0.38828023735624306, 0.39538087210166095, 0.40484774108260946, 0.416512610307451, 0.43022551132871933, 0.4458502453074668, 0.4632597111641438, 0.4847393688647542])",-120.08516602068607,-174.1524532725876,-49.86374927986267,0.07481853465101075,0.00015253086098158584,0.38328710347528094,25.000000243058256,-1.0,"[-181.25983818018406, -123.26297853372408, 49.89267503012664]","[-172.4869920976551, -113.01930658649627, 56.458065852448996]","[-166.34060861165366, -124.33790415336001, 48.76967725909637]",10000000000.0,0.026308774948120117
9,7.910862445831299,-182.1963348388672,-123.71990966796875,49.93019104003906,0.5689098834991453,0.021098081022500947,0.4180523912098745,23.180758277450767,"array('d', [-124.69633483886719, -123.65225389910985, -122.65676368911036, -121.69690618482733, -120.76169991737757, -119.84166319823551, -118.9284330079011, -118.01452099998775, -117.0931507735624, -116.15814767727132, -115.20386266861934, -114.22511928162244, -113.21717644991789, -112.17570244982734, -111.09675785897902, -110.19800406178216])","array('d', [-184.77264404296875, -182.50165026915693, -180.20846102703928, -177.90009231616375, -175.58161246020143, -173.25706544862322, -170.9298334979131, -168.60286937833988, -166.278850207414, -163.96028557839216, -161.6495946686891, -159.3491622006201, -157.06137894073225, -154.78867056235106, -152.53351688188633, -150.74689000024415])","array('d', [-49.91586685180664, -49.87155540907349, -49.86555170799654, -49.868600054492234, -49.868476864355394, -49.8694679976874, -49.87006990667545, -49.870808338389544, -49.87149815433919, -49.87220329231063, -49.87290056839151, -49.873597459806895, -49.87429053339254, -49.874981918556216, -49.875659096335, -49.87200617230376])","array('d', [0.6309188604354856, 0.4961385909665623, 0.37418434919241605, 0.263835578572264, 0.16398787410876797, 0.07364192942924991, -0.008106463905857168, -0.08207546446894222, -0.1490053656735781, -0.20956599526907238, -0.2643633910150783, -0.3139457681824967, -0.3588085678579193, -0.3993963978095464, -0.4360513016453367, -0.3909756603885544])","array('d', [-0.02749907970428448, -0.008273209012382338, 0.0032775265026870116, -0.0007713044479634951, 0.0006490578575695177, 0.00015213843475583408, 0.0003264803853493307, 0.0002652858359760232, 0.00028621774002671093, 0.00027802924076088606, 0.0002797627105387788, 0.0002777834470323488, 0.000276693615519281, 0.0002764191238414846, 0.00026550524747213043, -0.0038497970537143588])","array('d', [0.4439423839238027, 0.4191562908837272, 0.40093512198799974, 0.3879998779686292, 0.37950232642439113, 0.37484470833926076, 0.37358450696972395, 0.375380149821342, 0.3799581724493104, 0.3870924316812964, 0.3965904738200585, 0.408284352978415, 0.4220243181757785, 0.4376743428823478, 0.4551075384260906, 0.47661386504378517])",-119.84166319823551,-173.25706544862322,-49.8694679976874,0.07364192942924991,0.00015213843475583408,0.37484470833926076,25.000000243038286,-1.0,"[-180.8258178750425, -123.11107318732435, 49.89854626629511]","[-172.00097520836752, -112.79308477696087, 56.275165046811765]","[-165.91261040192353, -124.27289654421746, 48.78211921937875]",10000000000.0,0.017430782318115234
10,7.934277534484863,-181.33058166503906,-123.40984344482422,49.93917465209961,0.527054131031036,0.016649521887302333,0.4093262712147571,23.1903545924673,"array('d', [-124.52812194824219, -123.49361381789964, -122.50742835134862, -121.55663846877778, -120.63028710754153, -119.71890935663065, -118.81415406852582, -117.90854147104152, -116.99530148370438, -116.06826414567989, -115.12178388047184, -114.15068672567607, -113.15023333181134, -112.11609302295717, -111.04432681513808, -110.15117927175324])","array('d', [-184.3445587158203, -182.0691648492973, -179.77195576425376, -177.4598367304749, -175.13780447973775, -172.80984883671255, -170.47930900153546, -168.1491023817762, -165.8218764284047, -163.50011544168228, -161.18621679739363, -158.88254627766955, -156.59147811385495, -154.31542350755683, -152.0568496215167, -150.2674137790187])","array('d', [-49.91774368286133, -49.874586138555955, -49.86891562432026, -49.871825944373, -49.87172989475669, -49.87269022190906, -49.87328158959207, -49.87400235440119, -49.874676984163315, -49.87536606351271, -49.87604759290252, -49.87672864309361, -49.87740593049757, -49.8780815379925, -49.87874296904332, -49.87507813641468])","array('d', [0.6274473667144773, 0.4929974532640461, 0.3713421300004753, 0.261263832051159, 0.16166086138833818, 0.07153636099852642, -0.010011661303908844, -0.08379935878206597, -0.150565210464936, -0.21097740261577813, -0.2656404883764916, -0.3151013418269228, -0.35985419940297086, -0.4003426360780035, -0.43690887473338863, -0.391741130166413])","array('d', [-0.02701397426426389, -0.00783426745216121, 0.0031151701892473647, -0.0007228857570189287, 0.0006235842562008997, 0.00015253551522438852, 0.0003178016630830013, 0.0002597781348383125, 0.00027959509036461455, 0.00027179845531111825, 0.0002733983706781106, 0.00027147389303780413, 0.00027037438498306977, 0.00027011595056883136, 0.0002592108891749629, -0.0038554225555651376])","array('d', [0.43963237206009437, 0.4150278997118264, 0.39694947162003336, 0.38413199397824527, 0.3757350504931342, 0.3711656051186398, 0.36998415295290243, 0.3718511228154925, 0.37649442367608793, 0.38368887991217765, 0.3932427350246571, 0.40498855628087455, 0.41877697890806537, 0.4344722756603027, 0.45194782387239135, 0.4735016077342466])",-119.71890935663065,-172.80984883671255,-49.87269022190906,0.07153636099852642,0.00015253551522438852,0.3711656051186398,25.00000024302924,-1.0,"[-180.39074405294036, -122.96108283106017, 49.90574521078404]","[-171.5130243798067, -112.56053863985316, 56.07135742142508]","[-165.48389907712718, -124.21646263477771, 48.805747749199924]",10000000000.0,0.021600961685180664
11,7.9538726806640625,-181.33058166503906,-123.40984344482422,49.93917465209961,0.527054131031036,0.016649521887302333,0.4093262712147571,23.1903545924673,"array('d', [-124.36183166503906, -123.33675124631779, -122.35946331206979, -121.41711807267664, -120.49881582014174, -119.59513268579283, -118.69774815510635, -117.79920617492138, -116.89275570105202, -115.97224251939144, -115.03203443374106, -114.06696911298742, -113.07231751307701, -112.04375822809192, -110.9773606925745, -110.08832797282366])","array('d', [-183.91546630859375, -181.63578075880997, -179.3347685588038, -177.0191939083917, -174.69396634194487, -172.36301278589355, -170.0296248536179, -167.69668268330386, -165.3668039453867, -163.0424487574472, -160.7259946448303, -158.4197909659663, -156.1261982930276, -153.84761643135016, -151.5865030332039, -149.795019667092])","array('d', [-49.919551849365234, -49.87783904946168, -49.87258724133552, -49.875327313093045, -49.87526749167982, -49.87619157281767, -49.876772030088446, -49.87747296375647, -49.87813086044822, -49.878802112375716, -49.879466203934626, -49.88012969973415, -49.880789505543916, -49.88144764906644, -49.88209166451803, -49.87841366643484])","array('d', [0.6215052604675292, 0.4876208127009076, 0.3664771439903467, 0.2568618102618625, 0.157677746974909, 0.0679322896618117, -0.013272760305779813, -0.08675012367214355, -0.15323517367364003, -0.2133932865331352, -0.267826473308373, -0.31707930967064113, -0.36164395965956203, -0.40196216973508936, -0.43837541648578726, -0.39305009080056197])","array('d', [-0.026406601071357592, -0.007284693455586005, 0.0029131053469338202, -0.0006614161854304637, 0.0005926389145720609, 0.00015394431082953907, 0.00030785398604397875, 0.0002537947659442035, 0.0002722152977309074, 0.0002649081444698853, 0.0002663411999279147, 0.00026448638787311836, 0.0002633767825877052, 0.00026314197977458703, 0.0002522521245321491, -0.0038616416928030986])","array('d', [0.4353266517308097, 0.4110312989110975, 0.3931962800478831, 0.3805798953719344, 0.3723549148715113, 0.3679362868106769, 0.3668896057805607, 0.36887869318326244, 0.37363378839054273, 0.380931358810761, 0.3905808326960504, 0.4024156498370553, 0.41628710229464017, 0.43205997049116457, 0.44960805653003805, 0.4712430738899874])",-119.59513268579283,-172.36301278589355,-49.87619157281767,0.0679322896618117,0.00015394431082953907,0.3679362868106769,25.000000243021066,-1.0,"[-179.95468863652422, -122.81293916697739, 49.91420152309191]","[-171.0236268699208, -112.3230002843753, 55.84693427962051]","[-165.05458409145257, -124.16639721338358, 48.839475575441575]",10000000000.0,0.016088485717773438
12,7.9732301235198975,-181.33058166503906,-123.40984344482422,49.93917465209961,0.527054131031036,0.016649521887302333,0.4093262712147571,23.1903545924673,"array('d', [-124.19857025146484, -123.18269198943966, -122.21378521375767, -121.27912671356982, -120.36791031442314, -119.47078002666386, -118.57946682997951, -117.68655529606416, -116.78532766232847, -115.86965788560207, -114.93393832143715, -113.9730285791971, -112.98221963964937, -111.9572086868217, -110.8940826305038, -110.00743766127168])","array('d', [-183.4873046875, -181.20346439237449, -178.89890549264533, -176.58021611143218, -174.25220209420831, -171.9187184190227, -169.5830045546355, -167.24790166283728, -164.91599785716207, -162.58973061266178, -160.27146004802967, -157.96352214542205, -155.668267244156, -153.38808738253312, -151.12543438956806, -149.33276861826562])","array('d', [-49.921730041503906, -49.882056941842066, -49.8773970494523, -49.8798980959179, -49.87989059060089, -49.88076470124944, -49.881330941701385, -49.88200506866044, -49.882640535610435, -49.883287821210146, -49.88392850734567, -49.88456844724833, -49.885204817031116, -49.88583956670843, -49.88646028835109, -49.882764700160934])","array('d', [0.6127779483795165, 0.479724013448435, 0.3593318238937251, 0.2503964566814279, 0.15182765258724334, 0.06263890484296296, -0.01806241347485631, -0.09108398165028922, -0.15715661128021183, -0.21694155119977448, -0.27103707827549867, -0.3199843907017918, -0.3642726020328967, -0.40434073421051075, -0.44052850342438393, -0.39497170103355195])","array('d', [-0.025549117475748024, -0.006508810212908742, 0.0026284529186037693, -0.000574188122453187, 0.0005494395210419552, 0.00015640559820041157, 0.0002942866329606216, 0.0002458233990272187, 0.00026227570472957176, 0.0002556630884701014, 0.0002568657599424451, 0.00025511536779901644, 0.0002539990915194843, 0.00025380393197372696, 0.0002429544485100772, -0.0038699507718274006])","array('d', [0.4310522834446766, 0.4072069984950127, 0.3897274178613341, 0.3774052918360213, 0.3694323262391723, 0.3652349713894736, 0.3643861857406323, 0.3665546988151133, 0.3714741264237107, 0.37892331945154917, 0.38871342671617987, 0.4006791564685075, 0.41467275657478453, 0.4305597460616584, 0.4482145290015179, 0.46996898559041766])",-119.47078002666386,-171.9187184190227,-49.88076470124944,0.06263890484296296,0.00015640559820041157,0.3652349713894736,25.00000024301399,-1.0,"[-179.95468863652422, -122.81293916697739, 49.91420152309191]","[-171.0236268699208, -112.3230002843753, 55.84693427962051]","[-165.05458409145257, -124.16639721338358, 48.839475575441575]",10000000000.0,0.016612768173217773
13,7.992154359817505,-180.46119689941406,-123.10667419433594,49.95257568359375,0.4775859415531156,0.011504056863486602,0.40061076084641023,23.19625656476433,"array('d', [-123.87761688232422, -122.88011756930942, -121.92705249313916, -121.0060938147164, -120.10672979937064, -119.21982066439537, -118.3372635102908, -117.45177573804442, -116.55674991024534, -115.64615471084646, -114.71446627118208, -113.75662018838555, -112.76797783633519, -111.74430271898802, -110.68174503523274, -109.79493121777907])","array('d', [-182.62770080566406, -180.33566222261805, -178.02449406151743, -175.70032548793813, -173.36770562541142, -171.03031732871543, -168.69128082094883, -166.35335295840414, -164.01906231526033, -161.6908047580394, -159.37091212546198, -157.06170212048286, -154.76551433613534, -152.48473569463684, -150.22181704155489, -148.42923645393984])","array('d', [-49.926902770996094, -49.893720479726255, -49.89094906968793, -49.89269742690971, -49.892863291372, -49.89358567176366, -49.894113839051926, -49.89470990547028, -49.895281247351434, -49.89585955427568, -49.8964330741598, -49.89700540179902, -49.89757457350843, -49.898142292481175, -49.898696340228206, -49.894950433436236])","array('d', [0.5864246487617492, 0.4558785597058367, 0.3377555631410098, 0.23087344683495156, 0.13416250114422684, 0.04665481332352805, -0.032525418998983764, -0.10417065165958059, -0.16899792159181573, -0.22765601399702937, -0.2807319287030597, -0.3287566616422958, -0.37221010141574434, -0.41152296212563316, -0.44702813868806396, -0.4007715093913199])","array('d', [-0.022820474579930198, -0.004039832100673582, 0.0017265064199986334, -0.00029411235341427627, 0.000414974936559006, 0.00016706501181826304, 0.0002540182645589834, 0.0002233465356798771, 0.0002335566442384877, 0.00022916220376480585, 0.00022964564049291112, 0.00022823992502042875, 0.0002271161977098059, 0.00022705994123616317, 0.00021635687126598532, -0.0038937194393794915])","array('d', [0.4223067323353627, 0.3997932752926176, 0.38337270926301914, 0.37193159438992907, 0.36471584684607383, 0.36118508965755936, 0.36093363851353516, 0.363644519975051, 0.36906121960276705, 0.37696957598055153, 0.3871857955715201, 0.3995483250627234, 0.4139122369409494, 0.4301452377882767, 0.4481234830422498, 0.4702397868193432])",-119.21982066439537,-171.03031732871543,-49.89358567176366,0.04665481332352805,0.00016706501181826304,0.36118508965755936,25.000000243002734,-1.0,"[-179.0800538258616, -122.52174167597664, 49.935319978917285]","[-170.0436665380844, -111.84138724558386, 55.3458406587122]","[-164.1943413544915, -124.0772978830332, 48.937417625785905]",10000000000.0,0.016510486602783203
14,8.01231336593628,-180.02529907226562,-122.95751953125,49.961402893066406,0.4505333006381988,0.00860609766095865,0.39618070522812404,23.19930649634095,"array('d', [-123.71990966796875, -122.73111562726663, -121.78506223887878, -120.86968429448682, -119.97466613798356, -119.09101326360003, -118.21073551441515, -117.32664136568089, -116.43219977385428, -115.5214456537944, -114.58891425985685, -113.62959529553433, -112.63890067814216, -111.61264190173, -110.54701529293908, -109.65735726292199])","array('d', [-182.1963348388672, -179.9004666902538, -177.586413601758, -175.26003933702452, -172.92574771813364, -170.58712607686198, -168.24723076211797, -165.90877575547398, -163.57426158399838, -161.24606672613362, -158.926513457461, -156.61791567969402, -154.32261340348873, -152.04299698866487, -149.7815227851762, -147.9903531982663])","array('d', [-49.93019104003906, -49.90110604409318, -49.89952625783719, -49.90079868126235, -49.90107323679161, -49.901699095093036, -49.90220248414902, -49.90274854801268, -49.90327869560473, -49.903812763792274, -49.90434320882846, -49.904872203101014, -49.90539832808865, -49.90592313239962, -49.906434539087755, -49.90265647645247])","array('d', [0.5689098834991453, 0.440030543293774, 0.32341568359170947, 0.2178981860728298, 0.1224219986301281, 0.03603156636673927, -0.04213773124974346, -0.11286823231838275, -0.17686781888608463, -0.2347769925164219, -0.2871752578070827, -0.33458682907194487, -0.3774854600871424, -0.4162963250098617, -0.45134772076721547, -0.40462509451749545])","array('d', [-0.021098081022500947, -0.002481346118160131, 0.001156824381943478, -0.00011762518095144763, 0.0003298055685147234, 0.0001734887492553387, 0.0002283080001250953, 0.00020886739811433051, 0.00021514593643115953, 0.00021215845078840543, 0.00021219693710860247, 0.00021101814864048728, 0.00020990049413687723, 0.00020994227767341664, 0.0001993596724825205, -0.003908908537420057])","array('d', [0.4180523912098745, 0.39640274827904537, 0.38067478305111735, 0.36981328299110394, 0.363097870894832, 0.36000898498531486, 0.3601544355047954, 0.36322633154309397, 0.3689744559878776, 0.37718912235185925, 0.3876897869675981, 0.40031730684106387, 0.41492858222941154, 0.4313927406776314, 0.44958707867205505, 0.4719449489800787])",-119.09101326360003,-170.58712607686198,-49.901699095093036,0.03603156636673927,0.0001734887492553387,0.36000898498531486,25.000000242999047,-1.0,"[-178.6415379538184, -122.37869440642837, 49.94849390592685]","[-169.55194076448217, -111.60324686424997, 55.073818598214366]","[-163.7636895162658, -124.03884149554582, 49.00322277460636]",10000000000.0,0.015918731689453125
15,8.037097930908203,-179.15318298339844,-122.66429901123047,49.984886169433594,0.3935059010982511,0.0027503811288623415,0.3871640721943717,23.20096274633651,"array('d', [-123.56399536132812, -122.58399693670985, -121.6448368507202, -120.73473842631601, -119.84360370328942, -118.96260040843381, -118.0838650995817, -117.20030924962872, -116.30548870541018, -115.39351411029917, -114.45898864159523, -113.49696442382458, -112.5029118965907, -111.47269829066546, -110.40257365121478, -109.50888356807087])","array('d', [-181.76394653320312, -179.4642467684165, -177.14738284735034, -174.8189361466023, -172.48315841147019, -170.14353697766938, -167.803061993138, -165.46440382295557, -163.13003536055908, -160.8023189404659, -158.48356910693448, -156.1760981901102, -153.88224909425583, -151.60441821503943, -149.345070020359, -147.55591008148994])","array('d', [-49.93423080444336, -49.91015704237328, -49.91003440216368, -49.91072418678701, -49.91113115277197, -49.91163849238441, -49.91211110779148, -49.91259558286964, -49.913074931448605, -49.91355450138492, -49.914031891377675, -49.914507534106065, -49.9149806752618, -49.91545267258314, -49.915911610044304, -49.912093976555234])","array('d', [0.549067437648773, 0.42207635419832235, 0.30717006001777114, 0.20319853665318638, 0.10912120459669214, 0.02399650913735539, -0.05302750236763881, -0.1227217056423438, -0.18578361115847497, -0.24284433590975624, -0.2944748930188754, -0.34119181345725985, -0.38346189894263566, -0.4217040340151036, -0.45624092575859043, -0.4089895247556126])","array('d', [-0.018991537392139227, -0.0005752670464428373, 0.00045988645287576213, 9.79785941071697e-05, 0.00022546742472274794, 0.000181143672495926, 0.00019668931939206163, 0.000190985886523173, 0.00019246824688230776, 0.0001912087131202454, 0.00019071157467869944, 0.00018981752486434874, 0.00018871381837784465, 0.0001888812628944323, 0.00017844289279390728, -0.003927600092857724])","array('d', [0.413715557256017, 0.3930253500518115, 0.3780718994673866, 0.36786173361346736, 0.3617105786106568, 0.359121336184143, 0.3597164635239041, 0.36319797223167805, 0.36932253608896076, 0.37788538062865223, 0.38870953983139384, 0.4016385319539224, 0.41653128181876, 0.4332584964106852, 0.4516987362142329, 0.47433131882501983])",-118.96260040843381,-170.14353697766938,-49.91163849238441,0.02399650913735539,0.000181143672495926,0.359121336184143,25.000000242995988,-1.0,"[-178.20227522428897, -122.23730190429158, 49.96316649660108]","[-169.0586223808611, -111.37056470552297, 54.7909646833288]","[-163.3328865409644, -124.00263998134506, 49.077242313657074]",10000000000.0,0.0199582576751709
16,8.055714845657349,-179.15318298339844,-122.66429901123047,49.984886169433594,0.3935059010982511,0.0027503811288623415,0.3871640721943717,23.20096274633651,"array('d', [-123.40984344482422, -122.43868123011424, -121.50626738518089, -120.60113574529856, -119.71342393520567, -118.83447625582818, -117.95656811067222, -117.07272457854633, -116.17659792187828, -115.26238327386794, -114.32475995926298, -113.35885037438328, -112.36019107271665, -111.32471243292639, -110.24872550338348, -109.34987060838382])","array('d', [-181.33058166503906, -179.02707921537493, -176.7074900166704, -174.37710642577596, -172.04002487495737, -169.69963009188726, -167.35884479190426, -165.02029568524415, -162.68642888226128, -160.3595920785126, -158.04209405243958, -155.73624783368794, -153.44440166833812, -151.16896050632846, -148.91239943014625, -147.12583012924313])","array('d', [-49.93917465209961, -49.92067240075885, -49.9221680634632, -49.92220709399216, -49.922758614715754, -49.923131482196105, -49.92356720758823, -49.92398055773076, -49.924400799203184, -49.924817175956434, -49.92523300249263, -49.92564677823464, -49.92605848662771, -49.92646927234712, -49.92686740093074, -49.92300391224837])","array('d', [0.527054131031036, 0.4021578888736042, 0.28914708565177083, 0.18689067358716557, 0.09436523854973593, 0.01064475770462808, -0.06510866776947875, -0.13365319717546675, -0.19567483469418973, -0.25179428599547593, -0.30257314362012727, -0.3485194142980651, -0.39009218592449163, -0.4277033584979284, -0.46166932714482334, -0.4138301711608811])","array('d', [-0.016649521887302333, 0.0015438749060161417, -0.0003163128694023472, 0.0003366446607767435, 0.00010837983019493958, 0.00018857631526289904, 0.0001604728191049217, 0.00017004756743338903, 0.00016620963349988152, 0.00016688057544198253, 0.00016579870114284432, 0.0001652313583823051, 0.00016415334477498466, 0.00016446996366651875, 0.00015420420288758612, -0.003949260035270603])","array('d', [0.4093262712147571, 0.38967814876571344, 0.3755721339949967, 0.36607840667353403, 0.3605503246423559, 0.3585143969643316, 0.3596085705994444, 0.3635453813111662, 0.370088855933221, 0.37903947977904723, 0.3902241303675309, 0.40348919469044414, 0.418695788176295, 0.4357163339667671, 0.4544307695604806, 0.4773694582078541])",-118.83447625582818,-169.69963009188726,-49.923131482196105,0.01064475770462808,0.00018857631526289904,0.3585143969643316,25.000000242993572,-1.0,"[-177.7642129478717, -122.09795528158394, 49.98076060294168]","[-168.567098237489, -111.14433806837687, 54.500865795367645]","[-162.90366094102365, -123.96653121393989, 49.16074960497615]",10000000000.0,0.016591787338256836
17,8.080901145935059,-178.28033447265625,-122.37680053710938,50.017154693603516,0.3343124091625211,-0.0026462792884559562,0.37855120102432754,23.200181549507562,"array('d', [-123.10667419433594, -122.15288602258096, -121.23322579657285, -120.33689492452201, -119.45453545830709, -118.57787458997115, -117.69949223655436, -116.81266538876974, -115.91126219566394, -114.9896686437338, -114.04273738148808, -113.06575179051399, -112.05440068537884, -111.00476048474613, -109.91328378531107, -109.00098642113014])","array('d', [-180.46119689941406, -178.1503700226103, -175.82569440215568, -173.4919090319608, -171.15280001387538, -168.81154724583672, -166.47094023075817, -164.1335218129793, -161.80168932613392, -159.47776703584702, -157.1640587502989, -154.8628858846309, -152.57661451687162, -150.3076737880674, -148.05856681819216, -146.2788276649701])","array('d', [-49.95257568359375, -49.94375930624205, -49.947239058749666, -49.946407005206126, -49.9470876078759, -49.94723863741171, -49.947575163529386, -49.947846336932315, -49.94813959539227, -49.94842400165972, -49.948710090125054, -49.948993967583085, -49.94927657237756, -49.94955880334692, -49.9498292073094, -49.94586940443483])","array('d', [0.4775859415531156, 0.357397215981626, 0.24864595029967299, 0.1502437275341813, 0.06120570750545351, -0.019359229465809407, -0.09225740051766401, -0.15821838865858084, -0.2179023411482481, -0.2719065672720705, -0.32077148937681127, -0.36498595754764945, -0.40499172096380825, -0.441184954871611, -0.47386709649583203, -0.42470268648496595])","array('d', [-0.011504056863486602, 0.0041890726062124685, -0.001313472682052147, 0.0006156481561513262, -5.9896577032825666e-05, 0.00017677210001208827, 9.383239189771876e-05, 0.00012262599421183635, 0.00011215544187783644, 0.00011531683254061439, 0.00011358286506534085, 0.0001135201480914047, 0.00011257938438330768, 0.00011319512882658277, 0.00010329325503202503, -0.0039947543817482195])","array('d', [0.40061076084641023, 0.3832270008740111, 0.3709843265385751, 0.36307948407214585, 0.35894199279595906, 0.35814677960793995, 0.36036388797428753, 0.3653278388635192, 0.3728181233129473, 0.38264635418947995, 0.39464758684559115, 0.40867434876532527, 0.4245924759690235, 0.4422781176818785, 0.46161420613299003, 0.4852460200491878])",-118.57787458997115,-168.81154724583672,-49.94723863741171,-0.019359229465809407,0.00017677210001208827,0.35814677960793995,25.00000024299081,-1.0,"[-177.7642129478717, -122.09795528158394, 49.98076060294168]","[-168.567098237489, -111.14433806837687, 54.500865795367645]","[-162.90366094102365, -123.96653121393989, 49.16074960497615]",10000000000.0,0.023966550827026367
18,8.100460290908813,-177.84310913085938,-122.23458862304688,50.03627014160156,0.30438607931137074,-0.005064773838967202,0.374549583592687,23.198703867628595,"array('d', [-122.95751953125, -122.0125360599034, -121.09920002144715, -120.20706111760836, -119.32702063012823, -118.451006370909, -117.5717598536322, -116.68269328498131, -115.77779184137201, -114.85154587040326, -113.8989034953398, -112.91523731295433, -111.89632092011482, -110.8383123452939, -109.73774347394449, -108.81760198608346])","array('d', [-180.02529907226562, -177.71083344344186, -175.3836605824345, -173.0482678224488, -170.70828463856066, -168.366789769553, -166.0265075664962, -163.68994078354206, -161.35946450374684, -159.03739369010404, -156.72603226012245, -154.42770851198654, -152.14480013582167, -149.87975098878906, -147.63508068620968, -145.85938618970175])","array('d', [-49.961402893066406, -49.95481860261669, -49.957440524735915, -49.9568345558357, -49.95736082213544, -49.957490687708116, -49.95775931234202, -49.9579789615225, -49.95821505252713, -49.958444430128765, -49.9586749679856, -49.958903758936344, -49.95913144041837, -49.9593590527534, -49.95957514274175, -49.955574372797734])","array('d', [0.4505333006381988, 0.3329189720100353, 0.2264971172226224, 0.13020263278724475, 0.043071773438540094, -0.0357674930339887, -0.107104212711292, -0.17165234109995103, -0.23005788509960612, -0.28290535922800686, -0.3307236085059031, -0.3739910069036741, -0.4131398222938408, -0.44855764133158244, -0.48053837355929774, -0.43064631291510075])","array('d', [-0.00860609766095865, 0.0031426355286825066, -0.0009763825123775663, 0.0004675201759123065, -3.807283438521643e-05, 0.00013901117772379, 7.692426116565633e-05, 9.843621948667912e-05, 9.056784301651448e-05, 9.2895408710948e-05, 9.15572000442873e-05, 9.147690035846572e-05, 9.068155553348066e-05, 9.13963951185796e-05, 8.163840284185373e-05, -0.004014105276454299])","array('d', [0.39618070522812404, 0.3799947102399254, 0.3687495985237316, 0.3617028545579363, 0.35832122855190934, 0.3582036485598223, 0.3610362412708937, 0.36656463951686885, 0.3745762068574947, 0.3848882577980306, 0.39734006473294664, 0.41178734334922046, 0.42809839975636127, 0.44615135052696203, 0.46583074045572864, 0.48984482426688636])",-118.451006370909,-168.366789769553,-49.957490687708116,-0.0357674930339887,0.00013901117772379,0.3582036485598223,25.000000242989977,-1.0,"[-176.88653777799203, -121.82244052980975, 50.02112410790336]","[-167.58770436159023, -110.71221983609747, 53.906313064828964]","[-162.04410428859404, -123.88338680218098, 49.34683294290415]",10000000000.0,0.017728805541992188
19,8.11951470375061,-177.40554809570312,-122.09317779541016,50.05693435668945,0.2743889987468717,-0.0072189932689072246,0.3707395354893545,23.195724007894952,"array('d', [-122.80987548828125, -121.87390546094699, -120.96704294632141, -120.07918239919998, -119.20148370031889, -118.32607661098004, -117.44586671809634, -116.55440457329203, -115.64579590512915, -114.7146391950841, -113.75598197485486, -112.76529009340742, -111.73842602866543, -110.67163354636094, -109.56152795888367, -108.6331649938086])","array('d', [-179.5886688232422, -177.27052506997813, -174.94081756331494, -172.6037934190879, -170.26293026748624, -167.92120835041231, -165.58128874683172, -163.24563564150554, -160.91660323279473, -158.59649846618174, -156.28762659729472, -153.99232397538825, -151.71298099380962, -149.45205721904588, -147.21208963040172, -145.44068159667333])","array('d', [-49.9716682434082, -49.96734242168993, -49.969086632663895, -49.96870284334593, -49.96906537231574, -49.969166599578664, -49.969359222299516, -49.96951951024793, -49.96969055937048, -49.96985710530598, -49.97002432639005, -49.97019031487887, -49.97035540065634, -49.970520768255554, -49.97067491269887, -49.966627378973115])","array('d', [0.4224396049976347, 0.30749874268303956, 0.20349594047141092, 0.10939030552085283, 0.02423999926664238, -0.05280718849801664, -0.12252236816164296, -0.18560326634024643, -0.2426812054094118, -0.2943274127239399, -0.3410587103885913, -0.38334259285927125, -0.4216014805152486, -0.4562140286352347, -0.4874658197277209, -0.4368159653941887])","array('d', [-0.005667861551046269, 0.0020779774765446925, -0.0006373117238343533, 0.0003144037498359841, -1.8821710245280745e-05, 9.785708519863193e-05, 5.692393657919419e-05, 7.107042935973995e-05, 6.585585702689819e-05, 6.735586728964752e-05, 6.643633894000376e-05, 6.63557958276287e-05, 6.572337774483046e-05, 6.65568038292086e-05, 5.691953702755424e-05, -0.004036194228938714])","array('d', [0.3916585008290151, 0.37668948271431607, 0.36646619257162594, 0.36030364711906243, 0.35770430499545053, 0.3582903336738792, 0.36176354853424564, 0.36788048679410035, 0.3764362770590381, 0.3872538841331785, 0.4001767793847096, 0.415063869599771, 0.4317859479355284, 0.4502231249477024, 0.4702615785330864, 0.4946750591268465])",-118.32607661098004,-167.92120835041231,-49.969166599578664,-0.05280718849801664,9.785708519863193e-05,0.3582903336738792,25.000000242989206,-1.0,"[-176.44711828197077, -121.6858155975972, 50.04386726987974]","[-167.10134802333778, -110.5067188311719, 53.60538011693651]","[-161.613617768841, -123.83340708411494, 49.44795340528532]",10000000000.0,0.017241716384887695
20,8.137393951416016,-176.96768188476562,-121.95243835449219,50.07951354980469,0.24458341300487504,-0.009066984057426565,0.36707694927719614,23.19373384553673,"array('d', [-122.66429901123047, -121.73728407403755, -120.83679422192509, -119.95306272835636, -119.07750564999398, -118.20245468673737, -117.3209809699589, -116.42677575893444, -115.51406826621896, -114.57756841221216, -113.61242669377961, -112.61420593766239, -111.5788613371314, -110.50272629122992, -109.38250346010615, -108.4454389951949])","array('d', [-179.15318298339844, -176.83143136986195, -174.49924985160777, -172.16065993103481, -169.8189944628505, -167.47713958330993, -165.13769632792884, -162.8030928913376, -160.47566479036178, -158.15771290050824, -155.85154556657417, -153.5595087646841, -151.28400699580422, -149.0275167637063, -146.79259345393908, -145.0257751777609])","array('d', [-49.984886169433594, -49.98279198678314, -49.98364662748796, -49.983467617705095, -49.98365105857886, -49.98370758546152, -49.98380846150379, -49.983893604931566, -49.98398393412399, -49.984072035809916, -49.984160416351365, -49.9842481650755, -49.98433530937907, -49.984423171581334, -49.98450021846275, -49.980394506849805])","array('d', [0.3935059010982511, 0.2813184423829862, 0.17980702300082607, 0.08795568466082906, 0.0048451505145309225, -0.07035637495837482, -0.1384015301720139, -0.19997132760270095, -0.25568196602708837, -0.30609098833573645, -0.35170283419266957, -0.39297379311366465, -0.43031614301916793, -0.4640993375946669, -0.49460033493100625, -0.44316754659897895])","array('d', [-0.0027503811288623415, 0.0010122653662360556, -0.0003065522407676319, 0.00015563422384007184, -6.182107355753798e-06, 5.0458731068442536e-05, 3.057382187528894e-05, 3.74266017057766e-05, 3.487924656415857e-05, 3.559024085398503e-05, 3.512200308581443e-05, 3.50777150459923e-05, 3.464494803855157e-05, 3.5628410494875374e-05, 2.6166939470145734e-05, -0.004063674614935506])","array('d', [0.3871640721943717, 0.3734224994678399, 0.3642380781852245, 0.3589797632064839, 0.35718390778074854, 0.3584949483594244, 0.3626298462246034, 0.36935572985267895, 0.37847530967519205, 0.3898170948292531, 0.40322869798981753, 0.41857219109978927, 0.43572085022124785, 0.45455679118070347, 0.4749678453972472, 0.4997953251214662])",-118.20245468673737,-167.47713958330993,-49.98370758546152,-0.07035637495837482,5.0458731068442536e-05,0.3584949483594244,25.000000242988765,-1.0,"[-176.0074950306165, -121.54973472291302, 50.06776275254065]","[-166.6172156910649, -110.30874877725996, 53.302401665127555]","[-161.18278496609346, -123.77726170000129, 49.551918716834564]",10000000000.0,0.016798734664916992
21,8.156264543533325,-176.96768188476562,-121.95243835449219,50.07951354980469,0.24458341300487504,-0.009066984057426565,0.36707694927719614,23.19373384553673,"array('d', [-122.37680053710938, -121.46689189185356, -120.57831507435016, -119.70195055662793, -118.82970993662713, -117.95432117216765, -117.06918477010085, -116.16827541065925, -115.24607374828555, -114.29751871917838, -113.31797403163468, -112.30320452785718, -111.2493594059754, -110.15296021883456, -109.01089338220834, -108.05512020801946])","array('d', [-178.28033447265625, -175.95181849218648, -173.61506819483307, -171.2737057884885, -168.93080257218995, -166.58907459714288, -164.25101611480787, -161.9189936150324, -159.59531357927298, -157.28227166049945, -154.98218820933698, -152.69743336696106, -150.4304439460017, -148.18373366480242, -145.95989733179442, -144.20313383008002])","array('d', [-50.017154693603516, -50.01916026321175, -50.01832243098053, -50.01848105339181, -50.0182904171071, -50.01822211685861, -50.01811116303249, -50.01801543387052, -50.01791478902182, -50.01781636931477, -50.01771774408455, -50.01761985277451, -50.01752216501125, -50.01742625174612, -50.01732060198371, -50.01307709268661])","array('d', [0.3343124091625211, 0.22775795112712854, 0.13134348199776327, 0.044104055381202656, -0.034833448093696213, -0.1062590589308954, -0.1708876249882336, -0.22936596441423196, -0.28227933562128743, -0.33015728531879923, -0.37347892056804344, -0.41267760670915477, -0.44814486843475143, -0.4802313080639928, -0.5091954217877203, -0.45615271932126994])","array('d', [0.0026462792884559562, -0.000981307165733301, 0.0002898361268709568, -0.00015550895511838, 3.990722045407381e-07, -5.412962324697288e-05, -3.495333548149857e-05, -4.1520440999782965e-05, -3.903686820508518e-05, -3.968803410752556e-05, -3.921995812081489e-05, -3.909517161517814e-05, -3.9055698388789384e-05, -3.769757302951882e-05, -4.6672528607128084e-05, -0.004128763434275731])","array('d', [0.37855120102432754, 0.36724967414429155, 0.3601542662535605, 0.35672968548694634, 0.3565735375331375, 0.3593710598970334, 0.36486726944722847, 0.37284909254662, 0.38313352695926184, 0.3955596118600037, 0.40998289096362467, 0.42627155499443425, 0.4443037318883973, 0.4639655028961866, 0.4851479874891341, 0.5108310667412935])",-117.95432117216765,-166.58907459714288,-50.01822211685861,-0.1062590589308954,-5.412962324697288e-05,0.3593710598970334,25.00000024298916,-1.0,"[-175.56766886239336, -121.41412750627607, 50.09311383954195]","[-166.1347546734398, -110.11948028121692, 53.000186932070264]","[-160.75164619127872, -123.71532043204257, 49.65724307036954]",10000000000.0,0.015520572662353516
