,x_pos,y_pos,z_pos,roll,pitch,yaw,vel,x_traj,y_traj,z_traj,roll_traj,pitch_traj,yaw_traj,x_cmd,y_cmd,z_cmd,roll_cmd,pitch_cmd,yaw_cmd,vel_cmd,effector_dmg,effector_x,effector_y,effector_z,cost,time_solution
0,-199.5311279296875,-114.94093322753906,44.919898986816406,0.6368892192840573,0.03256839886307725,1.3534404496338701,23.18024412970828,"array('d', [-117.16207122802734, -114.71810238177021, -112.29024499788966, -109.88156142823723, -107.49486345870856, -105.13218781133628, -102.79461198748893, -100.48235657434876, -98.19496933822352, -95.93151916218581, -93.69076630937977, -91.47129762973294, -89.27162735269974, -87.09026849653146, -84.9257804124085, -83.20801815698371])","array('d', [-200.1611328125, -199.63920899057976, -199.0444639803444, -198.3755533614219, -197.63181929847153, -196.81495576488513, -195.92882947497017, -194.97859916880535, -193.9699743032407, -192.90871120029152, -191.80031143623063, -190.649863543764, -189.46197607788176, -188.2407653387263, -186.98987474290286, -185.96539001306235])","array('d', [-44.91828155517578, -44.854518405021196, -44.81891285116784, -44.802124074338, -44.79789596064752, -44.80200612735268, -44.8115754219842, -44.82461255530196, -44.83971336708725, -44.85586332028985, -44.87231016785928, -44.888485475837676, -44.903961220141774, -44.9184323496878, -44.931718810885734, -44.94136953612312])","array('d', [0.6360527276992795, 0.650264813367999, 0.6631244411104816, 0.6747603048369782, 0.6679611415294419, 0.646020579091639, 0.6137063726115408, 0.5749930096495196, 0.5329932454552313, 0.49003166894031464, 0.4477735956268001, 0.4073569039880841, 0.3695041130331198, 0.3346090821798715, 0.30280028999803155, 0.2739850573890175])","array('d', [-0.03239737451076518, -0.01884514891790716, -0.009791389805934504, -0.0037406908950113654, 0.00029094038323090426, 0.0029527904322774, 0.004673952427304232, 0.005738050613777187, 0.006332751541888462, 0.0065831240786912056, 0.0065745911070192, 0.006369172256379669, 0.006017370951330858, 0.005567108599721925, 0.005070396560663995, 0.004587884642578217])","array('d', [1.3750376562264301, 1.3456205997617083, 1.3153661628500553, 1.28433884330656, 1.2531672202706687, 1.2229111335161948, 1.1943212428110646, 1.16781356707319, 1.1435532480832789, 1.1215400434921405, 1.1016752488886123, 1.0838074879768802, 1.0677618549444141, 1.053357908862732, 1.0404209029742326, 1.0258821006406855])",-105.13218781133628,-196.81495576488513,-44.80200612735268,0.646020579091639,0.0029527904322774,1.2229111335161948,25.000000245259432,-1.0,"[-199.34318809392886, -113.91643272732952, 44.87053424995153]","[-203.92398460873287, -102.52125700842691, 53.48251855238101]","[-189.2710206222625, -104.78776054192, 51.212362578914465]",10000000000.0,0.013104438781738281
1,-199.5311279296875,-114.94093322753906,44.919898986816406,0.6368892192840573,0.03256839886307725,1.3534404496338701,23.18024412970828,"array('d', [-116.27093505859375, -113.83156526547569, -111.40893737688945, -109.00613097973422, -106.625958571883, -104.27040528962263, -101.94047676658748, -99.63632173573704, -97.35742266248008, -95.10279200193449, -92.87114245350112, -90.66102116983623, -88.47090928477034, -86.2992921115892, -84.14470564565032, -82.43499048461433])","array('d', [-199.9146270751953, -199.37165970704604, -198.75597261067804, -198.06625220384197, -197.3018919699794, -196.4647101417336, -195.55866538879954, -194.58895616796917, -193.56129529150277, -192.48142049333163, -191.35480338539472, -190.18649800675405, -188.9810779677124, -187.74262641757932, -186.474756504467, -185.43689782554327])","array('d', [-44.9190788269043, -44.85494040954499, -44.819114913274795, -44.802192086045906, -44.79787750796327, -44.801928008669925, -44.811453345386575, -44.824456376909765, -44.8395298312217, -44.8556574345108, -44.872085853428146, -44.88824585169652, -44.90370872258113, -44.918168806219086, -44.93144554143252, -44.94108927378818])","array('d', [0.6363382339477535, 0.6505231501175577, 0.6633581938510353, 0.6749717645955375, 0.6672616239338706, 0.6447121540429196, 0.6120363438476153, 0.5731487847949133, 0.5311076296011459, 0.48819258626525597, 0.44603437023406234, 0.4057453778205626, 0.36803017451399, 0.3332707596836584, 0.30158874374196165, 0.2728888049035997])","array('d', [-0.03258842974901203, -0.018955754798571145, -0.00985749967619043, -0.003782233938741674, 0.00026308343816872824, 0.002932783552116176, 0.004658713186595952, 0.005725955598768418, 0.006322922381925344, 0.006575043761684545, 0.006567904926806113, 0.006363591963870967, 0.006012638172589977, 0.005562994188182743, 0.005066722724855751, 0.004584560418173562])","array('d', [1.366426781811986, 1.3369930714627571, 1.3067232525218229, 1.2756817478876832, 1.244526170280713, 1.214333064766219, 1.1858326425416212, 1.1594253194443132, 1.1352660651659696, 1.113348846569365, 1.0935721640179732, 1.0757836964962946, 1.0598086515969711, 1.045467254227479, 1.032585660182769, 1.0181083669647677])",-104.27040528962263,-196.4647101417336,-44.801928008669925,0.6447121540429196,0.002932783552116176,1.214333064766219,25.000000245290448,-1.0,"[-199.20782676263624, -113.47700337173374, 44.87105502439386]","[-203.72760580426734, -102.06641136971797, 53.49485856913941]","[-189.08830724621424, -104.38332971076908, 51.18773327365046]",10000000000.0,0.01339411735534668
2,-199.266845703125,-114.06048583984375,44.92050552368164,0.6369540691375732,0.03265154734253887,1.3448589752104623,23.177344177978103,"array('d', [-115.82608032226562, -113.3891055472917, -110.96919525244725, -108.56943618957249, -106.19264035309406, -103.84076570413318, -101.51478077432986, -99.21479758177183, -96.94026542470586, -94.69016820969533, -92.46319463834662, -90.2578718746241, -88.07266441199363, -85.90604364747247, -83.75653385131498, -82.05094313014372])","array('d', [-199.7884063720703, -199.23479132162922, -198.6085079473062, -197.90825833964524, -197.13346212724574, -196.28600050885854, -195.36987863473183, -194.39031498853873, -193.35302404019882, -192.26373410495566, -191.12790163147415, -189.9505632042005, -188.73627474620213, -187.48910262228208, -186.2126446509233, -185.16802168220448])","array('d', [-44.919281005859375, -44.85512420455121, -44.81930629632187, -44.80239883477615, -44.798099363724276, -44.80216183128092, -44.81169555323322, -44.82470395119332, -44.839780598954704, -44.85591002031103, -44.87233950265492, -44.88850022513561, -44.90396371079175, -44.91842438715085, -44.93170169400222, -44.941345848722676])","array('d', [0.6365022659301753, 0.6506715724008071, 0.6634924918775773, 0.6750930199420014, 0.6669187773285851, 0.6440588959037213, 0.6111983655940785, 0.572221312393371, 0.530158174703284, 0.487265892421646, 0.44515762137716697, 0.4049328137910981, 0.36728690452392176, 0.3325958530924074, 0.3009777663927313, 0.2723359696863951])","array('d', [-0.03260365873575215, -0.018955497189046457, -0.009851777488925339, -0.0037756772068841616, 0.00026862922283297895, 0.002936836170727696, 0.004661391726858734, 0.005727587721638955, 0.006323856705336671, 0.00657557071788349, 0.006568232063583626, 0.006363845437895583, 0.0060128767732996, 0.005563229821806986, 0.00506694463691376, 0.004584761212524988])","array('d', [1.3620645115759706, 1.3326212299948017, 1.3023425709726544, 1.2712929219510751, 1.2401446484222123, 1.2099827524294242, 1.1815270528146495, 1.1551700546134225, 1.131061570494343, 1.1091926249750919, 1.0894602900685786, 1.071711753342835, 1.0557722685606834, 1.0414623890301946, 1.0286087212174764, 1.0141624310928152])",-103.84076570413318,-196.28600050885854,-44.80216183128092,0.6440588959037213,0.002936836170727696,1.2099827524294242,25.000000245305944,-1.0,"[-199.20782676263624, -113.47700337173374, 44.87105502439386]","[-203.72760580426734, -102.06641136971797, 53.49485856913941]","[-189.08830724621424, -104.38332971076908, 51.18773327365046]",10000000000.0,0.013866424560546875
3,-199.13169860839844,-113.62088012695312,44.92063522338867,0.6369038224220274,0.032528825104236575,1.340405822792325,23.176970045458468,"array('d', [-115.38172912597656, -112.94718972040454, -110.53003937554013, -108.13336785907315, -105.75996978117116, -103.41176934531036, -101.0896967189267, -98.79382737524284, -96.52357853208336, -94.27790712370162, -92.05547962923433, -89.85480502499621, -87.67433289825499, -85.51252235411253, -83.36788743755106, -81.6662469297691])","array('d', [-199.6602325439453, -199.09600050220428, -198.45914587171103, -197.7483995681697, -196.96325588202794, -196.10566517130928, -195.17967083008955, -194.19050292750097, -193.1438699262086, -192.04548421619964, -190.9007817571378, -189.71477739392034, -188.49200593077782, -187.23651418929384, -185.95188241966318, -184.90083683092817])","array('d', [-44.91941452026367, -44.85529457870441, -44.819522463066626, -44.802657115695276, -44.7983917657466, -44.802479977240736, -44.81203230011092, -44.82505383904567, -44.84013976255898, -44.85627589465782, -44.87271048334018, -44.88887535527512, -44.904342423155235, -44.91880631201079, -44.93208653656863, -44.941732808233425])","array('d', [0.6367188692092893, 0.6508675631644416, 0.6636698316469614, 0.6747709489090978, 0.6661592785786632, 0.6430211911373017, 0.6100099065564139, 0.5709765506259135, 0.5289224393724248, 0.4860811462109452, 0.44404816985408907, 0.40391019215657137, 0.3663538114006852, 0.3317492685030523, 0.30021145934790733, 0.27164258633576127])","array('d', [-0.03259261697530744, -0.018937163288840646, -0.009833472943224729, -0.003760241711455851, 0.0002805493164875647, 0.0029455645030052264, 0.004667586501030332, 0.005731936660538098, 0.006326949457962461, 0.006577860073066, 0.0065700359657076745, 0.0063653658969702485, 0.006014225021108567, 0.005564453689112647, 0.00506805683068756, 0.004585767567157541])","array('d', [1.3577121953156333, 1.3282562715418493, 1.297965936290123, 1.2669212182685923, 1.235807723654747, 1.2057019805844178, 1.1773129216625682, 1.1510251706159953, 1.1269836849765427, 1.1051769387602621, 1.0855009584989121, 1.067802773164441, 1.0519079555984314, 1.0376376046804252, 1.0248189482166474, 1.0104115282184059])",-103.41176934531036,-196.10566517130928,-44.802479977240736,0.6430211911373017,0.0029455645030052264,1.2057019805844178,25.000000245321196,-1.0,"[-198.9309948287723, -112.59938821662817, 44.87153690484978]","[-203.32792905412356, -101.15641920922324, 53.515924084604336]","[-188.71695282196777, -103.5739627497768, 51.1337282964908]",10000000000.0,0.016034841537475586
4,-198.99453735351562,-113.18170928955078,44.921142578125,0.6367750167846676,0.032309904694557204,1.3358672569182253,23.176793654686126,"array('d', [-114.94093322753906, -112.50882764851664, -110.09442845224493, -107.70082678511163, -105.33079538027329, -102.98622325251601, -100.66800248836986, -98.37617284118679, -96.11012053289487, -93.86877668197336, -91.6507866691859, -89.45464232582682, -87.27877927696908, -85.12164518051739, -82.98174460859404, -81.28393642498821])","array('d', [-199.5311279296875, -198.95648872106437, -198.30927901200715, -197.5882603583217, -196.7930107489666, -195.9255487165997, -194.98995211105515, -193.9914594103267, -192.9357706136796, -191.82858037534788, -190.67530286503734, -189.48093026268165, -188.24997559411298, -186.98646566147067, -185.6939627947651, -184.63673766005843])","array('d', [-44.919898986816406, -44.85584300062222, -44.82013437229783, -44.80332275179522, -44.799099176538355, -44.803218190128256, -44.8127924561588, -44.82582933317985, -44.8409259593589, -44.857069709883596, -44.87350996557954, -44.889679322055905, -44.90515016894428, -44.919617391106755, -44.932900619713145, -44.94254906695633])","array('d', [0.6368892192840573, 0.6510217022941341, 0.6638093024871476, 0.6743106687108703, 0.6652801470689764, 0.6418807239306169, 0.6087332349496997, 0.5696557071616023, 0.5276205482170838, 0.4848383155277872, 0.44288722761747085, 0.4028415428086192, 0.3653793149158823, 0.33086529491566075, 0.29941133085966914, 0.27091860007482366])","array('d', [-0.03256839886307725, -0.01891024509207188, -0.009809545957770944, -0.003741106196714301, 0.00029491323123662333, 0.0029559093483296386, 0.004674847751558663, 0.005736982993333568, 0.006330490523759748, 0.006580430073949792, 0.006572009621852006, 0.006366985849512672, 0.006015631887796117, 0.005565715925380358, 0.005069199855878708, 0.004586801819212388])","array('d', [1.3534404496338701, 1.3239745805169603, 1.2936750600012947, 1.2626409485621881, 1.231570424340571, 1.2015276728090922, 1.1732108428297459, 1.1469968865475957, 1.1230261284834329, 1.101284682712728, 1.0816676783786214, 1.0640220952098662, 1.0481739037066449, 1.0339448040591304, 1.0211626849937046, 1.0067958327839106])",-102.98622325251601,-195.9255487165997,-44.803218190128256,0.6418807239306169,0.0029559093483296386,1.2015276728090922,25.00000024533593,-1.0,"[-198.78934322544086, -112.16128674134156, 44.871850590163476]","[-203.12242556586259, -100.70069111604269, 53.52512426805591]","[-188.52649170974686, -103.17202222966819, 51.10619115721522]",10000000000.0,0.013820648193359375
5,-198.85523986816406,-112.7430191040039,44.921504974365234,0.6366431117057798,0.031845204532146544,1.3313434282925463,23.17681916427943,"array('d', [-114.06048583984375, -111.6334059987614, -109.2246542912639, -106.83732508299302, -104.47414491476236, -102.13693041547742, -99.82649680624795, -97.54281269032775, -95.2852031841309, -93.05254894934272, -90.84345443823986, -88.65637844486149, -86.48972985251693, -84.34193451383031, -82.21147904467414, -80.52130897723073])","array('d', [-199.266845703125, -198.67135313397182, -198.00343526980362, -197.26191228247848, -196.44652685640082, -195.55942960515227, -194.60476231451153, -193.58777560204032, -192.51414857330155, -191.38953720939526, -190.21930956714948, -189.00841049968358, -187.7613078928132, -186.48198724078227, -185.17397400205056, -184.1045799986696])","array('d', [-44.92050552368164, -44.85630117609824, -44.82052950981205, -44.80369371434014, -44.79946185081433, -44.80357792420922, -44.813150354645416, -44.82618521719993, -44.84127959386442, -44.857421179640184, -44.873859666486524, -44.89002780791939, -44.90549797667288, -44.91996490981181, -44.933248041393426, -44.94289645010759])","array('d', [0.6369540691375732, 0.6510803808603391, 0.6638623969988285, 0.6731737036391993, 0.6633202053832716, 0.6394151349043256, 0.6060125084323237, 0.566863018366419, 0.5248807609643257, 0.48223013784959856, 0.44045486915501875, 0.40060450729097813, 0.3633401808910175, 0.3290158182974439, 0.29773730744600296, 0.26940388091434114])","array('d', [-0.03265154734253887, -0.01894660894771331, -0.009823984047182576, -0.0037461650789498073, 0.0002932842625688221, 0.002955171295515428, 0.004674117192931809, 0.00573610442570967, 0.006329570144377068, 0.006579616830868347, 0.006571404286344668, 0.0063666152145515475, 0.006015456743207909, 0.005565657893502415, 0.005069179636005955, 0.004586783523513074])","array('d', [1.3448589752104623, 1.3153893194066095, 1.285086301646631, 1.2540874746894985, 1.2231160585548257, 1.1932109763982512, 1.1650486900395116, 1.1389909402999778, 1.1151690033762416, 1.093564491038436, 1.0740709239338657, 1.056535333149679, 1.0407846021260119, 1.0266417254247386, 1.0139359854877221, 0.9996539501763971])",-102.13693041547742,-195.55942960515227,-44.80357792420922,0.6394151349043256,0.002955171295515428,1.1932109763982512,25.000000245364884,-1.0,"[-198.6455585809292, -111.72367438216875, 44.87268615296227]","[-202.91348829342564, -100.2444463036907, 53.53363868091617]","[-188.33313921960539, -102.7715519216461, 51.07861157694214]",10000000000.0,0.013342857360839844
6,-198.85523986816406,-112.7430191040039,44.921504974365234,0.6366431117057798,0.031845204532146544,1.3313434282925463,23.17681916427943,"array('d', [-113.62088012695312, -111.19646841119217, -108.79070908427418, -106.40669423700236, -104.04712357060704, -101.71377454392089, -99.4074219252685, -97.1279974512221, -94.87479491031388, -92.64666930677977, -90.44220442244011, -88.25984246545045, -86.09797896455494, -83.95502893367623, -81.82947009927177, -80.14325674434993])","array('d', [-199.13169860839844, -198.52540572768834, -197.8467775310824, -197.09466296932257, -196.26888881558816, -195.37167248455125, -194.40718712272522, -193.38068805390174, -192.2978422608854, -191.16428466432302, -189.9853586296233, -188.76598386106102, -187.5106043576005, -186.22318380906015, -184.90722824150728, -183.83160590355953])","array('d', [-44.92063522338867, -44.856702346296025, -44.82113811047648, -44.80445678192698, -44.80033796011665, -44.80453590360213, -44.814167431528716, -44.82724515233861, -44.842371048710845, -44.85853638806445, -44.8749933983568, -44.89117658024478, -44.90665946353072, -44.92113750966058, -44.93443057098385, -44.94408615133018])","array('d', [0.6369038224220274, 0.6510349157405381, 0.6638212584209381, 0.6725169973833818, 0.6622404764020899, 0.638077968594813, 0.604548074932329, 0.5653661616186019, 0.5234159073114801, 0.4808377209456096, 0.4391574314447292, 0.39941180144975585, 0.3622532128805326, 0.3280300134742632, 0.2968450305859496, 0.26859651535102547])","array('d', [-0.032528825104236575, -0.018851617496249314, -0.009752619005759274, -0.00369363921229043, 0.0003314318303437912, 0.0029826970940032647, 0.004693997278168538, 0.00575060121279526, 0.006340351561740141, 0.00658788066986388, 0.006577987559919563, 0.006372083162930811, 0.006020173153081196, 0.005569840923404572, 0.005072947438635458, 0.0045901927726206965])","array('d', [1.340405822792325, 1.3109391010059943, 1.2806387929973062, 1.2496625700910449, 1.218746598125377, 1.188916497941004, 1.160837452637048, 1.1348633649771729, 1.111120890427468, 1.089589371928268, 1.0701615494441992, 1.0526845223679162, 1.0369856800217316, 1.022888713805425, 1.0102236494614258, 0.995986790834767])",-101.71377454392089,-195.37167248455125,-44.80453590360213,0.638077968594813,0.0029826970940032647,1.188916497941004,25.000000245379688,-1.0,"[-198.6455585809292, -111.72367438216875, 44.87268615296227]","[-202.91348829342564, -100.2444463036907, 53.53363868091617]","[-188.33313921960539, -102.7715519216461, 51.07861157694214]",10000000000.0,0.012442588806152344
7,-198.85523986816406,-112.7430191040039,44.921504974365234,0.6366431117057798,0.031845204532146544,1.3313434282925463,23.17681916427943,"array('d', [-113.18170928955078, -110.7600599841066, -108.35739298014721, -105.97679564701899, -103.62093848486768, -101.2915580149184, -98.98938747865138, -96.71432117035586, -94.46562130392053, -92.24211718158874, -90.04237198715728, -87.86481147822744, -85.70781799399707, -83.56979588444773, -81.44921415926011, -79.76702012118226])","array('d', [-198.99453735351562, -198.37725362146682, -197.68773890497724, -196.92487011880723, -196.08855846351642, -195.18108787463572, -194.20666187113892, -193.1705391926932, -192.0783733618431, -190.9357769819727, -189.74806760161405, -188.5201387931435, -187.25640982105762, -185.96082184452246, -184.63686083621548, -183.5549631494116])","array('d', [-44.921142578125, -44.85768290199683, -44.82246438016229, -44.80603293275695, -44.80209345377676, -44.80641969318868, -44.8161431082096, -44.82928708331838, -44.844461410536596, -44.860662942097015, -44.877147846850555, -44.89335335945317, -44.90885485853062, -44.92334900471528, -44.93665637458035, -44.94632227550546])","array('d', [0.6367750167846676, 0.6509183677937621, 0.6637158019815614, 0.6717874543580579, 0.661084419944073, 0.6366646138709278, 0.603009987369212, 0.5637996339286352, 0.5218861420292891, 0.4793854699712928, 0.43780525292423406, 0.39816927062644014, 0.3611210420726695, 0.3270032730916952, 0.2959157094779807, 0.26775563077052184])","array('d', [-0.032309904694557204, -0.018690877281247655, -0.009636022008917696, -0.003609780248179014, 0.00039144523029837974, 0.0030256059383454285, 0.004724800598309629, 0.005772943205234087, 0.006356852394679319, 0.006600400614793132, 0.006587828359039249, 0.006380137115674082, 0.006027032051862323, 0.005575876022279444, 0.005078369551504077, 0.004595099098269068])","array('d', [1.3358672569182253, 1.3064080554122364, 1.2761146928951108, 1.245165428472816, 1.214309561334469, 1.1845590180634191, 1.15656748318471, 1.130680929624273, 1.1070213753539109, 1.0855659150113968, 1.0662065439885755, 1.0487904704994178, 1.0331456293428913, 1.0190964450947926, 1.0064737189843687, 0.9922838889351532])",-101.2915580149184,-195.18108787463572,-44.80641969318868,0.6366646138709278,0.0030256059383454285,1.1845590180634191,25.00000024832925,-1.0,"[-198.49966348678853, -111.28655611276028, 44.873745240848876]","[-202.70259665043707, -99.788359762537, 53.54131892173647]","[-188.1379667380008, -102.37315520929498, 51.05326988440085]",10000000000.0,0.013864755630493164
8,-198.42393493652344,-111.42997741699219,44.92194747924805,0.6371865868568419,0.029210476204752873,1.3190030316498615,23.188133379657152,"array('d', [-112.7430191040039, -110.32416005550705, -107.92461935412727, -105.54747482455959, -103.19536524897876, -100.8699850971631, -98.57202577433115, -96.30134420194086, -94.05717124187832, -91.83831076024705, -89.64330560350919, -87.47056531567299, -85.31845925437126, -83.18538128502533, -81.06979185454291, -79.391628403261])","array('d', [-198.85523986816406, -198.22701047865056, -197.52665794617423, -196.75308592308772, -195.90628874616792, -194.9886157689457, -194.00430016835807, -192.95860374193398, -191.85716644497725, -190.70557860037164, -189.50913204313113, -188.27269433812063, -187.0006601376348, -185.69694818050448, -184.365024481992, -183.27688505064287])","array('d', [-44.921504974365234, -44.85903434336984, -44.82451627030494, -44.80858099183242, -44.80499366433049, -44.80957088315986, -44.81947444776412, -44.832749161086596, -44.84801990009919, -44.86429412285632, -44.88083543555, -44.89708625663983, -44.912625527288625, -44.92715228383484, -44.94048859095573, -44.95017535309671])","array('d', [0.6366431117057798, 0.6507990148927485, 0.6636078064046352, 0.6710585013460977, 0.6599315072796804, 0.6352561416327519, 0.6014777434162472, 0.5622393078915041, 0.5203625318010627, 0.4779390883443463, 0.436458537086664, 0.39693175101180195, 0.35999343119738625, 0.32598066551863336, 0.29499012865179675, 0.26691813052212304])","array('d', [-0.031845204532146544, -0.018361813704600733, -0.00940306488194889, -0.003444661201076843, 0.0005088439874095439, 0.00310954916884482, 0.004785368089775571, 0.005817239176364798, 0.006389875340989578, 0.00662566134165523, 0.0066077834792306256, 0.006396489651154224, 0.006040938172012854, 0.00558808691752679, 0.005089329667499233, 0.004605016013678215])","array('d', [1.3313434282925463, 1.3018919266015867, 1.2716056755300704, 1.2406834083818854, 1.2098874358666327, 1.1802160461382722, 1.1523115204279841, 1.1265119831979007, 1.1029348644126418, 1.0815550322047112, 1.0622637418107086, 1.0449083059868287, 1.0293171974595823, 1.015315565999747, 1.0027349811618893, 0.9885919669917858])",-100.8699850971631,-194.9886157689457,-44.80957088315986,0.6352561416327519,0.00310954916884482,1.1802160461382722,25.000000245408867,-1.0,"[-198.20217498213003, -110.41365758822386, 44.87637936900635]","[-202.28424442531357, -98.88313159579997, 53.55875688896392]","[-187.74932677727867, -101.57927329767463, 51.01572938454001]",10000000000.0,0.03993725776672363
9,-198.27552795410156,-110.99333190917969,44.92224884033203,0.6376056075096127,0.02764493040740481,1.3151973346855976,23.19450381333883,"array('d', [-111.86714935302734, -109.4535816414741, -107.05999198385537, -104.68943098005853, -102.34447449119556, -100.02673717390478, -97.73683176464198, -95.47454487109879, -93.23904810556665, -91.02909696636628, -88.84319535854684, -86.6797215551673, -84.53701969192461, -82.41346311308017, -80.30749538166076, -78.63710634575784])","array('d', [-198.5699920654297, -197.92143018276778, -197.20089713812823, -196.4073484419929, -195.5409339255956, -194.60412725881284, -193.60122129851672, -192.53748880308606, -191.41854968594347, -190.24995747730122, -189.03696012151954, -187.78438004024034, -186.49656871919817, -185.1774052994479, -183.83032037678493, -182.7302831947898])","array('d', [-44.92190170288086, -44.86258794860377, -44.83027737726872, -44.81589258545863, -44.81340050835459, -44.81875717073396, -44.82922088868602, -44.84290341705496, -44.858476200549326, -44.87497918260643, -44.89169867748348, -44.90809295624998, -44.92375192542719, -44.93838201529506, -44.951809988741715, -44.96156282740834])","array('d', [0.6368254423141476, 0.6509639944481977, 0.6637570860015217, 0.6700430958369102, 0.658110416528801, 0.632937687169111, 0.5989046828105714, 0.5595892833022084, 0.5177570642351199, 0.47545525067198463, 0.43414005853576515, 0.3947983536088069, 0.3580482868640135, 0.32421628895209625, 0.2933931129974814, 0.26547309087012266])","array('d', [-0.030352883040905037, -0.017320320396521267, -0.008673188702321102, -0.0029305232227773118, 0.0008734029236188074, 0.003370278467655858, 0.004973968408849858, 0.005955731502957035, 0.006493603120274897, 0.006705346014386662, 0.0066709237007259335, 0.00644830690859029, 0.0060850107998025186, 0.0056267722261633315, 0.005124044704026046, 0.004636427480505506])","array('d', [1.3229420344021656, 1.2934798889846555, 1.2631838075744581, 1.2322897617999915, 1.2015839687809946, 1.1720402043540916, 1.1442800176659775, 1.1186270492944013, 1.095190065539491, 1.073939545987604, 1.0547650930670185, 1.0375139562596771, 1.0220153884597218, 1.0080957085618307, 0.9955877721099047, 0.9815254805334391])",-100.02673717390478,-194.60412725881284,-44.81875717073396,0.632937687169111,0.003370278467655858,1.1720402043540916,25.000000245435405,-1.0,"[-198.0503827006063, -109.97789633930125, 44.87813799564882]","[-202.07573082961363, -98.43390379593953, 53.56909931181552]","[-187.5549200527043, -101.18527631531458, 51.00472733395792]",10000000000.0,0.014583349227905273
10,-198.12548828125,-110.55976867675781,44.92285919189453,0.6380389332771298,0.02562575601041321,1.311316565671239,23.199291449899302,"array('d', [-111.42997741699219, -109.01893530080324, -106.62820454648183, -104.26081667542432, -101.91931550811132, -99.6052771464233, -97.31927669483758, -95.06106705877866, -92.82979126940663, -90.62418130261592, -88.44272195867684, -86.28377603188373, -84.14567506253616, -82.02678205750001, -79.92553200209306, -78.2589589369044])","array('d', [-198.42393493652344, -197.76583046268192, -197.03579447524456, -196.23280826287063, -195.3570959132227, -194.41119183373382, -193.39942019070966, -192.32706240775278, -191.19973228732516, -190.02296894849565, -188.8020021039219, -187.54163490248487, -186.24620010215307, -184.91955948433366, -183.56512800739006, -182.45931775504818])","array('d', [-44.92194747924805, -44.8650422219607, -44.83440363036411, -44.821187158807525, -44.81951771760144, -44.82545890344948, -44.83634259481772, -44.8503310863937, -44.86613072766492, -44.88280570223327, -44.89965923766261, -44.916161423216074, -44.93191037052679, -44.946618076869406, -44.96011486906139, -44.96991730790286])","array('d', [0.6371865868568419, 0.6512907715655794, 0.664052766144746, 0.6697817483324429, 0.6574569256637453, 0.6320347475094119, 0.5978656573683798, 0.5584980205286791, 0.5166716933901625, 0.4744133169512675, 0.43316350360739125, 0.3938977641773294, 0.3572263324780695, 0.3234704729897298, 0.2927180104293553, 0.264862232750174])","array('d', [-0.029210476204752873, -0.01652951247845211, -0.008122296121841796, -0.002544001209356888, 0.001146876180033687, 0.003565726833541348, 0.005115402869114221, 0.006059696397625749, 0.006571561840507803, 0.006765284933481074, 0.006718427089822868, 0.006487273234209625, 0.006118126011384998, 0.005655819132516469, 0.00515010344223628, 0.004660006404014062])","array('d', [1.3190030316498615, 1.289519795876708, 1.2592042363454201, 1.228309422743252, 1.1976327272245493, 1.1681368651369077, 1.1404338523198707, 1.1148405245322284, 1.091461453465547, 1.0702648818810032, 1.0511394565660528, 1.0339322368878905, 1.0184727083578673, 1.004587631551976, 0.9921103813619572, 0.9780821933040292])",-99.6052771464233,-194.41119183373382,-44.82545890344948,0.6320347475094119,0.003565726833541348,1.1681368651369077,25.0000002454478,-1.0,"[-197.89643538047116, -109.54261839034682, 44.880786726374545]","[-201.86696498313614, -97.98538132191199, 53.579359368961185]","[-187.3598297948074, -100.7938487189443, 50.999526136490545]",10000000000.0,0.014010190963745117
11,-198.12548828125,-110.55976867675781,44.92285919189453,0.6380389332771298,0.02562575601041321,1.311316565671239,23.199291449899302,"array('d', [-110.99333190917969, -108.58474875298666, -106.19681405609225, -103.83253388636928, -101.49441797681521, -99.18400379841664, -96.90182948619584, -94.64761507775472, -92.42047579470317, -90.21912072700755, -88.04201606858123, -85.88750951570955, -83.75392030078048, -81.63960130911559, -79.54297910991706, -77.88014995372386])","array('d', [-198.27552795410156, -197.6082031130419, -196.86898020520778, -196.0568644265752, -195.1721511004099, -194.2174333687113, -193.19706614105772, -192.11633991846267, -190.98086335200557, -189.79616234032494, -188.5674495915323, -187.29951014205488, -185.99665906979735, -184.66274171823986, -183.30115820749532, -182.189725743161])","array('d', [-44.92224884033203, -44.8686384481189, -44.84027827461108, -44.82864904553985, -44.82809464730139, -44.83482678093062, -44.84627802204897, -44.86067952530926, -44.87678503196507, -44.89369156440671, -44.91072524326799, -44.92737216362497, -44.9432415719018, -44.95805304384046, -44.971641773988715, -44.981510464064826])","array('d', [0.6376056075096127, 0.6516699171577871, 0.664395831245762, 0.6695849146712901, 0.656878438311798, 0.6312117260825099, 0.5969072398041325, 0.5574851380126994, 0.5156606450160174, 0.47344063862337876, 0.4322507085170208, 0.3930554007435029, 0.3564572795921079, 0.32277258655124996, 0.2920862839420435, 0.26429062293474476])","array('d', [-0.02764493040740481, -0.01545036819799256, -0.007373064781910767, -0.0020196684958144373, 0.0015171484944372434, 0.003829983370389956, 0.00530641252374907, 0.006199948124604478, 0.006676594902154669, 0.006845909524140975, 0.006782201646511505, 0.006539482007622809, 0.006162419975298276, 0.005694630554395753, 0.005184910271129006, 0.004691500928016193])","array('d', [1.3151973346855976, 1.2856896150122004, 1.255351444109462, 1.2244522936171374, 1.1938002615915007, 1.1643474917672396, 1.1366968604427174, 1.1111586497326051, 1.0878333618929668, 1.066687041774721, 1.047607369891678, 1.030441180797077, 1.0150181490129788, 1.0011654324075532, 0.9887168840583868, 0.974720597835121])",-99.18400379841664,-194.2174333687113,-44.83482678093062,0.6312117260825099,0.003829983370389956,1.1643474917672396,25.000000245459663,-1.0,"[-197.7407479960943, -109.11045928681173, 44.88442476471712]","[-201.6553463377837, -97.539065648568, 53.58952494174295]","[-187.16225243832295, -100.40930596738254, 50.998781856513276]",10000000000.0,0.011435270309448242
12,-198.12548828125,-110.55976867675781,44.92285919189453,0.6380389332771298,0.02562575601041321,1.311316565671239,23.199291449899302,"array('d', [-110.55976867675781, -108.15371647657855, -105.7686657321323, -103.40759089257841, -101.07296406238449, -98.76628192457312, -96.48804432767062, -94.23793760479963, -92.01504862265948, -89.81806322299863, -87.64542874874981, -85.49547763006854, -83.36651667304375, -81.25688855504711, -79.16501136304983, -77.50601997011907])","array('d', [-198.12548828125, -197.44876659252523, -196.70018403425183, -195.87876880300826, -194.98488833717857, -194.02119535573416, -192.99207588658206, -191.90282953352877, -190.7590596003055, -189.5662784464733, -188.3296814010602, -187.05403499994983, -185.74363626479465, -184.40231375110275, -183.03345242367686, -181.916299174828])","array('d', [-44.92285919189453, -44.87349394594476, -44.84806212382227, -44.83846868775608, -44.83934192745582, -44.84708518518351, -44.859260915499995, -44.874188853001286, -44.890683579184554, -44.90788421747291, -44.92514622126778, -44.941976198030254, -44.957997677951006, -44.97293997320308, -44.986644540691074, -44.99659669125236])","array('d', [0.6380389332771298, 0.6520620065537639, 0.6647506083797202, 0.6693862452538597, 0.6562886861975316, 0.6303713958047082, 0.5959280804942512, 0.5564499975080277, 0.514627164509271, 0.47244624199694596, 0.43131744873940825, 0.39219410635911683, 0.3556709229955138, 0.3220589912731974, 0.291440336982019, 0.2637061459023368])","array('d', [-0.02562575601041321, -0.014062133337299035, -0.006411355390669939, -0.0013478892345552469, 0.0019907855589790103, 0.004167519431833189, 0.005550040800893057, 0.006378559059624803, 0.006810118334716332, 0.0069481973086792026, 0.006862937632935986, 0.006605440941916534, 0.006218289151756785, 0.005743538020231312, 0.005228758459141238, 0.004731176412790777])","array('d', [1.311316565671239, 1.2817835107799846, 1.2514219432912796, 1.220518146761243, 1.1898911796303466, 1.160482333831681, 1.1328851350747648, 1.1074031707796728, 1.0841327869439041, 1.0630377811854954, 1.0440048429722082, 1.0268805728108679, 1.0114948345103234, 0.9976751889929779, 0.9852559760153862, 0.9712922990399898])",-98.76628192457312,-194.02119535573416,-44.84708518518351,0.6303713958047082,0.004167519431833189,1.160482333831681,25.00000024547171,-1.0,"[-197.7407479960943, -109.11045928681173, 44.88442476471712]","[-201.6553463377837, -97.539065648568, 53.58952494174295]","[-187.16225243832295, -100.40930596738254, 50.998781856513276]",10000000000.0,0.011596441268920898
13,-197.81790161132812,-109.69401550292969,44.924373626708984,0.6388516426086425,0.020119065418839514,1.3036386231568196,23.21166902896964,"array('d', [-109.69401550292969, -107.29304949857121, -104.91380369030507, -102.5591748385248, -100.23155322799018, -97.9323515713523, -95.66199289963645, -93.42009683355965, -91.2056945598476, -89.01742650165514, -86.85370330609908, -84.71282776487614, -82.59308260711937, -80.49279075998584, -78.41035391486628, -76.75899470892679])","array('d', [-197.81790161132812, -197.12261206801873, -196.3555521758545, -195.5157906636862, -194.6038345095567, -193.62245179231806, -192.57608816759543, -191.47005988273625, -190.30995876410978, -189.1012698152589, -187.84915362072798, -186.55833987840157, -185.23308972366587, -183.87719837669292, -182.49402072134436, -181.36561537731947])","array('d', [-44.924373626708984, -44.8865731043255, -44.86909797246286, -44.86502456813622, -44.869762685040605, -44.88024002974129, -44.89437310822164, -44.91072237378242, -44.92826733822422, -44.9462610581478, -44.96413829159412, -44.98146109749905, -44.9978916474379, -45.013185630258846, -45.02720149554875, -45.03737791674995])","array('d', [0.6388516426086425, 0.6527973764163956, 0.6654159985249904, 0.66895982199039, 0.655092601568519, 0.6286835872912241, 0.5939691216053344, 0.5543831715082187, 0.5125659517862748, 0.4704642437983864, 0.42945796920885676, 0.390478331263179, 0.35410455818806946, 0.320637598474473, 0.29015369574241656, 0.2625419446598594])","array('d', [-0.020119065418839514, -0.010286651703751176, -0.0038017729531610715, 0.0004717545925986727, 0.0032720282504213978, 0.005079717253579901, 0.0062079845009508725, 0.00686063379371757, 0.007170287261694061, 0.0072239181571635575, 0.007080384786341433, 0.006782932843890519, 0.006368515019931428, 0.0058749807013551555, 0.005346584996773422, 0.004837790296327689])","array('d', [1.3036386231568196, 1.2740580092174276, 1.243652524598141, 1.2127417472576272, 1.1821662946182872, 1.1528458772021735, 1.1253555648095563, 1.0999857937668713, 1.076824772125797, 1.0558319105485563, 1.0368919738041382, 1.0198511199269844, 1.004539598794125, 0.9907857755390318, 0.9784249572154619, 0.9645262019785351])",-97.9323515713523,-193.62245179231806,-44.88024002974129,0.6286835872912241,0.005079717253579901,1.1528458772021735,25.000000245495883,-1.0,"[-197.7407479960943, -109.11045928681173, 44.88442476471712]","[-201.6553463377837, -97.539065648568, 53.58952494174295]","[-187.16225243832295, -100.40930596738254, 50.998781856513276]",10000000000.0,0.012079954147338867
14,-197.6602325439453,-109.26190948486328,44.92555236816406,0.6393359303474425,0.01682875677943227,1.2996789375927789,23.218003831932204,"array('d', [-109.26190948486328, -106.86363268329497, -104.48744721221777, -102.13621042057231, -99.81227025418944, -97.51699586718082, -95.25077052152092, -93.01317935010854, -90.80322478271731, -88.61952380029115, -86.46046811831532, -84.32434524196428, -82.20942548288707, -80.11402157955303, -78.03652675955581, -76.38916268304018])","array('d', [-197.6602325439453, -196.95537990650098, -196.17879701578548, -195.32957401163077, -194.40829061405023, -193.4177751571988, -192.36250477486234, -191.24780497780662, -190.07926227745097, -188.8623480770652, -187.60220545080028, -186.30354541643717, -184.9706108457939, -183.6071799533284, -182.21659225230502, -181.08236191749117])","array('d', [-44.92555236816406, -44.89465693163325, -44.881923832085995, -44.88113485988181, -44.888169160852016, -44.90026859660436, -44.91556133899483, -44.932751491503055, -44.95091684416775, -44.969378268852154, -44.98761769371688, -45.00523014996937, -45.02190078747653, -45.037400984789514, -45.05159930055932, -45.06190715259113])","array('d', [0.6393359303474425, 0.653235578392849, 0.665812500867491, 0.6687860423356974, 0.6545156248276527, 0.6278475708016249, 0.5929885755399039, 0.5533430187760494, 0.5115253758623508, 0.4694617829780029, 0.42851644158312496, 0.3896090481789205, 0.3533107544067709, 0.3199171985153818, 0.28950158321029196, 0.26195188879389286])","array('d', [-0.01682875677943227, -0.008034999140952608, -0.002248076227723544, 0.0015534805061375992, 0.0040326122220125105, 0.005620486190223212, 0.006597486084144077, 0.007145600685057106, 0.007382851401716322, 0.007386363839771562, 0.007208276233075964, 0.006887162068650673, 0.006456628898110354, 0.005952026188720821, 0.005415635582257712, 0.00490027005023488])","array('d', [1.2996789375927789, 1.2700699571670748, 1.2396382799431889, 1.208720738659664, 1.1781691179862144, 1.1488919623863403, 1.1214547936368855, 1.0961412279447726, 1.073035229755656, 1.0520938980166967, 1.0332009593165954, 1.016202305113529, 1.00092835411581, 0.9872078634021527, 0.9748766221753992, 0.9610107548048686])",-97.51699586718082,-193.4177751571988,-44.90026859660436,0.6278475708016249,0.005620486190223212,1.1488919623863403,25.000000248370355,-1.0,"[-197.42199519103397, -108.24752060786042, 44.894197064472216]","[-201.22581949141926, -96.64522260302807, 53.60726780324518]","[-186.76087054072664, -99.6505757529073, 51.01244520846773]",10000000000.0,0.012642383575439453
15,-197.4999542236328,-108.83037567138672,44.927581787109375,0.6397936940193174,0.013277718797326095,1.2956778268006186,23.224091386399326,"array('d', [-108.83037567138672, -106.43486862463486, -104.06181988779645, -101.71404988050675, -99.39386463208965, -97.10258958335554, -94.84056805734065, -92.60735061019416, -90.40191090828581, -88.22284254296378, -86.06851838622661, -83.93721076266911, -81.82717767817829, -79.73672179247359, -77.6642279737644, -76.020905112027])","array('d', [-197.4999542236328, -196.78545549557748, -195.99927132999173, -195.14051353424983, -194.2098351548846, -193.21012489353024, -192.14589105071022, -191.02246790812248, -189.84543612682134, -188.62025299615888, -187.35204361307328, -186.04549990181053, -184.70484610928818, -183.33384313073702, -181.9358148382906, -180.79573650883202])","array('d', [-44.927581787109375, -44.9041349285181, -44.896510497401735, -44.899255498522024, -44.90875736875342, -44.92259770582999, -44.939133296438996, -44.95722323022947, -44.97605123805866, -44.99501124648897, -45.01363597704219, -45.03155595986633, -45.048481084966795, -45.064199625512096, -45.078591023302735, -45.08903794864376])","array('d', [0.6397936940193174, 0.6536497798401142, 0.666187284897357, 0.668585194203336, 0.6539088856064693, 0.6269809947991121, 0.5919779363854154, 0.5522740338759099, 0.5104576940754243, 0.46843418102184187, 0.42755182033650313, 0.38871869629653666, 0.35249781489327253, 0.3191794626634211, 0.2888337818425432, 0.2613476370664421])","array('d', [-0.013277718797326095, -0.005608034927281787, -0.0005754789597893071, 0.002716563424908704, 0.004849372917135123, 0.006200415950034356, 0.007014571493283877, 0.007450234085673691, 0.007609654979602791, 0.0075593364390381815, 0.007344175037292716, 0.006997713589995991, 0.006549959342017373, 0.006033570367047997, 0.005488701005501797, 0.004966382176305194])","array('d', [1.2956778268006186, 1.2660420153638838, 1.235585564581799, 1.204662810099083, 1.174136797091891, 1.1449046980493987, 1.1175223750690522, 1.0922665765877144, 1.0692170105595074, 1.0483284678267368, 1.0294836474774245, 1.012528187675045, 0.997292689765815, 0.9836063161067171, 0.9713053503768219, 0.9574731515961553])",-97.10258958335554,-193.21012489353024,-44.92259770582999,0.6269809947991121,0.006200415950034356,1.1449046980493987,25.000000245519303,-1.0,"[-197.2585771607625, -107.81690574872987, 44.900310424483706]","[-201.0051581873989, -96.19878542946957, 53.617099446711975]","[-186.55512082606475, -99.2773870327408, 51.025066957644114]",10000000000.0,0.011055946350097656
16,-197.33702087402344,-108.39945220947266,44.930206298828125,0.6402261257171629,0.009523018263280275,1.291716472306524,23.2309425849235,"array('d', [-108.39945220947266, -106.00674323832847, -103.63684639294844, -101.29254954069543, -98.97611867644859, -96.68883658437134, -94.43100744574822, -92.20214791262948, -90.00120346957723, -87.82674481932047, -85.6771264190655, -83.55060577834453, -81.44542890868344, -79.35988865657036, -77.29236175736236, -75.65305186032855])","array('d', [-197.33702087402344, -196.61298951010647, -195.8173193110257, -194.94914396154337, -194.00918901923268, -193.00040251890564, -191.92732311701923, -190.79529335610133, -189.60988779314124, -188.37654952704142, -187.10038570746053, -185.78606925109366, -184.43780588991498, -183.05933931490793, -181.65397786656052, -180.50813688010402])","array('d', [-44.930206298828125, -44.91463177392555, -44.91240059736571, -44.91887258562012, -44.93097425233256, -44.94664701988072, -44.96448951682097, -44.983524615912806, -45.0030479057913, -45.02253039666143, -45.04155838025972, -45.05979981744822, -45.076990683503666, -45.09293706583308, -45.10752988072328, -45.118121870142254])","array('d', [0.6402261257171629, 0.6540410602459618, 0.6665413299772718, 0.6683709104480933, 0.653294639931283, 0.6261113329395233, 0.5909672458229769, 0.5512069044527599, 0.5093929343250804, 0.4674099840582284, 0.4265907090044453, 0.3878317352771111, 0.351688032884428, 0.3184446100945785, 0.2881685926679956, 0.2607457489567528])","array('d', [-0.009523018263280275, -0.0030447741878850865, 0.0011892002085731863, 0.00394246776919176, 0.005709428157290178, 0.00681050044470841, 0.0074529018599486406, 0.007770034073069126, 0.007847464739063881, 0.007740470453002199, 0.007486303309950142, 0.007113199984932485, 0.006647372172367495, 0.006118640526877303, 0.0055649149769461505, 0.005035343435608865])","array('d', [1.291716472306524, 1.2620552984170532, 1.231575431039167, 1.2006485429468663, 1.1701487769084948, 1.1409620060478307, 1.1136345476386726, 1.0884363886674173, 1.0654430578096914, 1.0446070859037555, 1.0258101709694376, 1.008897710363651, 0.9937004923689263, 0.9800480844808043, 0.9677772625983736, 0.9539785856992415])",-96.68883658437134,-193.00040251890564,-44.94664701988072,0.6261113329395233,0.00681050044470841,1.1409620060478307,25.000000245531044,-1.0,"[-197.09249866938907, -107.38691340151645, 44.90766579411643]","[-200.78114140985898, -95.75244631161868, 53.627361331648956]","[-186.34651871115625, -98.90698731033469, 51.04075377859485]",10000000000.0,0.011827707290649414
17,-197.0031280517578,-107.53960418701172,44.93771743774414,0.6406895518302916,0.0014995952369645364,1.283675686517034,23.244327658680994,"array('d', [-107.53960418701172, -105.1527559284335, -102.78938024247772, -100.4522165187534, -98.14345555584691, -95.86429625443493, -93.61496552607758, -91.39491342868071, -89.2030305302163, -87.03784332440515, -84.89767102057311, -82.78074302185615, -80.68528277791314, -78.60956482209895, -76.55195082086613, -74.9206400942104])","array('d', [-197.0031280517578, -196.25983329576528, -195.445043850647, -194.55793658900143, -193.59938079069872, -192.5724391057373, -191.48170522487274, -190.33253236689382, -189.13047758242178, -187.8809510746668, -186.58902036369804, -185.25931729791907, -183.89600808785895, -182.50279997361588, -181.08296854446212, -179.92576742785582])","array('d', [-44.93771743774414, -44.93895421489378, -44.948221140768744, -44.96262616136873, -44.9802528362983, -44.99981349625167, -45.02042406093203, -45.04145722894861, -45.06244721968196, -45.08302933264863, -45.10290395734817, -45.12181874613219, -45.139565202790656, -45.15598733462423, -45.17100047366363, -45.18189514806413])","array('d', [0.6406895518302916, 0.6544603855482134, 0.6669207509414344, 0.6676196647594498, 0.6517588863697178, 0.6240854414157118, 0.5886821552115643, 0.5488319591912101, 0.5070447866987551, 0.4651635037388787, 0.4244892224441024, 0.3858956462374808, 0.3499217682114736, 0.3168421793364627, 0.28671812146413983, 0.25943330821890453])","array('d', [-0.0014995952369645364, 0.002423571353329244, 0.00494787775813033, 0.006549485602196926, 0.007535522552274226, 0.008103687022104067, 0.008380336336407591, 0.008445312495096138, 0.008348492378210658, 0.008121175972938864, 0.007784310772273191, 0.007354829203122501, 0.006850862542203915, 0.006296190490391652, 0.005723939284716222, 0.005179234592515081])","array('d', [1.283675686517034, 1.2539873148033935, 1.2234823374130703, 1.1925678861400735, 1.1621403496922924, 1.1330621325016392, 1.1058601725108976, 1.0807909973578051, 1.0579219980650267, 1.0372014470147166, 1.0185092875978212, 1.0016906494310978, 0.9865768718199194, 0.9729984764484559, 0.9607933397999279, 0.947067718381598])",-95.86429625443493,-192.5724391057373,-44.99981349625167,0.6240854414157118,0.008103687022104067,1.1330621325016392,25.00000024555441,-1.0,"[-196.92383277903164, -106.95755361504852, 44.9159219873378]","[-200.55501188311032, -95.30662898754818, 53.63776202476157]","[-186.13602593886898, -98.53835572596064, 51.059237906588415]",10000000000.0,0.014441728591918945
18,-196.65863037109375,-106.68269348144531,44.949398040771484,0.6407840251922605,-0.006716657895594824,1.2754181186344957,23.253710296627244,"array('d', [-107.11075592041016, -104.72693690002383, -102.36689434329699, -100.03335462061494, -97.72847523943075, -95.45341502210577, -93.20836334363135, -90.99273779523163, -88.80540220341882, -86.64486160220686, -84.5094181597391, -82.39728775004825, -80.30668301038901, -78.23586973439771, -76.18320242378367, -74.5558818820203])","array('d', [-196.8321990966797, -196.0793066749053, -195.2549988762019, -194.3584757777161, -193.3906784920868, -192.3547259148005, -191.25523788157815, -190.09757167410336, -188.8872745451605, -187.62973943898356, -186.3300134422992, -184.99270739717707, -183.62196738869474, -182.2214821446809, -180.79451064844392, -179.63170712623244])","array('d', [-44.94282913208008, -44.95269559663616, -44.96785498452751, -44.98631875934682, -45.00676738601171, -45.02831023334444, -45.05032923950493, -45.072376765499406, -45.094109450595475, -45.1152468030344, -45.13554765867506, -45.154800476944544, -45.17282519125217, -45.18948522075207, -45.20470838909934, -45.215754278050376])","array('d', [0.6408365964889522, 0.6545934370594899, 0.6670411378347959, 0.6671796919142826, 0.650932656911087, 0.6230202467478487, 0.5874930562741915, 0.5476030152252052, 0.505833685288687, 0.4640070971563978, 0.42340867415905037, 0.3849007421204231, 0.3490143798475106, 0.3160190307173102, 0.28597304170989335, 0.2587591321167358])","array('d', [0.0026218416169286165, 0.005227878780888144, 0.006872275293531014, 0.007882034536593353, 0.00846728612309005, 0.008762283783786283, 0.008851657795513576, 0.008787659096589143, 0.008601808183321489, 0.008313091507612735, 0.007934093870658675, 0.007475955638663775, 0.00695267021097859, 0.0063849232453758765, 0.0058033879327423375, 0.005251122702090839])","array('d', [1.2796541313317158, 1.24995712598094, 1.2194441780485574, 1.1885401867183123, 1.1581525642652395, 1.1291318715183005, 1.1019953847906645, 1.0769929851309556, 1.0541880830069754, 1.0335268957290273, 1.0148885462555537, 0.9981180725614122, 0.9830471206826584, 0.969506712725745, 0.9573352932467418, 0.9436471679821029])",-95.45341502210577,-192.3547259148005,-45.02831023334444,0.6230202467478487,0.008762283783786283,1.1291318715183005,25.00000024556711,-1.0,"[-196.57834065729838, -106.1010109124049, 44.93546804573176]","[-200.09254028223984, -94.41357807016618, 53.656380529768114]","[-185.70660753617173, -97.80613821653243, 51.09992308265649]",10000000000.0,0.0142059326171875
19,-196.65863037109375,-106.68269348144531,44.949398040771484,0.6407840251922605,-0.006716657895594824,1.2754181186344957,23.253710296627244,"array('d', [-106.68269348144531, -104.30212956995209, -101.94563579114384, -99.61593281139184, -97.31514565144766, -95.04439196852393, -92.80382245727789, -90.5928214409278, -88.41022558135438, -86.25451832791362, -84.12398488631453, -82.01682780658356, -79.93124918947693, -77.8655063982725, -75.81794708856637, -74.19474063854747])","array('d', [-196.65863037109375, -195.8956651996902, -195.06139233526946, -194.1550359355389, -193.177611290686, -192.132293871877, -191.02372793923234, -189.85727210734242, -188.63846078426673, -187.37266667910205, -186.06491372204573, -184.7197893423743, -183.34141741287272, -181.93346635704583, -180.49917701954865, -179.33063647623942])","array('d', [-44.949398040771484, -44.967833536921056, -44.9888357818429, -45.01131805041628, -45.03455591264003, -45.058054164750736, -45.081459428341795, -45.104502670137045, -45.12696213842418, -45.148640941851056, -45.1693559145318, -45.18893599821226, -45.20722932398171, -45.224118558752934, -45.23954390082656, -45.25073532831617])","array('d', [0.6407840251922605, 0.6545458688864505, 0.6669981005918001, 0.6665559330882813, 0.6499142289468679, 0.6217632685945711, 0.5861185455951704, 0.5461986920116989, 0.5044592128521586, 0.46270013515555664, 0.42219041805109536, 0.383780517988493, 0.34799330809787654, 0.31509293434591307, 0.28513480084994525, 0.2580006603599873])","array('d', [0.006716657895594824, 0.008010293165584348, 0.00877887911300388, 0.009200150489534183, 0.009387285064177573, 0.009411194393304585, 0.009314896282250988, 0.009123156637721236, 0.008849229222785185, 0.008499858986506006, 0.008079324113780007, 0.007593015571237975, 0.0070508205739790225, 0.0064703534271810526, 0.005879849379725909, 0.00532030810200969])","array('d', [1.2754181186344957, 1.2457242001782445, 1.2152141019325295, 1.1843316091672378, 1.1539956514448626, 1.1250440398985178, 1.0979838459537516, 1.0730580546730888, 1.0503260354913826, 1.0297319927964341, 1.0111543179236397, 0.9944380610717068, 0.9794152778753603, 0.9659175854378719, 0.9537840798657315, 0.9401381333666818])",-95.04439196852393,-192.132293871877,-45.058054164750736,0.6217632685945711,0.009411194393304585,1.1250440398985178,25.000000248395907,-1.0,"[-196.40163076633982, -105.67388590321184, 44.946761889999806]","[-199.85714973093778, -93.9679342425227, 53.66628506520344]","[-185.48844955895458, -97.44188718208395, 51.12225158638199]",10000000000.0,0.014892816543579102
20,-196.48297119140625,-106.25757598876953,44.95802307128906,0.6406443119049069,-0.010809312574565416,1.2711675027993061,23.255764509481434,"array('d', [-106.25757598876953, -103.88034719430708, -101.52746308852717, -99.20164649949984, -96.90499279328995, -94.63857961549348, -92.40251967746401, -90.19616460441084, -88.01832442342489, -85.8674615013934, -83.741844551854, -81.63966323442797, -79.55910950827545, -77.49843266296831, -75.45597382905315, -73.83687301301433])","array('d', [-196.48297119140625, -195.70992788193038, -194.8656931091856, -193.94951622922358, -192.96248660725718, -191.90783530855882, -190.79022972140083, -189.615028544386, -188.387752272869, -187.1137525129865, -185.79802934657053, -184.4451462400818, -183.05920441413136, -181.64385163237444, -180.2023103101743, -179.0280867793639])","array('d', [-44.95802307128906, -44.985017756033834, -45.01184746312106, -45.0383310984944, -45.06434115057275, -45.089778616287084, -45.114555057565354, -45.138580068787434, -45.16175343963481, -45.18396179265707, -45.20507988550148, -45.22497708878226, -45.24352969720422, -45.260639602382206, -45.27625935277888, -45.28759068931152])","array('d', [0.6406443119049069, 0.6544194507255953, 0.6668837112196866, 0.6658640951649959, 0.6488324875270415, 0.6204483217086962, 0.5846914146020882, 0.5447468017816781, 0.5030418085334164, 0.46135443085043376, 0.4209371824672447, 0.38262868855073934, 0.3469436601717167, 0.3141409881287731, 0.28427317098715027, 0.2572210253418933])","array('d', [0.010809312574565416, 0.010787223181729103, 0.010678763638272637, 0.01051133382936656, 0.010300598559025077, 0.010053841420832288, 0.009772332093964853, 0.009453294801656874, 0.009091699414311611, 0.00868205039720853, 0.008220327252788649, 0.007706180440500896, 0.007145397559858389, 0.006552523830053537, 0.005953353226208219, 0.005386816943436097])","array('d', [1.2711675027993061, 1.2414817869538328, 1.210979261518763, 1.1801226788304169, 1.149842430540355, 1.1209634513699722, 1.0939826067329228, 1.0691360419440215, 1.0464791554043493, 1.0259542030561575, 1.0074388980155717, 0.9907783451752816, 0.975805043140458, 0.962351230274284, 0.9502566750830878, 0.9366540645241136])",-94.63857961549348,-191.90783530855882,-45.089778616287084,0.6204483217086962,0.010053841420832288,1.1209634513699722,25.000000245590105,-1.0,"[-196.22198767096884, -105.24768768055316, 44.959472951862075]","[-199.61557996857758, -93.52143812215672, 53.67604352817351]","[-185.26552195965598, -97.0793859481726, 51.142894814036346]",10000000000.0,0.014204263687133789
21,-196.12384033203125,-105.40962219238281,44.9786491394043,0.639810264110565,-0.018616853281855476,1.2623581151154375,23.260424814675588,"array('d', [-105.40962219238281, -103.03949386222199, -100.69421078712395, -98.37652005610579, -96.0884619700558, -93.83103412769049, -91.60427305265614, -89.40746531570665, -87.23936857946933, -85.09840432627438, -82.98280975862785, -80.8907502906127, -78.82039911290727, -76.76999081446952, -74.73785483000184, -73.12705206832129])","array('d', [-196.12384033203125, -195.33001683130462, -194.46530558416353, -193.52900729573363, -192.52235971063052, -191.44870107163058, -190.31273808977548, -189.11982189919001, -187.87543776871462, -186.58488850338128, -185.25312081762107, -183.88464546014748, -182.48351432584678, -181.0533304872883, -179.59727666653967, -178.4116962409782])","array('d', [-44.9786491394043, -45.02195706757658, -45.05986993616675, -45.09394640578253, -45.12520363623595, -45.15430111899027, -45.18165683253291, -45.20752132905791, -45.23202611283736, -45.25521686733541, -45.27707859108043, -45.29755756162505, -45.31658363044793, -45.33409523081785, -45.35006835521843, -45.361653910225925])","array('d', [0.639810264110565, 0.6536647729672931, 0.6662008489131498, 0.6640172212012675, 0.6462148048397418, 0.6173849399593129, 0.5814309838517797, 0.5414671740992816, 0.49986213110962663, 0.45834835837418814, 0.41814466581381443, 0.3800656031892934, 0.3446093978505954, 0.3120244279764472, 0.2823574744412723, 0.2554876312685518])","array('d', [0.018616853281855476, 0.016073656959687134, 0.014287599350031415, 0.012995969166963672, 0.012026637848799072, 0.011264586815230473, 0.010630990561930091, 0.010070328822060338, 0.00954261547562796, 0.0090189893658418, 0.008479610495660619, 0.007913198118456503, 0.007317737423550288, 0.00670193041581915, 0.006086915810579925, 0.005507669364317311])","array('d', [1.2623581151154375, 1.2327213321243224, 1.2022639843867065, 1.171488246259536, 1.1413478113800122, 1.112640456124271, 1.0858420240926008, 1.0611748886852284, 1.0386866798543828, 1.0183160349914482, 0.9999396083016511, 0.9834028920090307, 0.9685395149621363, 0.9551831663552128, 0.9431751343702603, 0.9296687901831363])",-93.83103412769049,-191.44870107163058,-45.15430111899027,0.6173849399593129,0.011264586815230473,1.112640456124271,25.0000002456136,-1.0,"[-195.66856285777303, -103.98065659088564, 45.00657280626415]","[-198.87057228047442, -92.18938467052578, 53.70789696739415]","[-184.5809162655028, -96.00114362102592, 51.202657522337574]",10000000000.0,0.012796640396118164
22,-195.9404296875,-104.98680877685547,44.990726470947266,0.6392580866813657,-0.022051574662327763,1.257909492650304,23.2621754384425,"array('d', [-104.98680877685547, -102.62034999484081, -100.27896890590584, -97.96543171392085, -95.68175292820048, -93.4288905154488, -91.20684320609743, -89.01486545704817, -86.85168926501971, -84.7157162386987, -82.60516840337611, -80.51819961100495, -78.45297419585401, -76.4077198844599, -74.38076070930553, -72.77411593187855])","array('d', [-195.9404296875, -195.13615233622255, -194.2611550227914, -193.31476497264325, -192.2982934523019, -191.21513051019573, -190.0700003868738, -188.86824843595758, -187.61534061203378, -186.31655392771776, -184.97680728933008, -183.6005841783086, -182.19191108825655, -180.7543681405253, -179.29111770860075, -178.0999091715686])","array('d', [-44.990726470947266, -45.04120256744783, -45.08397212542735, -45.12136561359554, -45.15490703825174, -45.18559113220946, -45.21405932037012, -45.24071236567993, -45.26578372150126, -45.289388980617694, -45.31156155642405, -45.33228148468936, -45.351502116475544, -45.369177908091764, -45.385295110726396, -45.39698425546882])","array('d', [0.6392580866813657, 0.6531651421028087, 0.6657487621374628, 0.6629867721706648, 0.6448052854671902, 0.6157601306727142, 0.579715502822305, 0.5397497307019341, 0.4982018390926899, 0.45678149026019454, 0.4166906238630411, 0.3787317712883603, 0.34339495472019654, 0.31092333942513645, 0.28136089167582207, 0.2545858858105543])","array('d', [0.022051574662327763, 0.018393099501137277, 0.015866375721089045, 0.01407934529705185, 0.012776337907120563, 0.011788041130026907, 0.01100014565658239, 0.01033381051948048, 0.0097336227812054, 0.00916042724000992, 0.008587424850872527, 0.007998531529679933, 0.0073883052682610405, 0.006762879292444784, 0.006141340732906333, 0.00555691507490634])","array('d', [1.257909492650304, 1.2283050731504928, 1.1978776074160404, 1.167149115082805, 1.1370848706652543, 1.1084688828559166, 1.081766481559581, 1.057193232858709, 1.034792979973314, 1.014502641035267, 0.9961984161553258, 0.9797260522480494, 0.9649197923678117, 0.9516140907720224, 0.939651027780127, 0.9261947233276815])",-93.4288905154488,-191.21513051019573,-45.18559113220946,0.6157601306727142,0.011788041130026907,1.1084688828559166,25.000000245625653,-1.0,"[-195.66856285777303, -103.98065659088564, 45.00657280626415]","[-198.87057228047442, -92.18938467052578, 53.70789696739415]","[-184.5809162655028, -96.00114362102592, 51.202657522337574]",10000000000.0,0.01162099838256836
