,current_time,x_pos,y_pos,z_pos,roll,pitch,yaw,vel,x_traj,y_traj,z_traj,roll_traj,pitch_traj,yaw_traj,x_cmd,y_cmd,z_cmd,roll_cmd,pitch_cmd,yaw_cmd,vel_cmd,effector_dmg,effector_x,effector_y,effector_z,cost,time_solution
0,9.114758491516113,-146.5177459716797,-117.29444885253906,49.967132568359375,0.6287354230880735,0.032335016876458976,0.06142552296188871,23.1160153438437,"array('d', [-117.31961059570312, -117.13381641670813, -117.00127747742778, -116.90742681743012, -116.84062066612388, -116.79227846082473, -116.75622724551646, -116.72806977782808, -116.70475212579564, -116.68423502647447, -116.66522935759322, -116.64697916885696, -116.62908528921221, -116.61136636100188, -116.59375566272375, -116.57974575467632])","array('d', [-149.27212524414062, -146.7799716485785, -144.28394210485982, -141.78593071266693, -139.28693835823333, -136.78746536499818, -134.28775691404456, -131.78793269811484, -129.2880511333485, -126.78814101427098, -124.28821677376277, -121.78828569303822, -119.28835134232885, -116.7884153330188, -114.28847830118548, -112.28853166979215])","array('d', [-49.961612701416016, -49.89620669082734, -49.850686310469605, -49.81857156873031, -49.79561845175086, -49.77900214613162, -49.766813472729424, -49.75774315162081, -49.75088071681283, -49.74558481546773, -49.74139879274371, -49.73799551807838, -49.73514140284494, -49.73267317409515, -49.73048315736266, -49.72890474485232])","array('d', [0.6307792067527769, 0.49601222713906123, 0.3740700106773129, 0.26508099388190093, 0.18298805113927563, 0.12222545827001398, 0.07838392798558216, 0.04781022928969056, 0.027418058290264787, 0.014594520373775363, 0.007150878218178946, 0.0032938488571911634, 0.001606826274775112, 0.0010366777782319626, 0.0008845722127218714, 0.000800394109496925])","array('d', [-0.03102500177919861, -0.02146545010726792, -0.015059788207353889, -0.010705372334841236, -0.007707398155033936, -0.0056205591416645965, -0.004154869613287572, -0.0031186890046464456, -0.0023835297276827818, -0.001861896406862235, -0.0014930759831269808, -0.0012338686659734293, -0.001052450416177512, -0.0009242711729346355, -0.0008293262932356091, -0.0007504058321633117])","array('d', [0.08742304245499138, 0.06264427055086659, 0.044428851632986745, 0.03146883935545248, 0.02255058427361366, 0.01653381941127824, 0.01259846286717891, 0.010129094529381105, 0.008659051425720252, 0.007838831031915326, 0.007414604121551913, 0.007210938902899487, 0.007115339609309265, 0.007063660638953887, 0.007026015487068381, 0.00698472604180646])",-116.79227846082473,-136.78746536499818,-49.77900214613162,0.12222545827001398,-0.0056205591416645965,0.01653381941127824,25.000000244968028,-1.0,"[-145.7810727340481, -117.1915131020463, 49.91827049932194]","[-133.34342219274254, -110.18691121550233, 54.527001498565184]","[-132.31268562233976, -122.26438390270329, 45.691152042381056]",10000000000.0,0.013233423233032227
1,9.1319739818573,-146.5177459716797,-117.29444885253906,49.967132568359375,0.6287354230880735,0.032335016876458976,0.06142552296188871,23.1160153438437,"array('d', [-117.31057739257812, -117.13498225424209, -117.0126087671156, -116.92888579244487, -116.8721440871581, -116.83378263311097, -116.80761681289175, -116.78924386184752, -116.77560886591523, -116.76467491922341, -116.75515758709415, -116.74630707392424, -116.73773111308681, -116.7292554377738, -116.72082019821204, -116.71409559677852])","array('d', [-148.8119659423828, -146.31908888614413, -143.82254867384012, -141.32418181225756, -138.82494311154588, -136.32529836396657, -133.82546766287524, -131.32555283860498, -128.8255999868355, -126.32562976112021, -123.82565150860967, -121.32566956050307, -118.82568593956607, -116.32570155028208, -113.82571675718474, -111.82573245549786])","array('d', [-49.96281433105469, -49.89680529402269, -49.8508286469247, -49.81836606706685, -49.79514564323783, -49.778322079933666, -49.76597104892817, -49.75677200048172, -49.749806045872674, -49.74442551708655, -49.7401690202021, -49.73670588027712, -49.73379988654654, -49.73128587274634, -49.72905486328185, -49.72744684597448])","array('d', [0.6303617954254149, 0.4956345377132179, 0.373728263104155, 0.2644301981619963, 0.18213439517922658, 0.12125043885134994, 0.07735063279767898, 0.04676665815449487, 0.02639935286675625, 0.013624831318934164, 0.006245131114133663, 0.0024594768713969723, 0.0008454700120617025, 0.0003458410319108398, 0.00025923019775728434, 0.0002345612040538872])","array('d', [-0.031300786882638806, -0.021673389405172917, -0.015217758629292647, -0.010826313905964028, -0.007800771286838554, -0.005693339472440866, -0.004212234125338546, -0.0031644998003832712, -0.0024206795754571553, -0.001892556922589781, -0.0015188759598776028, -0.001256021778965012, -0.0010718461271718859, -0.000941539017250261, -0.0008448812219692685, -0.00076448051497704])","array('d', [0.08332021633652235, 0.058563319203130425, 0.04036508257728684, 0.027426719223869994, 0.01853956290470739, 0.012559559722529121, 0.008664022667980734, 0.006235567616516286, 0.004806034998253257, 0.004024827720781017, 0.003637380077077516, 0.003467833457500685, 0.003403518594064899, 0.003380308597297737, 0.00336846544728466, 0.0033563652829670214])",-116.83378263311097,-136.32529836396657,-49.778322079933666,0.12125043885134994,-0.005693339472440866,0.012559559722529121,25.00000024494484,-1.0,"[-145.3389674610919, -117.19729900490321, 49.918589842662364]","[-132.86568183988274, -110.23203627145344, 54.490488886358854]","[-131.89898109231117, -122.31716040513587, 45.65786388933044]",10000000000.0,0.016164541244506836
2,9.147383213043213,-146.0584259033203,-117.29713439941406,49.96745681762695,0.6283126473426818,0.032494656741618964,0.056927041211400325,23.115483361671153,"array('d', [-117.30345916748047, -117.138518934201, -117.02677853188216, -116.95365989829388, -116.90746558459173, -116.87957215689524, -116.86378203573624, -116.85568603709334, -116.85222764137426, -116.8513718722837, -116.85183869723387, -116.85288429066313, -116.85412317409744, -116.85538809834637, -116.85662603639189, -116.85758521576503])","array('d', [-148.35350036621094, -145.8599093638372, -143.3628779836413, -140.8641822798195, -138.36472857949718, -135.8649463401665, -133.36502928207383, -130.86506047497312, -128.3650730920754, -125.86507926885493, -123.36508305539947, -120.86508573780772, -118.36508777189577, -115.86508937934721, -113.36509069724376, -111.3650954108774])","array('d', [-49.964019775390625, -49.897496187611864, -49.85112273997439, -49.81835278228074, -49.794892912130216, -49.77788150806098, -49.76538182355855, -49.75606385619812, -49.74900151923885, -49.74354166543939, -49.739218739016856, -49.73569892238852, -49.73274366204244, -49.73018608895359, -49.727916048810684, -49.726279838768384])","array('d', [0.630047023296356, 0.4953497200828677, 0.37347054941424296, 0.2638404046908391, 0.1813247023525531, 0.12030679758840619, 0.07633954342207572, 0.04573875916138165, 0.02539180508410967, 0.012663291824061647, 0.005345605789140925, 0.0016301308278055754, 8.840065563076187e-05, -0.0003411958808489427, -0.0003626837147380996, -0.00032816982572129636])","array('d', [-0.031533997505903015, -0.021852864394937933, -0.01535645979313091, -0.010934052947442492, -0.007884990198074964, -0.005759694685755824, -0.004265029411719393, -0.0032070118526403924, -0.0024554036299786757, -0.0019213912810251313, -0.0015432595579805454, -0.0012770357989538587, -0.0010902883294943032, -0.0009579776864633049, -0.0008596942272489063, -0.0007778838776281733])","array('d', [0.07903845707443755, 0.05429804848823707, 0.03611276529430958, 0.023192888515053054, 0.014334658472843756, 0.008389897622579509, 0.004533113268858122, 0.00214482233817815, 0.000755271534794738, 1.2697853538196084e-05, -0.0003382525695454119, -0.00047390114150224567, -0.0005071141342060627, -0.0005020136845938799, -0.0004881965334863806, -0.0004712674379748537])",-116.87957215689524,-135.8649463401665,-49.77788150806098,0.12030679758840619,-0.005759694685755824,0.008389897622579509,25.00000024492036,-1.0,"[-144.9600714413598, -117.20367209139496, 49.91864965002877]","[-132.45617451800243, -110.27216081641396, 54.458111421523896]","[-131.54482679025378, -122.36445251688538, 45.629412380904306]",10000000000.0,0.01444101333618164
3,9.163431406021118,-146.0584259033203,-117.29713439941406,49.96745681762695,0.6283126473426818,0.032494656741618964,0.056927041211400325,23.115483361671153,"array('d', [-117.29502868652344, -117.15174449294517, -117.06162669778129, -117.01008253633165, -116.98536114573405, -116.97879332595382, -116.98415391527841, -116.99701962422803, -117.01432970181125, -117.03405218398413, -117.05491512665766, -117.07618603160168, -117.09749246571954, -117.11868074941252, -117.13971108787892, -117.15639781391664])","array('d', [-147.43597412109375, -144.9410673079092, -142.4431743746736, -139.94394736778256, -137.44419289130744, -134.94426584303318, -132.44430593724204, -129.9443578896437, -127.4444285170014, -124.94451264984764, -122.44460365309185, -119.9446967540688, -117.44478938249424, -114.9448805417317, -112.44497007286101, -110.44504433606855])","array('d', [-49.96596145629883, -49.89860917981609, -49.851579389077045, -49.81829011779896, -49.794418762387814, -49.777080072932726, -49.764318451522946, -49.7547890091347, -49.74755399360189, -49.7419511755766, -49.73750797748246, -49.7338852053463, -49.73084025364881, -49.728203281906836, -49.725862061741104, -49.72417443149616])","array('d', [0.629524290561676, 0.494876731697266, 0.3730425712994288, 0.26280254212314175, 0.17982567095598911, 0.11852270500371717, 0.07440659640781232, 0.0437607641195147, 0.02344510289297216, 0.010800804923087383, 0.0036006137942871533, 1.994967998619766e-05, -0.0013820183400952229, -0.001675763683133006, -0.001570771840485178, -0.001421293265194514])","array('d', [-0.031904675066470996, -0.022146664017130807, -0.015588852863534581, -0.011117956722709094, -0.008030923120942763, -0.0058760891302974605, -0.004358568486400613, -0.003282947676653882, -0.0025178364918050826, -0.001973502270657158, -0.0015874973931259005, -0.0013152627269905398, -0.0011238916636415687, -0.0009879538163739714, -0.0008867114968564655, -0.00080232992368888])","array('d', [0.0703423778202869, 0.04562933736812754, 0.027465558315029864, 0.014577646950208915, 0.005771842879080099, -0.0001069421993674034, -0.0038900500987423944, -0.00620131285501075, -0.007513777238373399, -0.008181616908608018, -0.00846182210074917, -0.008531685751581721, -0.008504503090918467, -0.008444413217751825, -0.00838075049935566, -0.008307431059109784])",-116.97879332595382,-134.94426584303318,-49.777080072932726,0.11852270500371717,-0.0058760891302974605,-0.0001069421993674034,25.000000248138758,-1.0,"[-144.56164633765036, -117.21183500457252, 49.91872340986075]","[-132.0256520345018, -110.31654154248054, 54.424694437625845]","[-131.17265808608641, -122.41589258151132, 45.599837172022546]",10000000000.0,0.014962911605834961
4,9.181519746780396,-145.139404296875,-117.30852508544922,49.967918395996094,0.6274989843368531,0.03250674158334724,0.047713474431310084,23.112533041053005,"array('d', [-117.29375457763672, -117.16150811442022, -117.0824041151914, -117.04184994325028, -117.0280909516363, -117.0324369996304, -117.04864581265348, -117.07228446784404, -117.10028797898774, -117.13062408768477, -117.16202333411687, -117.19375751575947, -117.22545951251682, -117.25698135240306, -117.28828889152497, -117.31315159152119])","array('d', [-146.97694396972656, -144.4814402471116, -141.98318112526093, -139.48375544328886, -136.98391873671724, -134.48398805891256, -131.98407566248605, -129.4842066947717, -126.98437450154405, -124.48456507044946, -121.98476632439107, -119.48497043398432, -116.98517333925608, -114.48537348819771, -111.98557064196629, -109.98572992646052])","array('d', [-49.96672821044922, -49.8989143861515, -49.85152189643109, -49.817947451406006, -49.793851313565455, -49.77633464808628, -49.76343117541187, -49.753787655853166, -49.74645983851267, -49.740780457919406, -49.73627305451277, -49.732595467448306, -49.72950285777237, -49.72682374910403, -49.7244447741377, -49.72272987286868])","array('d', [0.6292114257812501, 0.49459364010453394, 0.3727864198481861, 0.26257071299910595, 0.17932725870602534, 0.11785198187694769, 0.0736363081514993, 0.042946463316783805, 0.022627920399000488, 0.010009643005826418, 0.00285413763434234, -0.00067150095233736, -0.0020145716809634906, -0.0022502125257466365, -0.0020908219944295587, -0.0018918541463094883])","array('d', [-0.032111935317516216, -0.022309521194391304, -0.01571679040655475, -0.011218633804634016, -0.00811043353843148, -0.005939236037234448, -0.0044091143249152635, -0.003323825538023712, -0.0025513236874007113, -0.002001359211490473, -0.0016110761543350492, -0.0013355901940637297, -0.001141732097517287, -0.0010038552894402228, -0.0009010401181304069, -0.0008152951901306888])","array('d', [0.06591053406265766, 0.04121386561290317, 0.02306295280360272, 0.010185657163046298, 0.0013949670690920175, -0.004460312216001374, -0.00821485188469405, -0.010494902200182982, -0.01177531990051417, -0.0124116032000756, -0.012661653036791242, -0.012703322484336123, -0.012650182111378803, -0.01256642979302758, -0.012481310731369504, -0.012383716677459019])",-117.0324369996304,-134.48398805891256,-49.77633464808628,0.11785198187694769,-0.005939236037234448,-0.004460312216001374,25.00000024484307,-1.0,"[-144.47186832676772, -117.21429289313117, 49.91876619956545]","[-131.92848512783777, -110.32761792599908, 54.41734884545273]","[-131.08895207731794, -122.42854221218394, 45.59335792993688]",10000000000.0,0.014214515686035156
5,9.198625087738037,-144.6797332763672,-117.3172836303711,49.96810531616211,0.6268967986106871,0.032502148300409296,0.04307480255630993,23.111877632797974,"array('d', [-117.29444885253906, -117.17336423332414, -117.10537839157281, -117.07590268416466, -117.0731813283417, -117.08850520947769, -117.11561640603792, -117.15007350439663, -117.18880822306475, -117.22978881001026, -117.27174898641003, -117.31396545933882, -117.3560769669421, -117.39794173199175, -117.43953169893672, -117.47257119383725])","array('d', [-146.5177459716797, -144.0216892422899, -141.5231101855053, -139.02353337336567, -136.5236625615293, -134.02377636333952, -131.52395917908424, -129.02421636862437, -126.52452770068638, -124.02487028805066, -121.5252266262153, -119.02558587065181, -116.52594252655607, -114.0262945454909, -111.52664166551399, -109.52691941870688])","array('d', [-49.967132568359375, -49.89882341855002, -49.85104407879955, -49.81716713681868, -49.79283378186596, -49.775130230919075, -49.76207855043156, -49.752316446690365, -49.744892654436626, -49.7391344895197, -49.734561324020405, -49.73082781528033, -49.72768673113504, -49.72496484446096, -49.722547573177124, -49.72080501548032])","array('d', [0.6287354230880735, 0.4941629350139371, 0.3723967017158515, 0.262218070871597, 0.17872136065497743, 0.11708505483394228, 0.07277960310083072, 0.04205436490318108, 0.021740597846733656, 0.009155178132788412, 0.0020504813792422334, -0.0014146361699801159, -0.002693866623392576, -0.002866947118421584, -0.002649132846380699, -0.0023970347417917558])","array('d', [-0.032335016876458976, -0.022483667118782972, -0.015852817846248618, -0.011325119277669953, -0.008194111326498986, -0.006005363185820279, -0.00446177962340602, -0.0033661999830750257, -0.0025858602626024334, -0.0020299494581836907, -0.001635170666707549, -0.0013562897066380392, -0.0011598551705246515, -0.0010199878465359223, -0.0009155713423743705, -0.000828443586734035])","array('d', [0.06142552296188871, 0.036753751520163636, 0.018622407654415148, 0.00576125832058169, -0.0030096171161334492, -0.008837311812819174, -0.012559674225387216, -0.014805284982133533, -0.016050754612607514, -0.016652865791490182, -0.01687039861296089, -0.01688173977334143, -0.016800712130109162, -0.016691552034259732, -0.0165833975626748, -0.016459742928122217])",-117.08850520947769,-134.02377636333952,-49.775130230919075,0.11708505483394228,-0.006005363185820279,-0.008837311812819174,25.000000244815997,-1.0,"[-143.5326642576365, -117.24074941428306, 49.919212515935676]","[-130.91252559986359, -110.4445547015348, 54.340053802953115]","[-130.21396945447404, -122.56176687190346, 45.52613364617791]",10000000000.0,0.015918254852294922
6,9.218831539154053,-144.21998596191406,-117.328125,49.968772888183594,0.6253308057785032,0.03243527561426162,0.038595990338597536,23.113532778585846,"array('d', [-117.29713439941406, -117.18725104130341, -117.13042808489018, -117.11207985135555, -117.1204488100575, -117.14680644612733, -117.1848788727028, -117.23021592276233, -117.27974578561269, -117.33143700042588, -117.38402626971225, -117.43679502512478, -117.48938769247401, -117.54166853296518, -117.59361543690484, -117.63489243604613])","array('d', [-146.0584259033203, -143.56186085347267, -141.06300861864693, -138.56332856640648, -136.06347212427107, -133.56367897730524, -131.06400533354875, -128.5644365577412, -126.06493872360944, -123.56548001448367, -121.0660374883976, -118.56659730544521, -116.06715257384779, -113.56770079552928, -111.06824173446624, -109.0686726417158])","array('d', [-49.96745681762695, -49.89878588287114, -49.850712367916664, -49.81659814769163, -49.792074108240875, -49.774217339652076, -49.76104217327833, -49.75117993526955, -49.74367419410682, -49.737848139771515, -49.7332178895361, -49.729435568265004, -49.72625201081002, -49.72349255906953, -49.72104162657186, -49.71927475475125])","array('d', [0.6283126473426818, 0.4937803916617748, 0.3720505621310884, 0.26190485961432813, 0.1781505543705062, 0.11634951498130854, 0.07195105563312804, 0.041187578559572224, 0.02087606611397337, 0.008321262136202778, 0.0012653744492100401, -0.002141010848406508, -0.003358006411019411, -0.003469971983054298, -0.0031950390422642834, -0.0028909911392899423])","array('d', [-0.032494656741618964, -0.022614054382917265, -0.0159582315771909, -0.011409890429699957, -0.008262173935435636, -0.006060100147324112, -0.004506008056421928, -0.0034022165801533897, -0.0026155093118964347, -0.0020546939090897096, -0.0016561567789655828, -0.0013744016107922299, -0.0011757587798998151, -0.0010341651071020597, -0.0009283464560785656, -0.000840002988668522])","array('d', [0.056927041211400325, 0.032277370749779356, 0.014163401336823622, 0.001316589534090986, -0.007436010344047936, -0.013237458266019964, -0.016928826168847725, -0.019141052392194748, -0.020352519822384722, -0.02092130958164239, -0.02110709216363596, -0.02108879724740828, -0.020980507918060567, -0.0208465058157333, -0.02071582780229022, -0.020566691537242103])",-117.14680644612733,-133.56367897730524,-49.774217339652076,0.11634951498130854,-0.006060100147324112,-0.013237458266019964,25.00000024478837,-1.0,"[-143.07261451061208, -117.25689526305119, 49.919542156152694]","[-130.41536449801177, -110.5035951897032, 54.29983441099684]","[-129.78572242354704, -122.6319275468913, 45.496022447327476]",10000000000.0,0.016225576400756836
7,9.238632202148438,-143.76156616210938,-117.34102630615234,49.96963119506836,0.6220114827156065,0.032164726406335706,0.034152344861302815,23.116382025636756,"array('d', [-117.30852508544922, -117.22159291883236, -117.18764594544429, -117.19210386720484, -117.22320549122988, -117.27218296030111, -117.33273001783715, -117.40037871916884, -117.47205003176144, -117.54571299093493, -117.62011023218689, -117.6945326462395, -117.76863606925298, -117.84229688763065, -117.91550493621152, -117.97369430650534])","array('d', [-145.139404296875, -142.64193653411687, -140.1426713542147, -137.64292999758905, -135.14325447714074, -132.64380314811766, -130.1445735075173, -127.64550945390572, -125.14654876922393, -122.64764127540495, -120.14875292917179, -117.64986385725769, -115.15096444464994, -112.65205142522595, -110.15312476904981, -108.15397647112408])","array('d', [-49.967918395996094, -49.89917140884908, -49.850960432429424, -49.816690029369695, -49.79201250221967, -49.77401465609658, -49.760714240129296, -49.75074275363228, -49.74314240659708, -49.73723444079208, -49.73253293691619, -49.72868814734922, -49.725449312386445, -49.722640495436956, -49.72014514573953, -49.71834616157234])","array('d', [0.6274989843368531, 0.49304415885459973, 0.37138439105105436, 0.26130207872194156, 0.1770215475822921, 0.1148831664605818, 0.0702932656769893, 0.039449792478413695, 0.019140728277362837, 0.006646165676516812, -0.0003123516257336567, -0.0036010486921145436, -0.004693092504861755, -0.004682244563738696, -0.0042924902904350635, -0.003884006183017215])","array('d', [-0.03250674158334724, -0.02266223096672947, -0.016019820726628744, -0.01147323012185741, -0.008321694134530348, -0.006113546243713082, -0.004552872847222723, -0.003442855141712667, -0.002650647553488506, -0.0020851629170989404, -0.001682755349560789, -0.0013978306097531773, -0.0011965950749088597, -0.0010528567801043195, -0.0009452189083069014, -0.0008552698161463008])","array('d', [0.047713474431310084, 0.02310630714763388, 0.005025759553679872, -0.007793467777197756, -0.016510271650314465, -0.02225958646589131, -0.025889057132029138, -0.028034426064712528, -0.029177687878480112, -0.029679571221879652, -0.029801564020750373, -0.029723706542825405, -0.029560617112100028, -0.029376675203731283, -0.02920071729255456, -0.029000354299280325])",-117.27218296030111,-132.64380314811766,-49.77401465609658,0.1148831664605818,-0.006113546243713082,-0.02225958646589131,25.000000244730483,-1.0,"[-142.72189143966887, -117.27027583042582, 49.92012850517291]","[-130.0372581521932, -110.54671182349207, 54.26682442356078]","[-129.45876645645134, -122.68821016641994, 45.4776626121798]",10000000000.0,0.01826763153076172
8,9.255436182022095,-143.76156616210938,-117.34102630615234,49.96963119506836,0.6220114827156065,0.032164726406335706,0.034152344861302815,23.116382025636756,"array('d', [-117.3172836303711, -117.24189626998123, -117.21943235205052, -117.23531905874881, -117.27779669965324, -117.33808038423497, -117.4098496431981, -117.4886291405057, -117.57133742694222, -117.65594477070245, -117.74119760439324, -117.8263922602185, -117.9111908977844, -117.99547650950345, -118.07924538553067, -118.14583145469858])","array('d', [-144.6797332763672, -142.18189060292255, -139.68249676749517, -137.18280279457272, -134.68329535849742, -132.18409160061924, -129.68515933569728, -127.18642159082358, -124.68780197826882, -122.18924118465688, -119.6906997005968, -117.19215473965724, -114.69359543444438, -112.1950182415588, -109.69642333381151, -107.69753714272825])","array('d', [-49.96810531616211, -49.89934240082056, -49.85107754171334, -49.816739145954, -49.79199182600188, -49.773928285608505, -49.76056866814068, -49.750545015692474, -49.74289916581385, -49.73695159448799, -49.732215506742, -49.7283403168037, -49.725074534930116, -49.72224163045041, -49.71972459912935, -49.717909938463066])","array('d', [0.6268967986106871, 0.4924992786242648, 0.3708913629730788, 0.2608559665525754, 0.176330676649717, 0.11403870341878256, 0.06936574859967236, 0.03849307780739504, 0.018194542798321972, 0.005738181214027747, -0.001164584635058242, -0.0043882139341280746, -0.005412258827100279, -0.005335065357264243, -0.0048834544109959315, -0.0044187326804339625])","array('d', [-0.032502148300409296, -0.022679210815314613, -0.01604580473269296, -0.011501605525218554, -0.00834917072231326, -0.00613866577601212, -0.004575162406530236, -0.003462345379168733, -0.002667602062643304, -0.002099929414717198, -0.0016956866128412125, -0.0014092449773334468, -0.0012067591121210411, -0.0010619801397887523, -0.0009534556467569536, -0.0008627227259660967])","array('d', [0.04307480255630993, 0.01849906466681957, 0.00044323826791723873, -0.012355581467743583, -0.021048912905474514, -0.026767409143988043, -0.03036178795668225, -0.03247006743432356, -0.033575965799200594, -0.03404147679105967, -0.03412895197718627, -0.0340189505913919, -0.03382632858302132, -0.03361548932085991, -0.033415148033052226, -0.03318719989546711])",-117.33808038423497,-132.18409160061924,-49.773928285608505,0.11403870341878256,-0.00613866577601212,-0.026767409143988043,25.000000244700708,-1.0,"[-142.72189143966887, -117.27027583042582, 49.92012850517291]","[-130.0372581521932, -110.54671182349207, 54.26682442356078]","[-129.45876645645134, -122.68821016641994, 45.4776626121798]",10000000000.0,0.012694835662841797
9,9.268243789672852,-143.76156616210938,-117.34102630615234,49.96963119506836,0.6220114827156065,0.032164726406335706,0.034152344861302815,23.116382025636756,"array('d', [-117.328125, -117.26381907169781, -117.2522625051902, -117.27891189331343, -117.33202414747042, -117.4028097880398, -117.48494350348894, -117.57394965778418, -117.66675003323918, -117.76132078081703, -117.85641604179054, -117.95134093179283, -118.04576682694736, -118.1395858619154, -118.23280303281925, -118.3068786107013])","array('d', [-144.21998596191406, -141.72182973439297, -139.22236062236948, -136.72275807821862, -134.22345411562816, -131.72452590950866, -129.22591296012862, -126.72751869653904, -124.22925363699561, -121.73105018230858, -119.23286399174181, -116.73466981815778, -114.23645585340027, -111.73821848985668, -109.23995825483212, -107.24133564082268])","array('d', [-49.968772888183594, -49.900126346039876, -49.85190141831122, -49.817562362415636, -49.79279407285039, -49.77470055988822, -49.761308101167145, -49.751251913630135, -49.74357534387147, -49.73759946530478, -49.732837605071246, -49.728939072633, -49.72565218369787, -49.72280019422246, -49.72026589961911, -49.71843874342401])","array('d', [0.6253308057785032, 0.49108230958232413, 0.369609236237285, 0.2596958493466388, 0.17502462141367878, 0.11265907579709258, 0.0679690990391758, 0.03712239868370304, 0.016880909961618108, 0.004502300078332967, -0.0023107828767445844, -0.005439928581367628, -0.006370170978940924, -0.006203719905440077, -0.005669688194544668, -0.005130146491527473])","array('d', [-0.03243527561426162, -0.022652281254073748, -0.016040423255246, -0.011507329779969095, -0.008360135537119577, -0.006151646021095198, -0.004588450408131297, -0.0034750946471613646, -0.002679443951761247, -0.00211075041345746, -0.0017055004429952318, -0.001418120817220546, -0.001214783145709491, -0.0010692369119912207, -0.0009600210409218177, -0.0008686633408029667])","array('d', [0.038595990338597536, 0.01410187835837438, -0.003889715933906147, -0.016635495006323456, -0.02527801599322492, -0.03094267258580548, -0.03448211634500241, -0.036535952008158935, -0.037589160965294965, -0.03800466891723446, -0.03804543673881532, -0.037892342708631066, -0.03766032136776333, -0.03741367286158508, -0.03718088864921874, -0.03691624030414625])",-117.4028097880398,-131.72452590950866,-49.77470055988822,0.11265907579709258,-0.006151646021095198,-0.03094267258580548,25.000000244671853,-1.0,"[-142.26321627197328, -117.28983423925399, 49.92139242419076]","[-129.54308592031012, -110.59911264911366, 54.21470448365345]","[-129.03116525132657, -122.77302745842611, 45.466348326964905]",10000000000.0,0.011958122253417969
10,9.286464929580688,-142.8440399169922,-117.37327575683594,49.971290588378906,0.6077783703804014,0.03068182244896876,0.025555686154637703,23.12556274852726,"array('d', [-117.34102630615234, -117.2875963578697, -117.28653959616693, -117.32338091005857, -117.38642045522451, -117.46688524951004, -117.55846096571007, -117.65668383604877, -117.75848876491187, -117.86186611185992, -117.96558488642513, -118.06896522770471, -118.17169321995644, -118.2736750131749, -118.3749286665344, -118.45533092652424])","array('d', [-143.76156616210938, -141.26313756175728, -138.76363472074675, -136.26415829209438, -133.76508345519633, -131.2664474352291, -128.76816235833965, -126.27011329297463, -123.77219888690664, -121.27434432194798, -118.77650128575345, -116.27864272572087, -113.78075637486674, -111.2828389131474, -108.78489148687318, -106.7865133877528])","array('d', [-49.96963119506836, -49.90153292742653, -49.8536531565501, -49.81953232336517, -49.794902192833725, -49.776895941253315, -49.76355818717606, -49.753535800211566, -49.745879611080035, -49.739915556741565, -49.73516016339198, -49.731264865997254, -49.727979394993284, -49.72512792889072, -49.722593820627495, -49.72076675400947])","array('d', [0.6220114827156065, 0.48807886141840007, 0.3668916033136792, 0.2572368293267869, 0.17258345146874643, 0.11027930283711719, 0.06568597450766563, 0.03496231613866054, 0.014861555524867327, 0.00263336654634858, -0.004026498186243655, -0.0070052146417916, -0.007792014853878417, -0.00749192112392407, -0.006835512958205112, -0.006185028456230762])","array('d', [-0.032164726406335706, -0.02248236178715295, -0.015933119828246026, -0.01143938159025608, -0.008317134756604028, -0.006124570159620447, -0.004571591470772253, -0.0034648033400505756, -0.0026733604823111286, -0.0021073300458858543, -0.0017037199367231518, -0.0014172973196777826, -0.001214463884554393, -0.0010691338662466815, -0.0009599740763857206, -0.0008686206529695112])","array('d', [0.034152344861302815, 0.00983074304233865, -0.008024967664137886, -0.02065846023983463, -0.029200170357092395, -0.03476828708035822, -0.038215533513249106, -0.04018199679766857, -0.041153193422526296, -0.041492454238467355, -0.04146294111037471, -0.04124552158538817, -0.04095493709867009, -0.040655158664439923, -0.04037426444532611, -0.04005519660461809])",-117.46688524951004,-131.2664474352291,-49.776895941253315,0.11027930283711719,-0.006124570159620447,-0.03476828708035822,25.000000248056836,-1.0,"[-142.20310036799867, -117.29279035656909, 49.92164105754624]","[-129.47846173510686, -110.60451022039706, 54.20538713807011]","[-128.97498418213135, -122.7869953335599, 45.46847882784872]",10000000000.0,0.01720452308654785
11,9.301260948181152,-142.3849639892578,-117.39263153076172,49.97227096557617,0.5963228344917295,0.029466561973094798,0.02132566372421784,23.13145406034724,"array('d', [-117.37327575683594, -117.3403693334234, -117.35822180534126, -117.41265744512674, -117.49217503146049, -117.58812393406983, -117.6942791701236, -117.8062527277659, -117.92104820464382, -118.03672022900518, -118.15209845351502, -118.26656004785477, -118.37984428581802, -118.49190645669168, -118.60280962456106, -118.69058185465477])","array('d', [-142.8440399169922, -140.34516959558454, -137.84568818359233, -135.34651208571705, -132.84789657401384, -130.34980161989324, -127.85209056013011, -125.35461843612744, -122.85726639607093, -120.35995045407499, -117.86261850918685, -115.36524300664406, -112.86781300777054, -110.37032737661339, -107.8727896882991, -105.87472151520105])","array('d', [-49.971290588378906, -49.906289705727275, -49.86052046760412, -49.827859220340414, -49.80425287541271, -49.78697474786718, -49.77416221387591, -49.7645244958527, -49.757154974896984, -49.75140904443314, -49.746823878557876, -49.74306550265244, -49.73989394389576, -49.73714050406312, -49.73469318453593, -49.7329286389851])","array('d', [0.6077783703804014, 0.4752002076359796, 0.3552385144203169, 0.24669267735047906, 0.16278308752239118, 0.10118592442789552, 0.05727830438542333, 0.027221451849670626, 0.007764922584273255, -0.003847383218386699, -0.009925399965420469, -0.01236079011111659, -0.012645607249118571, -0.011885924544761572, -0.010811661747494566, -0.00978279698630759])","array('d', [-0.03068182244896876, -0.021478459029298395, -0.015243055468484801, -0.010958185701856882, -0.007976911330738428, -0.005880672592772623, -0.004394197680719304, -0.0033336875435894214, -0.0025746009198834314, -0.0020312123137317486, -0.0016433920442921865, -0.0013679054575058724, -0.0011726002868772468, -0.0010324893348408384, -0.0009271242812890108, -0.0008388969265104119])","array('d', [0.025555686154637703, 0.0019661615907046706, -0.015310884148041113, -0.027465012347262896, -0.03558946188135542, -0.040779986021741516, -0.0438816208636395, -0.045530763670865, -0.04621091802265864, -0.04628398037763355, -0.0460117638333687, -0.045573693268747925, -0.04508294895049052, -0.04460186482122229, -0.04415687067187679, -0.04365219361882694])",-117.58812393406983,-130.34980161989324,-49.78697474786718,0.10118592442789552,-0.005880672592772623,-0.040779986021741516,25.000000248038045,-1.0,"[-141.2389606117564, -117.34091174274133, 49.925917065300645]","[-128.4427181611093, -110.69062273236571, 54.05263915707449]","[-128.07429079698022, -123.01696940653041, 45.51299988215954]",10000000000.0,0.013870477676391602
12,9.320696353912354,-141.92568969726562,-117.41415405273438,49.97319030761719,0.5818831920623777,0.027837473899125945,0.017052249112401344,23.136381816342308,"array('d', [-117.39263153076172, -117.36953828200161, -117.39591682705884, -117.4578284711731, -117.54393202341606, -117.64568643552191, -117.7569482246668, -117.8733960598172, -117.99209167580419, -118.1111421417386, -118.22942508949859, -118.34636172347423, -118.46173165112022, -118.5755269689518, -118.68784420786216, -118.77648880327276])","array('d', [-142.3849639892578, -139.88591496697487, -137.3864752025705, -134.8874560320964, -132.38904992966062, -129.89117999422635, -127.3936886323564, -124.89641970452115, -122.39924918710894, -119.90209155021894, -117.4048952144708, -114.90763419831266, -112.41029955709554, -109.91289220566736, -107.4154176426149, -105.4173877788379])","array('d', [-49.97227096557617, -49.90982619665416, -49.86582847735337, -49.83441371014492, -49.81169711409825, -49.795063091473544, -49.7827235758809, -49.773438629908334, -49.76633682844138, -49.760798268572984, -49.756377666478286, -49.75275358887224, -49.74969500563308, -49.74703946510086, -49.74467909112708, -49.74297722290887])","array('d', [0.5963228344917295, 0.4648348093662437, 0.34585951376509866, 0.23820621487252927, 0.155061330662772, 0.09414423900625754, 0.05085678324958685, 0.021371913526887238, 0.0024445113386264363, -0.008679097435514337, -0.014307457160164757, -0.016330949430249413, -0.016240066843066656, -0.015138938595820644, -0.013755186374533174, -0.012446208450615153])","array('d', [-0.029466561973094798, -0.02064182601938461, -0.014658040609509263, -0.010543097635813915, -0.007678227115622101, -0.005662714078617542, -0.004232793155941093, -0.0032122063701524564, -0.002481433266958573, -0.001958147705179349, -0.001584567855623655, -0.0013191233677440344, -0.0011308840210896497, -0.0009958022187000518, -0.0008941922794858934, -0.0008090990228123062])","array('d', [0.02132566372421784, -0.00168336068553403, -0.018499237628228794, -0.030269963924278477, -0.03806329440954186, -0.042959470051549604, -0.04579559179757834, -0.04720377548947145, -0.04766489400425203, -0.04753892896091335, -0.047086069299220046, -0.046484234087614346, -0.045845164006414384, -0.04522981782970213, -0.04466332856471414, -0.04402123686326395])",-117.64568643552191,-129.89117999422635,-49.795063091473544,0.09414423900625754,-0.005662714078617542,-0.042959470051549604,25.000000244565825,-1.0,"[-140.86781424121241, -117.3617626628175, 49.92820850285287]","[-128.04454736814253, -110.7161013143284, 53.97777785566395]","[-127.72736088808671, -123.12398460170922, 45.55496211129407]",10000000000.0,0.017882585525512695
13,9.336351156234741,-141.4662322998047,-117.43782806396484,49.9746208190918,0.5647003054618833,0.025940043851733065,0.012802557149205645,23.14267082181054,"array('d', [-117.41415405273438, -117.40080077067601, -117.4353148449371, -117.50404874182777, -117.59585961561548, -117.70234665954776, -117.8174716105979, -117.93699877016074, -118.0580639591478, -118.17884051100727, -118.29826620076334, -118.41581705239136, -118.53132261258591, -118.64482037389665, -118.75644804521197, -118.84422293454529])","array('d', [-141.92568969726562, -139.4264818194076, -136.92709770268118, -134.42823474972843, -131.93002032639504, -129.4323415079834, -126.93502187794167, -124.43789656936274, -121.94083874415523, -119.44376337261858, -116.94662104845857, -114.44938862762226, -111.95206009072716, -109.45463907742777, -106.95713350346392, -104.95906496125156])","array('d', [-49.97319030761719, -49.914181445902535, -49.872580337307355, -49.84286250819373, -49.82136468501535, -49.80561832103062, -49.79393461326269, -49.78514169088734, -49.77841549875084, -49.77316954836322, -49.76898238806463, -49.765549687961155, -49.76265265374325, -49.76013740671614, -49.75790174944857, -49.756289807038215])","array('d', [0.5818831920623777, 0.4517692794132365, 0.33403733231344, 0.22750906444277882, 0.1453879128895143, 0.08536880667284326, 0.04288856887654628, 0.014138187622064813, -0.004117874418784086, -0.014627708550889861, -0.019695927110861378, -0.021209478158632222, -0.020655441541640094, -0.019134431776976022, -0.01737049268020068, -0.015717473169832446])","array('d', [-0.027837473899125945, -0.019513005420792217, -0.013863703402484412, -0.009975989464947401, -0.007267666380509458, -0.00536131168778443, -0.004008260761529035, -0.0030422075396509974, -0.002350295192604793, -0.001854735128372094, -0.0015008973798662144, -0.001249458055091364, -0.0010711444446523707, -0.0009431880655497041, -0.000846943520732439, -0.0007663465741080621])","array('d', [0.017052249112401344, -0.005235646502174221, -0.021475792260393697, -0.032766179127014135, -0.040144888095277324, -0.044674014460658946, -0.047180300429916895, -0.048290128491644935, -0.048480758783798185, -0.04810951609850668, -0.047434359482159315, -0.04663118776442257, -0.04580985945253823, -0.04502957700244908, -0.044313848186259726, -0.04350296656791055])",-117.70234665954776,-129.4323415079834,-49.80561832103062,0.08536880667284326,-0.00536131168778443,-0.044674014460658946,25.000000244542974,-1.0,"[-140.86781424121241, -117.3617626628175, 49.92820850285287]","[-128.04454736814253, -110.7161013143284, 53.97777785566395]","[-127.72736088808671, -123.12398460170922, 45.55496211129407]",10000000000.0,0.01294565200805664
14,9.35026502609253,-141.4662322998047,-117.43782806396484,49.9746208190918,0.5647003054618833,0.025940043851733065,0.012802557149205645,23.14267082181054,"array('d', [-117.43782806396484, -117.43399824085522, -117.47615223032268, -117.55097766731843, -117.64756196826932, -117.75767072467427, -117.87539160163134, -117.99659141210705, -118.11849448090734, -118.23935302996082, -118.35817615661145, -118.47450465119638, -118.58822687336901, -118.69943365020892, -118.80831099548713, -118.8935129618168])","array('d', [-141.4662322998047, -138.96689541653288, -136.46758066335667, -133.96886828088856, -131.47082108413076, -128.97329248204582, -126.47609015474953, -123.97904340555576, -121.48202517567405, -118.98495309370817, -116.48778161766181, -113.99049169980667, -111.49308114448208, -108.99555694103736, -106.4979298577962, -104.49974962505003])","array('d', [-49.9746208190918, -49.91961936316933, -49.880822182147774, -49.85309531988132, -49.83303107610692, -49.81833114712561, -49.80742203307611, -49.79921118549349, -49.79292992401847, -49.788030934759696, -49.784120780735165, -49.7809152843121, -49.7782100971629, -49.77586147900383, -49.77377395724631, -49.77226882756454])","array('d', [0.5647003054618833, 0.4362215592636611, 0.3199691720928428, 0.21477966937826717, 0.13391751918106173, 0.07499560296351278, 0.03349431815817163, 0.005628033361773636, -0.011825558803066889, -0.021606209373712458, -0.02601233215381011, -0.026925486927601584, -0.025827636462336125, -0.023814422563855388, -0.021605118515361173, -0.01954912142379432])","array('d', [-0.025940043851733065, -0.018194000992392472, -0.012932792937969657, -0.009309605607494782, -0.00678409639045401, -0.005005585113947133, -0.003742800089138992, -0.002840934853971449, -0.0021948575084680707, -0.0017320568405736056, -0.0014015806394488226, -0.0011667348776375386, -0.0010001934875579022, -0.0008806947753455638, -0.0007908220645288559, -0.0007155657760331077])","array('d', [0.012802557149205645, -0.008641879704005333, -0.024204652872010037, -0.03492751300573608, -0.04181574215307013, -0.04591130260756433, -0.048028649686689864, -0.04878725387719742, -0.04865994230374093, -0.04800074255427887, -0.04706484573299961, -0.0460256639480724, -0.04499076705452091, -0.04401724880039973, -0.043126687299720676, -0.04211807651193172])",-117.75767072467427,-128.97329248204582,-49.81833114712561,0.07499560296351278,-0.005005585113947133,-0.04591130260756433,25.000000244521345,-1.0,"[-139.9668598219805, -117.41863121329516, 49.93571511683966]","[-127.07789752001933, -110.76407973271975, 53.75560979745524]","[-126.88592901332241, -123.43161112762972, 45.724620042051086]",10000000000.0,0.01274728775024414
15,9.392584085464478,-140.0869903564453,-117.52139282226562,49.98384094238281,0.49909812211990345,0.018671968951821223,6.242195633456443e-05,23.158832395707588,"array('d', [-117.49149322509766, -117.50621538815102, -117.5624554344026, -117.64766544046478, -117.75146501508716, -117.86601318495615, -117.98569963077654, -118.10663883030342, -118.22626970941073, -118.34303592508878, -118.45611947028829, -118.56521783549744, -118.67036137304432, -118.77176943576832, -118.8697442872652, -118.94532884184957])","array('d', [-140.54684448242188, -138.047338367971, -135.5481963251174, -133.04976297008278, -130.55197715739214, -128.05463327341946, -125.55751626435298, -123.06045241211527, -120.56332179697431, -118.06605358732068, -115.56861478255395, -113.0709980475214, -110.57321127760015, -108.07526978327962, -105.57719108236675, -103.5786232030775])","array('d', [-49.979732513427734, -49.934671904415815, -49.90285309194353, -49.88009479537514, -49.86361583852662, -49.85153715955205, -49.842570403187395, -49.83581994690449, -49.83065507026379, -49.82662636863456, -49.82341061873578, -49.82077427290587, -49.81854934888592, -49.816617667113334, -49.81490072340388, -49.81366278400933])","array('d', [0.5229551792144773, 0.3984490034075413, 0.2857911466806222, 0.18385409521077145, 0.10611406606990573, 0.04990671296262011, 0.010817818360436441, -0.014880150975257776, -0.03037523028939423, -0.038384417835138136, -0.04118852707976676, -0.040653658562912684, -0.03824730822624605, -0.03505144712662001, -0.0317726898354833, -0.028749121238599285])","array('d', [-0.021240523084998048, -0.01491549053661012, -0.010612056104274127, -0.007644346473111685, -0.005573463169749605, -0.0041138673361605545, -0.0030768528547017943, -0.002335879712250912, -0.0018048826361288103, -0.0014244268106861284, -0.001152706633994942, -0.0009595919410493314, -0.000822632254227225, -0.0007243528003408879, -0.0006504353529951666, -0.0005885384084522109])","array('d', [0.004347519078526705, -0.015109026308258527, -0.029058550549675648, -0.03841955044582809, -0.044125902142151806, -0.0471755616817937, -0.04835469010024453, -0.04826657159539491, -0.04737341744208354, -0.04602118961981976, -0.044458223877799845, -0.04285175863648769, -0.04130370616725396, -0.03986598655317822, -0.038555482051671267, -0.03707196635206512])",-117.86601318495615,-128.05463327341946,-49.85153715955205,0.04990671296262011,-0.0041138673361605545,-0.0471755616817937,25.000000247998848,-1.0,"[-139.87266186526375, -117.42543926200061, 49.93693600747557]","[-126.9768455139168, -110.76726196389441, 53.72726524110632]","[-126.79799357529195, -123.4693930815775, 45.7508075653434]",10000000000.0,0.016529083251953125
16,9.407944679260254,-140.0869903564453,-117.52139282226562,49.98384094238281,0.49909812211990345,0.018671968951821223,6.242195633456443e-05,23.158832395707588,"array('d', [-117.52139282226562, -117.54540041941657, -117.60843819183945, -117.69836537719645, -117.80508879942019, -117.92098304783671, -118.04060577933079, -118.16021089803428, -118.27735914870304, -118.3906033900167, -118.49922447363129, -118.60300955185349, -118.70207020611558, -118.79669927030162, -118.88726542832825, -118.95641225721587])","array('d', [-140.0869903564453, -137.58745871759794, -135.0884301338321, -132.59013711849315, -130.09246146061037, -127.59517274529372, -125.0980489583809, -122.60091883729625, -120.10366943109744, -117.60623843650642, -115.10860123891352, -112.61075788929013, -110.11272236821327, -107.61451480643262, -105.11615648317463, -103.11735515569134])","array('d', [-49.98384094238281, -49.94421784322871, -49.91622166333406, -49.89618741662655, -49.88167464265762, -49.871032978101674, -49.86313004509902, -49.85717820622875, -49.852622556697, -49.84906760169188, -49.84622884424217, -49.8439007027789, -49.841935305985146, -49.84022861944334, -49.83871152572485, -49.83761765827712])","array('d', [0.49909812211990345, 0.37686224371048765, 0.2662586374321827, 0.16618035288842167, 0.09022531613524445, 0.03557401888476149, -0.00213073921552, -0.02658483886073144, -0.04095738259291804, -0.04795248876798865, -0.04984072552872065, -0.048479014639822154, -0.04532619415038705, -0.041456065418311164, -0.037567740841824834, -0.03399270070261203])","array('d', [-0.018671968951821223, -0.01312048803464167, -0.00934000324053403, -0.0067310919269692295, -0.004909580398809718, -0.0036252034260157145, -0.0027123813548825325, -0.0020599776703869653, -0.0015923450139523209, -0.00125721064314237, -0.0010177898046640366, -0.0008475633362024823, -0.0007267693315925444, -0.0006400270303728804, -0.0005747371742465148, -0.0005200440504635364])","array('d', [6.242195633456443e-05, -0.018293601820447817, -0.031339997664958374, -0.03993243929930574, -0.04496807396944371, -0.047422179067168696, -0.04806613117023018, -0.04749465908896401, -0.046164244238210174, -0.04441638134622754, -0.04249552783250358, -0.0405653855521191, -0.03872460926216555, -0.03702213889430938, -0.03547215715001196, -0.03371784849620861])",-117.92098304783671,-127.59517274529372,-49.871032978101674,0.03557401888476149,-0.0036252034260157145,-0.047422179067168696,25.00000024446434,-1.0,"[-138.5872518335887, -117.52129920565292, 49.955834616386845]","[-125.59960331837249, -110.81939325447863, 53.333029112831554]","[-125.5986671522454, -123.989603684514, 46.153505705795375]",10000000000.0,0.014014482498168945
17,9.433918476104736,-139.1681671142578,-117.58673095703125,49.996376037597656,0.4468677043914793,0.013102130033075723,-0.008571191630091651,23.1664539914135,"array('d', [-117.5532455444336, -117.58662218994299, -117.65642055672832, -117.75091252082099, -117.86029867278181, -117.97717586029435, -118.09627686536122, -118.21400246625365, -118.32804269905567, -118.43706688246054, -118.54046158697766, -118.63810997440135, -118.73021064262586, -118.81713513686304, -118.89932326975593, -118.96122146854051])","array('d', [-139.6270294189453, -137.1275159052254, -134.62862217803024, -132.13047465759564, -129.6329022051433, -127.13565296548978, -124.63850087373199, -122.1412796512644, -119.64388544255182, -117.14626617617671, -114.64840691325672, -112.15031600711603, -109.65201412670187, -107.15352658107555, -104.65487858829671, -102.65583931570633])","array('d', [-49.988895416259766, -49.95500013296877, -49.93103405403016, -49.91387294454846, -49.90143404795837, -49.89230759223579, -49.885525572208664, -49.8804143133614, -49.87649902070506, -49.87344122011861, -49.87099740980863, -49.868991632825626, -49.86729733223275, -49.86582546868081, -49.86451687187417, -49.863573296619585])","array('d', [0.4736316800117492, 0.35381925190646374, 0.24540847435090513, 0.14731434426322315, 0.07325261441711033, 0.020257572614910038, -0.01597053600938751, -0.03909578898501331, -0.052268249351844244, -0.058178940097164844, -0.05908780784747165, -0.05684207767595961, -0.05289132507572079, -0.0483005551828938, -0.04376078985955264, -0.03959640369296647])","array('d', [-0.015967551618814434, -0.01122858648909132, -0.007998463420816533, -0.005767747498336113, -0.00420940795481061, -0.003110111590820175, -0.0023285491887853863, -0.001769782099090828, -0.001369136857485587, -0.0010818959566527015, -0.0008765777046767553, -0.0007304812203587131, -0.0006266907769413144, -0.0005520453565716996, -0.0004957708983390237, -0.0004485924028639202])","array('d', [-0.004280253252711041, -0.021487255933933937, -0.03358323047966381, -0.041362204217998175, -0.04568484103103694, -0.047503898165716284, -0.04757616158064664, -0.04648786411831612, -0.04468970725141862, -0.04251858104319851, -0.04021486859322963, -0.037938509932155695, -0.03578467174545957, -0.03379909407575309, -0.03199305961137423, -0.029949241497948708])",-117.97717586029435,-127.13565296548978,-49.89230759223579,0.020257572614910038,-0.003110111590820175,-0.047503898165716284,25.000000244444838,-1.0,"[-138.46399235360747, -117.5315889406054, 49.958259354628325]","[-125.46740599789513, -110.82449961993042, 53.290480227109555]","[-125.48402178959323, -124.04354215137924, 46.201288561819815]",10000000000.0,0.014171600341796875
18,9.448731660842896,-139.1681671142578,-117.58673095703125,49.996376037597656,0.4468677043914793,0.013102130033075723,-0.008571191630091651,23.1664539914135,"array('d', [-117.58673095703125, -117.62930795875212, -117.70561359121584, -117.80433060185251, -117.91595491006477, -118.03330873649318, -118.1513045748702, -118.26649559605224, -118.37670704282252, -118.48073062603363, -118.57806432359556, -118.66869259703957, -118.75290588368166, -118.83115878747908, -118.90396614980409, -118.95778462581518])","array('d', [-139.1681671142578, -136.66871352283428, -134.1699699362441, -131.671965251896, -129.174481148868, -126.67724866937368, -124.18004118677723, -121.68270025713531, -119.18513339619533, -116.68730050202153, -114.18919756184057, -111.69084206476565, -109.19226186580804, -106.69348769576364, -104.19454877378391, -102.19527534709812])","array('d', [-49.996376037597656, -49.96855111237073, -49.948857155053965, -49.93474043794411, -49.924496593143395, -49.916970931459296, -49.9113700596097, -49.90714156627692, -49.90389602067146, -49.90135578657964, -49.899321151784605, -49.89764783529241, -49.89623208812472, -49.89500092022914, -49.89390579446229, -49.893116057171916])","array('d', [0.4468677043914793, 0.32960220312323685, 0.22349598048774338, 0.12748709925718302, 0.05540214144773252, 0.004142686224990451, -0.03053434395545642, -0.052261775642097066, -0.06417094973245638, -0.06893984286347032, -0.068817578469003, -0.06564129257391725, -0.06085079331768605, -0.05550174963170216, -0.05027658377208098, -0.045492138367057906])","array('d', [-0.013102130033075723, -0.00922299527232463, -0.006576487035723801, -0.004747459954656913, -0.0034689671060225287, -0.0025666243544131147, -0.0019247840809229427, -0.001465671113685008, -0.0011362612982867986, -0.0008998697910541278, -0.0007306609513865881, -0.000610005110126713, -0.0005240269610796325, -0.00046194306943984876, -0.000414941642523443, -0.00037545506118418187])","array('d', [-0.008571191630091651, -0.024596900408120907, -0.03570790201649421, -0.04263889745806091, -0.04621500691400771, -0.04736708673472246, -0.04683784835998837, -0.04520527191132913, -0.04291433925973217, -0.04029726970952419, -0.03759022692822474, -0.034949204243663275, -0.032465684583905134, -0.030182020008887617, -0.028106422069161068, -0.025757852773980607])",-118.03330873649318,-126.67724866937368,-49.916970931459296,0.004142686224990451,-0.0025666243544131147,-0.04736708673472246,25.000000244425884,-1.0,"[-138.12723437556434, -117.5596650862497, 49.96494510660111]","[-125.10653058610481, -110.83998517767813, 53.17542400444392]","[-125.17072600426579, -124.18909559708094, 46.33458122311366]",10000000000.0,0.013584613800048828
19,9.488031148910522,-138.25022888183594,-117.65884399414062,50.01643753051758,0.3902725875377654,0.007141547277569664,-0.016710444292750135,23.170856097896195,"array('d', [-117.65884399414062, -117.71864761154977, -117.80662932323847, -117.91227111153421, -118.0266519667993, -118.14304519365048, -118.2567300357579, -118.36457623995398, -118.46469342639303, -118.5561326929854, -118.63862907439236, -118.71238293468846, -118.77788049200004, -118.83575331877395, -118.88667598664381, -118.92176688729664])","array('d', [-138.25022888183594, -135.75101071725496, -133.25259183557336, -130.754840114943, -128.25746512481675, -125.7601796788506, -123.26276821097956, -120.76509741454132, -118.26710475011882, -115.76877927929775, -113.27014237165923, -110.77123192977093, -108.27209124488263, -105.77276216593226, -103.27328164522606, -101.2735913360578])","array('d', [-50.01643753051758, -50.00124556700425, -49.99044746149264, -49.98266856924067, -49.976989501552936, -49.972786421189625, -49.96963027144266, -49.96722220689794, -49.9653516106244, -49.9638684694449, -49.96266504223595, -49.96166364354379, -49.96080851031284, -49.96006042316062, -49.959393188073, -49.95891171928424])","array('d', [0.3902725875377654, 0.2783928190909493, 0.17715980949264307, 0.08556040217059609, 0.01761181614092033, -0.02999475274663386, -0.06139467563352219, -0.08016199264472039, -0.08939283579241097, -0.09174004679872781, -0.08943102705079327, -0.08428192601834673, -0.07771178347641118, -0.07075621016213504, -0.06407911139361888, -0.05798118295330971])","array('d', [-0.007141547277569664, -0.005047040985544252, -0.0036153543253303988, -0.0026243024321906576, -0.0019305291916516824, -0.0014401177238204349, -0.0010906328365566176, -0.0008400001359475016, -0.0006594883067939304, -0.000529198194317208, -0.00043511312740964885, -0.00036713977122670283, -0.0003177900718135747, -0.00028128857125856615, -0.0002529718797166013, -0.0002288987460907471])","array('d', [-0.016710444292750135, -0.03031636916045711, -0.03938548197399739, -0.044543111457174094, -0.04654763411804366, -0.0462890492619249, -0.044484292510857636, -0.04169604775553335, -0.038358322223143344, -0.03479397038390313, -0.03123039966289166, -0.027815245394360866, -0.02463211311470495, -0.021716085787764548, -0.01906878694018806, -0.016074029282376605])",-118.14304519365048,-125.7601796788506,-49.972786421189625,-0.02999475274663386,-0.0014401177238204349,-0.0462890492619249,25.000000244391106,-1.0,"[-137.5030563901106, -117.61480759429284, 49.98189458206393]","[-124.43882278373673, -110.87070582927066, 52.95559457720738]","[-124.58973313492396, -124.4632464460648, 46.613665403311934]",10000000000.0,0.013135433197021484
20,9.50684404373169,-137.7911834716797,-117.69715118408203,50.02926254272461,0.3609156012535094,0.004332314245402712,-0.020435376963343223,23.17192488225502,"array('d', [-117.69715118408203, -117.76469771844097, -117.85761068427324, -117.96575304219107, -118.08048601758169, -118.19530442752492, -118.30567140058078, -118.40861840098859, -118.50240216384755, -118.58620897932474, -118.6598978984344, -118.72378238410231, -118.7784512028044, -118.82462854660758, -118.86307249698379, -118.88754566963962])","array('d', [-137.7911834716797, -135.2921298436046, -132.79387286587811, -130.29621967188285, -127.7988565644456, -125.30149615714252, -122.80393496959188, -120.30605715736847, -117.80781871151605, -115.30922571649043, -112.81031375466296, -110.31113173037934, -107.81173090288978, -105.31215854423932, -102.81245508161778, -100.81260649637453])","array('d', [-50.02926254272461, -50.020024949241474, -50.01341842782761, -50.0086218437455, -50.00508560148581, -50.00243666732368, -50.00041852781332, -49.99885265689497, -49.9976134245859, -49.996611559340565, -49.995783147740376, -49.99508227453839, -49.99447608736249, -49.99394149054236, -49.99346293373138, -49.993117325910475])","array('d', [0.3609156012535094, 0.2518295170204556, 0.15312433766871192, 0.06381222129475318, -0.0020140971882214457, -0.04773511306492167, -0.07743667323443586, -0.0946662205630038, -0.10250399219309497, -0.10359112538158256, -0.10014438729393736, -0.09396922912178698, -0.08647385391811178, -0.07868329499896438, -0.07125167157790516, -0.06447118437879713])","array('d', [-0.004332314245402712, -0.0030786907086574077, -0.0022208432880968503, -0.0016263437864768868, -0.001209603023269667, -0.0009144681276996445, -0.0007035619777276949, -0.0005516687100428163, -0.0004415540996647643, -0.000361277287610674, -0.00030243362782524623, -0.00025898966759206436, -0.000226502031828789, -0.00020159098948680697, -0.00018158814583264668, -0.00016430806685429974])","array('d', [-0.020435376963343223, -0.032822615604533825, -0.04085138518283333, -0.045097762631615294, -0.04628950243492614, -0.045298076653792006, -0.04282905277442286, -0.03943826876295057, -0.035554597143025, -0.03149627721233752, -0.02748623805375964, -0.023667752936788723, -0.020120278881548177, -0.016875060583497064, -0.013930245591005908, -0.010599296325675009])",-118.19530442752492,-125.30149615714252,-50.00243666732368,-0.04773511306492167,-0.0009144681276996445,-0.045298076653792006,25.00000024437594,-1.0,"[-136.29151073800284, -117.72780182845217, 50.02276409168473]","[-123.15071066888213, -110.94070211509381, 52.52369412355844]","[-123.45721711258352, -124.97184921695816, 47.229077536324475]",10000000000.0,0.01337122917175293
21,9.538995504379272,-136.8731231689453,-117.77729797363281,50.061527252197266,0.3005131483078001,-0.0007983633549885133,-0.027272864184107612,23.171932021382265,"array('d', [-117.7366943359375, -117.81137525425622, -117.90858766515666, -118.0185628525436, -118.13293775830755, -118.24542572263678, -118.35167396566571, -118.44887797626768, -118.53544499220209, -118.61070029133847, -118.67463072014444, -118.72766636644869, -118.77050171413367, -118.803956367493, -118.82887436071579, -118.84187597468133])","array('d', [-137.3321533203125, -134.83328485394242, -132.335182299887, -129.83760447777027, -127.34022271074826, -124.8427553093428, -122.34501526665903, -119.84690747619351, -117.34840881161414, -114.8495439492374, -112.35036360762633, -109.85092810925507, -107.35129672132099, -104.85152191643711, -102.35164720370456, -100.35169105820822])","array('d', [-50.0444221496582, -50.040957064971224, -50.03841154465119, -50.03650026196999, -50.035032427754466, -50.033878823682656, -50.03295092877029, -50.032187506858286, -50.03154585841989, -50.03099603491981, -50.03051696062825, -50.0300937949426, -50.02971610603829, -50.02937657531244, -50.02907004716123, -50.028848250503074])","array('d', [0.33088707923889155, 0.22465858423813156, 0.12853905878931093, 0.04156651998018373, -0.02210620603982821, -0.06590562559735438, -0.09387137143503681, -0.10952647917742306, -0.11593665939419509, -0.11573206733965158, -0.11111907406088496, -0.10389234262035303, -0.09544896040358682, -0.08680302776859432, -0.07859853077505805, -0.07111889808733199])","array('d', [-0.00160856021102509, -0.0011708109504012126, -0.0008706135357900422, -0.0006618945934508291, -0.0005148262291486987, -0.0004098089497808137, -0.00033377538141252675, -0.000277894358544785, -0.00023612125147252913, -0.0002042689084196666, -0.00017940529803950797, -0.000159459976557529, -0.00014296629271141867, -0.00012889305597291962, -0.000116535610447441, -0.00010544609343408627])","array('d', [-0.023919149241175514, -0.035082074582795976, -0.04205789535528048, -0.0453769000270418, -0.0457380105967015, -0.04399546136329206, -0.04084453174127217, -0.036834790442661115, -0.03239022862228664, -0.027824517211896695, -0.02335603335302517, -0.019123556216662348, -0.015202244539080036, -0.011619360696617828, -0.008369448805291491, -0.004693813876995157])",-118.24542572263678,-124.8427553093428,-50.033878823682656,-0.06590562559735438,-0.0004098089497808137,-0.04399546136329206,25.000000244362393,-1.0,"[-135.69110190525956, -117.78664987226767, 50.04837959054036]","[-122.51758537423878, -110.97715039667054, 52.30430048870247]","[-122.89195949581364, -125.20415467219541, 47.56592594026375]",10000000000.0,0.013190507888793945
