,x_pos,y_pos,z_pos,roll,pitch,yaw,vel,x_traj,y_traj,z_traj,roll_traj,pitch_traj,yaw_traj,x_cmd,y_cmd,z_cmd,roll_cmd,pitch_cmd,yaw_cmd,vel_cmd,effector_dmg,effector_x,effector_y,effector_z,cost,time_solution
0,-167.86680603027344,-66.19947052001953,44.8516960144043,0.6342871189117428,0.03701074421405779,0.7586235562947132,23.146420475094565,"array('d', [-67.73565673828125, -66.00148440001632, -64.31292414507546, -62.66566204906065, -61.67104712947732, -60.71316211778636, -59.788754299568566, -58.89484145702229, -58.02871638619452, -57.18793640145701, -56.37030441476046, -55.57384571570843, -54.796783233922376, -54.037513299723834, -53.294583460886265, -52.5666716093791])","array('d', [-169.63092041015625, -167.83183887187977, -165.9888251001412, -164.10844888246424, -162.91327471351738, -161.69458948260558, -160.4564787830484, -159.20231640361067, -157.9349023517425, -156.65657292294486, -155.3692888909415, -154.0747064525841, -152.77423440560108, -151.46908014778882, -150.16028641374044, -148.84875657164443])","array('d', [-44.85667037963867, -44.7829362658694, -44.74148453127526, -44.71990457873027, -44.714075952619, -44.713207900160704, -44.7157233903148, -44.72049174529045, -44.72668713575054, -44.73369505976171, -44.74105152504147, -44.74840489090548, -44.7554937050013, -44.76213598149193, -44.76822661129036, -44.77374025759083])","array('d', [0.6338295936584469, 0.5728358541707654, 0.5158064117331127, 0.46328562068285767, 0.4155196275659017, 0.37251333190207747, 0.33405788004273845, 0.29983437230838955, 0.26946224910598204, 0.24253321906508818, 0.21863597886212047, 0.19737494868257419, 0.17838503313693302, 0.16134368571182997, 0.1459811127333408, 0.13208918509139284])","array('d', [-0.037627216428518157, -0.021636027875892045, -0.011692888239384342, -0.005671758770945472, -0.0018881771791991017, 0.0007246108199406606, 0.0025016762573499382, 0.0036708293887929393, 0.004388713284513564, 0.0047652502531326715, 0.004880489647785315, 0.0047964728965278584, 0.0045657679671147824, 0.004237670434222738, 0.0038626165260746553, 0.003495040197949863])","array('d', [0.7808354655888413, 0.7538145258552009, 0.7300784834222607, 0.7091870787056562, 0.679556155251774, 0.6532666270961113, 0.62987487193223, 0.6090007468532506, 0.5903189998409394, 0.5735519737784461, 0.5584634347152, 0.5448532087884472, 0.5325523142129382, 0.5214183259795148, 0.5113307705138626, 0.5021864250723268])",-60.71316211778636,-161.69458948260558,-44.713207900160704,0.37251333190207747,0.0007246108199406606,0.6532666270961113,15.451744952846497,-1.0,"[-166.77887619822258, -65.16829252938963, 44.79619257150001]","[-162.51301743046218, -53.491872429961276, 53.190456245890225]","[-152.2012375241631, -62.03482272416493, 46.431373805587214]",10000000000.0,0.01674056053161621
1,-167.1529998779297,-65.59730529785156,44.850555419921875,0.6343033909797666,0.03692699968814843,0.749859766164098,23.152095579543193,"array('d', [-67.11585235595703, -65.39749516750601, -63.72504988882951, -62.09404941806513, -61.10951007248544, -60.16164800917007, -59.2471498279752, -58.3629952669511, -57.5064555750635, -56.67507834740841, -55.86666502224332, -55.07924490310187, -54.31104831156605, -53.560480769393045, -52.82609968880337, -52.106592826194905])","array('d', [-168.92880249023438, -167.1145749300085, -165.2569114076131, -163.36240725081637, -162.15879026683604, -160.9322119308546, -159.6867164413886, -158.42563177997593, -157.15171187044018, -155.86724890498735, -154.5741627025709, -153.27407218501313, -151.96835270844352, -150.65818198896207, -149.34457662562752, -148.02841713799657])","array('d', [-44.854164123535156, -44.781265683331966, -44.74040702340989, -44.7192644875911, -44.71364530049518, -44.71294382350765, -44.71559468335579, -44.72047547320969, -44.72676619707084, -44.73385644724214, -44.74128509294496, -44.74870248705116, -44.75584856595668, -44.76254231924886, -44.768679341608724, -44.77423483567058])","array('d', [0.6341417431831359, 0.5718622769327347, 0.5139154766608235, 0.4607366218592953, 0.41254195140457606, 0.3693234886260014, 0.33081445657077624, 0.2966503210234095, 0.2664144940429214, 0.23967030739937847, 0.21598432350041677, 0.1949440586953473, 0.17617201633797833, 0.1593372277547245, 0.14416508160348182, 0.13044597202394806])","array('d', [-0.03723260760307312, -0.021359818617657005, -0.011493291362282372, -0.0055206004980876975, -0.0017689614562088351, 0.0008207366056017359, 0.0025809639360037076, 0.003737673937824302, 0.004446192410480599, 0.004815511080974979, 0.004925024551061014, 0.004836316622837518, 0.004601639709315413, 0.0042700778201674155, 0.003891933520417201, 0.0035215673138110394])","array('d', [0.772068576016698, 0.745066862350506, 0.7214076718024304, 0.7006280922561414, 0.6712117494542936, 0.6451519567778735, 0.6219924889861124, 0.6013450650050151, 0.5828792910062587, 0.5663144551459897, 0.5514127654648325, 0.537973578122007, 0.5258282238242682, 0.5148351250341545, 0.5048749752839816, 0.49584583961663115])",-60.16164800917007,-160.9322119308546,-44.71294382350765,0.3693234886260014,0.0008207366056017359,0.6451519567778735,15.45212211517535,-1.0,"[-166.77887619822258, -65.16829252938963, 44.79619257150001]","[-162.51301743046218, -53.491872429961276, 53.190456245890225]","[-152.2012375241631, -62.03482272416493, 46.431373805587214]",10000000000.0,0.02281475067138672
2,-166.7942657470703,-65.29879760742188,44.85006332397461,0.6342859268188474,0.03678820654749859,0.7454044381764269,23.15403056806593,"array('d', [-66.8086166381836, -65.0984001969049, -63.43423445725459, -61.81157630022577, -60.832199382390584, -59.88946339180533, -58.980025088547656, -58.1008457913706, -57.249186620689294, -56.42259096485745, -55.61886016472897, -54.83602614299583, -54.072323493359335, -53.32616286820885, -52.596107103374194, -51.88084929559615])","array('d', [-168.5759735107422, -166.75405569735736, -164.88896561585722, -162.9873088993934, -161.7794245093349, -160.54886288569503, -159.29964575530076, -158.0350768245484, -156.75788590699747, -155.47034230175979, -154.17434467965649, -152.87149278344668, -151.56314480558459, -150.25046325463876, -148.9344513548454, -147.6159778696815])","array('d', [-44.85306167602539, -44.78051037174182, -44.739900137986616, -44.7189423818549, -44.71341241092435, -44.71278253692711, -44.7154921395565, -44.720422187826216, -44.72675506139549, -44.73388201145606, -44.74134305790325, -44.74878934809403, -44.75596136757844, -44.762678491351494, -44.7688365968685, -44.774411114105476])","array('d', [0.6341733336448666, 0.5712533807079462, 0.5128527603092649, 0.4593508271155397, 0.4109484145142803, 0.3676309675240753, 0.32910240637072025, 0.29497515716984635, 0.2648144661801512, 0.23816937132664456, 0.2145952960279755, 0.19367125930572118, 0.17501354055620838, 0.15828695574438512, 0.14321449710149822, 0.12958584751964444])","array('d', [-0.03706925734877575, -0.02124453407757698, -0.01140928514654651, -0.005456446168263259, -0.0017179327184477808, 0.0008622623524448883, 0.0026155459563499436, 0.0037671066128753534, 0.004471725462522119, 0.004838009315292549, 0.004945082902566105, 0.004854343120696144, 0.004617915863504926, 0.004284803337116753, 0.003905260248512263, 0.0035336258371404684])","array('d', [0.7675815979626517, 0.7405966202741903, 0.7169822040033704, 0.6962641732308487, 0.6669631674176711, 0.6410254730100723, 0.6179886725679725, 0.5974605016667001, 0.5791080627038793, 0.5626491707559134, 0.5478453008504383, 0.5344956149161841, 0.5224316372283693, 0.5115122487396282, 0.5016187589613276, 0.49264990726068303])",-59.88946339180533,-160.54886288569503,-44.71278253692711,0.3676309675240753,0.0008622623524448883,0.6410254730100723,15.45229915153948,-1.0,"[-166.05607151491688, -64.57569800868093, 44.79517750797611]","[-161.6644296757623, -52.927450833005196, 53.16367914751406]","[-151.44835678405602, -61.5454030374763, 46.35465906582865]",10000000000.0,0.017989158630371094
3,-166.43202209472656,-65.0005111694336,44.848873138427734,0.6343123316764829,0.03677645698189715,0.7409102479603628,23.15599256385197,"array('d', [-66.50315856933594, -64.80121227913277, -63.145454477007746, -61.53126673972553, -60.557132454450525, -59.6196018415997, -58.715301566383204, -57.84117438277335, -56.99447122048192, -56.172731259948264, -55.373755785692566, -54.59557940740795, -53.836441073087265, -53.09475665267422, -52.36909449045542, -51.65815312982048])","array('d', [-168.22198486328125, -166.39233471096762, -164.51977421434952, -162.61092115562653, -161.39874305742575, -160.16417300479583, -158.9112101427865, -157.6431337891725, -156.36264954280173, -155.07200371702007, -153.77307375298474, -152.4674401424562, -151.15644385032203, -149.84123212048513, -148.52279475098987, -147.2019887526997])","array('d', [-44.85234069824219, -44.77989618899331, -44.73937154394618, -44.71848412396214, -44.712991147072124, -44.712393571120174, -44.71513185556872, -44.720087765876904, -44.72644422991928, -44.73359285237789, -44.741073865382454, -44.74853853445241, -44.75572740913642, -44.762459907819355, -44.76863195926708, -44.77421907731374])","array('d', [0.634227097034454, 0.5706569510839673, 0.511795263612534, 0.4579646793985661, 0.409350415254813, 0.36593126400443265, 0.3273815248638469, 0.2932903295758816, 0.26320454764842516, 0.23665874649410462, 0.21319706358667723, 0.19238990109277304, 0.17384722111513748, 0.15722955635225483, 0.14225745961594774, 0.12871988411382265])","array('d', [-0.037021543830632976, -0.02120661065246709, -0.011378607247962642, -0.005430769620770586, -0.0016957573906277528, 0.0008818147195611053, 0.0026331108968231515, 0.003783117443854236, 0.0044864602836915245, 0.004851633975363967, 0.0049576870997435785, 0.004865969928288509, 0.0046285859606121915, 0.0042945352867837195, 0.003914087879006246, 0.003541613408245433])","array('d', [0.7630459229138232, 0.7360766715374095, 0.7125065124013211, 0.6918498297717476, 0.6626641683299695, 0.6368488224405521, 0.6139351000380957, 0.5935266918178183, 0.5752881495367134, 0.5589357800508091, 0.5442303001588578, 0.530970660785842, 0.5189885699943364, 0.508143362937573, 0.49831696475049597, 0.4894087907595198])",-59.6196018415997,-160.16417300479583,-44.712393571120174,0.36593126400443265,0.0008818147195611053,0.6368488224405521,15.452468981173478,-1.0,"[-165.6927910533118, -64.28208241369423, 44.79489346034458]","[-161.23731635774453, -52.64854439296688, 53.150103712483734]","[-151.07016442046805, -61.3051239256373, 46.3169015144739]",10000000000.0,0.026404619216918945
4,-166.06869506835938,-64.70413208007812,44.84773254394531,0.6341593265533443,0.03658453747630111,0.7364779273655748,23.156966623236087,"array('d', [-66.19947052001953, -64.50559471852047, -62.85782958678795, -61.86280427457411, -60.90795624363351, -59.98946140083083, -59.10385098998674, -58.24801182296488, -57.41916761244134, -56.61485076542032, -55.83286983875284, -55.07127582010262, -54.32832936366767, -53.602470557351076, -52.892292481017684, -52.19651765138676])","array('d', [-167.86680603027344, -166.02970323823035, -164.15014675993922, -162.94864524018755, -161.72102114694826, -160.47210267353665, -159.20579351657432, -157.9252739567787, -156.63315360320766, -155.33158912130398, -154.02237610987484, -152.707021475909, -151.38680074711658, -150.06280345370357, -148.73596880115352, -147.40710949777267])","array('d', [-44.8516960144043, -44.77863815055793, -44.73612530198591, -44.72128337301652, -44.71412072161574, -44.71225860782575, -44.71402220315375, -44.718212744105735, -44.72395630228948, -44.73060395359493, -44.737666829649136, -44.744775236068364, -44.75165468475744, -44.758113973164924, -44.76404179464474, -44.7694090933724])","array('d', [0.6342871189117428, 0.5678762941561794, 0.5069039664219689, 0.45174964688913694, 0.40249063660479595, 0.35881312521612074, 0.3202848258364822, 0.2864115389259477, 0.25667470535393383, 0.23055759373969698, 0.2075645116215231, 0.18723561174198602, 0.16915883684466404, 0.1529799587505702, 0.1384113287565681, 0.12523976068238882])","array('d', [-0.03701074421405779, -0.02169985983929062, -0.01246621541246187, -0.006657065524548392, -0.0026208301582797758, 0.0001720424978111693, 0.002078681435883595, 0.0033417276269840385, 0.004127957727241636, 0.00455434510427525, 0.00470595194997001, 0.004648478625602086, 0.004437251241482201, 0.004123724031920819, 0.0037600912262357533, 0.0034022714619825847])","array('d', [0.7586235562947132, 0.7317330055330544, 0.7083675538934548, 0.6757126250159949, 0.6470294195734239, 0.6217302654671171, 0.5993260581766942, 0.5794075477996471, 0.5616313268230939, 0.5457092137682892, 0.5313999365732158, 0.518502282380202, 0.506849109610298, 0.496301796291338, 0.4867448293372149, 0.47808035592954])",-59.98946140083083,-160.47210267353665,-44.71225860782575,0.35881312521612074,0.0001720424978111693,0.6217302654671171,15.452989567412132,-1.0,"[-164.95818035852574, -63.69728206210823, 44.7928679783575]","[-160.37509094845294, -52.09297722721365, 53.11965612013947]","[-150.30659076875395, -60.8265957579779, 46.238579787871885]",10000000000.0,0.01785874366760254
5,-166.06869506835938,-64.70413208007812,44.84773254394531,0.6341593265533443,0.03658453747630111,0.7364779273655748,23.156966623236087,"array('d', [-65.59730529785156, -63.91956818521207, -62.28818845980147, -61.303380765088, -60.3587302655783, -59.45032975712732, -58.57465709903728, -57.72856724284963, -56.90926754168265, -56.114285031113575, -55.34143045083551, -54.588761894471965, -53.85455004002776, -53.13724642300582, -52.43545593600466, -51.74791240973959])","array('d', [-167.1529998779297, -165.30113895187782, -163.40733902662654, -162.19729149543548, -160.9617051866435, -159.70536891009465, -158.432139410022, -157.14514837146615, -155.8469582751403, -154.53968169664012, -153.22507390003744, -151.90460544964694, -150.57951948795198, -149.25087692746305, -147.91959184291898, -146.58645454273244])","array('d', [-44.850555419921875, -44.7776867891984, -44.73532914649019, -44.72056746138159, -44.71347424557542, -44.71167315647525, -44.71349129714632, -44.717731312797675, -44.7235202271974, -44.73020971344271, -44.73731124641492, -44.74445530967438, -44.7513675024206, -44.75785668137875, -44.76381162440325, -44.76920343315123])","array('d', [0.6343033909797666, 0.5666221963299414, 0.5047101839299909, 0.4489079247066358, 0.39927562840308517, 0.35542859043296143, 0.31687937713685466, 0.2830905115916145, 0.2535093008856251, 0.22759211826070408, 0.20482227799606803, 0.18472389699369737, 0.16687316568900365, 0.15090790324754635, 0.13653596056753578, 0.1235428572186648])","array('d', [-0.03692699968814843, -0.02163188756994109, -0.012409811372454798, -0.006609002715238095, -0.002579049114620122, 0.00020913135210468928, 0.002112213022417231, 0.0033724615163390824, 0.004156368467311892, 0.004580703854241277, 0.004730394489957845, 0.004671060646303996, 0.004457993560592946, 0.004142650399572911, 0.003777260774448438, 0.0034178071130593047])","array('d', [0.749859766164098, 0.7230049575328948, 0.699731194059809, 0.6672797588835092, 0.6388283402198746, 0.6137718822453148, 0.5916101177739064, 0.5719265980782542, 0.5543733739343226, 0.5386595870978131, 0.5245426426582299, 0.5118210021576306, 0.5003279237587412, 0.48992568496784744, 0.48049997123778326, 0.47195424187003576])",-59.45032975712732,-159.70536891009465,-44.71167315647525,0.35542859043296143,0.00020913135210468928,0.6137718822453148,15.453213876625991,-1.0,"[-164.95818035852574, -63.69728206210823, 44.7928679783575]","[-160.37509094845294, -52.09297722721365, 53.11965612013947]","[-150.30659076875395, -60.8265957579779, 46.238579787871885]",10000000000.0,0.017946720123291016
6,-165.33863830566406,-64.1172866821289,44.84553146362305,0.6313345432281493,0.035191074013709966,0.7279111305859426,23.1551291363868,"array('d', [-65.29879760742188, -63.62930915282063, -62.006301629456885, -61.02671398098279, -60.087269546683515, -59.18401918591846, -58.31341399118636, -57.47229307985887, -56.65785581888529, -55.86762680666986, -55.099418150496355, -54.351291782087806, -53.621523672256934, -52.90857134788776, -52.21104585643474, -51.52768702045673])","array('d', [-166.7942657470703, -164.93495315563757, -163.03396808723934, -161.8196131791147, -160.58001633888844, -159.31994551620443, -158.043233155163, -156.75298605093667, -155.45174268505917, -154.14159326076518, -152.82427262203052, -151.5012329617638, -150.1737010675051, -148.84272340819095, -147.50920137919823, -146.1739141952923])","array('d', [-44.85006332397461, -44.777491447164515, -44.73535048057355, -44.720691320388724, -44.71367882667062, -44.71194265438485, -44.713814200967626, -44.71809914565058, -44.723926634268, -44.73064981200263, -44.737781168111454, -44.74495188242448, -44.7518880336196, -44.75839881526587, -44.764373254647836, -44.76978265768543])","array('d', [0.6342859268188474, 0.5659630410003195, 0.5035770573992174, 0.44744850941057124, 0.397628860136194, 0.35369749827862873, 0.3151390921018038, 0.28139427736897443, 0.25189309451222736, 0.22607830569476312, 0.20342259581158406, 0.18344195895949134, 0.1657066308817998, 0.1498504011914838, 0.13557884184257263, 0.12267682030437589])","array('d', [-0.03678820654749859, -0.021532514213810323, -0.012335401370373006, -0.0065510041157801294, -0.002532838310611224, 0.00024683589180616466, 0.0021437157659121467, 0.0033993676130873473, 0.004179788094355781, 0.004601399825782883, 0.004748888066353596, 0.004687707452699206, 0.004473038545930295, 0.004156268292965426, 0.0037895866053780647, 0.0034289599870999925])","array('d', [0.7454044381764269, 0.7185691486612799, 0.695342969898549, 0.6629960268652063, 0.6346631848836557, 0.6097306668425557, 0.5876926053455505, 0.5681289363891112, 0.5506894266028565, 0.5350818697153856, 0.5210630042521655, 0.5084311285557487, 0.4970197046409972, 0.4866914673019956, 0.4773327112563441, 0.4688475616582896])",-59.18401918591846,-159.31994551620443,-44.71194265438485,0.35369749827862873,0.00024683589180616466,0.6097306668425557,15.453314172124719,-1.0,"[-164.2194829821796, -63.11993715178807, 44.79275574718722]","[-159.51406122470246, -51.525527627556365, 53.0649183343627]","[-149.5405659212941, -60.358159474313155, 46.17187792446015]",10000000000.0,0.021512746810913086
7,-164.60400390625,-63.53874969482422,44.84342575073242,0.6221205592155454,0.032217204570770146,0.7197750965741018,23.141720790390522,"array('d', [-65.0005111694336, -63.339384433772814, -61.72486266909536, -60.750567842023464, -59.8164029584997, -58.91837650566565, -58.052912481744485, -57.216833940971036, -56.40733211704308, -55.62192908816106, -54.858438293455734, -54.11492549953163, -53.38967198694697, -52.68114130124178, -51.98795067513194, -51.30884595430874])","array('d', [-166.43202209472656, -164.56523392833623, -162.65703551451827, -161.43835459498888, -160.19472811466926, -158.9309034234181, -157.65068880118898, -156.35716622881074, -155.05285023304216, -153.73980867181172, -152.4197559853981, -151.094126004508, -149.7641291657268, -148.43079749447782, -147.09501970385836, -145.75756391393716])","array('d', [-44.848873138427734, -44.776333357260036, -44.734227640146266, -44.71959008853137, -44.712599129004325, -44.71088407116822, -44.71277619208774, -44.71708110260859, -44.72292786873288, -44.72966953026541, -44.73681845237182, -44.74400568710625, -44.75095719955347, -44.75748210248303, -44.76346939371857, -44.76889041910807])","array('d', [0.6343123316764829, 0.5653361166370549, 0.5024668155754056, 0.44600460917981194, 0.395992092852018, 0.3519723618426933, 0.31340188450615897, 0.27969915982186033, 0.2502767495687376, 0.22456362361029591, 0.20202168405661294, 0.18215867531910032, 0.16453877748924273, 0.14879167527709325, 0.13462061177735216, 0.12180977780774689])","array('d', [-0.03677645698189715, -0.021518612261631036, -0.012321106207294617, -0.0065368971545242014, -0.002519040796861494, 0.00026031021386681015, 0.0021568600448312516, 0.0034121490566236486, 0.004192144331246752, 0.00461324678842956, 0.004760131811446187, 0.004698256982573467, 0.004482818676096057, 0.004165232331294674, 0.003797728757008325, 0.003436327311223869])","array('d', [0.7409102479603628, 0.714092274780905, 0.6909121713165828, 0.6586680361307753, 0.6304526221219094, 0.6056432823166129, 0.5837284426455787, 0.5642843433952148, 0.5469584052717477, 0.5314570269350776, 0.5175362454852578, 0.504994171353307, 0.4936644540000538, 0.48341027562272054, 0.4741185350714045, 0.4656940211801142])",-58.91837650566565,-158.9309034234181,-44.71088407116822,0.3519723618426933,0.00026031021386681015,0.6056432823166129,15.453406698016224,-1.0,"[-164.1172406360408, -63.041152149235, 44.79299236619505]","[-159.39569487663655, -51.44327054871877, 53.0510882739851]","[-149.43472269272485, -60.29426589853998, 46.16349693384445]",10000000000.0,0.0196988582611084
8,-164.2350311279297,-63.25274658203125,44.842613220214844,0.6146904826164242,0.0300389770418404,0.7159180204060412,23.129412512548228,"array('d', [-64.70413208007812, -63.051240808361015, -62.0537641720741, -61.10084160843552, -60.187853111823586, -59.31065819921897, -58.46558863133252, -57.64941637962582, -56.85931116082686, -56.09279434501921, -55.347692772343464, -54.622094571818714, -53.91430842387203, -53.222827395690786, -52.546298311603, -51.883495313127604])","array('d', [-166.06869506835938, -164.19464454328406, -162.98853252090294, -161.75281806248836, -160.4934102074086, -159.21495660324706, -157.92115589903898, -156.61498124806903, -155.29884435505625, -153.9747185847597, -152.64423302282447, -151.30874529628974, -149.96939838448583, -148.6271649822974, -147.28288186946642, -145.9372715565816])","array('d', [-44.84773254394531, -44.774194231804984, -44.746012026521825, -44.729548737097005, -44.721191931273665, -44.71843686162875, -44.71952238862312, -44.72318964262589, -44.72852219119797, -44.734840654994535, -44.74163413326111, -44.74851693174339, -44.755203007268435, -44.76149298546948, -44.76727005514015, -44.7725018336873])","array('d', [0.6341593265533443, 0.5617516165823371, 0.496649988517607, 0.4390188755697907, 0.3883782991139947, 0.34412865254986585, 0.30561626609212345, 0.27217360185905803, 0.24314555886807476, 0.2179079151028116, 0.19588115784657892, 0.17654150624806997, 0.15943016215878814, 0.14416141292362467, 0.13042998697629576, 0.11801794333936443])","array('d', [-0.03658453747630111, -0.022490211115744937, -0.013663479109736242, -0.007537530122289123, -0.0032777634114327108, -0.00032528115938136327, 0.0016964353797101939, 0.0030430557229122095, 0.003890267135491267, 0.004361256261911433, 0.004545514817713376, 0.0045119849210592845, 0.004318439785598761, 0.004018246561895987, 0.003665149596864908, 0.0033163647154395553])","array('d', [0.7364779273655748, 0.7097675118870502, 0.67314694541463, 0.6414143056055941, 0.6137522740544822, 0.5895066968838485, 0.568145981178623, 0.5492335937746191, 0.5324090354663825, 0.5173742118316379, 0.5038831769121964, 0.49173392234823465, 0.4807613414169171, 0.47083079727396837, 0.46183192113660027, 0.4536724205489678])",-59.31065819921897,-159.21495660324706,-44.71843686162875,0.34412865254986585,-0.00032528115938136327,0.5895066968838485,15.453660035655918,-1.0,"[-163.8486158346811, -62.83415545703509, 44.79362227185841]","[-159.0847587667031, -51.22735654306534, 53.014807393636566]","[-149.1567363106868, -60.12651741034997, 46.141721771368665]",10000000000.0,0.020329713821411133
9,-164.2350311279297,-63.25274658203125,44.842613220214844,0.6146904826164242,0.0300389770418404,0.7159180204060412,23.129412512548228,"array('d', [-64.1172866821289, -62.480281246506124, -61.492642431760835, -60.549413127768986, -59.64588738347316, -58.77787471415477, -57.94168109556762, -57.134069290828066, -56.3522111525117, -55.593637792981156, -54.856190649993486, -54.13797525050736, -53.4373189424632, -52.752733617964076, -52.082884322023595, -51.42656257667264])","array('d', [-165.33863830566406, -163.45057951196713, -162.23619321602783, -160.99294665155753, -159.72667094544298, -158.44193847208115, -157.14237843911044, -155.8309014165628, -154.50986343551273, -153.18118872126243, -151.8464632105804, -150.50700678280734, -149.16392949125137, -147.81817537910283, -146.47055633891486, -145.1217736781484])","array('d', [-44.84553146362305, -44.77495460270062, -44.7481021117734, -44.732620410053606, -44.724999538569875, -44.72280581914793, -44.72432761422369, -44.728340732872816, -44.73395319426676, -44.7405029697059, -44.74749153471812, -44.754542045372375, -44.76137477111194, -44.76779478871797, -44.77368834239184, -44.77902503385974])","array('d', [0.6313345432281493, 0.5580443335007382, 0.4923684390059991, 0.434446168919318, 0.38371922185113844, 0.3395297168080153, 0.3011797690001134, 0.267967808093261, 0.23921234158847768, 0.21426870019338629, 0.1925417109571389, 0.17349591219527438, 0.15666422796726576, 0.14165565196625027, 0.12816229542254404, 0.11596605098312002])","array('d', [-0.035191074013709966, -0.021506644119707916, -0.012940698214985445, -0.0069981943019456335, -0.0028684555270196846, -8.90992946365102e-06, 0.0019457921509571999, 0.003243643298503096, 0.004055019205456354, 0.004499399568291168, 0.004663659963044354, 0.004614869415327813, 0.0044094352597479425, 0.004099706207463993, 0.003738648321197628, 0.0033828691173990637])","array('d', [0.7279111305859426, 0.7013879641555367, 0.6651057682244663, 0.6337234067501614, 0.6064086886726825, 0.5824987563395416, 0.5614568396048939, 0.5428434023311547, 0.5262963885230661, 0.5115171725857065, 0.49826003481763254, 0.4863237573944755, 0.4755444315693281, 0.4657888861640058, 0.45694835370267467, 0.44893214689564026])",-58.77787471415477,-158.44193847208115,-44.72280581914793,0.3395297168080153,-8.90992946365102e-06,0.5824987563395416,15.453697558473214,-1.0,"[-163.10380511578765, -62.26872521299287, 44.79756153069006]","[-158.22720732161184, -50.59624214344078, 52.85807844617753]","[-148.386993631228, -59.67146691097354, 46.08973374851751]",10000000000.0,0.01900625228881836
10,-163.4939422607422,-62.68761444091797,44.84246826171875,0.5940265655517576,0.02462990209460249,0.708407835164342,23.09328888881408,"array('d', [-63.82695770263672, -62.19744279121484, -61.21428808768351, -60.27529913037492, -59.37575617365745, -58.51146746908928, -57.678745249281675, -56.87436308360787, -56.095506304942035, -55.33972093124264, -54.60486386783782, -53.889056064297606, -53.19063982306984, -52.508141239805035, -51.8402386414853, -51.185735830653684])","array('d', [-164.97189331054688, -163.07726632715946, -161.85915543982347, -160.6126570982815, -159.34352873284757, -158.0562824440358, -156.75449772982776, -155.44104383167434, -154.1182421751874, -152.78798783406972, -151.4518420639501, -150.1111037618025, -148.7668650839445, -147.42005476775117, -146.0714715869619, -144.72180556253704])","array('d', [-44.84452819824219, -44.77659658156988, -44.750927154971926, -44.73631366563936, -44.72933941896695, -44.72763513021621, -44.72953391120011, -44.73384290908132, -44.73969226919091, -44.74643570762569, -44.75358597450595, -44.76077432303805, -44.767726818034795, -44.77425262392824, -44.780240769477274, -44.785662617454086])","array('d', [0.6276533007621764, 0.5543014529510828, 0.488657782528106, 0.4308500775869553, 0.380290900134398, 0.33630188212524537, 0.29817041153207596, 0.26518418671452765, 0.23665387027446824, 0.21192911317899374, 0.19041074207274802, 0.17156063464970128, 0.15491014823371593, 0.1400676200712697, 0.12672527502834258, 0.11466578104219655])","array('d', [-0.03394380211830136, -0.020630674527655702, -0.012300175710206971, -0.006522986657113844, -0.002510300438890623, 0.00026564755087708856, 0.002160133976971765, 0.0034142538284633113, 0.004193619834949793, 0.0046143878697636545, 0.004761082473410448, 0.004699080302572636, 0.004483542596637003, 0.004165874620965988, 0.0037983053918175694, 0.0034368490720206096])","array('d', [0.723817185559545, 0.6975058372592803, 0.6615360652001584, 0.63044067149203, 0.6033888169196618, 0.5797192338345813, 0.5588967149417362, 0.5404832006560061, 0.5241180333930368, 0.5095039301638188, 0.4963964755455254, 0.4845957250029713, 0.4739390093995846, 0.46429435272021635, 0.455554121622858, 0.4476286813207061])",-58.51146746908928,-158.0562824440358,-44.72763513021621,0.33630188212524537,0.00026564755087708856,0.5797192338345813,15.453675228916941,-1.0,"[-163.10380511578765, -62.26872521299287, 44.79756153069006]","[-158.22720732161184, -50.59624214344078, 52.85807844617753]","[-148.386993631228, -59.67146691097354, 46.08973374851751]",10000000000.0,0.017649412155151367
11,-163.12197875976562,-62.40858459472656,44.84345626831055,0.5810015201568602,0.021378381177782936,0.704669610657964,23.067614616396074,"array('d', [-63.53874969482422, -61.91654245284187, -60.93763469593178, -60.002510621497386, -59.10645903037905, -58.24530523378294, -57.415382642282644, -56.613487764488205, -55.83682929627154, -55.08297624568486, -54.349807647151344, -53.6354654211692, -52.93831151336108, -52.25689025566923, -51.5898967917084, -50.93615039025905])","array('d', [-164.60400390625, -162.70298493674537, -161.48137408346415, -160.23193629714214, -158.96032778694862, -157.67098212938663, -156.36741676593712, -155.0524511218888, -153.72836610778424, -152.3970234865661, -151.0599568758642, -149.718442065348, -148.37355176759002, -147.02619827060514, -145.67716636866328, -144.327134216571])","array('d', [-44.84342575073242, -44.77915353363725, -44.75511859643315, -44.7417022690137, -44.73561766860981, -44.73458500086857, -44.736999521007924, -44.74171189139978, -44.747882995817896, -44.754888444325566, -44.76225668507123, -44.76963026091067, -44.77674332597029, -44.78341075086245, -44.78952544197087, -44.795061192180896])","array('d', [0.6221205592155454, 0.5490000142533928, 0.48363676875303635, 0.42614790827617655, 0.37592403573870287, 0.33227251800961827, 0.29447135863608276, 0.2618021077300091, 0.23357151466604775, 0.20912691509659692, 0.18786799274896665, 0.16925635593517938, 0.15282374590496275, 0.13817936806107284, 0.12501666573441736, 0.11311976728022209])","array('d', [-0.032217204570770146, -0.019420069651955075, -0.011416407068040002, -0.005868565104211216, -0.0020182181850640973, 0.0006418149228371247, 0.0024528346760126145, 0.003646377167162965, 0.004381458384541233, 0.004769630512144363, 0.004892159178021899, 0.004812070914247537, 0.0045827910934867705, 0.004254404308486629, 0.00387810076515363, 0.003509050918120744])","array('d', [0.7197750965741018, 0.693770970228616, 0.658230902032973, 0.6275153486339614, 0.6008014680822497, 0.5774340932971751, 0.5568827486249253, 0.5387131395260311, 0.5225676929112667, 0.5081517256679696, 0.49522306823956724, 0.4835837528894234, 0.47307287213536453, 0.46356002995661266, 0.4549390118555092, 0.44712145273839804])",-58.24530523378294,-157.67098212938663,-44.73458500086857,0.33227251800961827,0.0006418149228371247,0.5774340932971751,15.453624583856623,-1.0,"[-162.35518963829054, -61.71197218134465, 44.80552714378572]","[-157.3715139394643, -49.919424618928964, 52.622099187661]","[-147.6150913437311, -59.22453566491407, 46.04736523446163]",10000000000.0,0.019483327865600586
12,-162.7491912841797,-62.131980895996094,44.845760345458984,0.566497206687927,0.017944121733307703,0.700919405617986,23.038479814040528,"array('d', [-63.25274658203125, -61.637412318118145, -60.662352464353134, -59.73055249857645, -58.83733438184424, -57.97856027453296, -57.150600629222325, -56.350287612885786, -55.57486350318741, -54.821928542682514, -54.08939059429165, -53.375418054673275, -52.678397108688344, -51.99689423887696, -51.329624812855805, -50.6754265488604])","array('d', [-164.2350311279297, -162.32801358185316, -161.10325705054024, -159.8513122376795, -158.5777079424936, -157.2867820708765, -155.98197859223194, -154.66605942582504, -153.34125974720845, -152.00940444861112, -150.67199707435378, -149.3302886356773, -147.9853312488201, -146.63801995031645, -145.2891249891581, -143.9393121716012])","array('d', [-44.842613220214844, -44.78295570783547, -44.76098010210938, -44.74907015801802, -44.74410334104618, -44.74391304389039, -44.74697308400878, -44.75218913449739, -44.75876095094015, -44.76609184814098, -44.7737301554518, -44.7813327268558, -44.78864397814777, -44.79548601888784, -44.801756666738676, -44.80743277459744])","array('d', [0.6146904826164242, 0.5421199639084848, 0.47730465656917703, 0.42035230207856994, 0.37064017001410915, 0.3274686655309535, 0.2901125888891937, 0.257852591258838, 0.2299959775022285, 0.2058915668985997, 0.18494110687154158, 0.1666086026737234, 0.15042833889220728, 0.13601206143859954, 0.12305562737993714, 0.11134534623817026])","array('d', [-0.0300389770418404, -0.01789445353432927, -0.010303873919037075, -0.005045795440566946, -0.0014005134536396785, 0.0011131175263883386, 0.0028187401751450427, 0.003935822572602309, 0.004615055261307816, 0.0049621799912760965, 0.005054347003379811, 0.004951611533830551, 0.004705199738455379, 0.004363517702802019, 0.003976429515234032, 0.0035980224584958435])","array('d', [0.7159180204060412, 0.6903163067634969, 0.6553219605529322, 0.6250773107555887, 0.5987743761118492, 0.575768754335696, 0.5555379833668466, 0.537653906292958, 0.5217637817847032, 0.5075768260361524, 0.49485408303377915, 0.48340027799801505, 0.47305678894502917, 0.46369517829631696, 0.4552109233222534, 0.44751713244410823])",-57.97856027453296,-157.2867820708765,-44.74391304389039,0.3274686655309535,0.0011131175263883386,0.575768754335696,15.453546843548326,-1.0,"[-162.26628019455947, -61.64693624129073, 44.806908173674046]","[-157.26994813247637, -49.8359826250706, 52.587527724898536]","[-147.523465975616, -59.17281217651104, 46.04308737500221]",10000000000.0,0.02083587646484375
13,-162.37835693359375,-61.86006164550781,44.85002899169922,0.5507244467735288,0.014259929768741058,0.6973081986096239,23.000520188073082,"array('d', [-62.68761444091797, -61.6898627805191, -60.73922463931714, -59.830359114936414, -58.958552075932985, -58.11968402342038, -57.310176925433645, -56.52693458346827, -55.76728250433923, -55.02890991190443, -54.309815276313465, -53.60825628986762, -52.92270506713892, -52.25180929286182, -51.59436001184106, -50.94926418206464])","array('d', [-163.4939422607422, -162.28116440559992, -161.037008076451, -159.76815010178598, -158.47973503990548, -157.175785835156, -155.8594862660932, -154.53338166040916, -153.1995256452765, -151.85959001719232, -150.51494855372735, -149.16674180343333, -147.81592752633037, -146.46331993661988, -145.10961989431755, -143.7554322151519])","array('d', [-44.84246826171875, -44.811599427032384, -44.79373514052858, -44.78480838362254, -44.78203231233236, -44.783472049901135, -44.78776250759675, -44.79392229377282, -44.80123106380943, -44.809149169605796, -44.81726595963649, -44.82526789059515, -44.83292064807692, -44.840061332106806, -44.84659782912761, -44.85251304214135])","array('d', [0.5940265655517576, 0.5206456058674291, 0.4561968240122228, 0.40001310723808664, 0.35132696374529404, 0.30933632424894125, 0.27324187413642553, 0.24227002028045597, 0.2156883385419136, 0.19281692808140632, 0.17303743572595834, 0.15580068986554874, 0.14063347199128143, 0.127144748212626, 0.11503158051709392, 0.10408488773499454])","array('d', [-0.02462990209460249, -0.014837782675187955, -0.008091237141390017, -0.0034249218694672088, -0.00019782397674247352, 0.0020179756795073007, 0.0035099558066601336, 0.004472854903599637, 0.005040309328741004, 0.0053061676218908675, 0.005339158530850702, 0.00519324590571689, 0.004915118881196319, 0.004549673051993139, 0.004143932926964164, 0.003749585826760068])","array('d', [0.708407835164342, 0.6695151494586067, 0.6362559155691959, 0.6076020829630998, 0.5827556510779828, 0.5610820089232643, 0.5420676743868418, 0.5252927135093621, 0.5104120677252683, 0.4971422938333242, 0.4852515603442925, 0.47455155089860385, 0.46489042263211783, 0.4561462782027045, 0.448220805584838, 0.44103288998523854])",-58.11968402342038,-157.175785835156,-44.783472049901135,0.30933632424894125,0.0020179756795073007,0.5610820089232643,15.453276265443815,-1.0,"[-161.22861356065508, -60.89692474983743, 44.82863982196222]","[-156.08722835103003, -48.8508353442638, 52.140129968244004]","[-146.45585939432624, -58.5774426587235, 46.005813203506335]",10000000000.0,0.018142223358154297
14,-162.37835693359375,-61.86006164550781,44.85002899169922,0.5507244467735288,0.014259929768741058,0.6973081986096239,23.000520188073082,"array('d', [-62.40858459472656, -61.41465618715376, -60.46678976721753, -59.55975789191302, -58.68895201590399, -57.850346931075016, -57.04044744466071, -56.256229703137755, -55.49508232032703, -54.754749649651245, -54.033278480820826, -53.328969062682646, -52.64033122366792, -51.96604631070131, -51.30493563641023, -50.65593396950324])","array('d', [-163.12197875976562, -161.90595983567968, -160.6596710299265, -159.38951629023123, -158.10044930233772, -156.79635552892276, -155.48031722481, -154.15480314306083, -152.821808089318, -151.48295794023483, -150.13959009686909, -148.79281589865406, -147.44356935376226, -146.092645134909, -144.7407278538875, -143.3884096004499])","array('d', [-44.84345626831055, -44.816964884428536, -44.80225642519313, -44.79563523385556, -44.79456776393346, -44.797293213950574, -44.80256719246308, -44.80949280080436, -44.817409419685, -44.825820002015824, -44.83434449983548, -44.84269142455587, -44.85064229080498, -44.85804536793182, -44.86481611006153, -44.87094210584769])","array('d', [0.5810015201568602, 0.5091059728686972, 0.445980205074122, 0.3909641318353656, 0.34330268889664717, 0.30220802760978677, 0.26689528170633736, 0.23660483976716268, 0.21061746903430106, 0.18826549792235506, 0.1689417251910593, 0.15210695542134373, 0.13729667392052144, 0.1241271790538681, 0.11230139140452115, 0.10161451024387481])","array('d', [-0.021378381177782936, -0.012499890251940123, -0.006388003854894851, -0.002166613507907662, 0.0007456724543781834, 0.002736715108863703, 0.004066884416456268, 0.0049124154382930805, 0.0053941864790767995, 0.005597141132298292, 0.005583696073787789, 0.00540325081074683, 0.005099107907786534, 0.004713569356310474, 0.0042916015488733555, 0.003883201933398193])","array('d', [0.704669610657964, 0.6668338476118387, 0.6344428250470995, 0.6065164663755509, 0.5822892106804204, 0.561149219897359, 0.5425995489868003, 0.5262326296435367, 0.511712874734131, 0.4987642309713331, 0.48716070911193315, 0.47671865227064975, 0.4672899568187427, 0.4587557456063379, 0.4510201731651066, 0.44400417792978664])",-57.850346931075016,-156.79635552892276,-44.797293213950574,0.30220802760978677,0.002736715108863703,0.561149219897359,15.453125879793875,-1.0,"[-161.22861356065508, -60.89692474983743, 44.82863982196222]","[-156.08722835103003, -48.8508353442638, 52.140129968244004]","[-146.45585939432624, -58.5774426587235, 46.005813203506335]",10000000000.0,0.015125513076782227
15,-161.63458251953125,-61.323368072509766,44.86249923706055,0.516675770282745,0.006794234737753772,0.6902819434788561,22.911433173077274,"array('d', [-62.131980895996094, -61.141849762198156, -60.19660582364362, -59.2911550416541, -58.42101034380923, -57.58225369807848, -56.77148331100714, -55.9857563828438, -55.22253184958319, -54.47961520089952, -53.75510657953578, -53.04735304835413, -52.35490579624047, -51.676483003811974, -51.010939055307425, -50.35723874489253])","array('d', [-162.7491912841797, -161.529996333306, -160.28171342402877, -159.0104561488422, -157.72097449287983, -156.41700694249406, -155.10152714747312, -153.77692196375926, -152.44512334136647, -151.10770815039996, -149.76597502707753, -148.42100422886753, -147.07370452002237, -145.72484982149362, -144.37510749643712, -143.02505544488457])","array('d', [-44.845760345458984, -44.82389197125732, -44.81251468746517, -44.808325782207284, -44.80905957904224, -44.81313932447032, -44.81944823541716, -44.82717875387467, -44.83573342587793, -44.84466027223413, -44.85361163202005, -44.86231936502101, -44.870581747913285, -44.87825887748576, -44.88527421527572, -44.89162029683131])","array('d', [0.566497206687927, 0.4963068587618292, 0.43468889892847307, 0.3809953578981878, 0.3344880150915332, 0.29439711042713496, 0.25995563446883907, 0.2304209703088835, 0.20508973778375122, 0.18330883301792222, 0.16448423977659626, 0.14808847554107277, 0.13366717281108598, 0.12084511098077466, 0.10933191895817819, 0.09892762021923718])","array('d', [-0.017944121733307703, -0.010031598626332152, -0.004590639379501537, -0.0008395729097778945, 0.0017399410326472706, 0.0034934178879346364, 0.004652576819435267, 0.005374098606211367, 0.005765378880786549, 0.005901949578630046, 0.005839554557726151, 0.005622765908300139, 0.005291301530552306, 0.0048847145116988995, 0.004445785717002383, 0.0040227135505871295])","array('d', [0.700919405617986, 0.6642397926063719, 0.632798664087899, 0.6056678345303197, 0.5821170758913137, 0.5615595063470439, 0.5435163962316771, 0.5275938507886333, 0.5134667816517349, 0.5008673339167303, 0.48957599442000677, 0.47941425855139114, 0.47023814100063205, 0.4619320739422862, 0.45440289958740787, 0.44757378724842595])",-57.58225369807848,-156.41700694249406,-44.81313932447032,0.29439711042713496,0.0034934178879346364,0.5615595063470439,15.45296380296085,-1.0,"[-161.22861356065508, -60.89692474983743, 44.82863982196222]","[-156.08722835103003, -48.8508353442638, 52.140129968244004]","[-146.45585939432624, -58.5774426587235, 46.005813203506335]",10000000000.0,0.01693105697631836
16,-161.26193237304688,-61.058589935302734,44.8709602355957,0.4988826513290403,0.0030326170381157437,0.6868064562466482,22.859164185409494,"array('d', [-61.86006164550781, -60.87353177910525, -59.93061042757033, -59.02635507532807, -58.15641440204913, -57.31698900779989, -56.5047797713283, -55.71693248412485, -54.950982546689495, -54.2048016059653, -53.47654728510861, -52.7646168863864, -52.067605843025845, -51.38427164317012, -50.71350390951446, -50.0542989155527])","array('d', [-162.37835693359375, -161.1561902030687, -159.90616477445909, -158.6340927257958, -157.34451190283465, -156.04100747901447, -154.72643975813952, -153.40311015529795, -152.0728851122558, -150.73729049876368, -149.3975846759606, -148.05481566097527, -146.70986606918754, -145.36348834551302, -144.01633200841457, -142.66895929155058])","array('d', [-44.85002899169922, -44.83311921032378, -44.82531266693732, -44.823729051452766, -44.826390486197255, -44.83191792161241, -44.83933165430504, -44.84792011340676, -44.85715372744585, -44.86662896762096, -44.87603300485632, -44.885122820012576, -44.89371472973019, -44.90168155904143, -44.90895537803534, -44.91553402618604])","array('d', [0.5507244467735288, 0.48244497600861597, 0.42250528484205274, 0.3702750586571516, 0.3250375866771474, 0.2860452150054076, 0.25255229252554984, 0.22383626576793325, 0.19921229738264037, 0.17804419710971217, 0.15975315656697958, 0.14382511818354865, 0.12981726890428963, 0.11736397314241825, 0.10618236703153565, 0.09607778752784575])","array('d', [-0.014259929768741058, -0.00738503733477756, -0.002664687008638317, 0.0005812571998050057, 0.002803395584591049, 0.004301766679625757, 0.005277325677438448, 0.005865757823839267, 0.0061599817033057315, 0.006225422070970515, 0.006110654828265873, 0.005855063683087325, 0.005494510177540342, 0.005065585532894639, 0.004608710287930024, 0.004170133811990809])","array('d', [0.6973081986096239, 0.6618623448179102, 0.631435224278666, 0.6051532443856816, 0.5823236582371415, 0.5623862480150752, 0.5448818612926418, 0.5294313648025631, 0.5157210362587373, 0.5034919057507142, 0.49253147319466467, 0.4826667992517005, 0.47375832834544207, 0.46569403256598185, 0.45838361163802716, 0.45175259967885617])",-57.31698900779989,-156.04100747901447,-44.83191792161241,0.2860452150054076,0.004301766679625757,0.5623862480150752,15.452794498022026,-1.0,"[-160.47800943943463, -60.3682582105901, 44.852307963361966]","[-155.23734206206404, -48.13059718548764, 51.764258344726976]","[-145.68624344286738, -58.15478357874335, 45.99431880261335]",10000000000.0,0.019489765167236328
17,-160.5158233642578,-60.53609848022461,44.89347457885742,0.46284738183021523,-0.003947768826037694,0.6799509684231615,22.7444831291922,"array('d', [-61.323368072509766, -60.34378903007809, -59.40507141915237, -58.502606953931796, -57.63233979253191, -56.79072713640035, -55.97469116557052, -55.18156814637412, -54.40905752178435, -53.65517256787749, -52.918193707191975, -52.19662536589399, -51.489157163869976, -50.79463016422366, -50.112008857218584, -49.44035708646577])","array('d', [-161.63458251953125, -160.40680755271597, -159.15369253495544, -157.8804461397867, -156.591176872538, -155.28915687647893, -153.97701345829944, -152.65687149636608, -151.33046155596423, -149.9992034101322, -148.66427143894782, -147.32664629641545, -145.98715585442739, -144.64650749980197, -143.30531321716265, -141.9641036419069])","array('d', [-44.86249923706055, -44.85563571562533, -44.85505945750234, -44.85874773064359, -44.86530660879698, -44.87375811168265, -44.883400631401415, -44.89371736285286, -44.904316512165245, -44.914892922419114, -44.925204514048225, -44.935059313406, -44.94431030451761, -44.9528561820738, -44.96064649654284, -44.96768981511922])","array('d', [0.516675770282745, 0.45258364423145236, 0.3963108674681071, 0.3472696288981887, 0.30479248133311965, 0.26818166106215346, 0.23673946410987165, 0.20978827592746424, 0.18668473578966127, 0.1668304369170916, 0.14968049066717298, 0.1347507226108502, 0.12162397218078179, 0.10995580865284375, 0.09947988894354379, 0.09001313401097026])","array('d', [-0.006794234737753772, -0.0020244888423779934, 0.0012340623013833796, 0.0034553692304104397, 0.004952588505668962, 0.005933523267229731, 0.00653674333383364, 0.00685535820925588, 0.0069529269476068115, 0.006874373584621419, 0.006653730843177293, 0.006319850230839463, 0.005900758027256337, 0.005427018815009336, 0.004934240089149988, 0.004464685383415656])","array('d', [0.6902819434788561, 0.6574275475946619, 0.6291401056346887, 0.6046545605801554, 0.5833539047578736, 0.5647325608569667, 0.5483719706499438, 0.5339239041718822, 0.5210986098833349, 0.5096559532465458, 0.49939834717327486, 0.49016470016858205, 0.4818248815172404, 0.47427437995194993, 0.4674289459544157, 0.4612191017099697])",-56.79072713640035,-155.28915687647893,-44.87375811168265,0.26818166106215346,0.005933523267229731,0.5647325608569667,15.45244848707293,-1.0,"[-160.10202537472586, -60.10748790997337, 44.86641131701109]","[-154.812446235639, -47.77421519340217, 51.567958648039756]","[-145.3014259823454, -57.94581072215061, 45.993092000219036]",10000000000.0,0.027906417846679688
18,-160.5158233642578,-60.53609848022461,44.89347457885742,0.46284738183021523,-0.003947768826037694,0.6799509684231615,22.7444831291922,"array('d', [-61.058589935302734, -60.082455370106615, -59.145758729536865, -58.24406582615563, -57.373473798028584, -56.53057251056721, -55.71239858866307, -54.91638687414937, -54.14032176552123, -53.38228992319312, -52.6406354150428, -51.9139181941127, -51.20087670208081, -50.50039532352892, -49.8114773587965, -49.13322146126131])","array('d', [-161.26193237304688, -160.03143785116285, -158.77686474300899, -157.50312966507232, -156.21413035162377, -154.91298348243927, -153.60219954586458, -152.28381421452593, -150.9594889432486, -149.6305892394964, -148.29824631923768, -146.96340606054486, -145.62686795677, -144.28931594190175, -142.95134238356647, -141.61346090013475])","array('d', [-44.8709602355957, -44.869157308657776, -44.872220978535374, -44.87856137381599, -44.887079177843894, -44.89699873049051, -44.907758721114114, -44.91894062226815, -44.93022218132558, -44.9413479100542, -44.95211146441804, -44.96234666349193, -44.97192502384575, -44.98075831423369, -44.98880491063079, -44.99607877962293])","array('d', [0.4988826513290403, 0.4369794115068981, 0.38262431650136436, 0.3352515279765034, 0.29421891679818324, 0.2588544512768647, 0.22848528450355185, 0.2024572109282037, 0.1801485596073731, 0.16098074052485992, 0.14442669239014097, 0.13001796763266557, 0.11735091539810105, 0.1060922730782135, 0.09598439241483184, 0.08685027767070712])","array('d', [-0.0030326170381157437, 0.0006750964883049563, 0.0031962516085228686, 0.0049007030549012495, 0.006032266573685664, 0.006752226880342479, 0.007167692962107534, 0.007350302859563957, 0.007348807836264895, 0.007197790534863983, 0.006923945564835613, 0.006550807613623886, 0.006102444181016776, 0.005606370443290388, 0.0050957531478854935, 0.00461082845565604])","array('d', [0.6868064562466482, 0.655271418269791, 0.628080381060871, 0.6045196460017731, 0.5840087080347693, 0.5660687415528937, 0.5503013300157232, 0.5363737477302661, 0.5240083775429997, 0.5129746865825063, 0.5030827297796199, 0.494177509407527, 0.4861337538879167, 0.47885083248496446, 0.4722476214188898, 0.4662572227348669])",-56.53057251056721,-154.91298348243927,-44.89699873049051,0.2588544512768647,0.006752226880342479,0.5660687415528937,15.452276949260982,-1.0,"[-159.3494271305942, -59.592973483047466, 44.89939621671512]","[-153.96376442416798, -47.07566562205612, 51.16929582721719]","[-144.53251445239655, -57.52910715436069, 45.99463795440551]",10000000000.0,0.01919412612915039
19,-159.76959228515625,-60.02260971069336,44.92281723022461,0.4272127747535702,-0.010112425312399975,0.673287467160497,22.617856701009085,"array('d', [-60.796180725097656, -59.82345461559203, -58.88873718233733, -57.98776906608232, -57.116800526446575, -56.272554177771525, -55.452181254365286, -54.653215421968405, -53.873526336701346, -53.111274368096964, -52.364867554248434, -51.63292168657458, -50.91422432033585, -50.20770343207441, -49.51240138238995, -48.827452449625966])","array('d', [-160.8889617919922, -159.65581343098995, -158.3998279019708, -157.1256419569782, -155.83694919082944, -154.5367143908349, -153.22733308682425, -151.9107526377498, -150.58856573001202, -149.26208363593938, -147.9323942635803, -146.60040847616835, -145.2668970997003, -143.932520301985, -142.5978505098846, -141.26338513881763])","array('d', [-44.88138198852539, -44.8844168845421, -44.89095831210834, -44.899830914612224, -44.91021743225557, -44.921535898314936, -44.93335932939023, -44.945363310204705, -44.95729219817757, -44.968938094799945, -44.980128907931444, -44.99072318742785, -45.000610224044685, -45.00971432476688, -45.01800232137395, -45.025493329808434])","array('d', [0.48090770840644803, 0.42120925981028245, 0.3687876700329254, 0.3230986283889604, 0.2835249076407032, 0.24941993472461732, 0.22013559139629646, 0.1950410679384939, 0.17353645098715115, 0.15506308591814372, 0.13911188414506365, 0.12523027851284124, 0.1130282756237035, 0.10218391226207657, 0.09244834154524786, 0.08365072624203553])","array('d', [0.000564294110518008, 0.0032552431378792567, 0.005070477565024285, 0.006280151875847978, 0.00706169677468031, 0.007531869983972986, 0.007767668457519284, 0.007820179250621296, 0.00772397996851384, 0.0075037536893224665, 0.007179168900543887, 0.006768667275013385, 0.00629252100458697, 0.005775317612742648, 0.005247875483071554, 0.004748474449078962])","array('d', [0.683379964032445, 0.6531555428947224, 0.6270586671696261, 0.6044240000332625, 0.5847058470555532, 0.5674511744166784, 0.5522811661223852, 0.5388783022157037, 0.5269769424510611, 0.516356079510936, 0.506833380074192, 0.4982599345622442, 0.4905153370856846, 0.4835028491032562, 0.4771444857416119, 0.4713759371586769])",-56.272554177771525,-154.5367143908349,-44.921535898314936,0.24941993472461732,0.007531869983972986,0.5674511744166784,15.452109764174606,-1.0,"[-159.3494271305942, -59.592973483047466, 44.89939621671512]","[-153.96376442416798, -47.07566562205612, 51.16929582721719]","[-144.53251445239655, -57.52910715436069, 45.99463795440551]",10000000000.0,0.019439697265625
20,-159.3967742919922,-59.76904296875,44.94004821777344,0.40985381603240956,-0.012735393829643796,0.6701190630581718,22.55190460138872,"array('d', [-60.53609848022461, -59.566809365996825, -58.63410277264057, -57.73389275561152, -56.862581254202084, -56.01702252308085, -55.19448166508971, -54.392590732533684, -53.609304424911514, -52.842856759489806, -52.09171978188055, -51.35456521863886, -50.63022986761135, -49.917685440427796, -49.216013503760585, -48.524383368511785])","array('d', [-160.5158233642578, -159.2800306852108, -158.0226206493608, -156.7479631400147, -155.45955485525357, -154.1602126901392, -152.85221935624838, -151.53743495845413, -150.21738384265845, -148.8933231057388, -147.56629719570273, -146.23718169033233, -144.90671841459852, -143.57554340595073, -142.2442087746868, -140.91319393703384])","array('d', [-44.89347457885742, -44.901059061892205, -44.91086924217704, -44.922120225189325, -44.93426039094501, -44.946890189779104, -44.95970915747743, -44.97248153595264, -44.98501444696744, -44.99714484780025, -45.0087329418999, -45.01966060580805, -45.02983389978945, -45.03918895962827, -45.04770058700538, -45.055392742445925])","array('d', [0.46284738183021523, 0.4053477106926293, 0.35485808323490653, 0.31085447658324955, 0.2727434761763071, 0.23990311932872835, 0.21170939581312603, 0.1875544572393115, 0.16685985619996835, 0.14908668774004952, 0.13374372689485312, 0.12039423215295335, 0.10866185033105846, 0.0982359253071475, 0.08887643469374734, 0.0804187309763268])","array('d', [0.003947768826037694, 0.005681127710462199, 0.0068315641209388735, 0.007575299710971453, 0.008027244086593437, 0.008262226997054492, 0.008328892740945847, 0.008258978149944642, 0.008073714775195303, 0.007788463277315654, 0.007416274266698456, 0.006970790237481783, 0.006468704061489211, 0.005931838285424273, 0.005388788629357608, 0.004875977948043299])","array('d', [0.6799509684231615, 0.651022597710193, 0.6260131808750163, 0.6043024605501917, 0.5853776133883993, 0.5688102354661435, 0.5542404098839429, 0.5413653987488416, 0.5299312850552791, 0.5197264383937369, 0.5105760536610265, 0.5023372661357492, 0.4948945168799716, 0.48815495540544696, 0.4820437398810503, 0.47649916317043084])",-56.01702252308085,-154.1602126901392,-44.946890189779104,0.23990311932872835,0.008262226997054492,0.5688102354661435,15.451947464362823,-1.0,"[-158.59698829917045, -59.08731841258603, 44.93798560966748]","[-153.1183963852812, -46.40167019512142, 50.7740253579732]","[-143.76548340420788, -57.11355718931494, 46.00134311503081]",10000000000.0,0.015547990798950195
21,-159.02432250976562,-59.51747512817383,44.95894241333008,0.39290228486061085,-0.015043500810861673,0.6671301881459096,22.483915569631893,"array('d', [-60.02260971069336, -59.060053791882765, -58.131294268924144, -57.232581512091365, -56.36061122650431, -55.51249300480239, -54.68571335131862, -53.87809609889072, -53.08776209689797, -52.31308952793524, -51.55267593021433, -50.805302832190115, -50.06990378612649, -49.3455364938428, -48.631359641814804, -47.92661315059894])","array('d', [-159.76959228515625, -158.5287033920284, -157.26852672320967, -155.99294374121848, -154.70508499896565, -153.40748875916537, -152.1022228552578, -150.79097966156743, -149.47515109719072, -148.15588853954242, -146.83415109220633, -145.51074464363452, -144.18635343701447, -142.86156535882148, -141.53689178400697, -140.21277909155535])","array('d', [-44.92281723022461, -44.93868728280646, -44.95444472225368, -44.970017714021836, -44.98533965228187, -45.0003440602309, -45.01496152466606, -45.02911824218576, -45.04273603538345, -45.05573387595779, -45.068031051165036, -45.07955213844604, -45.09023390895374, -45.10003415844012, -45.108942258619955, -45.11699095566859])","array('d', [0.4272127747535702, 0.3740161332733044, 0.327315621733518, 0.286624402545013, 0.2513933555599974, 0.22104688397356723, 0.19500687684852555, 0.17270957318486285, 0.15361801859832003, 0.13723168444925143, 0.12309419995224824, 0.11079980146244428, 0.09999890555789918, 0.09040309600568198, 0.08178974289770144, 0.07400642648839309])","array('d', [0.010112425312399975, 0.010097356680235727, 0.010034067311143079, 0.009927189006121964, 0.009777480195216737, 0.009583236235347898, 0.009341351256191675, 0.009048243328366602, 0.008700782748377397, 0.008297310901435552, 0.007838792492043951, 0.007330099146772355, 0.006781373072148918, 0.0062093642923395816, 0.005638575965489169, 0.005101994896731457])","array('d', [0.673287467160497, 0.6468593871513956, 0.6239619467936739, 0.6040548253866976, 0.5866845858309856, 0.5714680513100229, 0.5580804969695141, 0.5462470369392856, 0.5357360596144692, 0.5263539185014154, 0.5179403402342617, 0.51036418937687, 0.5035193516370173, 0.49732057883283093, 0.49169919212031166, 0.4865985865484834])",-55.51249300480239,-153.40748875916537,-45.0003440602309,0.22104688397356723,0.009583236235347898,0.5714680513100229,15.451644565853607,-1.0,"[-158.4863630822593, -59.01377511198118, 44.94420811591516]","[-152.99472759426547, -46.30493274349864, 50.71718527852978]","[-143.6528870106681, -57.051956776361166, 46.00215728839779]",10000000000.0,0.01557612419128418
22,-158.65521240234375,-59.2694091796875,44.980682373046875,0.37647631764411893,-0.0170994512736798,0.6642699400570726,22.412484087627174,"array('d', [-59.76904296875, -58.80970317993675, -57.88281576614498, -56.98479236676401, -56.11246945420599, -55.263079152622694, -54.434214432370894, -53.623791536274254, -52.83001151455949, -52.05132223773573, -51.286381972287714, -50.5340254250331, -49.79323303450783, -49.06310418878747, -48.342834969843054, -47.63169909203324])","array('d', [-159.3967742919922, -158.1534848982402, -156.8920076496195, -155.6160025728861, -154.32843170402623, -153.0317034946269, -151.72778465691732, -150.41828795914145, -149.10454200989685, -147.78764732104955, -146.46852170012423, -145.14793714059925, -143.82654974561717, -142.5049237639556, -141.1835504859347, -139.86285905358847])","array('d', [-44.94004821777344, -44.959441432539286, -44.97772424170099, -44.99512918743554, -45.011796670865174, -45.027802385100046, -45.043175564344764, -45.05791157970681, -45.07198127243669, -45.08533868912779, -45.097928406707936, -45.10969329593858, -45.12058329321176, -45.13056547803452, -45.139635452374165, -45.147829690947994])","array('d', [0.40985381603240956, 0.3587422117292593, 0.31388050541043583, 0.2747990580136192, 0.240969398325779, 0.21183774758598042, 0.18684777507922123, 0.1654567856456995, 0.1471477606478316, 0.13143868891739338, 0.1178900730479301, 0.10611118396436187, 0.09576545559860256, 0.08657530260499194, 0.07832657547570597, 0.07087282273622786])","array('d', [0.012735393829643796, 0.01197410534359785, 0.011392854972717177, 0.010923008511011639, 0.010516607652019417, 0.010139293024244173, 0.009765881187262331, 0.009377723136690335, 0.008961296218120817, 0.008507679833581168, 0.008012679301932094, 0.007477418048794325, 0.0069092330609334856, 0.0063226944273170665, 0.005740537175478265, 0.005194253223046252])","array('d', [0.6701190630581718, 0.6448835010383467, 0.6229993359441431, 0.6039614106630318, 0.5873428979420559, 0.5727812136778123, 0.5599678768594352, 0.5486410046221588, 0.5385794959669151, 0.5295982417978751, 0.5215439077439445, 0.5142909847002932, 0.507737904738001, 0.5018030890940012, 0.49642083985582264, 0.4915370276206605])",-55.263079152622694,-153.0317034946269,-45.027802385100046,0.21183774758598042,0.010139293024244173,0.5727812136778123,15.451505601282234,-1.0,"[-158.2212480421347, -58.83749955722863, 44.959150792132895]","[-152.6986091478213, -46.07439638641798, 50.58086379568083]","[-143.38317503260762, -56.90422762542062, 46.00511876565176]",10000000000.0,0.015599250793457031
