,x_pos,y_pos,z_pos,roll,pitch,yaw,vel,x_traj,y_traj,z_traj,roll_traj,pitch_traj,yaw_traj,x_cmd,y_cmd,z_cmd,roll_cmd,pitch_cmd,yaw_cmd,vel_cmd,effector_dmg,effector_x,effector_y,effector_z,cost,time_solution
0,-203.96145629882812,-147.08164978027344,44.929176330566406,0.6324480772018428,0.0370555520057677,1.6461003060129025,23.106514532731808,"array('d', [-147.54177856445312, -145.04839783238404, -142.55052887800144, -140.05079100571888, -137.5517456862594, -135.05598605636027, -132.5660036942667, -130.08390383308145, -127.611236517217, -125.14898246095676, -122.69762770244576, -120.25727151145068, -117.82773410726197, -115.40864910091378, -112.99953602208446, -110.59985746142544])","array('d', [-203.9480743408203, -204.11183301533632, -204.20164932545535, -204.21534747155843, -204.15101045872797, -204.00730662665757, -203.78495380324142, -203.4872769784536, -203.1193826325472, -202.6872289205759, -202.19697167304366, -201.65456336861098, -201.0655366840369, -200.43490773224224, -199.76715260905777, -199.06622984133577])","array('d', [-44.928314208984375, -44.852904006197285, -44.80748985883296, -44.78293300785571, -44.77280421006211, -44.77256624588445, -44.77900137605884, -44.78981088082506, -44.8033352041263, -44.81835968164593, -44.83398234961557, -44.849527723217584, -44.86449523257673, -44.878534131862324, -44.8914385526953, -44.90315713765817])","array('d', [0.6324910521507261, 0.6470420760197533, 0.6602083880508757, 0.6721217608420584, 0.682901426871937, 0.6801902989513087, 0.6596490530188821, 0.6268974303542867, 0.5866785087575206, 0.5427101012721264, 0.497746976016154, 0.45372987670425685, 0.41194364613841206, 0.37315072889283674, 0.3376917862390703, 0.30555619162607506])","array('d', [-0.037384029477834625, -0.02319056987650265, -0.01330776011104827, -0.006452435692504306, -0.00172942153943447, 0.0014854201338524258, 0.0036269653812557585, 0.004997797755231972, 0.005808194811711779, 0.006204842642768841, 0.00629192032957398, 0.006146878176336331, 0.005832446130240065, 0.0054058487967422065, 0.004925742839335073, 0.004456996725913348])","array('d', [1.6509114737298825, 1.6217016055079008, 1.5916385701156797, 1.5607878099632433, 1.5292107944473219, 1.497379908552426, 1.466306139898259, 1.436902726143979, 1.4096783791940428, 1.3848340383359108, 1.362369294610351, 1.3421666843896394, 1.3240488720193377, 1.3078145901373082, 1.293260776552451, 1.2801967000017431])",-135.05598605636027,-204.00730662665757,-44.77256624588445,0.6801902989513087,0.0014854201338524258,1.497379908552426,25.000000247753352,-1.0,"[-204.06765611070355, -146.06612298284534, 44.872203032569374]","[-212.57965214378333, -136.29594899143189, 52.42797061173313]","[-197.6384527927383, -134.9949023410216, 52.68843090772247]",10000000000.0,0.018802165985107422
1,-203.98190307617188,-146.1631622314453,44.931785583496094,0.6323068737983701,0.03664193674921991,1.6367802704360823,23.100285147332592,"array('d', [-147.08164978027344, -144.58748829194622, -142.08920631831123, -139.58942737824344, -137.0907186467194, -134.5956770513852, -132.10678502222703, -129.62612407144184, -127.15521257018142, -124.6949973470485, -122.24593173303724, -119.80808508465417, -117.38125105133561, -114.9650400140634, -112.55895135408089, -110.16243023236748])","array('d', [-203.96145629882812, -204.11322157586665, -204.1910287072881, -204.1927147816653, -204.11637497907017, -203.96069923581626, -203.72645931400314, -203.41702244722688, -203.03751591677013, -202.5939032747999, -202.0923362942102, -201.53875839764066, -200.93869109642162, -200.29713893434987, -199.61856695460344, -198.90692358657228])","array('d', [-44.929176330566406, -44.85449001991057, -44.80962727033927, -44.78548327172186, -44.77565926117912, -44.775643724627905, -44.78223976293645, -44.793165083520144, -44.80677279383666, -44.821857809210485, -44.837525285096575, -44.85310492171066, -44.86809982070048, -44.882161720001434, -44.89508629672894, -44.90682299328835])","array('d', [0.6324480772018428, 0.6470031906739866, 0.6601732031309464, 0.6720899242046198, 0.6828726198605289, 0.6798221835414056, 0.6590629191480102, 0.6261914140374463, 0.5859250044089446, 0.5419582687719247, 0.49702733306527924, 0.45305905470852015, 0.41132851513754226, 0.37259174807902967, 0.3371857018923355, 0.30509826753099606])","array('d', [-0.0370555520057677, -0.022938389433233577, -0.013117710289765574, -0.006311369619947548, -0.001626027088854018, 0.0015604411853315833, 0.0036810210229714286, 0.005036649269288522, 0.005836234252236625, 0.006225359846482891, 0.006307335275976906, 0.0061589302700325865, 0.005842342103459463, 0.005414375961363007, 0.004933355855674303, 0.004463885268581636])","array('d', [1.6461003060129025, 1.6168929313169391, 1.5868321998633672, 1.5559835653592033, 1.5244085082301084, 1.492590707750539, 1.4615474702997242, 1.4321836606925247, 1.4050017304134308, 1.380198753000872, 1.357772327644489, 1.3376042133518131, 1.3195169928733663, 1.3033096728087914, 1.2887796140114105, 1.2757365326439718])",-134.5956770513852,-203.96069923581626,-44.775643724627905,0.6798221835414056,0.0015604411853315833,1.492590707750539,25.000000247766604,-1.0,"[-204.07590597991052, -145.41756316120083, 44.87416531757004]","[-212.5050755607011, -135.59702322068532, 52.457442673371695]","[-197.55590517378897, -134.38053222771364, 52.66348734592535]",10000000000.0,0.037792205810546875
2,-203.98190307617188,-146.1631622314453,44.931785583496094,0.6323068737983701,0.03664193674921991,1.6367802704360823,23.100285147332592,"array('d', [-146.6214599609375, -144.12660616530556, -141.62798336315902, -139.1282202758607, -136.62988999621206, -134.13559309811768, -131.6478027753477, -129.168577356863, -126.69940457658858, -124.2411986420367, -121.79438148339945, -119.35899378746358, -116.93480376667607, -114.52139957910339, -112.11826134101311, -109.7248175558362])","array('d', [-203.9729461669922, -204.1131589933113, -204.1794046155528, -204.16953204402276, -204.0816478252277, -203.91446234631272, -203.66879876156617, -203.34806431128376, -202.957405663949, -202.50279102615363, -201.9903678303937, -201.42607043891942, -200.8154093434638, -200.1633777331753, -199.4744298336066, -198.75250420645932])","array('d', [-44.930335998535156, -44.856186972728985, -44.81173895623876, -44.78790752637361, -44.778314482603506, -44.77846677357552, -44.78518305319068, -44.79619359677248, -44.80986135897082, -44.82498878083223, -44.84068664174497, -44.856288743770214, -44.87130108514295, -44.88537734847526, -44.89831440338687, -44.910062291187096])","array('d', [0.632376670837402, 0.646938579517254, 0.6601147405325507, 0.6720370250508076, 0.6828247546928415, 0.6794501531947452, 0.6584833876532877, 0.6254985623742366, 0.585188176662615, 0.5412244672345012, 0.4963256713925302, 0.45240534040728064, 0.41072921255614525, 0.372047192027587, 0.336692682440323, 0.3046521650425951])","array('d', [-0.03681355342268941, -0.022749476685083474, -0.012974026460128464, -0.006204374020895897, -0.0015477682351204296, 0.0016168095820736953, 0.0037211174629413566, 0.00506492900298761, 0.005856136486909069, 0.006239479877517081, 0.006317588254133608, 0.006166691537222421, 0.00584856072864598, 0.005419664263214945, 0.0049380599801118995, 0.004468141736774955])","array('d', [1.6414666707303858, 1.6122634388944719, 1.5822065353329533, 1.5513614325182337, 1.5197896291958273, 1.4879856479246354, 1.4569728288490544, 1.427647978844878, 1.4005075558874622, 1.3757449499409353, 1.353355873935159, 1.3332213612085275, 1.3151639315848547, 1.298982866005145, 1.2844759398478205, 1.2714533051668129])",-134.13559309811768,-203.91446234631272,-44.77846677357552,0.6794501531947452,0.0016168095820736953,1.4879856479246354,25.00000024777909,-1.0,"[-204.07879170429112, -145.12621790206313, 44.87512814033498]","[-212.47165124044383, -135.2838883597056, 52.47041997054445]","[-197.51923065170018, -134.10403391779755, 52.65224965245832]",10000000000.0,0.01816868782043457
3,-203.99334716796875,-145.2460174560547,44.93488693237305,0.6319683194160459,0.0362516865134239,1.6274810145285465,23.098570549063343,"array('d', [-146.1631622314453, -143.66766746365784, -141.1687564706194, -138.6690646244777, -136.17117166147992, -133.67768205181648, -131.19105936964868, -128.71333822520072, -126.24597523656674, -123.78985159690394, -121.34535752224382, -118.91250478106676, -116.49103594992174, -114.08051680238673, -111.6804080561324, -109.29012144220806])","array('d', [-203.98190307617188, -204.110428254303, -204.1649786315673, -204.14341515318424, -204.04385584980162, -203.86503184935242, -203.60781840073454, -203.2756631936561, -202.87373239739395, -202.40799878596644, -201.88460525739697, -201.3094768724893, -200.68811285137235, -200.02549478590566, -199.32606586107772, -198.5937545711514])","array('d', [-44.931785583496094, -44.85802293207782, -44.81388047956216, -44.790282012350694, -44.78086134657509, -44.781137876734725, -44.787941554990425, -44.799012201483734, -44.81272045970999, -44.827874748297475, -44.84359035594957, -44.859204383372926, -44.874225150046406, -44.88830787944791, -44.90125036416441, -44.91300308484546])","array('d', [0.6323068737983701, 0.646875424538486, 0.6600575955385513, 0.671985318114744, 0.6827779682848817, 0.6790738023298717, 0.6578961068828629, 0.6247960488589804, 0.5844408683212428, 0.5404801094855046, 0.4956138471765781, 0.4517421214673366, 0.41012118020737137, 0.37149469859283796, 0.3361924761283456, 0.3041995596137907])","array('d', [-0.03664193674921991, -0.02261129584507382, -0.012867192921036925, -0.006124380659530081, -0.0014894956694280286, 0.0016582098700225105, 0.003749847704898114, 0.005084435424844722, 0.005869135918378634, 0.00624804814001607, 0.0063232658844559735, 0.00617058418852762, 0.00585142558547012, 0.005421981479712409, 0.00494009143292475, 0.004469979871457981])","array('d', [1.6367802704360823, 1.6075810876852288, 1.5775279253958734, 1.5466862743763248, 1.5151176512730773, 1.4833275916324737, 1.452345553385036, 1.4230601583416835, 1.3959617856392816, 1.371240090406146, 1.348888871566963, 1.328788424076688, 1.3107612012535987, 1.2946067600324058, 1.2801232946217034, 1.2671213981698777])",-133.67768205181648,-203.86503184935242,-44.781137876734725,0.6790738023298717,0.0016582098700225105,1.4833275916324737,25.000000247791583,-1.0,"[-204.07827283814407, -143.7494106239556, 44.88052131217394]","[-212.29678487669204, -133.8036655294029, 52.5315483273153]","[-197.3307165557013, -132.79733797249267, 52.59560970132051]",10000000000.0,0.02205967903137207
4,-203.99575805664062,-144.7871551513672,44.93645095825195,0.6319256424903865,0.035877190530300085,1.6229382800546026,23.099159772090566,"array('d', [-145.2460174560547, -142.74941055323217, -140.25008907146682, -137.75069876855923, -135.2538304299424, -132.7620942658737, -130.2779322555112, -127.80333020852349, -125.3396822576966, -122.8878040483702, -120.44802325515401, -118.02029487414897, -115.60431131257043, -113.19959463926034, -110.80556776359347, -108.42160977201895])","array('d', [-203.99334716796875, -204.0986868481426, -204.13006941335684, -204.0853774729231, -203.96274983092383, -203.76095681677123, -203.48097496915025, -203.12632937517125, -202.70222175551908, -202.2146310245528, -201.6696885731965, -201.0732989300324, -200.43093725704136, -199.74756075614363, -199.027589576199, -198.2749313006475])","array('d', [-44.93488693237305, -44.86199599036669, -44.81853318105698, -44.795448545580065, -44.78640657423898, -44.78695601775889, -44.79395242272758, -44.805156714331, -44.8189562746123, -44.83417240385969, -44.849930047548305, -44.8655733488378, -44.88061558292124, -44.894715274112485, -44.90767220808024, -44.919437831241865])","array('d', [0.6319683194160459, 0.6465690878366073, 0.6597804106011912, 0.6717345107835834, 0.6825510283280438, 0.6782000500343437, 0.6566132469576232, 0.6232947493182612, 0.5828607214707754, 0.5389151961923347, 0.494122027907833, 0.4503544314355546, 0.4088498862106882, 0.370339798731241, 0.3351469082538991, 0.303253490592216])","array('d', [-0.0362516865134239, -0.022302508095053897, -0.012630967920887281, -0.005948514046525102, -0.0013616039474343075, 0.0017492634575401228, 0.003813434279726807, 0.005128098352411286, 0.0058987500925126515, 0.006268067463823822, 0.006336981218403774, 0.00618035422102208, 0.005858868611131733, 0.005428129701790048, 0.004945514858255397, 0.004474887190071954])","array('d', [1.6274810145285465, 1.5983014664093422, 1.5682664464798082, 1.5374415343954828, 1.5058883335441131, 1.4741343549583357, 1.4432210963106866, 1.4140207317950657, 1.3870115894441692, 1.3623760235164215, 1.3401041690994702, 1.3200749800884795, 1.3021108813028142, 1.286012059714291, 1.2715776050214804, 1.2586190359625344])",-132.7620942658737,-203.76095681677123,-44.78695601775889,0.6782000500343437,0.0017492634575401228,1.4741343549583357,25.000000247815745,-1.0,"[-204.07827283814407, -143.7494106239556, 44.88052131217394]","[-212.29678487669204, -133.8036655294029, 52.5315483273153]","[-197.3307165557013, -132.79733797249267, 52.59560970132051]",10000000000.0,0.014989376068115234
5,-203.99586486816406,-144.32810974121094,44.93779754638672,0.632102787494659,0.03516886010766025,1.6186296949770786,23.099679163275848,"array('d', [-144.7871551513672, -142.2900716053201, -139.79062269417906, -137.29145665036992, -134.79516885966726, -132.30437222437325, -129.82149793258188, -127.34850782989305, -124.88676550217039, -122.43705456307256, -119.99967209865586, -117.57454530217088, -115.16134197629299, -112.75956272411368, -110.36861185791369, -107.98785238308895])","array('d', [-203.99575805664062, -204.0897593439363, -204.10979705926505, -204.05376603858915, -203.91981663994952, -203.70673957213103, -203.41556178737574, -203.04984728632985, -202.61481640486065, -202.1164522688267, -201.56088171813843, -200.95400014405485, -200.30127167820962, -199.60764218512927, -198.87752102236897, -198.11480593188293])","array('d', [-44.93645095825195, -44.864378071848115, -44.82152740939768, -44.79889514790188, -44.79018399979795, -44.79097331025238, -44.79814254111337, -44.80947097700812, -44.82335988322984, -44.838640919724625, -44.85444666133802, -44.870126780055934, -44.88519846113254, -44.89932287984972, -44.912301479680906, -44.924086569749804])","array('d', [0.6319256424903865, 0.6465304721534145, 0.6597454696820229, 0.6717028949269076, 0.6825224210706036, 0.677850860001001, 0.6560585627241933, 0.6226272617795313, 0.5821486473225825, 0.5382048253897508, 0.4934421053705354, 0.44972063593689626, 0.40826870223018796, 0.36981166311307984, 0.33466874969069044, 0.30282083479328775])","array('d', [-0.035877190530300085, -0.022020726129765435, -0.012421745053433186, -0.005794893800109803, -0.0012498649299446456, 0.0018299363113619082, 0.0038714014714064196, 0.00516972026418924, 0.005928799081310877, 0.006290079311172723, 0.00635353945391605, 0.006193310592836828, 0.005869508898639969, 0.005437296334250688, 0.004953697563978974, 0.004482291209058086])","array('d', [1.6229382800546026, 1.5937612063372737, 1.563728472792421, 1.5329056702645902, 1.5013544130668446, 1.469612859860364, 1.4387284046445818, 1.4095653148695833, 1.3825960615351809, 1.3579993952620875, 1.335763593131489, 1.3157668798174975, 1.297831599035669, 1.2817581897580785, 1.2673461348703832, 1.2544073707534058])",-132.30437222437325,-203.70673957213103,-44.79097331025238,0.677850860001001,0.0018299363113619082,1.469612859860364,25.000000247827316,-1.0,"[-204.07136082265797, -143.10727419863244, 44.883605590888315]","[-212.2114532835369, -133.11557223370534, 52.55855097000427]","[-197.24001022184828, -132.19057470729857, 52.57505026563752]",10000000000.0,0.0167238712310791
6,-203.99362182617188,-143.86888122558594,44.939109802246094,0.6325855255126951,0.03413612768054005,1.6144104274597504,23.102740359779446,"array('d', [-144.32810974121094, -141.83059982658992, -139.33106848025895, -136.8321613180259, -134.33647653043045, -131.84662947884863, -129.365041337167, -126.89365148817821, -124.43379468934879, -121.98622413785586, -119.55120771754135, -117.12864595571631, -114.71818296168684, -112.31929859471656, -109.93137913877618, -107.55377196466308])","array('d', [-203.99586486816406, -204.079094978235, -204.08832587055497, -204.02146688100453, -203.8766817979772, -203.65278281642296, -203.35084641234147, -202.97447568262635, -202.52891112436777, -202.02014228513693, -201.4542938312359, -200.83725428353344, -200.17447877788632, -199.47090361107, -198.73092886541866, -197.95844373295597])","array('d', [-44.93779754638672, -44.86725430365731, -44.82552328627091, -44.80370811325833, -44.79559219589703, -44.79681500881347, -44.80430056264432, -44.815860994819936, -44.82992169481178, -44.84533196345901, -44.861237210774405, -44.87699636940578, -44.89213319716139, -44.90631338080363, -44.91934125252952, -44.93117069404275])","array('d', [0.632102787494659, 0.6466907595957856, 0.6598905037697992, 0.6718341272057308, 0.6826411649114968, 0.6776587525602097, 0.65566229870037, 0.6221135857749078, 0.5815820790959689, 0.5376297054780117, 0.4928864449129595, 0.44920015840006167, 0.4077903965475959, 0.3693767112685255, 0.33427491873045645, 0.30246448177181445])","array('d', [-0.03516886010766025, -0.021501663933161153, -0.01204262135825966, -0.005518603225751373, -0.0010487141376795378, 0.0019764982888336078, 0.003978556347880659, 0.005248635434997505, 0.0059876556786872875, 0.006334845435073223, 0.006388542361174857, 0.006221651994161288, 0.005893360688596991, 0.0054581079170486465, 0.004972340213188409, 0.0044991597771539835])","array('d', [1.6186296949770786, 1.5894423494409582, 1.559400124642691, 1.5285685649676173, 1.4970092393722607, 1.465270222462889, 1.4344045298385417, 1.405269178583498, 1.3783311371431783, 1.3537656695824822, 1.3315591703584084, 1.3115890440251996, 1.293677441560466, 1.2776249445990482, 1.2632313319472135, 1.250308875517293])",-131.84662947884863,-203.65278281642296,-44.79681500881347,0.6776587525602097,0.0019764982888336078,1.465270222462889,25.00000024783814,-1.0,"[-204.07136082265797, -143.10727419863244, 44.883605590888315]","[-212.2114532835369, -133.11557223370534, 52.55855097000427]","[-197.24001022184828, -132.19057470729857, 52.57505026563752]",10000000000.0,0.021482467651367188
7,-203.99362182617188,-143.86888122558594,44.939109802246094,0.6325855255126951,0.03413612768054005,1.6144104274597504,23.102740359779446,"array('d', [-143.86888122558594, -141.37097903413914, -138.87140440940394, -136.37279671466177, -133.87775627718568, -131.388901512994, -128.90864454469155, -126.438903307259, -123.98098454108343, -121.5356115468247, -119.10302326258751, -116.6830936070057, -114.27544291686216, -111.87953014116714, -109.49472331673219, -107.12035392966042])","array('d', [-203.99362182617188, -204.06628006301028, -204.06486198716476, -203.9872949275385, -203.83175923584048, -203.59709129385752, -203.28441896002136, -202.89738712594487, -202.44125980999746, -201.92203637855036, -201.34584241292924, -200.71856221583442, -200.04564413970647, -199.332016737674, -198.58207231990497, -197.79969277415748])","array('d', [-44.939109802246094, -44.8707875705678, -44.8306688252594, -44.810024125171935, -44.80275889529929, -44.8046015327583, -44.81254075715937, -44.82443574851492, -44.83874606403976, -44.85434579540413, -44.87039830324021, -44.88627544771239, -44.90151017249846, -44.915774497293384, -44.928876841846, -44.94077334369399])","array('d', [0.6325855255126951, 0.6471275590567782, 0.6602857363012726, 0.6721917484189428, 0.6829647539470237, 0.6776653014995514, 0.6554538230248662, 0.6217742387017179, 0.5811754345254836, 0.5372002442576277, 0.492462929586118, 0.44879934267618254, 0.40742037442430384, 0.36903973397500395, 0.33396973758499315, 0.302188342427112])","array('d', [-0.03413612768054005, -0.020752145724263645, -0.011498709096607525, -0.005123616011312429, -0.0007613519411650205, 0.0021862900085069296, 0.004132632261733653, 0.005362874346713125, 0.0060735846572535866, 0.006400822377327717, 0.0064406083032395025, 0.00626413645333751, 0.005929304412958063, 0.005489553248020522, 0.005000528295991428, 0.004524665411515275])","array('d', [1.6144104274597504, 1.5851950770971117, 1.5551269764157867, 1.5242715429832272, 1.492690221954621, 1.4609406460121492, 1.4300814405074724, 1.4009627951800883, 1.3740463009665664, 1.349503670748971, 1.3273192648937795, 1.3073694955249782, 1.2894761604744056, 1.2734398475661592, 1.2590605205030008, 1.2461506981977883])",-131.388901512994,-203.59709129385752,-44.8046015327583,0.6776653014995514,0.0021862900085069296,1.4609406460121492,25.000000247848707,-1.0,"[-204.05898413752791, -142.3711806823309, 44.88791555464176]","[-212.11354107464703, -132.3307317971452, 52.589441295083034]","[-197.1365356420967, -131.5008875247291, 52.56361965888508]",10000000000.0,0.014950275421142578
8,-203.9720458984375,-142.49017333984375,44.94313430786133,0.6371830105781553,0.028311481699347503,1.602622461566005,23.11516137692146,"array('d', [-142.94992065429688, -140.451324427435, -137.95176931320674, -135.45387283797538, -132.96024057008583, -130.47350223232763, -127.99605811807038, -125.52978882982168, -123.07594891526522, -120.63520392310359, -118.20773550093689, -115.79336394998136, -113.3916610292711, -111.00204246779465, -108.62383821889011, -106.25634630965105])","array('d', [-203.9817657470703, -204.03413624888634, -204.0120649380593, -203.9135322130387, -203.73676735441373, -203.48066913884787, -203.14647880049836, -202.7379395898543, -202.26038025161722, -201.71983730003743, -201.12245386327035, -200.47411919059036, -199.78027916810788, -199.04585597914598, -198.27523388295427, -197.47228635432236])","array('d', [-44.94170379638672, -44.88050880289322, -44.845524672734186, -44.82858884898002, -44.82401220250321, -44.8278132603847, -44.83718866035753, -44.85014685184959, -44.86525474788375, -44.88146377738368, -44.89799304661712, -44.91425448704829, -44.92980953949409, -44.94434994106641, -44.957696921411554, -44.96981376313832])","array('d', [0.6350875496864316, 0.6493914843544436, 0.6623342208064492, 0.6740452940130574, 0.684641911408558, 0.6786722797152043, 0.6559727373650728, 0.6219618494159856, 0.5811552770283954, 0.5370627580444665, 0.49226988072594147, 0.4485896568705451, 0.4072158848712081, 0.368850316901289, 0.33379779316397534, 0.3020327606670626])","array('d', [-0.030809931457042656, -0.01835897843632571, -0.009772564114913767, -0.0038746078824970576, 0.00014621091014050975, 0.0028495405314356505, 0.004621242418267335, 0.005726912836527522, 0.006349098339578819, 0.006613800267567029, 0.0066097784257762365, 0.006402916421435925, 0.006047140818283275, 0.005592824904818198, 0.005093145749692571, 0.004608469156739992])","array('d', [1.6063613603499274, 1.5770005535506149, 1.546798073716713, 1.5158186761078063, 1.484123159539028, 1.4522866797698328, 1.4213791554011301, 1.3922390892781638, 1.36531780640667, 1.340779503705492, 1.3186036686228777, 1.2986638480609634, 1.280780328321087, 1.2647530312423358, 1.2503817417355223, 1.2374790367852406])",-130.47350223232763,-203.48066913884787,-44.8278132603847,0.6786722797152043,0.0028495405314356505,1.4522866797698328,25.000000247868986,-1.0,"[-204.04047705082283, -141.65923283016915, 44.893786956616914]","[-212.01677353142148, -131.579678115487, 52.6256218751417]","[-197.03471772464806, -130.84780170969228, 52.577034537614125]",10000000000.0,0.026471614837646484
9,-203.959716796875,-142.03025817871094,44.94435501098633,0.6397234201431273,0.02530727162957192,1.5991125042226655,23.12048161225035,"array('d', [-142.49017333984375, -139.99127000236217, -137.4917697256274, -134.9942733685291, -132.50138936848006, -130.01575586893523, -127.53977092931935, -125.07529990840848, -122.62357375688022, -120.18523064588473, -117.76042425674557, -115.34894817605978, -112.95034958426092, -110.56402207437196, -108.18927589616369, -105.82539160074614])","array('d', [-203.9720458984375, -204.01492177024105, -203.98305607632727, -203.8744650381646, -203.68741100986963, -203.42083148558848, -203.07602963301065, -202.65680558995888, -202.16853003584745, -201.61726770453444, -201.00917925594442, -200.35016393746326, -199.64567268980323, -198.9006297073434, -198.11941951461878, -197.3059149389926])","array('d', [-44.94313430786133, -44.88728126968694, -44.856127567110036, -44.84194950015758, -44.83936816500625, -44.844621820384155, -44.855063182311675, -44.86881191550593, -44.88451443596309, -44.90117918368015, -44.91806623501795, -44.93461693015381, -44.9504136296157, -44.965162573237485, -44.978694447083015, -44.99097783859659])","array('d', [0.6371830105781553, 0.6512875359488448, 0.6640498393905039, 0.6755976500418869, 0.6860465413096748, 0.6797273356040751, 0.6567552815357829, 0.6225423990956916, 0.5815925079424809, 0.5374019449355133, 0.49254375823801816, 0.44882039687176944, 0.4074173894663327, 0.3690304631172012, 0.33396051942623456, 0.30218000149138646])","array('d', [-0.028311481699347503, -0.01657078320318753, -0.008487733507286762, -0.0029472221776251383, 0.0008193190419136149, 0.0033415338540534884, 0.004984178249908431, 0.0059979523416676655, 0.006554856392881893, 0.006773394753789651, 0.0067369567793393636, 0.006507523354492563, 0.00613611607133538, 0.005670868520132955, 0.005163153136163335, 0.004671814465266847])","array('d', [1.602622461566005, 1.573139434687581, 1.5428240680384324, 1.5117405556241186, 1.4799491488322105, 1.4480327341142822, 1.4170668343402888, 1.3878852989125572, 1.3609346618771747, 1.3363751788014604, 1.3141834814093492, 1.2942312094840838, 1.2763374520232291, 1.260301421418169, 1.2459225058532695, 1.2330130654138916])",-130.01575586893523,-203.42083148558848,-44.844621820384155,0.6797273356040751,0.0033415338540534884,1.4480327341142822,25.000000247878504,-1.0,"[-204.0197579138741, -140.99153376329767, 44.90067275828118]","[-211.92615397094295, -130.8805116055565, 52.663155113458096]","[-196.9397582054821, -130.24437058279437, 52.606001284749325]",10000000000.0,0.017473459243774414
10,-203.94456481933594,-141.57159423828125,44.94587326049805,0.6425566673278806,0.021886285394430122,1.5956788911160567,23.127086638159927,"array('d', [-142.03025817871094, -139.53108091251576, -137.03166367949987, -134.53458890926782, -132.04246865554748, -129.55795125697568, -127.08343483769548, -124.6207717541939, -122.1711711454043, -119.73524505723388, -117.31311999657876, -114.90456327887583, -112.50909770329605, -110.12609475674546, -107.75484490389975, -105.3946110113547])","array('d', [-203.959716796875, -203.99363530636495, -203.9524505195794, -203.83421912650562, -203.63724096526886, -203.36049598085086, -203.00535131980618, -202.57566753705586, -202.07686206762244, -201.5150329320508, -200.8963630433407, -200.22676577968238, -199.51170064000834, -198.756096757997, -197.96434136234484, -197.14030865196403])","array('d', [-44.94435501098633, -44.894919731934415, -44.868358785223386, -44.85748265714501, -44.85728834203765, -44.86427926860961, -44.875995829638185, -44.89069100195177, -44.90710624959337, -44.92431802840001, -44.941635219556694, -44.958534164983924, -44.974622118304154, -44.98962258533098, -45.003377524848595, -45.015861864010795])","array('d', [0.6397234201431273, 0.653586193788443, 0.666129751203065, 0.677479632245176, 0.6877494293380849, 0.6810789539443602, 0.6578231702232151, 0.6233912381068332, 0.5822781046792829, 0.5379687593899716, 0.49302497163877385, 0.4492393153768341, 0.4077893631863781, 0.36936490461546406, 0.3342628629700115, 0.302453573267673])","array('d', [-0.02530727162957192, -0.014425259357051391, -0.006948671886177061, -0.0018375315284654605, 0.0016243286178208244, 0.003929958608860685, 0.005418493573374958, 0.006322629475228225, 0.00680167162170052, 0.006965133216943098, 0.006889984003406923, 0.006633552977394631, 0.006243406880408659, 0.005765019206452983, 0.005247619208490899, 0.004748242534951934])","array('d', [1.5991125042226655, 1.5694808129031168, 1.5390281661768623, 1.5078180694157377, 1.4759101027237258, 1.4438941582689513, 1.4128512420428991, 1.3836113062424764, 1.3566163638148352, 1.3320226856245547, 1.3098038534308825, 1.2898293595723722, 1.2719168629648496, 1.255864662942123, 1.2414715815927557, 1.2285496250365808])",-129.55795125697568,-203.36049598085086,-44.86427926860961,0.6810789539443602,0.003929958608860685,1.4438941582689513,25.00000024788747,-1.0,"[-204.01975791387412, -140.99153376329767, 44.90067275828118]","[-211.92615397094298, -130.8805116055565, 52.663155113458096]","[-196.93975820548212, -130.24437058279437, 52.606001284749325]",10000000000.0,0.01582956314086914
11,-203.94456481933594,-141.57159423828125,44.94587326049805,0.6425566673278806,0.021886285394430122,1.5956788911160567,23.127086638159927,"array('d', [-141.57159423828125, -139.07217825485344, -136.5728793621197, -134.07626210695048, -131.5849436034556, -129.1015840177181, -126.62858293341384, -124.16778068547892, -121.72036513618886, -119.28692237796916, -116.86755166363162, -114.46199380226828, -112.06974688952143, -109.69015994112642, -107.32250325585899, -104.96602170835752])","array('d', [-203.94456481933594, -203.9696928450944, -203.9193148327838, -203.7915311467653, -203.58468228869285, -203.29779365331896, -202.93229897467916, -202.49212251322948, -201.9827320890823, -201.410262442244, -200.7809217295945, -200.10063995445333, -199.37488721158218, -198.60859922816823, -197.80616728416777, -196.9714680814714])","array('d', [-44.94587326049805, -44.903741211993484, -44.88239812898627, -44.87526815128077, -44.87777887182612, -44.88673670215773, -44.899895977839755, -44.91566132997952, -44.932882153294216, -44.9507120233437, -44.96851509597169, -44.98580732530076, -45.00222412715141, -45.01750854094195, -45.03151528153597, -45.044226449662794])","array('d', [0.6425566673278806, 0.6561498220878634, 0.6684494182241215, 0.6795785539520676, 0.6896486123645887, 0.6826184712174327, 0.6590668834381788, 0.6244020858169707, 0.5831115540903529, 0.5386697827621055, 0.4936276937526871, 0.4497681427810539, 0.40826074575986665, 0.36978927672493095, 0.33464657623593663, 0.30280077141992234])","array('d', [-0.021886285394430122, -0.011986240047010058, -0.00520164719755835, -0.0005794551709781274, 0.002536059727808576, 0.0045958595045530815, 0.005909692950783979, 0.006689661128654539, 0.0070805850360718976, 0.007181744255506893, 0.007062818020885382, 0.006775862652348733, 0.006364534949112678, 0.005871300398629724, 0.0053429644222420265, 0.004834514459760413])","array('d', [1.5956788911160567, 1.5658807567491169, 1.535274454380506, 1.5039227105218564, 1.4718843465724751, 1.4397560380735765, 1.408624333831355, 1.3793155906684726, 1.3522673296631027, 1.3276317156567923, 1.3053791034814133, 1.2853766590766758, 1.2674404536224078, 1.2513677434259673, 1.2369566807855412, 1.2240188357052568])",-129.1015840177181,-203.29779365331896,-44.88673670215773,0.6826184712174327,0.0045958595045530815,1.4397560380735765,25.00000024789627,-1.0,"[-203.9818758765176, -140.07241770239906, 44.91304645327822]","[-211.8008817895423, -129.92792565240217, 52.72025002303573]","[-196.80911643072037, -129.43250250704017, 52.68116891422705]",10000000000.0,0.017267942428588867
12,-203.8826904296875,-140.19454956054688,44.953548431396484,0.6518423557281491,0.009886982850730473,1.5847954657536483,23.140370612825606,"array('d', [-140.65370178222656, -138.15394330689247, -135.65503122900236, -133.15950472026822, -130.66999830133327, -128.1892006099808, -125.71951550775805, -123.26275817429826, -120.82007148714361, -118.39198664240666, -115.97854530093785, -113.57943231926198, -111.19409369012398, -108.82183106082861, -106.46187223208348, -104.1134243816056])","array('d', [-203.9060821533203, -203.9129247098382, -203.8433954969595, -203.69568761328955, -203.46822888638025, -203.16014263455142, -202.7730056999794, -202.31087916742126, -201.7793390429826, -201.18459890190886, -200.5329211170906, -199.8302714320657, -199.08214276119085, -198.29348507259206, -197.46869843331612, -196.61166508262897])","array('d', [-44.950340270996094, -44.92471428106303, -44.91513855796847, -44.91643966531831, -44.92502651005302, -44.93839420264836, -44.95478220869607, -44.97293827124041, -44.991955472808776, -45.01116119824754, -45.030043993305625, -45.04820885251978, -45.065354442761674, -45.081267649133025, -45.09583179975541, -45.10904505556214])","array('d', [0.6486535668373107, 0.6616665253974939, 0.6734411382543773, 0.6840952494222154, 0.6937354876979037, 0.685937901726035, 0.6617540010337576, 0.6265905325301664, 0.5849193365470624, 0.5401927145744035, 0.49493857642172967, 0.4509191291623377, 0.4092870653202845, 0.37071335271386974, 0.3354821311060075, 0.3035568127996543])","array('d', [-0.01414802297949794, -0.00648107837994028, -0.0012665168257806109, 0.0022487614105420176, 0.0045818094836529025, 0.006087282175925814, 0.00700785982363463, 0.0075087618600496895, 0.007701923670993658, 0.0076634494890393786, 0.007446548417579434, 0.00709139148123723, 0.006632837815716064, 0.006106592100372689, 0.005554012470645651, 0.005025478648171122])","array('d', [1.588545377427016, 1.558386746829439, 1.5274477967123425, 1.4957895374047732, 1.463469120633164, 1.4310977164416276, 1.399773721691101, 1.3703157797028116, 1.3431517527365353, 1.318424972718549, 1.2960988495819987, 1.2760355380886161, 1.2580476843387887, 1.2419302896148237, 1.2274800536358388, 1.214507596001781])",-128.1892006099808,-203.16014263455142,-44.93839420264836,0.685937901726035,0.006087282175925814,1.4310977164416276,25.00000024791452,-1.0,"[-203.9818758765176, -140.07241770239906, 44.91304645327822]","[-211.8008817895423, -129.92792565240217, 52.72025002303573]","[-196.80911643072037, -129.43250250704017, 52.68116891422705]",10000000000.0,0.017671823501586914
13,-203.8826904296875,-140.19454956054688,44.953548431396484,0.6518423557281491,0.009886982850730473,1.5847954657536483,23.140370612825606,"array('d', [-140.19454956054688, -137.69470603815378, -135.1960782059859, -132.70120084605753, -130.2127220871756, -127.73334754969942, -125.26548364309643, -122.81093193241367, -120.37081112570655, -117.94562310802316, -115.5353789357645, -113.13973383808711, -110.7581062916193, -108.38977297564418, -106.03393931982714, -103.68979257095681])","array('d', [-203.8826904296875, -203.87991879017628, -203.80032295380497, -203.64214427181614, -203.40385660179325, -203.08463531677364, -202.68613382859206, -202.21248601168156, -201.66932495763322, -201.0629054937119, -200.3995181030405, -199.68514685761394, -198.9252962092787, -198.12492318787466, -197.28843210070625, -196.4197077290056])","array('d', [-44.953548431396484, -44.93700383618735, -44.933888472232624, -44.939808654617394, -44.95171754540898, -44.96749133496052, -44.985637337866194, -45.0050923422, -45.02508343774706, -45.045033425892974, -45.064499039863335, -45.083134027163, -45.10067165612917, -45.11692277998106, -45.13178635346182, -45.145269288017424])","array('d', [0.6518423557281491, 0.664551861165374, 0.676051898256867, 0.6864575629744283, 0.6958729975210964, 0.6876661249031276, 0.6631464781543854, 0.6277194757392023, 0.5858481425505121, 0.5409726071895242, 0.49560830447011994, 0.4515063255661263, 0.4098102962460747, 0.3711843487876793, 0.33590799460912235, 0.30394215006714587])","array('d', [-0.009886982850730473, -0.0034560929132069064, 0.0008912763293897576, 0.003796412162551505, 0.005698998909218136, 0.006900080660319749, 0.007605088360564739, 0.00795326386611618, 0.008038363234771417, 0.007923709185139427, 0.007653447737043285, 0.007261223194757554, 0.006777071664899558, 0.0062329952912142834, 0.005667369361815564, 0.00512804821413831])","array('d', [1.5847954657536483, 1.5544470068046217, 1.5233329775263078, 1.4915134680233013, 1.4590447359808492, 1.4265458597290523, 1.3951215970107176, 1.3655862820009534, 1.338362519694855, 1.3135888962560467, 1.2912251233605494, 1.271130706303196, 1.2531164920801727, 1.2369763053462257, 1.2225060934746792, 1.209515988137355])",-127.73334754969942,-203.08463531677364,-44.96749133496052,0.6876661249031276,0.006900080660319749,1.4265458597290523,25.00000024792406,-1.0,"[-203.9818758765176, -140.07241770239906, 44.91304645327822]","[-211.8008817895423, -129.92792565240217, 52.72025002303573]","[-196.80911643072037, -129.43250250704017, 52.68116891422705]",10000000000.0,0.016764163970947266
14,-203.82745361328125,-139.2760467529297,44.96299362182617,0.6581701040267942,0.0008423400577158256,1.5770114497889316,23.14718405082876,"array('d', [-139.73532104492188, -137.23546295442225, -134.73719057523456, -132.24304123552292, -129.75568034755528, -127.27783226729171, -124.81190586565289, -122.3596880348043, -119.922271940168, -117.50012877904452, -115.0932377580443, -112.70122340301977, -110.32347576221468, -107.95924577688002, -105.60771585367418, -103.268052752425])","array('d', [-203.85647583007812, -203.8437233485755, -203.75369282468077, -203.58467421785306, -203.33518818748365, -203.00446353472012, -202.59423312034482, -202.10870577144192, -201.55357268996073, -200.93513019257074, -200.2596966450701, -199.5332739847562, -198.76137764459338, -197.94897114735394, -197.1004625012491, -196.21973853821714])","array('d', [-44.95780563354492, -44.950892069099126, -44.954617449393254, -44.96542113536042, -44.98083678133192, -44.999146395251124, -45.019142101653046, -45.03996141839055, -45.06097353724603, -45.081702320527086, -45.10177665056528, -45.12090181938419, -45.13884765579927, -45.15545032487344, -45.17062527165958, -45.18438862264654])","array('d', [0.655043542385101, 0.6674484148969266, 0.6786728086935108, 0.6888290610199227, 0.6980188178043043, 0.6893868453055683, 0.6645210693339809, 0.6288245537515801, 0.5867503525015555, 0.5417253848926245, 0.49625178542469695, 0.4520689173171971, 0.41031090961756794, 0.3716347758085846, 0.33631523351972026, 0.3043106351049063])","array('d', [-0.005365249235183011, -0.00025093244198210916, 0.0031741027783748032, 0.00543122141142892, 0.006877251807232543, 0.007755912790729959, 0.008232866350794486, 0.008419663271946778, 0.008390712519281047, 0.008195756244263315, 0.007869325790889448, 0.007438151321588679, 0.006927165388611954, 0.006364454686838776, 0.005785239805723062, 0.005234701811878587])","array('d', [1.580899898954902, 1.5503599750154147, 1.5190694171458743, 1.4870873754325664, 1.4544691952229223, 1.4218424176651232, 1.3903184579244638, 1.3607069093437416, 1.333424795382999, 1.3086057535555102, 1.2862056879367154, 1.2660814052468605, 1.2480419391053552, 1.2318799416977748, 1.2173906207125702, 1.2043836350278698])",-127.27783226729171,-203.00446353472012,-44.999146395251124,0.6893868453055683,0.007755912790729959,1.4218424176651232,25.000000247933887,-1.0,"[-203.89344353273484, -138.547940935761, 44.942248813095446]","[-211.5582553389053, -128.345194196352, 52.826068886351116]","[-196.5600098508973, -128.11631242757272, 52.8417346888499]",10000000000.0,0.01894068717956543
15,-203.82745361328125,-139.2760467529297,44.96299362182617,0.6581701040267942,0.0008423400577158256,1.5770114497889316,23.14718405082876,"array('d', [-139.2760467529297, -136.77625118138516, -134.2783953956716, -131.78502783957097, -129.2988351284431, -126.82256190303264, -124.3586196421253, -121.90878026958701, -119.47411111329696, -117.05505250726056, -114.65155175877757, -112.26320273613878, -109.88936716536348, -107.5292703882739, -105.18207194016213, -102.84691824640842])","array('d', [-203.82745361328125, -203.80474272653035, -203.70431079968145, -203.5244953188789, -203.26386315837382, -202.9216962212501, -202.4998067555116, -202.00247806411647, -201.4354586303205, -200.8050853233045, -200.11770349414599, -199.3793321518201, -198.59549703529828, -197.77116759512725, -196.91075506849677, -196.01814794162618])","array('d', [-44.96299362182617, -44.96570750772958, -44.97626053857574, -44.99193083222947, -45.010835584315, -45.031664135898914, -45.05349407153796, -45.07566381959455, -45.097684619040095, -45.11918123770484, -45.13985452498013, -45.15946114592403, -45.17780734463162, -45.194754482543686, -45.2102344058466, -45.22427238603919])","array('d', [0.6581701040267942, 0.6702774451162247, 0.6812326213241132, 0.6911452754792599, 0.7001146154131301, 0.6910588351983178, 0.6658495238744611, 0.629886815811659, 0.5876133305828539, 0.542442477123334, 0.4968629266803273, 0.4526022454325111, 0.4107850518674746, 0.3720612550662252, 0.3367008043258798, 0.3046595140292174])","array('d', [-0.0008423400577158256, 0.0029501836083438344, 0.0054505570458818564, 0.0070589303283064755, 0.00804850782492891, 0.008605238884487453, 0.008854768781087792, 0.008880827246144458, 0.008738415669616743, 0.008463674305108481, 0.008081519058722954, 0.007611774754525802, 0.007074282424419459, 0.006493224998226464, 0.00590067771375698, 0.005339154359941101])","array('d', [1.5770114497889316, 1.546283645570929, 1.5148199233391244, 1.4826784989501591, 1.4499138119920332, 1.417162006857028, 1.3855411700996934, 1.35585598811684, 1.3285178315207078, 1.3036553832809492, 1.2812207665328033, 1.2610681267626105, 1.2430047211297501, 1.2268220614674858, 1.2123146421207243, 1.199291670238016])",-126.82256190303264,-202.9216962212501,-45.031664135898914,0.6910588351983178,0.008605238884487453,1.417162006857028,25.000000247943564,-1.0,"[-203.83677623444598, -137.77607625579407, 44.96173011188902]","[-211.41736498770925, -127.54019940357163, 52.883945661849495]","[-196.4176600163531, -127.45871855879723, 52.93097378332054]",10000000000.0,0.01922917366027832
16,-203.723388671875,-137.8982391357422,44.98486328125,0.6673723459243772,-0.011897964403033237,1.5643098103490212,23.15873434633134,"array('d', [-138.35748291015625, -135.85805785032193, -133.3612738065376, -130.86972896888346, -128.38616535843897, -125.91337334497081, -123.45376824710075, -121.00908775256633, -118.58034262258347, -116.1679069159236, -113.77166025557446, -111.3911319961375, -109.02562462051829, -106.67431016059533, -104.33630068167905, -102.0107005096151])","array('d', [-203.76089477539062, -203.71707349175995, -203.59466432620687, -203.3920994587562, -203.108039147761, -202.74187434726508, -202.2955837333583, -201.77360436232448, -201.18180021584152, -200.52658784248524, -199.81436396659205, -199.05117872808694, -198.24257546858234, -197.39353269131044, -196.5084655755106, -195.59126370106378])","array('d', [-44.97645950317383, -44.99767106646628, -45.0213074989799, -45.04627700081712, -45.07182843006624, -45.097439434972145, -45.12273893094895, -45.1474526150257, -45.17136501410875, -45.19429468923081, -45.216080485986026, -45.236577437247576, -45.2556614222764, -45.273241914190585, -45.28928200601503, -45.303824297401164])","array('d', [0.6642971038818356, 0.6758213843471294, 0.6862489854368501, 0.695684269837775, 0.7042216674572528, 0.6942734566158616, 0.6683515129111938, 0.6318456623070152, 0.5891731727697589, 0.5437166868465017, 0.49793512987068483, 0.4535304858989812, 0.4116070227731091, 0.3727996104250484, 0.33736821042530357, 0.3052634080956921])","array('d', [0.007857337594032293, 0.00909152879038005, 0.009805980678738054, 0.010163980676692342, 0.010275655469771598, 0.010214526402064918, 0.010028518660623955, 0.009747439456474372, 0.00938875500087302, 0.008962355447222434, 0.008474638639914784, 0.007932155816387135, 0.007344975885967916, 0.0067297960766198334, 0.006112660557341518, 0.0055309643860834545])","array('d', [1.5687534157794456, 1.5376548755552102, 1.505849629567525, 1.4733940149924947, 1.440340652974853, 1.407344790222601, 1.3755387426431989, 1.3457158196566938, 1.3182750470286206, 1.2933346389925788, 1.2708389239363047, 1.250636679756428, 1.2325316599756717, 1.2163131850155242, 1.2017744222687705, 1.1887237697506845])",-125.91337334497081,-202.74187434726508,-45.097439434972145,0.6942734566158616,0.010214526402064918,1.407344790222601,25.000000247963772,-1.0,"[-203.77149814915487, -137.01647533680617, 44.98366227065574]","[-211.2634215812212, -126.74704938501709, 52.94670025303259]","[-196.2637273082612, -126.81295152127427, 53.01618856980349]",10000000000.0,0.035216331481933594
17,-203.6398162841797,-136.9810791015625,45.005165100097656,0.6729869246482847,-0.019405137747526256,1.5549289482322077,23.16309755859934,"array('d', [-137.8982391357422, -135.39912726186574, -132.90301410097405, -130.4125356443414, -127.93046786584213, -125.45962651623917, -123.00242774562776, -120.56058932851586, -118.13509055353516, -115.72626931085284, -113.33396871985634, -110.9576836226074, -108.59668499409472, -106.25011663621076, -103.91706555776203, -101.59661391541397])","array('d', [-203.723388671875, -203.66822594917102, -203.5340407448295, -203.31931384777977, -203.02275393957555, -202.64380926680437, -202.18454749187185, -201.64948669355292, -201.04455035894492, -200.37619504732, -199.65084244335412, -198.87455709844681, -198.05288985651617, -197.19082245875722, -196.2927708549629, -195.3626240904429])","array('d', [-44.98486328125, -45.01465460478131, -45.04433994796933, -45.07359366876377, -45.102195315431054, -45.12999138727487, -45.15686820273327, -45.1827318748678, -45.20749398052211, -45.23106299662181, -45.25334167980763, -45.27423054427739, -45.293637612671006, -45.31149452307089, -45.32777871872646, -45.342540697045905])","array('d', [0.6673723459243772, 0.6786039786685277, 0.6887667811254657, 0.6979624657915527, 0.7062830643901303, 0.6958558331765397, 0.6695564640089646, 0.6327672683996283, 0.5898903029279974, 0.5442906069577047, 0.49841049011010946, 0.4539378647551668, 0.41196592964196976, 0.3731214496611359, 0.33765905299452803, 0.3055265733589172])","array('d', [0.011897964403033237, 0.011935039795044637, 0.011815782090278247, 0.01159147043493101, 0.011295286867700396, 0.010947825031190794, 0.010560502768232524, 0.010137854607059009, 0.009679795159893059, 0.009183968423530597, 0.008648152547054127, 0.008072732698568853, 0.0074632455029584235, 0.006832919484129589, 0.006205004133428344, 0.005614520316571076])","array('d', [1.5643098103490212, 1.5330238983660522, 1.5010461334933207, 1.4684318851929121, 1.4352328395189258, 1.402114970109093, 1.370218312604225, 1.3403295659702688, 1.3128409194092379, 1.2878649524900245, 1.2653418901458096, 1.2451177416302945, 1.2269944920107074, 1.2107603842908394, 1.1962079558558782, 1.183145236991763])",-125.45962651623917,-202.64380926680437,-45.12999138727487,0.6958558331765397,0.010947825031190794,1.402114970109093,25.00000024797449,-1.0,"[-203.69936691719394, -136.25926523882677, 45.007273199360526]","[-211.09625651818354, -125.9570362189313, 53.01664904597901]","[-196.09800408112926, -126.17125760356383, 53.097476224339026]",10000000000.0,0.018836259841918945
18,-203.6398162841797,-136.9810791015625,45.005165100097656,0.6729869246482847,-0.019405137747526256,1.5549289482322077,23.16309755859934,"array('d', [-137.43905639648438, -134.9403421966806, -132.4449834163241, -129.9556594639964, -127.47518224047259, -125.00639292916844, -122.55170692386068, -120.11282015621265, -117.69067881894568, -115.28558343660895, -112.89733981167798, -110.52540775404732, -108.16902641849282, -105.82731120436134, -103.49932398277605, -101.18412471801993])","array('d', [-203.68307495117188, -203.6162641612403, -203.47002291886972, -203.2428790986706, -202.93358854786285, -202.5416560618289, -202.06923883342955, -201.5209353041481, -200.90272661896475, -200.22110703197836, -199.48252084929015, -198.69304488738655, -197.85823561357915, -196.98307639931232, -196.07198260184194, -195.12884157719452])","array('d', [-44.994075775146484, -45.032126682958754, -45.067623209289906, -45.100983814559875, -45.132502587374375, -45.162383053303984, -45.190760270755554, -45.21771441605416, -45.24327945355848, -45.267450352861296, -45.29019126971345, -45.31144636264046, -45.331154467608634, -45.34926844721006, -45.365779463498626, -45.38074553437833])","array('d', [0.6702669262886044, 0.6812231035285299, 0.6911366635152146, 0.7001068242454392, 0.7082233600608191, 0.6973108740540299, 0.670634421890826, 0.6335666374837899, 0.590492522192078, 0.5447581707187726, 0.49878839607124975, 0.454256504490402, 0.4122443280207897, 0.3733703833490285, 0.3378839210073449, 0.3057300423694601])","array('d', [0.015791289508342733, 0.014669329997654147, 0.013744277751337033, 0.012958113797897254, 0.012269067402891931, 0.011646264266826146, 0.01106568256920735, 0.010507365369857028, 0.009954248253986496, 0.009392149449597008, 0.008810537455091765, 0.008203862391253584, 0.007573303968412044, 0.0069287589163669295, 0.006290792786306366, 0.005692145106732155])","array('d', [1.5597373024236894, 1.528274225429734, 1.4961333948254856, 1.4633692535527918, 1.430032593418094, 1.3968007138792962, 1.364821545030812, 1.3348746061299805, 1.3073449739291216, 1.2823395231392904, 1.2597944154383902, 1.2395529769881202, 1.2214155200210464, 1.2051692997256507, 1.1906063011745336, 1.1775342515604825])",-125.00639292916844,-202.5416560618289,-45.162383053303984,0.6973108740540299,0.011646264266826146,1.3968007138792962,25.00000024798532,-1.0,"[-203.61602069599917, -135.4815503029925, 45.03427097995672]","[-210.9075888502258, -125.14356578306254, 53.09399243407388]","[-195.91230086452586, -125.51107481812129, 53.17320944659639]",10000000000.0,0.020433664321899414
19,-203.54501342773438,-136.0654296875,45.03072738647461,0.6777806878089904,-0.026207828894257535,1.5451839110490422,23.16518746042571,"array('d', [-136.9810791015625, -134.48285142196457, -131.9883466504228, -129.50029193691077, -127.02153642858923, -124.55494635500683, -122.10293398899817, -119.66717053633677, -117.24856651930396, -114.84738302432001, -112.46338695272715, -110.09600189898372, -107.74443431971824, -105.40777055832821, -103.08504685761213, -100.77530061650282])","array('d', [-203.6398162841797, -203.5607838253969, -203.40193929230165, -203.16185660664695, -202.8393379192221, -202.43394445463534, -201.94792495823324, -201.38595864954883, -200.75408294526736, -200.05882753257174, -199.30665681994574, -198.50365744735433, -197.65538928971768, -196.76683540428192, -195.84240887773348, -194.8859939386688])","array('d', [-45.005165100097656, -45.05087300617335, -45.09174055565064, -45.12888415165108, -45.16307960575769, -45.19486407987689, -45.22460465193376, -45.25254356993019, -45.27882855812771, -45.303534853313515, -45.326683509203406, -45.34825907674114, -45.368228872883634, -45.38656534630502, -45.40327228101632, -45.41841455785768])","array('d', [0.6729869246482847, 0.6836842600439307, 0.6933636102228258, 0.702121849133564, 0.7100466297363565, 0.6986326650487471, 0.6715729940442422, 0.6342276887217311, 0.5909621029466835, 0.5451013925420967, 0.49905147657621685, 0.45447013657909724, 0.4124272685555663, 0.3735328174050875, 0.3380305056088928, 0.30586267761386043])","array('d', [0.019405137747526256, 0.017200017492254693, 0.015523450375697533, 0.01421435983391964, 0.013160439049621326, 0.012282472120917372, 0.011523213037398672, 0.010839787747002918, 0.010199275423958458, 0.009576472184863433, 0.008953116104305393, 0.008318144900458069, 0.00766869613699309, 0.007011576317373156, 0.006364859567779468, 0.005759163508079976])","array('d', [1.5549289482322077, 1.5232986767611836, 1.4910040073334043, 1.4580984980705052, 1.424632087740287, 1.3912943309489678, 1.3592414007039124, 1.329244819995045, 1.301682102023986, 1.2766542409029582, 1.2540933206480238, 1.2338400474288387, 1.215693152251975, 1.1994389977370816, 1.1848691042787622, 1.1717909715140198])",-124.55494635500683,-202.43394445463534,-45.19486407987689,0.6986326650487471,0.012282472120917372,1.3912943309489678,25.000000247996514,-1.0,"[-203.5261208879809, -134.72956983056343, 45.06366385828593]","[-210.7116541302093, -124.35429440086094, 53.17056041508511]","[-195.72061350545428, -124.86819197937243, 53.23845935281431]",10000000000.0,0.01746201515197754
20,-203.49354553222656,-135.60781860351562,45.04518508911133,0.679986953735351,-0.029401509091258063,1.5402419055488443,23.1664385385189,"array('d', [-136.0654296875, -133.56841405466332, -131.07584224492973, -128.59054609381135, -126.11545077049743, -123.65347030109619, -121.20700554289535, -118.77767367322545, -116.36631105663766, -113.97309864037716, -111.59772537035413, -109.23954295223814, -106.89769337718153, -104.57120599356409, -102.25906696579565, -99.96026973072021])","array('d', [-203.54501342773438, -203.44127695515206, -203.25706154779036, -202.99102703325923, -202.64206230341878, -202.2098362469731, -201.69677691679973, -201.10771840264474, -200.44880207001566, -199.7266198243057, -198.9476684990334, -198.11804776160702, -197.2433188146136, -196.32845957820592, -195.37787488859948, -194.3954396446868])","array('d', [-45.03072738647461, -45.090826715402834, -45.14175390936478, -45.18595635747895, -45.22512593191419, -45.260432480715224, -45.29268187497914, -45.322422072622366, -45.350014856314345, -45.37568616881746, -45.39956369210316, -45.42170755517954, -45.44213829378999, -45.46086490075536, -45.47791464988522, -45.49336510054511])","array('d', [0.6777806878089904, 0.6880218367169866, 0.6972884122537055, 0.7056731571833755, 0.713259984746313, 0.700853014498234, 0.673048845768172, 0.635176895342136, 0.5915591135890838, 0.54547620926005, 0.49929493133094854, 0.4546414038001051, 0.4125614942246703, 0.3736480839689528, 0.33813402197362313, 0.3059563431025301])","array('d', [0.026207828894257535, 0.021947375303643768, 0.018848902843096343, 0.016553202667431304, 0.014812776509389268, 0.01345603654684482, 0.012362438862877152, 0.011445576148893851, 0.01064249634907198, 0.009907181363486133, 0.00920681146494207, 0.008519968726946704, 0.007836210704523831, 0.007156553156021169, 0.006494398070556775, 0.005876374803026582])","array('d', [1.5451839110490422, 1.5132572670565467, 1.4806900196979735, 1.447534133230702, 1.413838012226084, 1.380316714787268, 1.3481429058062993, 1.3180709726974347, 1.2904629814528588, 1.2654083233731772, 1.2428312827545613, 1.2225677178393002, 1.2044135541565943, 1.1881536684745788, 1.1735788931382343, 1.1604964641780027])",-123.65347030109619,-202.2098362469731,-45.260432480715224,0.700853014498234,0.01345603654684482,1.380316714787268,25.0000002480185,-1.0,"[-203.5261208879809, -134.72956983056343, 45.06366385828593]","[-210.7116541302093, -124.35429440086094, 53.17056041508511]","[-195.72061350545428, -124.86819197937243, 53.23845935281431]",10000000000.0,0.018247365951538086
21,-203.3826904296875,-134.6931610107422,45.07693099975586,0.6841572523117062,-0.034810572862625094,1.5303945849325995,23.16510798013245,"array('d', [-135.60781860351562, -133.11152720931486, -130.62003694538978, -128.13623648196986, -125.66309015248103, -123.20353529428041, -120.75996492810435, -118.33396716101966, -115.92633987285936, -113.53722313975365, -111.16626657725847, -108.81278588897084, -106.47589095300518, -104.15458283719467, -101.84782292993957, -99.55458317721548])","array('d', [-203.49354553222656, -203.3773043449571, -203.18027979529617, -202.90117333907716, -202.5389159174992, -202.09322917619275, -201.56663045405242, -200.96402969976168, -200.29161774898762, -199.556014901963, -198.76373166281147, -197.9208719904363, -197.03299587089438, -196.10507708568076, -195.1415150376123, -194.14617895602095])","array('d', [-45.04518508911133, -45.11202963019429, -45.16765394096287, -45.215138860054964, -45.25661096484353, -45.29353947028062, -45.326937287324924, -45.35749623129029, -45.38567856067497, -45.41178079803668, -45.43598046577273, -45.458372962760286, -45.4790036251193, -45.49789844818293, -45.51509560273556, -45.530678478387216])","array('d', [0.679986953735351, 0.6900181488616469, 0.6990947503427789, 0.7073075996196695, 0.714738887345345, 0.7018339749524587, 0.6736613672832298, 0.6355330850994793, 0.5917477690578028, 0.5455628356090415, 0.4993248133291551, 0.4546436575864146, 0.41255306610681375, 0.37363734127620096, 0.33812390846863327, 0.30594719202395904])","array('d', [0.029401509091258063, 0.024167865968689542, 0.020398167167066557, 0.01763810766250963, 0.015575511834654476, 0.013994740181583391, 0.012745155280909042, 0.011719715934678361, 0.010841279688415799, 0.010054022959646301, 0.009318287358061908, 0.008607802281919246, 0.007908579540614705, 0.007218927742070418, 0.006550062533385568, 0.005926742096384546])","array('d', [1.5402419055488443, 1.5081781199575937, 1.4754847939641518, 1.4422131430943748, 1.408410852335275, 1.374806203397461, 1.3425801810848625, 1.312478117701119, 1.28485416946258, 1.2597919250645542, 1.2372118525230593, 1.216947494936962, 1.1987934809339837, 1.1825340366298744, 1.1679597268260993, 1.1548777164104793])",-123.20353529428041,-202.09322917619275,-45.29353947028062,0.7018339749524587,0.013994740181583391,1.374806203397461,25.00000024802936,-1.0,"[-203.4294640749677, -133.97331946079692, 45.09513187336455]","[-210.50657104157736, -123.56120328594564, 53.25003185709002]","[-195.52112291055116, -124.21983772249102, 53.30047976408363]",10000000000.0,0.02211141586303711
22,-203.3826904296875,-134.6931610107422,45.07693099975586,0.6841572523117062,-0.034810572862625094,1.5303945849325995,23.16510798013245,"array('d', [-135.15037536621094, -132.6548669600563, -130.1645151788074, -127.68226628577979, -125.21112354171811, -122.75404687605825, -120.31342031281032, -117.89080202057774, -115.48695097580325, -113.10196630166459, -110.73545841468844, -108.38670726480899, -106.05479091856913, -103.73868247874991, -101.43731886520119, -99.14965060915131])","array('d', [-203.4394073486328, -203.3107393894607, -203.1009938826014, -202.80891369715164, -202.43347146933795, -201.97444115716453, -201.43442878914723, -200.81841916767257, -200.13265143177466, -199.38377318138532, -198.57830766008453, -197.72236236270805, -196.82149545679644, -195.88067610621994, -194.9042978958803, -193.89622398302598])","array('d', [-45.060516357421875, -45.13347941634336, -45.19335053758432, -45.24379236157364, -45.28732987455952, -45.3257060794265, -45.36012284325309, -45.391403009813814, -45.420100179643775, -45.44657492839206, -45.47104994145321, -45.49365253523295, -45.51445046058622, -45.5334850552933, -45.55080429338995, -45.566496764941974])","array('d', [0.6821259856224057, 0.6919536251262512, 0.7008460418461927, 0.7088922338407864, 0.7161727168294142, 0.7027728881626063, 0.6742355218540357, 0.6358547044598145, 0.5919054397431119, 0.5456217076417798, 0.4993297875138304, 0.45462349585860784, 0.41252441283561464, 0.37360831650080795, 0.3380972550944416, 0.3059230750514894])","array('d', [0.032302491366863154, 0.026178496956188846, 0.02179612434667554, 0.01861318777128, 0.016257882341044, 0.014474049071501668, 0.01308343198016274, 0.011960094817466614, 0.011013929794427665, 0.010180174205670755, 0.009412948175303023, 0.0086815741976821, 0.007968847894763674, 0.007270622946055622, 0.0065961303727923, 0.005968426005000444])","array('d', [1.5353273871031141, 1.5031301890115192, 1.4703142447264423, 1.4369300344897749, 1.403024537465619, 1.3693393267622762, 1.3370636657764092, 1.3069337234999183, 1.279295735999747, 1.2542275265145075, 1.231645797011467, 1.2113818225398267, 1.1932289735307495, 1.1769708554429743, 1.1623977882277434, 1.1493168840149883])",-122.75404687605825,-201.97444115716453,-45.3257060794265,0.7027728881626063,0.014474049071501668,1.3693393267622762,25.000000248039978,-1.0,"[-203.32214100719708, -133.19529306843316, 45.12913631403469]","[-210.28710733813037, -122.74853214338673, 53.33611079820903]","[-195.30842791503994, -123.54772437439759, 53.357430230178814]",10000000000.0,0.01710963249206543
