,x_pos,y_pos,z_pos,roll,pitch,yaw,vel,x_traj,y_traj,z_traj,roll_traj,pitch_traj,yaw_traj,x_cmd,y_cmd,z_cmd,roll_cmd,pitch_cmd,yaw_cmd,vel_cmd,effector_dmg,effector_x,effector_y,effector_z,cost,time_solution
0,-155.6063995361328,-230.88783264160156,44.919437408447266,0.6306191682815552,0.030979840084910504,2.6498583118107657,23.150838796007836,"array('d', [-232.77720642089844, -232.08410955551685, -231.32634989146055, -230.50404973582965, -229.6177904777492, -228.66860790100793, -227.65805798555536, -226.58882260368802, -225.46577768289953, -224.29412857033913, -223.07995648036143, -221.8300494246926, -220.55043568386077, -219.24628103736478, -217.9219217265177, -216.58095309514167])","array('d', [-152.45455932617188, -153.784052547578, -155.07802197215648, -156.3321299539461, -157.54198677468062, -158.70318948021855, -159.81142631594597, -160.86317818607847, -161.85730020215553, -162.79576223792762, -163.68145724809446, -164.51735663146246, -165.3069449266075, -166.05386304176326, -166.7616795747955, -167.43376642652908])","array('d', [-44.911922454833984, -44.87171512169575, -44.84056237805926, -44.81734554479635, -44.80085549914139, -44.78988845875031, -44.783312179553185, -44.780106628756634, -44.779384514284395, -44.78039781117856, -44.782534349497965, -44.78530396993345, -44.78833055044188, -44.7913448816927, -44.794179019596115, -44.796762748291336])","array('d', [0.6304033398628233, 0.6451530356770868, 0.6584991135526104, 0.6705751452733777, 0.6815019915852424, 0.6913890117483114, 0.6968549593172184, 0.6798255979021579, 0.6473002509372223, 0.6053618370855446, 0.5588104835229769, 0.5111583673992339, 0.4648042232049057, 0.4212426626992613, 0.38123968611252923, 0.3449599644769526])","array('d', [-0.030057679861784033, -0.02366525031708863, -0.01796979620866041, -0.013069004043794494, -0.008986289774681718, -0.005691530969949361, -0.0031197739315972635, -0.001186547823630306, 0.0002005882126433854, 0.0011337399571233657, 0.0016998407371068176, 0.0019791035150126444, 0.0020453208165036275, 0.0019671719654400835, 0.0018100395928241282, 0.0016377915901211843])","array('d', [2.6851484338429312, 2.6366669188356844, 2.586748148981835, 2.5355021049231183, 2.48303212413229, 2.429435067619781, 2.3749980498041032, 2.3212166888195758, 2.2701063115506215, 2.222853848185445, 2.1799217538557314, 2.141285542945186, 2.106680992109852, 2.075734233594575, 2.048040460462079, 2.0232116182010724])",-228.66860790100793,-158.70318948021855,-44.78988845875031,0.6913890117483114,-0.005691530969949361,2.429435067619781,14.999999856377698,-1.0,"[-82.38694074150249, -244.66231889908664, 44.8317570434975]","[-92.92775743130342, -253.4519450087677, 38.77918268509204]","[-96.88984691673312, -241.88415891837857, 47.46757562489669]",10000000000.0,0.04078412055969238
1,-156.3836669921875,-230.39840698242188,44.9212532043457,0.6307775378227234,0.03175732865929612,2.6409071246769766,23.148842518896377,"array('d', [-232.08062744140625, -231.36938231268053, -230.59396805765928, -229.75456667946844, -228.85181978714925, -227.88682338893793, -226.86119675233184, -225.77768859757893, -224.64120235718136, -223.45664976160631, -222.23038741522782, -220.96915442165417, -219.67892242956825, -218.36479925330036, -217.03106551458777, -215.68126690830692])","array('d', [-153.64596557617188, -154.96581738367024, -156.2492710200699, -157.49198878859875, -158.68958795068568, -159.8376792686158, -160.93197645015113, -161.9690180699786, -162.94774580202719, -163.8704319265947, -164.73979934380137, -165.5589150986051, -166.33134555502085, -167.0607998031668, -167.75090253191553, -168.40507057234163])","array('d', [-44.9141845703125, -44.87327590528401, -44.8415510795857, -44.81786106921783, -44.800973334752015, -44.7896666405879, -44.78279606685305, -44.77933251061941, -44.778382197012604, -44.77919237352902, -44.78114723579231, -44.78375375710157, -44.786633517485775, -44.78951540642541, -44.7922298858151, -44.7947054121741])","array('d', [0.630373954772949, 0.64512644694577, 0.6584750550713309, 0.670553376257106, 0.6814822941624294, 0.6913711887787889, 0.6966201383402059, 0.6794428707526753, 0.6468320651633204, 0.6048585905805985, 0.5583086917605493, 0.5106804491713317, 0.464361654443038, 0.420839181692015, 0.38087421878241173, 0.34462927593164516])","array('d', [-0.030575137585401667, -0.024084880255470724, -0.018314364696396666, -0.01335637111971372, -0.0092299373131615, -0.005901332581783879, -0.003302815554481498, -0.001347876587406, 5.7349608214959275e-05, 0.0010058797728178237, 0.0015852408360599805, 0.0018760801791852554, 0.0019524838808063583, 0.00188334828565877, 0.0017342404500516892, 0.0015692056832979275])","array('d', [2.6714403192189082, 2.622961637536717, 2.5730454861125995, 2.5218018583280224, 2.4693341040978902, 2.4157390965395953, 2.3613162808934014, 2.307568859666427, 2.256503329515277, 2.209310100633762, 2.1664330396779237, 2.127845636056946, 2.0932832528349534, 2.0623724592952133, 2.0347092485529727, 2.009906400980694])",-227.88682338893793,-159.8376792686158,-44.7896666405879,0.6913711887787889,-0.005901332581783879,2.4157390965395953,14.999999856754213,-1.0,"[-82.38694074150249, -244.66231889908664, 44.8317570434975]","[-92.92775743130342, -253.4519450087677, 38.77918268509204]","[-96.88984691673312, -241.88415891837857, 47.46757562489669]",10000000000.0,0.0408627986907959
2,-157.15724182128906,-229.90184020996094,44.92255401611328,0.6306786537170408,0.032381203025579536,2.6317884484913683,23.145456652024297,"array('d', [-231.60829162597656, -230.8860226985324, -230.0998977635475, -229.2501345651873, -228.33741065681093, -227.36285793122119, -226.3281334046899, -225.23602568001067, -224.09145374243113, -222.89914953724525, -221.66563595177936, -220.397621047107, -219.10104096705282, -217.78096742659346, -216.4416465541678, -215.08659218610222])","array('d', [-154.43382263183594, -155.7476736644384, -157.02459562424835, -158.26025210356005, -159.45026586018344, -160.59025711353786, -161.67595615722323, -162.70393803647713, -163.6731978979332, -164.58618601150937, -165.44552847242971, -166.25435003696094, -167.01626624914854, -167.73502705140376, -168.41429065283555, -169.05750124993818])","array('d', [-44.91632080078125, -44.87539384090736, -44.84369349410036, -44.82005062889091, -44.803218919680006, -44.79196846038698, -44.78514951785149, -44.78173088256846, -44.78081841803189, -44.78166013630558, -44.78364124839508, -44.78626974711672, -44.789168202619834, -44.79206633108728, -44.79479519855679, -44.797283630848305])","array('d', [0.6303175091743467, 0.6450753728514055, 0.6584288413154002, 0.6705115603175823, 0.6814444575318934, 0.6913369527748555, 0.6964515003756602, 0.6791838347415264, 0.646521925782485, 0.6045287153492435, 0.557981579260187, 0.5103697845231802, 0.4640743391985559, 0.4205773539739807, 0.3806370733032495, 0.3444146978091487])","array('d', [-0.0306059103459121, -0.024079120273602955, -0.018287825872480158, -0.013320202610400669, -0.00919143958369269, -0.005864815282105467, -0.0032704217221961544, -0.0013202953633689317, 8.031089725194484e-05, 0.0010248403861776601, 0.0016009626308324078, 0.0018893207386988403, 0.0019638909482491075, 0.0018934118642454638, 0.0017432817572080065, 0.0015773865970585598])","array('d', [2.6630661050465445, 2.6145928655474853, 2.5646817435614104, 2.5134427569361124, 2.4609792794814807, 2.407388207566177, 2.3529767536751893, 2.2992528187828607, 2.2482172676178753, 2.2010623588794185, 2.158220783400487, 2.119664818555964, 2.0851296113159568, 2.054242033333006, 2.026598596198774, 2.001812635077373])",-227.36285793122119,-160.59025711353786,-44.79196846038698,0.6913369527748555,-0.005864815282105467,2.407388207566177,14.999999857002095,-1.0,"[-82.38694074150249, -244.66231889908664, 44.8317570434975]","[-92.92775743130342, -253.4519450087677, 38.77918268509204]","[-96.88984691673312, -241.88415891837857, 47.46757562489669]",10000000000.0,0.020953893661499023
3,-157.54251098632812,-229.65078735351562,44.92291259765625,0.6309719681739803,0.03221661970019353,2.627521232762609,23.143763333205825,"array('d', [-231.12982177734375, -230.39606213798905, -229.59875809449574, -228.73816775104393, -227.81500917208209, -226.83045460654202, -225.78620315037398, -224.68508719505212, -223.53204392849403, -222.33161265469423, -221.09049856164694, -219.8153780877007, -218.512150699886, -217.18585054181767, -215.8406876743731, -214.48014253910563])","array('d', [-155.21644592285156, -156.52390787915556, -157.79387605272206, -159.02201438183033, -160.20395061192684, -161.33531435621202, -162.41185302760397, -163.43017992725157, -164.38934685220056, -165.29199135354332, -166.14063951117745, -166.9384777137946, -167.68917408273953, -168.39652226819754, -169.06421636782656, -169.6957298891196])","array('d', [-44.91847610473633, -44.877346317205635, -44.84550524509147, -44.82176293895165, -44.80485807505563, -44.793550554304154, -44.786684151221785, -44.783223832614944, -44.78227343391475, -44.78308010409674, -44.785028700312964, -44.787627053504714, -44.79049771472434, -44.793370392416946, -44.796076093860705, -44.798543516101624])","array('d', [0.630432605743408, 0.6451795165431782, 0.6585230744330378, 0.6705968259760243, 0.6815216090967569, 0.6914067624021326, 0.6963736495656837, 0.6790030811458665, 0.646279084264962, 0.6042570128479252, 0.5577053218360785, 0.51010413702305, 0.4638273053761275, 0.42035183266917964, 0.3804327607014996, 0.3442298281053672])","array('d', [-0.03076638467609906, -0.024190013136313457, -0.01836516948199759, -0.013375826208940823, -0.009233586723494613, -0.0058988870215213665, -0.0032997111762374117, -0.0013466330727756627, 5.603531032097421e-05, 0.001002256181969271, 0.0015799548353044495, 0.0018698945841091185, 0.0019460670521541394, 0.0018771747114172642, 0.0017285630876199393, 0.0015640685928697362])","array('d', [2.6543025533345084, 2.605818216379993, 2.555896838618811, 2.50464838800291, 2.4521761896119036, 2.3985770923977183, 2.3441662312276024, 2.2904565253757623, 2.2394432870702095, 2.192320899741207, 2.1495100449869087, 2.1109815317484393, 2.0764700926263964, 2.0456027616168835, 2.017976474864398, 1.9932050595272588])",-226.83045460654202,-161.33531435621202,-44.793550554304154,0.6914067624021326,-0.0058988870215213665,2.3985770923977183,14.999999857286586,-1.0,"[-82.38694074150249, -244.66231889908664, 44.8317570434975]","[-92.92775743130342, -253.4519450087677, 38.77918268509204]","[-96.88984691673312, -241.88415891837857, 47.46757562489669]",10000000000.0,0.017673492431640625
4,-157.92660522460938,-229.39776611328125,44.92264175415039,0.6316890716552731,0.03162086009979257,2.623658017316137,23.13861899673072,"array('d', [-230.88783264160156, -230.14826172680145, -229.3452909048594, -228.47920095998768, -227.5507326886867, -226.56108093758894, -225.5119680912133, -224.40625026318713, -223.24887539984005, -222.0442838104751, -220.79927722425862, -219.52051692873928, -218.21388436128302, -216.88439494301144, -215.53624060861108, -214.17288492223835])","array('d', [-155.6063995361328, -156.91057372615722, -158.17696026883894, -159.40122235715265, -160.57898953046686, -161.7058956403359, -162.77769641324144, -163.79102424618662, -164.74495992607442, -165.64223675595989, -166.48533103311675, -167.27746141967637, -168.02232366496605, -168.7237344474963, -169.3854068160662, -170.01082978795344])","array('d', [-44.919437408447266, -44.878015608244475, -44.84593188974727, -44.82198607373894, -44.80490867506178, -44.79345326601526, -44.78645880268734, -44.78288661001084, -44.78183776093565, -44.78255720391329, -44.78442815895827, -44.78695709247119, -44.78976544805862, -44.792582025517554, -44.79523708911904, -44.79765874155748])","array('d', [0.6306191682815552, 0.6453483253237762, 0.6586758189480253, 0.6707350349410448, 0.6816466657509821, 0.6915199183516569, 0.6964088734812851, 0.6789813533126233, 0.646220250616738, 0.6041777578444701, 0.5576182250146479, 0.5100173303042268, 0.46374533618901487, 0.42027663353331, 0.38036458686927377, 0.34416814186545197])","array('d', [-0.030979840084910504, -0.024366671135872223, -0.01851260207936768, -0.013500160315715111, -0.009339619369212324, -0.005990288676091093, -0.0033792562044528142, -0.0014164167520285239, -5.584406114350131e-06, 0.0009475451360042391, 0.001531141448335751, 0.001826161566479498, 0.0019067429984870848, 0.001841705838100431, 0.0016964988470728067, 0.0015350556656242894])","array('d', [2.6498583118107657, 2.601355982919137, 2.551417978051013, 2.500154184219691, 2.447667847459349, 2.3940557398100326, 2.339636745498661, 2.285926337745657, 2.2349173530959328, 2.187805421882872, 2.1450049943551335, 2.1064860044919995, 2.071982840287927, 2.0411225020535033, 2.0135020489138133, 1.988735486537356])",-226.56108093758894,-161.7058956403359,-44.79345326601526,0.6915199183516569,-0.005990288676091093,2.3940557398100326,14.999999857441464,-1.0,"[-82.38694074150249, -244.66231889908664, 44.8317570434975]","[-92.92775743130342, -253.4519450087677, 38.77918268509204]","[-96.88984691673312, -241.88415891837857, 47.46757562489669]",10000000000.0,0.020518779754638672
5,-158.3080291748047,-229.1436767578125,44.92227554321289,0.6328608393669127,0.03050741367042073,2.620170430341039,23.13185450404039,"array('d', [-230.64401245117188, -229.89865047598065, -229.0900420959733, -228.2184896640404, -227.28475564472183, -226.29005644347717, -225.23613678241801, -224.12587576414373, -222.96423115383283, -221.75554357923014, -220.50671026266093, -219.22437651074108, -217.91440511455363, -216.58179233561975, -215.23071168194608, -213.86460961655948])","array('d', [-155.9954833984375, -157.29633871014406, -158.5591206565903, -159.77949171223827, -160.95308320410476, -162.07553321177306, -163.14260586261994, -164.15095302415511, -165.09968446983322, -165.9916273651006, -166.82920917130818, -167.61568007937288, -168.35476271622733, -169.05029608861915, -169.706011568865, -170.32541314277898])","array('d', [-44.92039489746094, -44.878420095844575, -44.84585722577559, -44.821496386383764, -44.80405923048357, -44.792291458022746, -44.785025138995465, -44.78121562600123, -44.77995884048359, -44.78049507405188, -44.782203905565105, -44.784588655658816, -44.78726813500361, -44.78996897801394, -44.79251971638715, -44.79484712569176])","array('d', [0.6307325363159177, 0.6454509049725519, 0.6587686368609413, 0.6708190200692539, 0.6817226586442471, 0.6915886795702916, 0.696399271231377, 0.6789161936952077, 0.6461205270986166, 0.6040607104199853, 0.5574965777571257, 0.5098991246548005, 0.4636349140552115, 0.4201756803350681, 0.3802731090336773, 0.3440853692893873])","array('d', [-0.031375464051962, -0.024709550343457495, -0.01880950883789723, -0.01375735345696855, -0.009562703904647198, -0.006184188363307617, -0.0035482505102767403, -0.0015642043366374196, -0.00013534621670717936, 0.0008330743574063807, 0.001429627579367441, 0.0017356474653227112, 0.0018256095294388462, 0.0017686413122191087, 0.0016304763576763203, 0.0014753160413970444])","array('d', [2.645411924519811, 2.5968986601937436, 2.546950549576213, 2.4956774304596, 2.4431825008100145, 2.389562485898727, 2.335140295789524, 2.2814340178284374, 2.230433720498491, 2.183336114218166, 2.1405494556936397, 2.102042862409701, 2.0675504509245957, 2.036699256552923, 2.0090865189802174, 1.9843264685666435])",-226.29005644347717,-162.07553321177306,-44.792291458022746,0.6915886795702916,-0.006184188363307617,2.389562485898727,14.999999857602646,-1.0,"[-87.71497517637128, -245.5188761023485, 44.84466683179636]","[-98.8247823777828, -253.82159599637794, 39.1317843449293]","[-101.99020797155704, -242.0609485762802, 47.88776818858884]",10000000000.0,0.037839412689208984
6,-159.06687927246094,-228.629150390625,44.92083740234375,0.6370159983634947,0.026480196043849078,2.614522890248571,23.110159717708427,"array('d', [-230.39840698242188, -229.64719717379506, -228.83290587984624, -227.955856148981, -227.01683124039528, -226.01706825270347, -224.95833348333994, -223.8435285042789, -222.6776200245831, -221.4648467415175, -220.21220185408328, -218.92631365164334, -217.61302542626368, -216.27731360265295, -214.92333273259885, -213.55451176382343])","array('d', [-156.3836669921875, -157.68113670537815, -158.94024955515988, -160.15666779507055, -161.32602499685112, -162.4439638732948, -163.5062574214522, -164.509577802874, -165.4530642964067, -166.3396375472225, -167.1716763154529, -167.95246202533178, -168.6857438064017, -169.37538260133186, -170.0251277288094, -170.63849779574565])","array('d', [-44.9212532043457, -44.878745980079344, -44.84572406218324, -44.820967250519196, -44.803187995482936, -44.79112396558561, -44.78360031628755, -44.7795664873836, -44.77811336191914, -44.778476703690025, -44.780032623741505, -44.78228142971997, -44.784839422458724, -44.787431179218025, -44.78988358987844, -44.79212217528111])","array('d', [0.6307775378227234, 0.6454916240234447, 0.6588054809851145, 0.670852358014381, 0.6817528240669685, 0.6916159743749528, 0.6963465624821896, 0.6788083957629615, 0.6459800618660614, 0.6039056195440433, 0.5573399222531349, 0.5097489846506421, 0.46349550221179336, 0.42004847155199027, 0.3801578713779235, 0.34398109793705167])","array('d', [-0.03175732865929612, -0.02503874588511512, -0.019093282992940226, -0.014002262571641605, -0.009774511224500348, -0.006367872889287234, -0.0037080753650750916, -0.0017038058199777377, -0.00025781719658805364, 0.0007250973703532374, 0.0013339083604390512, 0.0016503200344466415, 0.0017491353785274901, 0.0016997770235258395, 0.001568250341939339, 0.001419011608903428])","array('d', [2.6409071246769766, 2.5923895190385324, 2.5424373965200733, 2.491160575367933, 2.438662234460309, 2.3850390804969526, 2.330618376615481, 2.2769209222644062, 2.2259336954770625, 2.1788543425580666, 2.1360848681046214, 2.0975936165277624, 2.063114498799734, 2.0322746515203827, 2.0046715528383996, 1.9799197051305233])",-226.01706825270347,-162.4439638732948,-44.79112396558561,0.6916159743749528,-0.006367872889287234,2.3850390804969526,14.99999985777325,-1.0,"[-87.71497517637128, -245.5188761023485, 44.84466683179636]","[-98.8247823777828, -253.82159599637794, 39.1317843449293]","[-101.99020797155704, -242.0609485762802, 47.88776818858884]",10000000000.0,0.02368021011352539
7,-159.81973266601562,-228.10626220703125,44.918601989746094,0.6428694725036619,0.020409278571605773,2.6100856820729117,23.076158819147455,"array('d', [-229.90184020996094, -229.1388493699998, -228.31313711460493, -227.4250651684201, -226.47545563986571, -225.46558429011085, -224.39725812299827, -223.27342188088414, -222.098939676224, -220.8780819521779, -219.6179109536571, -218.32501821408607, -217.00520587089633, -215.6634090261105, -214.30374307921028, -212.92960103733594])","array('d', [-157.15724182128906, -158.44779003916216, -159.69942334847255, -160.90780517746956, -162.0685750380029, -163.1773861456803, -164.23003056971237, -165.22322326735895, -166.1562625268514, -167.0320622313688, -167.8529978101586, -168.6224118654804, -169.34410508363052, -170.02198084676692, -170.65982303456212, -171.2611782870335])","array('d', [-44.92255401611328, -44.87918448130083, -44.84543166221673, -44.820053045007036, -44.801742256783356, -44.78922141937508, -44.78130299485698, -44.77692609537712, -44.77517298698327, -44.77527243206804, -44.776594988494544, -44.778636289908476, -44.7810087987663, -44.78343396927032, -44.785736203895205, -44.787839119226156])","array('d', [0.6306786537170408, 0.6454021499764148, 0.6587245215119901, 0.6707791028469322, 0.681686540043929, 0.6915559981029543, 0.6961224711263749, 0.678474958565011, 0.6455863152117756, 0.6034904555769053, 0.5569302159330646, 0.509360882927509, 0.4631370019533644, 0.4197219063039771, 0.37986210832068373, 0.34371348043175276])","array('d', [-0.032381203025579536, -0.025566695828223247, -0.019541443770062672, -0.014384395011539566, -0.010102052692208317, -0.00665018361597547, -0.00395276639465286, -0.0019170684238845796, -0.00044473188849027004, 0.0005603257529604457, 0.001187809933731215, 0.0015200431517171785, 0.0016323474573176932, 0.0015945970986984772, 0.00147320603923935, 0.0013330119596909106])","array('d', [2.6317884484913683, 2.583280381877257, 2.5333370746011004, 2.482068387853005, 2.4295775424487145, 2.3759612858916386, 2.3215564643829913, 2.267889596869747, 2.2169458479599338, 2.169913791249414, 2.1271880458124834, 2.088735544162539, 2.054289974453413, 2.023478860645094, 1.9959003169591747, 1.971169518347153])",-225.46558429011085,-163.1773861456803,-44.78922141937508,0.6915559981029543,-0.00665018361597547,2.3759612858916386,14.999999858142543,-1.0,"[-87.71497517637128, -245.5188761023485, 44.84466683179636]","[-98.8247823777828, -253.82159599637794, 39.1317843449293]","[-101.99020797155704, -242.0609485762802, 47.88776818858884]",10000000000.0,0.02518320083618164
8,-160.19369506835938,-227.84178161621094,44.91740036010742,0.6463700532913205,0.01674163155257719,2.607924060025487,23.053286724393075,"array('d', [-229.65078735351562, -228.882274368928, -228.05117378134995, -227.15787088607536, -226.2032112221834, -225.18849371993187, -224.11554904742346, -222.98734565243828, -221.80865764073127, -220.5838636364135, -219.32001746404984, -218.02369610510556, -216.7006842501951, -215.35589881522435, -213.99343755292367, -212.61667704152057])","array('d', [-157.54251098632812, -158.82978665689944, -160.0778551074551, -161.28237990840344, -162.43900320989954, -163.54338319217322, -164.59132081920947, -165.57955051022154, -166.50748260014657, -167.37795948275527, -168.1933918581086, -168.9571539683197, -169.67307350948875, -170.34507632509693, -170.97696474612698, -171.57230048197337])","array('d', [-44.92291259765625, -44.879793573254325, -44.84629139643119, -44.82115186906455, -44.803061585703226, -44.79073927175596, -44.78299663297244, -44.77877378535679, -44.77715489245312, -44.77737167053541, -44.77879702869891, -44.7809288700571, -44.78338167748696, -44.785878588280404, -44.788245317877305, -44.790406427638445])","array('d', [0.6309719681739803, 0.6456675518963366, 0.6589646671216852, 0.6709963955999922, 0.681883154675227, 0.691733902393583, 0.6962193282062539, 0.6785101387389023, 0.6455795057327204, 0.6034588539133042, 0.556886485819079, 0.5093134058877147, 0.463090645044886, 0.4196789350581768, 0.37982309578445556, 0.3436781804260042])","array('d', [-0.03221661970019353, -0.025397207709818542, -0.019376580430331622, -0.01423024741252825, -0.00996193772050091, -0.00652533665509772, -0.003842977868673149, -0.0018212210036790309, -0.00036124920831983947, 0.0006331682134233726, 0.001251698778051492, 0.0015764955853257822, 0.001682643005344853, 0.0016397520791823963, 0.0015139744562781977, 0.0013699007522295311])","array('d', [2.627521232762609, 2.5789848671828586, 2.529015408396126, 2.477722590148515, 2.425209508800665, 2.3715727907695725, 2.317152845656836, 2.263478792357556, 2.212538009744952, 2.165511319584762, 2.1227916495928056, 2.084344960452174, 2.0499044896626555, 2.0190976321050993, 1.991522546337491, 1.9667945231656174])",-225.18849371993187,-163.54338319217322,-44.79073927175596,0.691733902393583,-0.00652533665509772,2.3715727907695725,14.999999858328334,-1.0,"[-87.71497517637128, -245.5188761023485, 44.84466683179636]","[-98.8247823777828, -253.82159599637794, 39.1317843449293]","[-101.99020797155704, -242.0609485762802, 47.88776818858884]",10000000000.0,0.050882577896118164
9,-160.93621826171875,-227.3069305419922,44.91544723510742,0.6542714834213254,0.008793309330940373,2.6037579337742667,22.996104319538972,"array('d', [-229.1436767578125, -228.36556842415976, -227.52495641912003, -226.62228919674365, -225.65847447740282, -224.63487229224535, -223.5533734012779, -222.41700190755964, -221.23038206567375, -219.99810340455556, -218.7272204262225, -217.42429642255064, -216.09509384284107, -214.74450326991087, -213.37659501645408, -211.99471898562297])","array('d', [-158.3080291748047, -159.58960715057626, -160.8313473185389, -162.02891073455984, -163.17794244179274, -164.27410844711923, -165.31322404270367, -166.29205373416482, -167.21020883629174, -168.07041267790257, -168.87514851098067, -169.62785788878114, -170.332427368644, -170.99283265144135, -171.61291765117832, -172.1962784893947])","array('d', [-44.92227554321289, -44.881626223227634, -44.85039519858457, -44.827306810165155, -44.811043052982235, -44.800330374940636, -44.79399640044371, -44.79100189174281, -44.790453715220394, -44.791607660759105, -44.79385645654142, -44.7967158558136, -44.799815701272195, -44.80289177386124, -44.80577969281038, -44.80841128271587])","array('d', [0.6328608393669127, 0.6473766733844245, 0.6605111443362187, 0.672395706176653, 0.6831493033591697, 0.6928795612031355, 0.6972119986105412, 0.6793572639465214, 0.6462999936847764, 0.6040763968080181, 0.5574228828605563, 0.5097862704421446, 0.4635128760558155, 0.42005922122292344, 0.3801669626860303, 0.34398932409355054])","array('d', [-0.03050741367042073, -0.023810141930262423, -0.017932347474461582, -0.012936755077036776, -0.008817413864158671, -0.005521271158139791, -0.0029666714740033376, -0.0010578529866053159, 0.00030447857501763426, 0.001215883998215466, 0.0017646696192187758, 0.002031217000667404, 0.0020886724887326583, 0.0020046977333610244, 0.001843571754652497, 0.0016681327475864926])","array('d', [2.620170430341039, 2.5714515450724336, 2.5213134348592208, 2.4698650082029774, 2.417208555764601, 2.3634399202960727, 2.3089016826393287, 2.255126959548005, 2.2041118705610128, 2.1570252234925995, 2.1142565902454367, 2.075768997878338, 2.041293491618727, 2.010455969753991, 1.9828536241314054, 1.9581011264239763])",-224.63487229224535,-164.27410844711923,-44.800330374940636,0.6928795612031355,-0.005521271158139791,2.3634399202960727,14.999999858671332,-1.0,"[-87.71497517637128, -245.5188761023485, 44.84466683179636]","[-98.8247823777828, -253.82159599637794, 39.1317843449293]","[-101.99020797155704, -242.0609485762802, 47.88776818858884]",10000000000.0,0.017238378524780273
10,-161.30458068847656,-227.03671264648438,44.91486358642578,0.6584216356277465,0.004473445937037589,2.60161550442246,22.96005197942926,"array('d', [-228.36874389648438, -227.57995098055645, -226.72822380646903, -225.81415916695076, -224.83880967127732, -223.8036769570441, -222.7107858441279, -221.56327416953894, -220.36562367926737, -219.1227391726173, -217.84173006940875, -216.52918523559282, -215.1908706626332, -213.83166599475382, -212.4556221705327, -211.0660632688055])","array('d', [-159.444091796875, -160.71938976029583, -161.95371929185876, -163.142728460384, -164.28205885895804, -165.36738166822923, -166.39452344506276, -167.36026815916216, -168.26447737292247, -169.10975473497288, -169.8987042757173, -170.63488629031053, -171.3222951682479, -171.9650004591076, -172.56692604312238, -173.1317364951233])","array('d', [-44.919830322265625, -44.888896660011156, -44.86645733360654, -44.85121485227134, -44.84187751622982, -44.837231463936746, -44.836184551625585, -44.8377878651936, -44.84124263841172, -44.84589649189618, -44.85121887793449, -44.85679346225352, -44.86230791550011, -44.86754534063303, -44.87237831911405, -44.87676576588139])","array('d', [0.6397461891174313, 0.6536067960396074, 0.6661483929446174, 0.6774965001149262, 0.687764692995347, 0.6970557388268395, 0.7011778603527941, 0.683028690629147, 0.6496442148270001, 0.6070980772725907, 0.5601455661956789, 0.5122402074683977, 0.4657279033356532, 0.4220615430994228, 0.38197846804097785, 0.34562844207011956])","array('d', [-0.023723388090729866, -0.01762619692531202, -0.012381546995196542, -0.008014970873646922, -0.004493640331016188, -0.0017469286135937386, 0.0003166210339333366, 0.001796444604807911, 0.0027908102694157487, 0.00339099100351188, 0.003679062885160274, 0.003728174732632953, 0.003603952294663098, 0.0033666822015187537, 0.003073642844010723, 0.0027811471964900776])","array('d', [2.612245158353124, 2.56285678035769, 2.5121003139561604, 2.46008159107758, 2.406899901756906, 2.352648173740526, 2.2976572081293196, 2.243462751290584, 2.1920880732391534, 2.144693457812757, 2.1016632245430973, 2.062952735283791, 2.0282856421014586, 1.997281720011106, 1.9695334364583146, 1.9446519568833034])",-223.8036769570441,-165.36738166822923,-44.837231463936746,0.6970557388268395,-0.0017469286135937386,2.352648173740526,14.999999859089813,-1.0,"[-87.71497517637128, -245.5188761023485, 44.84466683179636]","[-98.8247823777828, -253.82159599637794, 39.1317843449293]","[-101.99020797155704, -242.0609485762802, 47.88776818858884]",10000000000.0,0.017281293869018555
11,-162.03346252441406,-226.49183654785156,44.91548156738281,0.6664480566978452,-0.00422183098271478,2.5967645208027696,22.87449122777438,"array('d', [-228.10626220703125, -227.31447318492653, -226.45949729891876, -225.54199285723237, -224.5630724606428, -223.52429631807314, -222.42774411118532, -221.27659903186571, -220.07530819644086, -218.82888651212, -217.54447243718369, -216.2286721642451, -214.8872596221211, -213.52511581301596, -212.1462888574889, -210.75409967759083])","array('d', [-159.81973266601562, -161.09327688039994, -162.32542677097905, -163.51182437965218, -164.6481087090328, -165.7299515076526, -166.75318130350493, -167.71458397072846, -168.61409871650923, -169.4542983328349, -170.23783113225414, -170.96830201344102, -171.64974645347448, -172.2862701042293, -172.88182782968417, -173.44010964745206])","array('d', [-44.918601989746094, -44.89240506469626, -44.87423481182779, -44.862789479297696, -44.85679509618575, -44.8550704448744, -44.85656488512016, -44.86037501250792, -44.865749249732815, -44.87207979456078, -44.87887362123022, -44.88574743112555, -44.89241691459728, -44.89868803426102, -44.90445118012464, -44.90967827300271])","array('d', [0.6428694725036619, 0.6564328599707383, 0.6687055215670921, 0.6798102859851497, 0.6898582932182382, 0.6989501068205444, 0.7030029489994682, 0.6847377258818652, 0.6512146364281494, 0.6085259337089911, 0.5614374395441364, 0.5134073585222014, 0.4667826341473143, 0.4230153579736953, 0.38284143367901735, 0.3464092857406108])","array('d', [-0.020409278571605773, -0.01461838383328917, -0.009691428861800654, -0.005636812355712837, -0.0024095603055882906, 6.868207645039468e-05, 0.0018934645345393976, 0.0031654912253783903, 0.003982167059807298, 0.004432435366226337, 0.004595181618036724, 0.004539947434693577, 0.004328659665318199, 0.004018006851189759, 0.0036618679252438226, 0.003313395308232554])","array('d', [2.6100856820729117, 2.5603914272610413, 2.5093525886168693, 2.4570735658188854, 2.403652253776452, 2.349180226894063, 2.293981387041067, 2.239591787021937, 2.1880467946689657, 2.140505409005073, 2.097350047701459, 2.0585327778215996, 2.0237739082985704, 1.9926903636740816, 1.9648723643470791, 1.939929324208409])",-223.52429631807314,-165.7299515076526,-44.8550704448744,0.6989501068205444,6.868207645039468e-05,2.349180226894063,14.999999859217361,-1.0,"[-95.07115372985834, -246.23606037679846, 44.866642411551126]","[-106.85033978288187, -253.9569299840901, 39.70534912057682]","[-108.99253676861825, -242.0066801575314, 48.5145784374431]",10000000000.0,0.028140783309936523
12,-162.03346252441406,-226.49183654785156,44.91548156738281,0.6664480566978452,-0.00422183098271478,2.5967645208027696,22.87449122777438,"array('d', [-227.84178161621094, -227.04697707140244, -226.18869054872897, -225.26764873167883, -224.28503094447873, -223.24246254622244, -222.14208415170995, -220.9871292026696, -219.78201010840718, -218.5318614724568, -217.2438551204672, -215.92461765022082, -214.57993291386916, -213.21468443280938, -211.8329180978138, -210.43794917502723])","array('d', [-160.19369506835938, -161.46545436903523, -162.6953588215931, -163.8790432003008, -165.01214295061976, -166.09032975882232, -167.10943354067476, -168.06624095062185, -168.96077267590456, -169.79557034597173, -170.5733302711783, -171.29770588724134, -171.9727774677868, -172.60269006801929, -173.19143239347204, -173.74272348542922])","array('d', [-44.91740036010742, -44.89644199824231, -44.88298620846036, -44.87572846729021, -44.87341611343806, -44.87490543041322, -44.87919276087419, -44.88542582052232, -44.89290601153226, -44.901074848617085, -44.90948101107055, -44.917777834415595, -44.92571201894579, -44.933114779286974, -44.9398961389316, -44.946042331683856])","array('d', [0.6463700532913205, 0.6596003167393516, 0.6715715552311761, 0.6824035807209966, 0.6922048035443976, 0.7010733173600703, 0.7050520894167375, 0.6866590369536706, 0.6529817486664281, 0.6101336335945474, 0.562892610265268, 0.5147223415892369, 0.4679710862624452, 0.4240901386197529, 0.38381384825660053, 0.347289162915934])","array('d', [-0.01674163155257719, -0.011294661612011913, -0.006722913837313502, -0.0030159572547293245, -0.00011556783773857733, 0.002064949172163284, 0.0036254673090167795, 0.004667913178694017, 0.005288590336874031, 0.005573751591098538, 0.005598668112960827, 0.005428832373473912, 0.005122040971658947, 0.004730978492881502, 0.0043057497077782425, 0.0038960036904200006])","array('d', [2.607924060025487, 2.5578853311500946, 2.506528596618029, 2.453956622511553, 2.4002657139481878, 2.3455459047330898, 2.290113097639066, 2.235503574505394, 2.1837663098772646, 2.1360591878189203, 2.0927625292940712, 2.0538247014145883, 2.018962243011092, 1.987788857475274, 1.9598922223502195, 1.9348798211940335])",-223.24246254622244,-166.09032975882232,-44.87490543041322,0.7010733173600703,0.002064949172163284,2.3455459047330898,14.999999859354093,-1.0,"[-95.07115372985834, -246.23606037679846, 44.866642411551126]","[-106.85033978288187, -253.9569299840901, 39.70534912057682]","[-108.99253676861825, -242.0066801575314, 48.5145784374431]",10000000000.0,0.02246713638305664
13,-163.1082763671875,-225.66372680664062,44.92094802856445,0.6774491667747494,-0.016450887545943118,2.5887193242695665,22.707540728439863,"array('d', [-227.3069305419922, -226.50627167587797, -225.641428229633, -224.71328050877503, -223.723157917334, -222.67283236026475, -221.56458119510233, -220.4017501969184, -219.1886865803166, -217.9307836282227, -216.6352910022624, -215.30888419068737, -213.95737228872804, -212.58564720119608, -211.1977522579851, -209.7969935539112])","array('d', [-160.93621826171875, -162.20443144496718, -163.42979834936784, -164.60793493672236, -165.73446597838014, -166.80506046913928, -167.81554871948666, -168.76271488821573, -169.64674663904233, -170.4701264822305, -171.23565486098752, -171.9470910783097, -172.60861335099574, -173.22445298935003, -173.79867283359576, -174.33505498981435])","array('d', [-44.91544723510742, -44.905830060936886, -44.902558119134454, -44.90432696321941, -44.909935533788996, -44.91832589186137, -44.928599718749055, -44.94001809895651, -44.95199988190173, -44.964093485530775, -44.97593864796855, -44.987268409497005, -44.997896727465, -45.00770942045434, -45.01665882827085, -45.02476189909138])","array('d', [0.6542714834213254, 0.6667498270249734, 0.6780407002447278, 0.6882571057229266, 0.6975012924747248, 0.7058657791677178, 0.7096891600135007, 0.6910148104598449, 0.6569930964070905, 0.6137862485608592, 0.5662004700029074, 0.5177124421446619, 0.4706738603478323, 0.4265345183751173, 0.3860254311590819, 0.3492902860604106])","array('d', [-0.008793309330940373, -0.004107852138425137, -0.000317965938841581, 0.0026272933375291185, 0.004814335522908678, 0.00634729529482643, 0.0073347752153561235, 0.007880770786108144, 0.008078718992528808, 0.00800866375544011, 0.007737756684289157, 0.0073225127045377985, 0.006811642398303531, 0.006249067738503836, 0.005676663320168737, 0.005136457735710092])","array('d', [2.6037579337742667, 2.5529351599533303, 2.5008553056052905, 2.4476173345780405, 2.3933138580795577, 2.3380313369867722, 2.282066688071245, 2.226956336399525, 2.1747802241408185, 2.1266947404026935, 2.083075563728849, 2.043862659467663, 2.008763959967455, 1.9773857976887794, 1.9493100222148596, 1.9241396631668446])",-222.67283236026475,-166.80506046913928,-44.91832589186137,0.7058657791677178,0.00634729529482643,2.3380313369867722,14.999999859643113,-1.0,"[-95.07115372985834, -246.23606037679846, 44.866642411551126]","[-106.85033978288187, -253.9569299840901, 39.70534912057682]","[-108.99253676861825, -242.0066801575314, 48.5145784374431]",10000000000.0,0.039447784423828125
14,-163.8130645751953,-225.1048126220703,44.92658615112305,0.6837513446807859,-0.023700837045907808,2.5826814929631094,22.582223746643557,"array('d', [-227.03671264648438, -226.23305894611565, -225.36484685526105, -224.4330382897779, -223.43904249694202, -222.38470938843227, -221.2723891361488, -220.10548747453797, -218.88831700304178, -217.62640888339834, -216.32705394218945, -214.99695339048824, -213.64192948457523, -212.26687836680466, -210.87584183146782, -209.47212157793493])","array('d', [-161.30458068847656, -162.5709271227445, -163.793909027306, -164.9691320326913, -166.09221475121086, -167.1588242796934, -168.16479074976826, -169.106896623458, -169.98541645102404, -170.80280284939505, -171.5619113628151, -172.26655722304508, -172.92097029961752, -173.52942731896405, -174.09603010231265, -174.6245936380936])","array('d', [-44.91486358642578, -44.91140397910184, -44.91364907191872, -44.92029760717971, -44.93017946276926, -44.94228576670694, -44.955777381330996, -44.969978429288346, -44.9843730373605, -44.998567735328855, -45.01225211846835, -45.02520271214309, -45.03727005141324, -45.04836956116197, -45.05847645026399, -45.06762419221374])","array('d', [0.6584216356277465, 0.6705050403722407, 0.6814385581020884, 0.6913316149323154, 0.7002832237021948, 0.7083829748673771, 0.7121244440071203, 0.6933017363462712, 0.6590985153720891, 0.6157028393330483, 0.5679357997550489, 0.5192808705467968, 0.47209148408378576, 0.4278165846587964, 0.3871853929519844, 0.35033986298917114])","array('d', [-0.004473445937037589, -0.00021048617754924613, 0.003147920883347595, 0.005674673009988764, 0.007471260988630199, 0.00865097397464514, 0.009326814230652625, 0.00960358241534381, 0.00957289025923738, 0.00931119580826621, 0.008881078093531626, 0.008334061109151978, 0.007713843823885046, 0.007059540457480255, 0.00640852642441316, 0.005798674917050403])","array('d', [2.60161550442246, 2.5503772414175114, 2.4979144307662366, 2.444323972452854, 2.3896964765371997, 2.33411647228956, 2.27787077471853, 2.2224959124723034, 2.1700882989418515, 2.121803436755752, 2.0780144755437764, 2.0386568780842316, 2.0034339895210413, 1.971948227391522, 1.9437783540264135, 1.9185250333322637])",-222.38470938843227,-167.1588242796934,-44.94228576670694,0.7083829748673771,0.00865097397464514,2.33411647228956,14.999999859803061,-1.0,"[-95.07115372985834, -246.23606037679846, 44.866642411551126]","[-106.85033978288187, -253.9569299840901, 39.70534912057682]","[-108.99253676861825, -242.0066801575314, 48.5145784374431]",10000000000.0,0.019229650497436523
15,-163.8130645751953,-225.1048126220703,44.92658615112305,0.6837513446807859,-0.023700837045907808,2.5826814929631094,22.582223746643557,"array('d', [-226.49183654785156, -225.6815454836883, -224.8059980910939, -223.86631947550674, -222.86407889297178, -221.8012827410818, -220.6804277766915, -219.50504173801383, -218.27935055575614, -217.0091772158635, -215.70188993554606, -214.3642359715587, -213.00205871468663, -211.6202581086432, -210.2228687998882, -208.8131768467938])","array('d', [-162.03346252441406, -163.29553975558514, -164.51320470019036, -165.6820426956764, -166.79766027284208, -167.85572120832512, -168.85205668639395, -169.7834497185572, -170.65036105819686, -171.4551763633689, -172.20086492933936, -172.89135624052565, -173.53098494467773, -174.12411941891767, -174.6749398301714, -175.18732832340285])","array('d', [-44.91548156738281, -44.924400564161004, -44.937707328003206, -44.95411432564155, -44.972520531493494, -44.9920216942185, -45.011902479785086, -45.03161739762344, -45.05078561993592, -45.06913063868598, -45.086443365676686, -45.10258831710086, -45.117489755689355, -45.13112255691603, -45.143507661925646, -45.154711436481094])","array('d', [0.6664480566978452, 0.677767647147615, 0.6880100370606761, 0.6972777355252129, 0.7056634965954942, 0.7132512475461751, 0.71681543839871, 0.6976923408391945, 0.6631300430940311, 0.6193657678361391, 0.5712480806169951, 0.5222723478343207, 0.47479436249944035, 0.43026071197790583, 0.38939670314704056, 0.3523407393777425])","array('d', [0.00422183098271478, 0.007613658177151556, 0.010087659767705925, 0.011760863712735022, 0.012764616688185475, 0.013229904687040774, 0.013277787018495949, 0.013013928932588223, 0.012525620801839053, 0.011881583888700902, 0.011134799646813064, 0.01032646619701602, 0.009490006856402116, 0.00865473891224205, 0.007848909626980701, 0.007101987652617922])","array('d', [2.5967645208027696, 2.5447153462084753, 2.491505620522575, 2.4372281139058445, 2.3819694407800656, 2.325810282250734, 2.269018723159682, 2.213132184152927, 2.1602794076778324, 2.111612262836071, 2.0674984535117735, 2.027864397719573, 1.9924044075326681, 1.9607132795198292, 1.9323638163489385, 1.9069522031400745])",-221.8012827410818,-167.85572120832512,-44.9920216942185,0.7132512475461751,0.013229904687040774,2.325810282250734,14.999999860184179,-1.0,"[-95.07115372985834, -246.23606037679846, 44.866642411551126]","[-106.85033978288187, -253.9569299840901, 39.70534912057682]","[-108.99253676861825, -242.0066801575314, 48.5145784374431]",10000000000.0,0.017621278762817383
16,-164.50839233398438,-224.54122924804688,44.93459701538086,0.6891773939132689,-0.03008070401847353,2.576312617459569,22.44869398372882,"array('d', [-225.94122314453125, -225.12394143341066, -224.24077409521388, -223.29300479680265, -222.28235868382765, -221.21099474658092, -220.08155312918632, -218.89768215309036, -217.663508560113, -216.3851519622529, -215.07005058170847, -213.72499082130503, -212.35583129396665, -210.96747089690976, -209.5639332313483, -208.14848976618293])","array('d', [-162.75238037109375, -164.00979729395266, -165.2217804637732, -166.38389510393063, -167.49173559731992, -168.54096252221441, -169.52740922330017, -170.44786296349665, -171.3029738574415, -172.0950593302671, -172.82720236582813, -173.50344542015463, -174.12822597391917, -174.70600184624178, -175.241029318013, -175.7372539808583])","array('d', [-44.91857147216797, -44.939292102416836, -44.963105089528376, -44.988746477386094, -45.01519070248745, -45.04164137786332, -45.067507648721914, -45.09237314482804, -45.11599074549462, -45.138195568909026, -45.15887649488539, -45.17798262840248, -45.19550873649101, -45.21148625424364, -45.22597938589716, -45.2390853504984])","array('d', [0.6739485859870908, 0.6845544073186999, 0.6941509521674101, 0.7028342657987352, 0.7106912535580309, 0.7178005505908014, 0.7211804434044313, 0.7017632407727528, 0.6668573527852687, 0.6227452035337288, 0.5742997339052534, 0.5250261820517481, 0.47728154649927756, 0.432509497321542, 0.391431241025925, 0.35418166554568353])","array('d', [0.012527476996183291, 0.01505869070363508, 0.016666475288526304, 0.017509642771915877, 0.017747188385125432, 0.017525898745242793, 0.016973389595395356, 0.01619510820552118, 0.015273344590729857, 0.014268743354959305, 0.013224605097830614, 0.012171905961689765, 0.01113401746758398, 0.01013075187121699, 0.009181551684538906, 0.008307812159923449])","array('d', [2.5915516177800035, 2.5387356993170833, 2.4848203624917367, 2.429894343870804, 2.374040366931711, 2.317335376671479, 2.2600307071879295, 2.20366530895206, 2.150398596212012, 2.1013771727042068, 2.0569630634437033, 2.0170738655159717, 1.9813952650893183, 1.9495148719369284, 1.9209999202256194, 1.8954423664280722])",-221.21099474658092,-168.54096252221441,-45.04164137786332,0.7178005505908014,0.017525898745242793,2.317335376671479,14.999999860623097,-1.0,"[-95.07115372985834, -246.23606037679846, 44.866642411551126]","[-106.85033978288187, -253.9569299840901, 39.70534912057682]","[-108.99253676861825, -242.0066801575314, 48.5145784374431]",10000000000.0,0.018532752990722656
17,-165.21038818359375,-223.95944213867188,44.94516372680664,0.6938286423683164,-0.03541524335741992,2.5694898525860648,22.30870733135499,"array('d', [-225.66372680664062, -224.84270641127063, -223.95552250955106, -223.00353564650962, -221.98854669667645, -220.91278881461062, -219.77897207366536, -218.59080424621226, -217.3523550225416, -216.0698955975953, -214.75089533595704, -213.40215663622746, -212.02954267052013, -210.63794931486484, -209.23139264014284, -207.81313423072956])","array('d', [-163.1082763671875, -164.36314841769445, -165.57208449981093, -166.73064021829413, -167.83440426966027, -168.8790360951818, -169.8603710606815, -170.7752009111997, -171.62427360512962, -172.40987067244794, -173.1351320971687, -173.8041563423973, -174.4214314848419, -174.99145910498862, -175.51853255998813, -176.00662859487593])","array('d', [-44.92094802856445, -44.94723415556995, -44.97598544400709, -45.00595346111863, -45.03615219176209, -45.06583943452776, -45.09448564836504, -45.121737287638034, -45.147412289846386, -45.17139840510717, -45.19363125192621, -45.21410009301906, -45.23283301729099, -45.249888074470064, -45.26534972892557, -45.27932956409036])","array('d', [0.6774491667747494, 0.6877218640873013, 0.697016985831463, 0.7054275605345144, 0.7130377638840283, 0.7199237611296182, 0.7232065020757266, 0.7036443017894811, 0.6685735751919789, 0.6242972640617118, 0.5756988732387082, 0.5262875233567202, 0.478420213182932, 0.4335388582907163, 0.39236251134202615, 0.35502431385030836])","array('d', [0.016450887545943118, 0.018563834607081737, 0.01975371740782231, 0.020198872023390588, 0.020070956975142003, 0.019523747387719705, 0.018687478580294344, 0.017667064000524844, 0.016542074579765594, 0.01536906164293142, 0.014186547457396914, 0.013020537621673793, 0.011889563115989767, 0.010808890060004957, 0.009793770420076349, 0.008861770629833078])","array('d', [2.5887193242695665, 2.5355425279554056, 2.481295298973629, 2.426064430532382, 2.369930775670529, 2.312969487362842, 2.2554246284787243, 2.1988362690875745, 2.1453782716885548, 2.0961937196767044, 2.051641688619134, 2.0116354939298264, 1.9758567278898589, 1.9438896351714863, 1.9152988686569945, 1.8896744557685219])",-220.91278881461062,-168.8790360951818,-45.06583943452776,0.7199237611296182,0.019523747387719705,2.312969487362842,14.999999860874913,-1.0,"[-95.07115372985834, -246.23606037679846, 44.866642411551126]","[-106.85033978288187, -253.9569299840901, 39.70534912057682]","[-108.99253676861825, -242.0066801575314, 48.5145784374431]",10000000000.0,0.022784709930419922
18,-165.55145263671875,-223.67213439941406,44.95111083984375,0.6957824826240536,-0.03765270113944999,2.566009060540471,22.239629352849008,"array('d', [-225.38490295410156, -224.55999910712717, -223.66868683511927, -222.7124004826469, -221.69301371257384, -220.61283098609388, -219.47462979847865, -218.2821757229706, -217.0394765941508, -215.75295515083184, -214.4301084489456, -213.07775190531243, -211.70175086328018, -210.30699633356178, -208.89749545635027, -207.4764988386344])","array('d', [-163.4618377685547, -164.7140363713053, -165.9198093812524, -167.0747034653206, -168.17430221788572, -169.21426448622628, -170.19042848645745, -171.0995923128122, -171.94260277642658, -172.72170473345918, -173.44009443161673, -174.10192513936371, -174.711734157494, -175.27406545993296, -175.7932482007558, -176.27328913093953])","array('d', [-44.92346954345703, -44.95501655757564, -44.98842500482487, -45.022464182577096, -45.056188153989716, -45.08890815731141, -45.12015432942375, -45.14963376383434, -45.17722719865299, -45.20287207218007, -45.22654850884489, -45.24828388053115, -45.2681378008303, -45.28619342369028, -45.30255426222061, -45.31734534922699])","array('d', [0.6807126402854916, 0.6906747773002128, 0.6996888924409258, 0.7078452018315066, 0.7152253363915473, 0.7219031587698707, 0.725086222763024, 0.7053826156649778, 0.6701546646978478, 0.6257239195701351, 0.5769830569289005, 0.5274442300314183, 0.4794639902269111, 0.43448230805587684, 0.3932160405677098, 0.3557966191010342])","array('d', [0.020164027810096623, 0.02187325144012766, 0.02266187427644104, 0.022726514401390827, 0.022250511318122532, 0.021393911814495285, 0.020289097579798934, 0.01904018287180335, 0.01772392574236961, 0.016392820305420042, 0.015080733807959042, 0.013808878145660387, 0.01259114695030128, 0.01143847162594432, 0.010362122332036762, 0.009376036752778982])","array('d', [2.585747436681066, 2.5322324403135603, 2.477674300671352, 2.422157962943882, 2.3657625040570713, 2.3085613777397582, 2.250792346877922, 2.1939968539334243, 2.1403622869776697, 2.0910276019878813, 2.0463488968464265, 2.006235377949742, 1.9703647786106648, 1.9383182061263755, 1.9096579266110267, 1.8839721955725752])",-220.61283098609388,-169.21426448622628,-45.08890815731141,0.7219031587698707,0.021393911814495285,2.3085613777397582,14.999999861148885,-1.0,"[-95.07115372985834, -246.23606037679846, 44.866642411551126]","[-106.85033978288187, -253.9569299840901, 39.70534912057682]","[-108.99253676861825, -242.0066801575314, 48.5145784374431]",10000000000.0,0.01905369758605957
19,-166.55992126464844,-222.80621337890625,44.97121047973633,0.7007402777671812,-0.043116394430398795,2.5554711977627615,22.029868585329552,"array('d', [-225.1048126220703, -224.27593692422607, -223.3804378158544, -222.41982026452675, -221.39602767735616, -220.31143286221078, -219.16887810339279, -217.97218493930256, -216.72529583924484, -215.43478375324023, -214.10817025594014, -212.75228112917142, -211.37298182425235, -209.97515694426838, -208.5628035682415, -207.13916049918052])","array('d', [-163.8130645751953, -165.06249880331322, -166.2650322984636, -167.41620346049112, -168.51159133576883, -169.54685466209145, -170.51783521310674, -171.42133900998394, -172.25831152323062, -173.03096092854534, -173.74253867615792, -174.3972513851554, -174.99968401984177, -175.5544214420915, -176.06582722419503, -176.53793689336644])","array('d', [-44.92658615112305, -44.96313798606769, -45.000966333648115, -45.03886041921804, -45.075915085265166, -45.11149456333333, -45.14518741377373, -45.17675960726411, -45.20615282897741, -45.233351743188635, -45.258379115795265, -45.28129870909378, -45.302200148707634, -45.321190418327774, -45.33839105486195, -45.35393976281721])","array('d', [0.6837513446807859, 0.6934243109886129, 0.7021767736298616, 0.710096330027026, 0.7172622416005588, 0.7237462269882016, 0.7268281100946814, 0.7069871365106464, 0.6716095609351284, 0.627033766305645, 0.5781603433405654, 0.5285037306539635, 0.4804196549183, 0.43534599496771037, 0.39399739392587624, 0.356503616920237])","array('d', [0.023700837045907808, 0.02501780176117443, 0.02541865666790005, 0.025117196218660896, 0.024307559715789316, 0.023155417025066974, 0.021794862690366977, 0.02032896238596714, 0.01883156455316819, 0.017351125062516095, 0.015916952873729996, 0.014545611146117996, 0.01324652515738388, 0.012026468380709197, 0.010892903888544123, 0.009856307809235116])","array('d', [2.5826814929631094, 2.5288500402798175, 2.4740010898215306, 2.4182178336838516, 2.361577666235952, 2.304152433632063, 2.246174479916531, 2.1891868276445914, 2.1353894880310493, 2.0859168100856365, 2.041121911197205, 2.000910066443677, 1.9649553791381764, 1.9328360364850454, 1.9041121010514892, 1.8783702026884803])",-220.31143286221078,-169.54685466209145,-45.11149456333333,0.7237462269882016,0.023155417025066974,2.304152433632063,14.999999861442928,-1.0,"[-95.07115372985834, -246.23606037679846, 44.866642411551126]","[-106.85033978288187, -253.9569299840901, 39.70534912057682]","[-108.99253676861825, -242.0066801575314, 48.5145784374431]",10000000000.0,0.03635597229003906
20,-166.89125061035156,-222.51638793945312,44.97889709472656,0.7022191882133483,-0.04464153945446003,2.5518688718464713,21.959137516908537,"array('d', [-224.24600219726562, -223.4045792496036, -222.4960567138601, -221.52213513543617, -220.48495133083435, -219.3870675730705, -218.23150660898054, -217.0222482249056, -215.76301639267248, -214.46083041357426, -213.12326748039573, -211.75716929929447, -210.3683897059825, -208.96178503281962, -207.54131543825835, -206.1101792465489])","array('d', [-164.8668212890625, -166.10738107315603, -167.29968102348985, -168.43923866209965, -169.52162311427145, -170.5424963540745, -171.49771579571768, -172.38412141079533, -173.20295615665302, -173.9563180403975, -174.6476194694904, -175.28122008991252, -175.8618400670705, -176.3941792890498, -176.8826975202945, -177.33151029294896])","array('d', [-44.93966293334961, -44.989254948380456, -45.03853437411933, -45.08636133881795, -45.131953248873835, -45.174825605209705, -45.21472927534586, -45.251590902199865, -45.28551834931911, -45.31661903420786, -45.345028693583416, -45.37090676068663, -45.394421211282854, -45.415740811959566, -45.435033472438725, -45.452469164511285])","array('d', [0.6916733980178832, 0.7005924819253223, 0.7086628035001896, 0.7159651330803523, 0.7225725546842284, 0.7285511974057499, 0.731317065832358, 0.7110827493515502, 0.6752953605878897, 0.6303339128561531, 0.5811156766405841, 0.5311577095442027, 0.4828110863074913, 0.4375065250501267, 0.3959518710881588, 0.3582721011495209])","array('d', [0.032943122088909135, 0.033187539918201996, 0.03254097418823038, 0.03126048804968783, 0.02956635843898336, 0.027636767894332788, 0.02560825237976873, 0.023579385840178945, 0.02161501208093411, 0.0197519791152703, 0.01800693040927816, 0.016383778383044157, 0.014879957981959681, 0.01349119678948354, 0.012214917567570085, 0.011052515361080746])","array('d', [2.572855428853307, 2.5181918149718707, 2.462578657811367, 2.4060944264403985, 2.3488119935702723, 2.290798895631422, 2.232276261740514, 2.17479311042968, 2.12058232890468, 2.0707615907271624, 2.025675004410185, 1.9852170012969887, 1.9490520389924049, 1.9167507304783633, 1.8878675297435, 1.861984991198167])",-219.3870675730705,-170.5424963540745,-45.174825605209705,0.7285511974057499,0.027636767894332788,2.290798895631422,14.999999862474713,-1.0,"[-95.07115372985834, -246.23606037679846, 44.866642411551126]","[-106.85033978288187, -253.9569299840901, 39.70534912057682]","[-108.99253676861825, -242.0066801575314, 48.5145784374431]",10000000000.0,0.02355480194091797
21,-167.22018432617188,-222.2260284423828,44.98678207397461,0.7037225365638731,-0.04596725478768331,2.548235551514898,21.888596381943785,"array('d', [-223.95944213867188, -223.11377347609212, -222.2009089784881, -221.22260647505152, -220.1810594549687, -219.07888564636127, -217.91916089748347, -216.70591233591455, -215.442786537408, -214.13694411424447, -212.7959741411539, -211.42671843836706, -210.0350232140376, -208.6257327942638, -207.2027933200852, -205.7693885495507])","array('d', [-165.21038818359375, -166.44791165981565, -167.6367592896673, -168.77244348217005, -169.85053173303504, -170.86668852333676, -171.81677816205405, -172.69765506009134, -173.5106580425931, -174.2578499294948, -174.94269319408437, -175.56959422964357, -176.14331399499386, -176.66858676399582, -177.1499008440943, -177.59139535147756])","array('d', [-44.94516372680664, -44.99823064878978, -45.05053909787625, -45.10097472393112, -45.148793235831555, -45.193554976545734, -45.23505751100224, -45.2732727714608, -45.30835540796613, -45.34044543837227, -45.369709337168544, -45.39633232109341, -45.42050329574671, -45.44240738707715, -45.46222466167717, -45.48013343387554])","array('d', [0.6938286423683164, 0.7025426278353339, 0.7104273686501336, 0.71756177779934, 0.7240172587003444, 0.7298584197764519, 0.7325188230433494, 0.71216446077163, 0.6762583451672897, 0.6311892741811569, 0.5818775679672884, 0.5318397580523129, 0.48342473415199955, 0.4380606425472379, 0.3964531059296632, 0.3587256372304096])","array('d', [0.03541524335741992, 0.03535640289599162, 0.034417997165096935, 0.03286804557748113, 0.030933064421891966, 0.028793816796454274, 0.026586788060825324, 0.024408750524748734, 0.02232166187175311, 0.02035890765841375, 0.018533489673502216, 0.016845767803382747, 0.015289864723672482, 0.013858492946089535, 0.01254635869783351, 0.01135241572467214])","array('d', [2.5694898525860648, 2.5145980294485017, 2.458775430826661, 2.402099201280321, 2.3446409484604556, 2.286467005747437, 2.2277965751175324, 2.1701810022120114, 2.1158620448507013, 2.0659511288454424, 2.020789470126515, 1.9802683487305925, 1.9440495454832765, 1.9117016370655928, 1.8827776083417131, 1.8568589682914391])",-219.07888564636127,-170.86668852333676,-45.193554976545734,0.7298584197764519,0.028793816796454274,2.286467005747437,14.99999986286224,-1.0,"[-100.78315276465656, -246.448452545197, 44.85865381217637]","[-113.03591262208262, -253.69781309165563, 40.13460390307319]","[-114.38782258766851, -241.65249959741675, 48.97104901807595]",10000000000.0,0.030807971954345703
22,-167.8710174560547,-221.6438751220703,45.003028869628906,0.7066203355789185,-0.04813653603196138,2.5410393635418758,21.748185146910117,"array('d', [-223.67213439941406, -222.82209897473746, -221.90480173915515, -220.92205478942228, -219.8761053040629, -218.76962351287926, -217.60573571387746, -216.3885144719054, -215.1215246370365, -213.8120675600914, -212.46774103125804, -211.0953843525465, -209.7008340638055, -208.28892096005066, -206.86357604559436, -205.42796769953893])","array('d', [-165.55145263671875, -166.78584013159173, -167.97114586181783, -169.10287813199923, -170.1766037736812, -171.18799065236286, -172.13291103715986, -173.00823574730347, -173.8154001022765, -174.55643137675906, -175.23484122634216, -175.85508150127865, -176.4219525499329, -176.94022167385177, -177.41440448049053, -177.84866256044018])","array('d', [-44.95111083984375, -45.00731598025263, -45.0623481262707, -45.115119557356195, -45.16492358472793, -45.211363442167375, -45.254280670131024, -45.29368938352449, -45.329787782779896, -45.36274523797743, -45.39275629897347, -45.42002960544566, -45.44477298090914, -45.46718626346128, -45.48746038967276, -45.50578107341362])","array('d', [0.6957824826240536, 0.7043105357677999, 0.7120270380440549, 0.7190092186546635, 0.7253269574654237, 0.7310434843331367, 0.7335957708095603, 0.7131242733432419, 0.6771059484552311, 0.6319376232326009, 0.5825414217168832, 0.5324326081452803, 0.4839575087638104, 0.4385415447586878, 0.39688808898107025, 0.35911922620717746])","array('d', [0.03765270113944999, 0.03731073898153258, 0.036102094423790296, 0.034304336652666044, 0.032149205747713856, 0.02981938106992048, 0.027450924244502444, 0.02513865863399773, 0.02294167884862114, 0.02089005079357132, 0.018993349985042277, 0.017248635682941306, 0.01564698061774262, 0.014178339448304605, 0.012834946001806423, 0.011613540339231797])","array('d', [2.566009060540471, 2.5109096736278085, 2.4548966310362004, 2.3980458614703033, 2.3404278124465323, 2.2821077151180664, 2.223303763956527, 2.1655698574640883, 2.1111557220169237, 2.0611660344209755, 2.015939116990714, 1.9753632752420422, 1.939097837840662, 1.9067095563008274, 1.8777501231745592, 1.8518001422708374])",-218.76962351287926,-171.18799065236286,-45.211363442167375,0.7310434843331367,0.02981938106992048,2.2821077151180664,14.999999863285659,-1.0,"[-100.78315276465656, -246.448452545197, 44.85865381217637]","[-113.03591262208262, -253.69781309165563, 40.13460390307319]","[-114.38782258766851, -241.65249959741675, 48.97104901807595]",10000000000.0,0.0285184383392334
