,x_pos,y_pos,z_pos,roll,pitch,yaw,vel,x_traj,y_traj,z_traj,roll_traj,pitch_traj,yaw_traj,x_cmd,y_cmd,z_cmd,roll_cmd,pitch_cmd,yaw_cmd,vel_cmd,effector_dmg,effector_x,effector_y,effector_z,cost,time_solution
0,-150.14566040039062,-54.028472900390625,44.8538818359375,0.6339594125747681,0.03716569393873197,0.5427071611073353,23.097681605081064,"array('d', [-55.8396110534668, -55.00529681696149, -54.223676640008335, -53.48638924878621, -52.78668468634266, -52.119078673106266, -51.47910213519325, -50.86310878371753, -50.26812044167108, -49.69169872262627, -49.13183669614546, -48.58686707775674, -48.05538515650108, -47.53618563087191, -47.02821306678315, -46.5305237875534])","array('d', [-153.37342834472656, -152.0406476373209, -150.68260656510924, -149.3063647345504, -147.91689258557452, -146.51779702618884, -145.11175436267783, -143.7007846171693, -142.2864340990098, -140.86990189498346, -139.45213036136067, -138.0338714253437, -136.61573587164588, -135.19823008083455, -133.78178304256033, -132.36675920662216])","array('d', [-44.864540100097656, -44.81221483500738, -44.77901832262859, -44.75900515768523, -44.748121593514846, -44.743565927811666, -44.74337139518343, -44.746133101538604, -44.750828700295884, -44.75670074140009, -44.763180224079846, -44.76983820497833, -44.776356893388424, -44.782514479945014, -44.788179607908965, -44.79331232152226])","array('d', [0.6325868964195251, 0.5327361123080809, 0.4496540334167781, 0.3806978680322415, 0.32367731199943495, 0.27671760194869494, 0.2381831291498096, 0.20663357077354372, 0.18079856064441868, 0.15956330988831036, 0.14196083723576555, 0.12716827161163172, 0.11450574644117265, 0.10343703963746345, 0.09357149575250415, 0.08466699828540951])","array('d', [-0.04055115953087799, -0.026214158957570254, -0.016314611235775777, -0.009434595986869576, -0.00463670533369993, -0.0012963702779214257, 0.0010061146829013585, 0.0025556289035586176, 0.0035481707962140155, 0.004121462997478826, 0.004375737678383836, 0.004388170785804723, 0.004223119149818119, 0.003939457657059805, 0.003595744948337632, 0.0032535646411792816])","array('d', [0.5805935422566277, 0.5395314037624542, 0.5060813307547428, 0.4784180132693556, 0.4552715068509211, 0.4357061441604262, 0.4190063506232084, 0.4046128420301849, 0.3920843214285715, 0.38107266726618394, 0.3713054253592343, 0.3625722696461226, 0.3547135788365071, 0.3476100765807635, 0.341172924604124, 0.3353339293605314])",-52.119078673106266,-146.51779702618884,-44.743565927811666,0.27671760194869494,-0.0012963702779214257,0.4357061441604262,15.448569147544813,-1.0,"[-199.012109186414, -112.6658437765662, 44.868028629161266]","[-203.06742853641117, -101.10699681690714, 53.52524769377543]","[-188.54263971784212, -103.77407796855636, 50.89519295927109]",10000000000.0,0.034128665924072266
1,-149.73753356933594,-53.811012268066406,44.853336334228516,0.63404107093811,0.03653483465313898,0.5381065169957017,23.09981096183627,"array('d', [-55.606346130371094, -54.778418496692034, -54.00328665600024, -53.27248686733975, -52.57920558689637, -51.91791920687811, -51.284135470593284, -50.674196067730655, -50.08511862027595, -49.51446596362392, -48.960236012015635, -48.42076856819186, -47.89466719445415, -47.38073526131977, -46.87792585401458, -46.38530334782265])","array('d', [-152.9736328125, -151.6367878370209, -150.27500208918588, -148.89530722732914, -147.5026416328579, -146.10058122199615, -144.69177411924562, -143.27821540113382, -141.86142957157418, -140.44259676055293, -139.02264287105893, -137.60230554385984, -136.18218314080983, -134.76277122037382, -133.34448932696156, -131.92769364481626])","array('d', [-44.86277770996094, -44.81072755336309, -44.77773450493062, -44.757875028557784, -44.74711054287198, -44.742649716511984, -44.7425328249793, -44.745359736191794, -44.750111318292284, -44.756032290362064, -44.76255511724153, -44.76925185094128, -44.77580538577777, -44.781994397766724, -44.78768789383506, -44.79284621669255])","array('d', [0.6329741477966306, 0.5323062168658219, 0.44867173095406593, 0.3793558401420493, 0.3221190346973248, 0.27505053448608424, 0.23648706113207188, 0.20496636852782768, 0.17920044011403402, 0.15806023334323221, 0.14056736194976646, 0.12589003694458029, 0.11334171007177564, 0.10238153316676078, 0.09261614816233894, 0.08380256396031989])","array('d', [-0.040346913039684205, -0.026064844072069396, -0.016203009388738972, -0.009348976263786887, -0.004569131381569775, -0.0012414915874342995, 0.0010518998876847, 0.002594744116924076, 0.0035822469656959597, 0.004151598822586161, 0.004402675683444486, 0.004412417170348072, 0.0042450262021386945, 0.003959281274397162, 0.0036136856892941102, 0.00326979809636256])","array('d', [0.5757838050511218, 0.5347250718032865, 0.5013323498246923, 0.4737562001456297, 0.45071318995640236, 0.4312592608087883, 0.4146732381355611, 0.40039197200293875, 0.38797150300792616, 0.37706195181339375, 0.36738981721644637, 0.35874429016196135, 0.35096570469067123, 0.34393506173612665, 0.3375640100348556, 0.33178494208272646])",-51.91791920687811,-146.10058122199615,-44.742649716511984,0.27505053448608424,-0.0012414915874342995,0.4312592608087883,15.44822136799101,-1.0,"[-198.05392160150132, -109.75380308744343, 44.87118755467664]","[-201.6828500912789, -98.0912968055934, 53.57847331097804]","[-187.2734918654807, -101.10298261865518, 50.69747624676155]",10000000000.0,0.027180910110473633
2,-149.3284149169922,-53.59553146362305,44.85334396362305,0.6339921951293944,0.03597755357623087,0.5335849086430411,23.099793307979336,"array('d', [-54.91822814941406, -54.10975231770475, -53.35433522280086, -52.6432100874789, -51.96937712297114, -51.32719876644585, -50.712116681181556, -50.12043946689812, -49.54917471005491, -48.995891147042826, -48.45860318741154, -47.93567362612194, -47.42573237866356, -46.92761019455448, -46.44028693139108, -45.9628522039381])","array('d', [-151.76791381835938, -150.41896015785414, -149.04605865942472, -147.65614147973454, -146.25404157448307, -144.84323634748216, -143.4262860759312, -142.0051090829089, -140.58116341144486, -139.15557182509707, -137.72921070916686, -136.30277488642378, -134.87682559872428, -133.45182613461995, -132.02816791046627, -130.60618251119004])","array('d', [-44.85832214355469, -44.80738580653451, -44.77520981689243, -44.75596154997105, -44.74566498436693, -44.74157152271285, -44.74175056694769, -44.744821848826774, -44.74977981388961, -44.75587849282353, -44.76255676451254, -44.76939112499699, -44.77606757397085, -44.78236698700847, -44.78815996519876, -44.793408053827406])","array('d', [0.6337707638740537, 0.5306961367427794, 0.44544293546798863, 0.37508049444489955, 0.3172226748525543, 0.26985159860664376, 0.23122174823171282, 0.19980569506226636, 0.17426291351551731, 0.15342193697038808, 0.1362704279726284, 0.1219500567965038, 0.10975440637317545, 0.09912889763026364, 0.08967218682742976, 0.08113875734602555])","array('d', [-0.039520092308521174, -0.025463826802483845, -0.015757214441372985, -0.009010481141966464, -0.004305471344315053, -0.0010306611416613899, 0.0012248507923213177, 0.0027400060410090014, 0.003706793957810764, 0.004260225519264783, 0.004498696411842712, 0.004498139597504028, 0.004322074526761441, 0.004028818999502089, 0.00367657174998277, 0.0033266997622582854])","array('d', [0.561211303868566, 0.5201930826030523, 0.48699602674200937, 0.4597004703926648, 0.43698391291770633, 0.4178779997382637, 0.40164530945982585, 0.3877114506185313, 0.37562471261932556, 0.3650301067440596, 0.3556511107711858, 0.3472755593694522, 0.3397437275903148, 0.33293751119129567, 0.32677007432145827, 0.32117561569087605])",-51.32719876644585,-144.84323634748216,-44.74157152271285,0.26985159860664376,-0.0010306611416613899,0.4178779997382637,15.447096385954572,-1.0,"[-198.05392160150132, -109.75380308744343, 44.87118755467664]","[-201.6828500912789, -98.0912968055934, 53.57847331097804]","[-187.2734918654807, -101.10298261865518, 50.69747624676155]",10000000000.0,0.01943659782409668
3,-148.09974670410156,-52.96331024169922,44.855098724365234,0.6318632960319518,0.03429936990141857,0.520528153577123,23.095756071324264,"array('d', [-54.692779541015625, -53.89084747475495, -53.142050527896906, -52.4375217162441, -51.770200382371456, -51.13441216489533, -50.52557774669488, -49.939995591865014, -49.37467070150438, -48.827174426584655, -48.29552723053929, -47.7781000522025, -47.27353200882439, -46.78066334176945, -46.29848315490328, -45.82608976189223])","array('d', [-151.36390686035156, -150.0109629267136, -148.63441305951102, -147.24115023318274, -145.8359689589894, -144.42231198310853, -143.00270931926207, -141.5790532138603, -140.1527793533519, -138.72499134658906, -137.29654913751585, -135.86813339169927, -134.44029311487984, -133.0134809799372, -131.58807916153316, -130.16441116863732])","array('d', [-44.856876373291016, -44.80657475515427, -44.7748608342014, -44.75595488570793, -44.74591704055247, -44.7420234090967, -44.74236033660057, -44.74555923462286, -44.75062265042954, -44.75681027175414, -44.76356495274449, -44.77046599774236, -44.77720139637475, -44.78355343289777, -44.78939369842734, -44.794684423324725])","array('d', [0.6339318752288814, 0.5300712426661696, 0.44429171978599413, 0.37359112989094767, 0.31553497942573305, 0.26807013922216116, 0.22942403001381767, 0.1980477626954685, 0.1725835109423916, 0.15184582145632008, 0.13481115986125974, 0.1206124441135161, 0.10853670900937515, 0.098024856950189, 0.08867292627336942, 0.08023458892446862])","array('d', [-0.039049178361892575, -0.02512314035079947, -0.015506335855348906, -0.008822022637649835, -0.004160816073589325, -0.000917090055821847, 0.0013160817893062547, 0.002814950230150661, 0.003769672260631033, 0.004314002003670305, 0.004545465557118071, 0.0045393879486692575, 0.004358858226557498, 0.0040618848978646255, 0.003706440903358331, 0.0033537264923051034])","array('d', [0.5563327829029893, 0.5153365529036931, 0.48221105141779974, 0.4550139465249827, 0.43241018311539015, 0.41342359787954264, 0.397311535042525, 0.3834959713750216, 0.3715226880326961, 0.3610350442401597, 0.35175554667949444, 0.3434716041715375, 0.3360234919717195, 0.3292934196416249, 0.32319506902527556, 0.31766325150719865])",-51.13441216489533,-144.42231198310853,-44.7420234090967,0.26807013922216116,-0.000917090055821847,0.41342359787954264,15.446696014151227,-1.0,"[-197.58725660051934, -108.33562076589587, 44.87273318830629]","[-201.00730419620086, -96.6261518655437, 53.60151388866523]","[-186.65870357758672, -99.80493332509576, 50.5993465515713]",10000000000.0,0.04980731010437012
4,-147.68814086914062,-52.75664520263672,44.855865478515625,0.6285502314567564,0.03329114615917192,0.5164074460652212,23.089737733722778,"array('d', [-54.028472900390625, -53.244892353021065, -52.51461408065523, -51.82849771275509, -51.17931868205049, -50.56130500589809, -49.96982300130161, -49.4011462791326, -48.85227545424812, -48.320791525596015, -47.80473382558205, -47.30249769561417, -46.8127493698684, -46.33435682610614, -45.86633606635258, -45.40781064332602])","array('d', [-150.14566040039062, -148.78174678300303, -147.39521353728168, -145.99282634878534, -144.5792627297299, -143.15786341870202, -141.7310711569301, -140.3007040260119, -138.86813476154842, -137.43441344133947, -136.00035432291784, -134.56659890085763, -133.13366243043177, -131.70196836606192, -130.27187348008232, -128.8436790835848])","array('d', [-44.8538818359375, -44.806120095691206, -44.77624974956963, -44.75870440650733, -44.749689537797714, -44.74658060328025, -44.74753225787913, -44.75122321931189, -44.75668905207913, -44.76321266810837, -44.770253371096054, -44.777402173390676, -44.78435540497687, -44.790901254564154, -44.796915417712555, -44.80236287081261])","array('d', [0.6339594125747681, 0.5279758226796374, 0.4407837457071412, 0.36918441725463824, 0.31061091861054535, 0.2629137015687335, 0.2242461562457105, 0.19300064349605553, 0.1677719383152633, 0.14733624929966685, 0.13063934898516547, 0.11679017512687913, 0.10505784346990417, 0.09487092248375746, 0.08581834763768961, 0.07765165912828556])","array('d', [-0.03716569393873197, -0.023762768231605266, -0.014507260190068883, -0.008074695954760402, -0.0035906581477546484, -0.0004729684775251396, 0.0016695013374480056, 0.0031022897699476367, 0.004008233485083967, 0.004516037854402371, 0.004719707921883656, 0.004692078918436635, 0.0044944483773424635, 0.004183507764200898, 0.003816237980242228, 0.0034530750047830276])","array('d', [0.5427071611073353, 0.5018064424776421, 0.4689058460533294, 0.44200299046558894, 0.4197296742983518, 0.40108909195626047, 0.38532470440953576, 0.3718488259578255, 0.3602005573913918, 0.35001887065747633, 0.34102372286074983, 0.33300145246852425, 0.32579242363248706, 0.3192797887138567, 0.3133787263449699, 0.3080257999457422])",-50.56130500589809,-143.15786341870202,-44.74658060328025,0.2629137015687335,-0.0004729684775251396,0.40108909195626047,15.445513015624433,-1.0,"[-197.58725660051934, -108.33562076589587, 44.87273318830629]","[-201.00730419620086, -96.6261518655437, 53.60151388866523]","[-186.65870357758672, -99.80493332509576, 50.5993465515713]",10000000000.0,0.021797657012939453
5,-146.8621063232422,-52.34978485107422,44.85825729370117,0.6148397326469417,0.030146455392241395,0.5084579745915269,23.0692711140795,"array('d', [-53.811012268066406, -53.033668341188005, -52.30968658229517, -51.629833450738346, -50.986828532005404, -50.37486652388533, -49.78929510887828, -49.22637928503948, -48.68311801073015, -48.15709540456654, -47.6463570620204, -47.14930647861526, -46.664618975082114, -46.19117183514568, -45.7279900896136, -45.274205764846286])","array('d', [-149.73753356933594, -148.3699730161274, -146.98012202021826, -145.5747030319777, -144.15835402057223, -142.73438139009812, -141.30519861731878, -139.872599003173, -138.43793432009414, -137.00223687423784, -135.56630579613895, -134.13076963841002, -132.69613252249724, -131.26280827296426, -129.83114529296355, -128.4014375847101])","array('d', [-44.853336334228516, -44.806425312826164, -44.777172061877145, -44.760081859714234, -44.75140896022342, -44.74856214839561, -44.749718983259115, -44.75357404083713, -44.75917395361276, -44.76580941999717, -44.772945260835, -44.780176417456445, -44.78720202043168, -44.793812241918936, -44.79988415565122, -44.80538365747453])","array('d', [0.63404107093811, 0.5273297905604701, 0.4396520444089044, 0.36774193857181026, 0.3089875409233731, 0.26120658967508725, 0.2225273621983756, 0.19132227538674054, 0.1661699948443709, 0.1458336818800543, 0.1292486492287076, 0.11551565094338367, 0.10389767775742813, 0.09381907300895066, 0.08486632874776075, 0.07679023673599583])","array('d', [-0.03653483465313898, -0.023307364612013513, -0.014172984871869729, -0.007824796016923973, -0.0034001247772095645, -0.0003246613360657751, 0.0017874247074731223, 0.003198081407225332, 0.0040876929753630034, 0.0045832739293173615, 0.004777650299787596, 0.004742823495124829, 0.004539490621701607, 0.004223900936074604, 0.0038527011134660756, 0.0034860682150657093])","array('d', [0.5381065169957017, 0.497231963411356, 0.4644025312482254, 0.4375951105268605, 0.41543009388587265, 0.39690357455348957, 0.3812542299983162, 0.3678910357648713, 0.3563507746374428, 0.34627088621988544, 0.3373704257051071, 0.3294353377601793, 0.3223059915069224, 0.3158658386052221, 0.31003054869182917, 0.3047372656560665])",-50.37486652388533,-142.73438139009812,-44.74856214839561,0.26120658967508725,-0.0003246613360657751,0.39690357455348957,15.445091672225477,-1.0,"[-197.58725660051934, -108.33562076589587, 44.87273318830629]","[-201.00730419620086, -96.6261518655437, 53.60151388866523]","[-186.65870357758672, -99.80493332509576, 50.5993465515713]",10000000000.0,0.021167516708374023
6,-146.0327606201172,-51.95183181762695,44.86185836791992,0.5906131267547605,0.025233460590243215,0.5008739987995964,23.035654593404168,"array('d', [-53.38279724121094, -52.617656087231786, -51.90594273620012, -51.23825377112273, -50.60720787077543, -50.00694047679444, -49.4327672001424, -48.88093953172001, -48.348455797326075, -47.83290829181726, -47.33235653839607, -46.845221360491884, -46.37019700515109, -45.906179941566954, -45.45221371537913, -45.0074479190046])","array('d', [-148.91993713378906, -147.54537467774074, -146.14917827767704, -144.73797912760915, -143.31633395926247, -141.88747972271543, -140.453771330079, -139.01695289896608, -137.57833487143802, -136.13891470595232, -134.69946200207085, -133.26058013559674, -131.82275162673017, -130.3863716533367, -128.95177243532896, -127.5192346124168])","array('d', [-44.85380554199219, -44.80827463023758, -44.780022576753765, -44.76367119496703, -44.75555402332252, -44.753133934689764, -44.75462558828084, -44.758749185412455, -44.76456919536502, -44.771388830510205, -44.7786817556918, -44.78604919744343, -44.79319476172597, -44.79991179248235, -44.806079575482386, -44.81166549325737])","array('d', [0.6337716579437253, 0.5257155662775609, 0.4371491778022898, 0.3646795862489517, 0.30560983057353486, 0.2576958530880375, 0.21901845736015924, 0.18791232537930408, 0.16292562612103184, 0.14279682031297009, 0.12644143074248376, 0.11294474937784969, 0.10155822308674417, 0.09169826774446331, 0.08294683775953308, 0.0750534093104241])","array('d', [-0.035511311143636606, -0.022568685263813244, -0.013630653927520905, -0.0074190073227771046, -0.0030902528662682927, -8.29244449834764e-05, 0.001980171888262373, 0.003355142290925541, 0.004218390347362656, 0.00469419429969974, 0.004873479079323873, 0.004826907406729924, 0.004614217332636629, 0.004290955906937981, 0.0039132424841318075, 0.003540848463255776])","array('d', [0.5291295806553699, 0.48834065363909746, 0.45567553640109976, 0.429074011843379, 0.40713609207163387, 0.3888451450920402, 0.3734312379125204, 0.3602973171485733, 0.34897598208171104, 0.3391019268175202, 0.3303926262481344, 0.32263338980011963, 0.31566469528985097, 0.309370652041998, 0.30366794314290957, 0.29849488566135085])",-50.00694047679444,-141.88747972271543,-44.753133934689764,0.2576958530880375,-8.29244449834764e-05,0.3888451450920402,15.44423963205369,-1.0,"[-197.58725660051934, -108.33562076589587, 44.87273318830629]","[-201.00730419620086, -96.6261518655437, 53.60151388866523]","[-186.65870357758672, -99.80493332509576, 50.5993465515713]",10000000000.0,0.025706768035888672
7,-145.2008056640625,-51.563072204589844,44.868370056152344,0.5569392442703246,0.018841264769434797,0.4935112754490712,22.984119510680312,"array('d', [-52.96331024169922, -52.2098327626309, -51.50967485952097, -50.85330734146604, -50.23327825077128, -49.64368546931873, -49.07982852567408, -48.53795739714553, -48.01507887823177, -47.50880040833517, -47.01720082500078, -46.53872250006809, -46.072081980582524, -45.61619769267187, -45.170134047807124, -44.73306001069279])","array('d', [-148.09974670410156, -146.71864770251932, -145.3166171006706, -143.90016810516858, -142.47376231811913, -141.0405599415726, -139.60285360237657, -138.16233650637434, -136.7202771574086, -135.27763818151013, -133.83515999620082, -132.39342131390984, -130.95288363375462, -129.51392407890043, -128.07685926047404, -126.64195623609241])","array('d', [-44.855098724365234, -44.81120305911543, -44.78413556022679, -44.768656649261686, -44.76119395728424, -44.75927454358405, -44.76115716398615, -44.765592565634684, -44.771666563451994, -44.77869741600074, -44.78616947548307, -44.793691599721555, -44.80097284694526, -44.80781042629637, -44.814086303088224, -44.81976963015877])","array('d', [0.6318632960319518, 0.5228051013793303, 0.43361194353696747, 0.3607855825648231, 0.3015582140051264, 0.25363401911370115, 0.21505385528630103, 0.18412056477732738, 0.15935657290619581, 0.1394795342559577, 0.12338838464116304, 0.11015556460790601, 0.09902305421522233, 0.08940091948150625, 0.08086767417516817, 0.07317210413067711])","array('d', [-0.03429936990141857, -0.021694558288851577, -0.012989631146152536, -0.006940369620864979, -0.002725918066350045, 0.00020006083277433162, 0.002204591982569548, 0.003536896583126698, 0.0043686765896224595, 0.00482096682445264, 0.00498242691170821, 0.00492211252327541, 0.0046985985735705955, 0.004366568879277853, 0.003981483353280067, 0.003602595360675898])","array('d', [0.520528153577123, 0.4799545738344825, 0.4475456087117602, 0.4212182318096502, 0.3995598845567055, 0.381545915885381, 0.36640083662776446, 0.3535236575743198, 0.3424442819546947, 0.33279573610921215, 0.32429469852278675, 0.3167264079030873, 0.3099318486751649, 0.30379606055338504, 0.29823692321620454, 0.2931940560474059])",-49.64368546931873,-141.0405599415726,-44.75927454358405,0.25363401911370115,0.00020006083277433162,0.381545915885381,15.443394934181534,-1.0,"[-197.58725660051934, -108.33562076589587, 44.87273318830629]","[-201.00730419620086, -96.6261518655437, 53.60151388866523]","[-186.65870357758672, -99.80493332509576, 50.5993465515713]",10000000000.0,0.04097318649291992
8,-144.7855682373047,-51.372825622558594,44.873619079589844,0.5373468399047849,0.015402308665215856,0.48987491528061405,22.950511180702957,"array('d', [-52.552120208740234, -51.80932792501144, -51.119048778072006, -50.47178740533243, -49.860132108305955, -49.27822421029071, -48.72140827384581, -48.185979885183535, -47.66899119964269, -47.16809404233645, -46.68141002834498, -46.2074221812075, -45.74488518920786, -45.29275286465403, -44.850122142904084, -44.41619144964102])","array('d', [-147.27557373046875, -145.88865767040468, -144.48178302219114, -143.06123219729608, -141.6313091419796, -140.19506107769448, -138.754696690701, -137.3118450264902, -135.86772438256517, -134.42325729250476, -132.97915157843428, -131.53595903049268, -130.09411860774088, -128.65398835092546, -127.21586857525926, -125.78001155869131])","array('d', [-44.85697937011719, -44.81626038365204, -44.79148867179822, -44.777694817343686, -44.77148936565347, -44.770524332179804, -44.77314469876947, -44.77816134330297, -44.784702455142785, -44.79211644576288, -44.79990929275517, -44.80770542873464, -44.81522510255751, -44.82227345394703, -44.828737880533346, -44.83459099621399])","array('d', [0.6230120658874511, 0.5142245054724687, 0.42539434138823523, 0.35299471605560134, 0.29423568929325034, 0.24680356408314297, 0.2087244992011396, 0.17828928590484916, 0.15401065806856368, 0.1345987429125059, 0.11894694025152731, 0.10612397085417796, 0.09536973122977038, 0.08609366217950332, 0.07787494354116606, 0.0704641692243163])","array('d', [-0.031947400420904194, -0.01999938927563497, -0.01174911851760737, -0.006017943709085289, -0.0020284233326343993, 0.0007368266180620313, 0.0026253529758319977, 0.0038731445457423725, 0.004642814708755642, 0.005049076013045024, 0.005176121893142437, 0.005089791453014139, 0.00484628580208053, 0.004498484095669522, 0.004100428079505364, 0.003710220863521104])","array('d', [0.5123996297505237, 0.47259493345135184, 0.440848584752233, 0.41510914434256635, 0.3939809839165127, 0.3764491794320184, 0.36174423292806035, 0.34926918740098595, 0.33855697748734465, 0.3292431811823825, 0.32104682145504715, 0.3137554017205413, 0.30721213407223286, 0.30130424351085816, 0.29595172124745717, 0.29109618186118263])",-49.27822421029071,-140.19506107769448,-44.770524332179804,0.24680356408314297,0.0007368266180620313,0.3764491794320184,15.442617841895565,-1.0,"[-195.87449399377923, -104.06930634086272, 44.872256340110276]","[-198.64138048751764, -92.23796669812518, 53.667922397263354]","[-184.50072172293025, -95.921628962377, 50.28082894912454]",10000000000.0,0.019580602645874023
9,-143.53805541992188,-50.81556701660156,44.89763641357422,0.47142353653907754,0.004994544666260383,0.47897215286758915,22.821306305241187,"array('d', [-52.34978485107422, -51.61198144518255, -50.925917287060344, -50.28219563578214, -49.67348206574108, -49.093981679367914, -48.53909356238294, -48.00516101378733, -47.48927856387495, -46.98913600204616, -46.502889119059965, -46.02905177958269, -45.56640654058134, -45.113932419966915, -44.6707491695998, -44.23607588458542])","array('d', [-146.8621063232422, -145.4725458395979, -144.06366064113976, -142.64156027874606, -141.21043745232572, -139.77326370629416, -138.3321939788625, -136.88881777526228, -135.44432341874432, -133.9996101133342, -132.555367095089, -131.112131044382, -129.67032842730984, -128.23030681650133, -126.79235766873994, -125.35672571918036])","array('d', [-44.85825729370117, -44.819971391006995, -44.79695663448712, -44.78445069466498, -44.77920422145183, -44.778965010230294, -44.782144252563974, -44.78759911557309, -44.79449050927812, -44.80219020725624, -44.81022099872988, -44.8182194599147, -44.82591458156486, -44.83311769766845, -44.83972043106209, -44.84569804943829])","array('d', [0.6148397326469417, 0.5068476791461154, 0.4187159954840625, 0.3469420598977214, 0.28874927610879186, 0.2418319705264931, 0.2042215984371553, 0.17421285769642772, 0.15032171991222235, 0.13126126345537634, 0.11592773496701629, 0.10339265911039315, 0.09289868334845855, 0.08385789719783966, 0.07585195901849928, 0.0686336969663434])","array('d', [-0.030146455392241395, -0.01870167368677213, -0.010800201005039837, -0.005313454756288559, -0.0014970735056308812, 0.0011442768850846385, 0.002943301183906135, 0.0041258906619348595, 0.004847707515933658, 0.005218613669857737, 0.005319361760063528, 0.0052132995284392475, 0.00495477707345486, 0.004595254887130453, 0.004187649504067753, 0.0037891420792055585])","array('d', [0.5084579745915269, 0.4693313111849125, 0.438134949415612, 0.41286042722228855, 0.39213542604778917, 0.37495886871695056, 0.3605701325808224, 0.348378359083575, 0.3379209530994475, 0.32883696191882544, 0.3208482281390395, 0.31374462543743487, 0.30737140380568406, 0.30161756543148166, 0.29640466584151065, 0.2916757066712948])",-49.093981679367914,-139.77326370629416,-44.778965010230294,0.2418319705264931,0.0011442768850846385,0.37495886871695056,15.442263499561491,-1.0,"[-195.87449399377923, -104.06930634086272, 44.872256340110276]","[-198.64138048751764, -92.23796669812518, 53.667922397263354]","[-184.50072172293025, -95.921628962377, 50.28082894912454]",10000000000.0,0.03456759452819824
10,-143.12220764160156,-50.6341552734375,44.908782958984375,0.4483042061328886,0.0016405604546888535,0.47554059425858064,22.76818855912527,"array('d', [-51.756290435791016, -51.031945419749086, -50.3555389466232, -49.71828123374645, -49.1132916416038, -48.53513252727667, -47.979494398697106, -47.44296422431259, -46.92284382862747, -46.41700154879177, -45.92374842835181, -45.441734419778165, -44.96986227275015, -44.50721795108437, -44.05301704516589, -43.60656524690297])","array('d', [-145.61705017089844, -144.2206506119971, -142.80737284442205, -141.38261073989705, -139.95010905750692, -138.51254307988978, -137.07186294504933, -135.62951116554126, -134.1865669847826, -132.74384617678265, -131.3019724066731, -129.8614295858285, -128.42260087641165, -126.98579777579899, -125.55128136419982, -124.11927140343475])","array('d', [-44.86454772949219, -44.83701589647012, -44.82176276264035, -44.81494120114972, -44.81392100604977, -44.816873602330446, -44.82250344914165, -44.829873125854434, -44.838289048814275, -44.84722711124159, -44.85628518892876, -44.86515419494824, -44.873602280217256, -44.88146852040672, -44.88866340614766, -44.89517394262662])","array('d', [0.5748245120048522, 0.47187029711439515, 0.3879335479908902, 0.3197251667336318, 0.26460009363726134, 0.220341586420623, 0.18504614921590878, 0.15705935253551306, 0.1349391217922002, 0.11743442977138001, 0.10347285199076832, 0.09215337357815938, 0.08274246770037097, 0.07467238593698684, 0.06754111453482216, 0.061113733222238224])","array('d', [-0.02218561619520169, -0.012966240740224597, -0.006608882329702548, -0.002205523617811857, 0.0008425606165696116, 0.0029336122102972192, 0.004334928364330622, 0.005227843405073223, 0.005737293252277382, 0.005951651970459402, 0.005936388316094021, 0.005743745794247948, 0.0054197893622439, 0.00500959692098321, 0.004560992497045573, 0.00412695696539577])","array('d', [0.4972028295185903, 0.46125567196155326, 0.4325831022921998, 0.4093979253202091, 0.3904501871983569, 0.3748130782041898, 0.3617745824327407, 0.35077773787722477, 0.3413848632301691, 0.33325408677452184, 0.3261223074540124, 0.31979152010591366, 0.31411686250696225, 0.3089954868702087, 0.30435575110209645, 0.3001464474885524])",-48.53513252727667,-138.51254307988978,-44.816873602330446,0.220341586420623,0.0029336122102972192,0.3748130782041898,15.441370216086627,-1.0,"[-195.333659055283, -102.76018595577916, 44.87167356132653]","[-197.89845176900224, -90.89586571445471, 53.684150145519624]","[-183.82741883377167, -94.73356724869578, 50.180141145853575]",10000000000.0,0.029555797576904297
11,-141.876708984375,-50.101768493652344,44.953086853027344,0.3796678781509397,-0.0068149492144586,0.4653353253987169,22.588827255462117,"array('d', [-51.563072204589844, -50.84294246295098, -50.169072431239364, -49.5329529110661, -48.92791256139045, -48.3486775273322, -47.79107077103396, -47.251788847102155, -46.72822571969141, -46.218328131382954, -45.72047450550485, -45.23337323322858, -44.75597822440218, -44.287420667963865, -43.82695651676173, -43.37392800172453])","array('d', [-145.2008056640625, -143.80236428660615, -142.38800585923784, -140.96284179588488, -139.53044026908756, -138.0933601995757, -136.65347167286407, -135.2121600197571, -133.77046221627214, -132.32916178949546, -130.88885708522346, -129.4500116305211, -128.0129918352908, -126.57809521162372, -125.14557103459433, -123.71562980366943])","array('d', [-44.868370056152344, -44.84535429360397, -44.83335907774182, -44.82892162874582, -44.8296718516004, -44.833959278144164, -44.84061178568373, -44.848778493229034, -44.85782718944177, -44.867277735002396, -44.87675974849873, -44.88598713552411, -44.89474462672115, -44.90288304014621, -44.91032083688014, -44.9170499469288])","array('d', [0.5569392442703246, 0.45639053091908455, 0.3744395960456306, 0.30790026681268784, 0.25419303790741243, 0.21114678638043788, 0.1768921733369087, 0.14980190810951918, 0.12845645690061205, 0.11162405620757253, 0.09824896368250914, 0.08744459752928432, 0.07848973727684443, 0.07082681715777894, 0.06406181970374947, 0.05796553678556199])","array('d', [-0.018841264769434797, -0.010557500737298097, -0.0048497607269137885, -0.0009024900528274936, 0.0018219791366357319, 0.003681162215218734, 0.00491489991586237, 0.005685806054468151, 0.006105894082339456, 0.006254490724669939, 0.006190620830022674, 0.005961838147061494, 0.005610700569620583, 0.00517957623590481, 0.004714118967835584, 0.004265511538368834])","array('d', [0.4935112754490712, 0.45893431827067427, 0.43134958508042626, 0.4090625144175624, 0.39087556198749346, 0.37589436685373157, 0.36342852694690914, 0.3529363677613745, 0.3439915470161966, 0.33626090235873407, 0.3294881797182784, 0.3234808319203048, 0.3180983822024889, 0.3132415300277644, 0.3088415356910843, 0.304849621074493])",-48.3486775273322,-138.0933601995757,-44.833959278144164,0.21114678638043788,0.003681162215218734,0.37589436685373157,15.441113866369097,-1.0,"[-195.333659055283, -102.76018595577916, 44.87167356132653]","[-197.89845176900224, -90.89586571445471, 53.684150145519624]","[-183.82741883377167, -94.73356724869578, 50.180141145853575]",10000000000.0,0.05554533004760742
12,-141.04945373535156,-49.75554656982422,44.99150466918945,0.3365430831909178,-0.011104632169008343,0.4591177264836169,22.456955944725465,"array('d', [-50.99911880493164, -50.291208376245834, -49.62378903712505, -48.98930280079217, -48.38179641840902, -47.79656226531065, -47.22988321692688, -46.67883703833896, -46.14113817905738, -45.61500568916991, -45.09905146276498, -44.592185846272315, -44.09353910998635, -43.602398034113186, -43.11815725765832, -42.64028364988689])","array('d', [-143.95401000976562, -142.54993297019593, -141.13301491185013, -139.70750055995765, -138.2764072902556, -136.84192633685666, -135.40567203888057, -133.9688452099725, -132.532345111386, -131.09684919162328, -129.66287170956102, -128.23080785846955, -126.8009673759969, -125.37360003950971, -123.94891447362461, -122.52708631602455])","array('d', [-44.88809585571289, -44.87908831449579, -44.877192659845285, -44.88013876598308, -44.88636420064798, -44.89477197681278, -44.90457383831139, -44.91518830987839, -44.92617441240552, -44.93718913215586, -44.94796117495833, -44.95827627416514, -44.96797097798389, -44.976932792698534, -44.985105032421046, -44.99249489484241])","array('d', [0.4941899776458739, 0.40214727321733684, 0.32724604478020797, 0.2666371138792937, 0.21796229498634392, 0.17920847844410753, 0.14862720940558105, 0.12468890235718255, 0.10605618689190736, 0.09156807082541563, 0.08023034082829314, 0.07120969068678085, 0.06383024214922228, 0.057571781622008565, 0.05206939132147584, 0.047114337869335075])","array('d', [-0.008460978046059536, -0.00308491111230623, 0.0006028069226190373, 0.003131185227034785, 0.004848575868158498, 0.005986128800358734, 0.006698429603737025, 0.007089919942627828, 0.007232428512140958, 0.007177125714580324, 0.006962963209114919, 0.006622866722051757, 0.006188434119212201, 0.00569354168059815, 0.005177016582130037, 0.004684358658319828])","array('d', [0.48255868355301407, 0.4525974701417338, 0.4287179276598502, 0.40950879913630595, 0.3939377219423975, 0.38121521766002575, 0.37072229722708605, 0.36196875117690225, 0.3545669819613797, 0.3482139028096894, 0.3426770516475717, 0.3377828888017124, 0.3334061908909868, 0.3294599467003234, 0.3258854169536839, 0.3226421614410516])",-47.79656226531065,-136.84192633685666,-44.89477197681278,0.17920847844410753,0.005986128800358734,0.38121521766002575,15.440433334736854,-1.0,"[-194.32388356952663, -100.52934353064319, 44.86736949410627]","[-196.54132741826743, -88.61308552070783, 53.70398297543117]","[-182.59569444375902, -92.71362571551542, 50.00197121814688]",10000000000.0,0.030773162841796875
13,-139.41305541992188,-49.08018112182617,45.09062576293945,0.26200020313262923,-0.01591556891798984,0.44822545448807266,22.172715212476124,"array('d', [-50.6341552734375, -49.93396411929091, -49.27016303711139, -48.6358440754636, -48.02555493552927, -47.43498888006374, -46.860757797245085, -46.30021405458151, -45.75130393542963, -45.2124439034972, -44.682415239655825, -44.16027479170896, -43.645280689768406, -43.13683244160445, -42.634425116516276, -42.1376155482387])","array('d', [-143.12220764160156, -141.71476160996608, -140.29652974436772, -138.87121965889497, -137.44149804379475, -136.00931667529923, -134.57611995110835, -133.14298375190242, -131.71071240645693, -130.27990897104303, -128.85102776806204, -127.42441453807488, -126.00033742237453, -124.57901069339647, -123.1606123504621, -121.7452906697783])","array('d', [-44.908782958984375, -44.908970449439344, -44.91369873446232, -44.9214808798075, -44.9312854535279, -44.942379792483784, -44.9542286061347, -44.96642814635681, -44.97866371790645, -44.99068294814249, -45.00228009979587, -45.01328846439433, -45.023578912985, -45.03306324164214, -45.041701176019316, -45.049509916225496])","array('d', [0.4483042061328886, 0.36241488730731564, 0.29265746688161903, 0.2363975519504704, 0.19142338369202117, 0.15582973337658923, 0.12795292623819757, 0.10633343802688551, 0.08969383795099434, 0.07692540936904808, 0.06707976878842142, 0.05936349433641218, 0.05313473785310972, 0.04790132709697422, 0.043320142542938304, 0.03919768947777133])","array('d', [-0.0016405604546888535, 0.0018213398863483627, 0.004178307629769622, 0.005771468087327872, 0.006824906163669015, 0.0074867276538827625, 0.007855428054188901, 0.00799713897730873, 0.007957201646891154, 0.007768211994308401, 0.007455867129029124, 0.0070434211112109, 0.00655521060765458, 0.006019468240150654, 0.005470463737677844, 0.0049498806488487215])","array('d', [0.47554059425858064, 0.4487953027887976, 0.42754059262524297, 0.4105348921656722, 0.3968488681408831, 0.3857607370089038, 0.3766989994335524, 0.3692085594974138, 0.36292881441847163, 0.3575779706489662, 0.3529406022540205, 0.34885687757061784, 0.34521261457477476, 0.3419297066164104, 0.33895665458671936, 0.336259048655068])",-47.43498888006374,-136.00931667529923,-44.942379792483784,0.15582973337658923,0.0074867276538827625,0.3857607370089038,15.440048873920638,-1.0,"[-193.281901450181, -98.4385303247344, 44.86233928291639]","[-195.1620102740343, -86.48031406582874, 53.720457294983795]","[-181.34461810478197, -90.8386213978632, 49.83653777462559]",10000000000.0,0.06186246871948242
14,-139.00648498535156,-48.91403579711914,45.11800765991211,0.24615883827209453,-0.016325546428561315,0.44572420517471795,22.100424858386827,"array('d', [-49.92787170410156, -49.24262519906279, -48.585917384119625, -47.95200542667436, -47.33635993470926, -46.735428609160905, -46.14645267604071, -45.56731622019985, -44.99641847254338, -44.43256408100922, -43.87486888902444, -43.32267996270276, -42.77550918428818, -42.23298000299401, -41.69478708021405, -41.160666348606284])","array('d', [-141.4626922607422, -140.04896686431104, -138.62821718624173, -137.20327465002487, -135.77621194451874, -134.34856171724397, -132.92146186338977, -131.49575650463663, -130.07206912394867, -128.65085751348732, -127.23245629079692, -125.81711041244493, -124.40500169974769, -122.99626952625019, -121.5910262886645, -120.18936189058117])","array('d', [-44.971473693847656, -44.98614108120357, -45.00127991417606, -45.016640352339174, -45.03203108957866, -45.04729679403069, -45.06230365090513, -45.07693040202029, -45.091063383903396, -45.10459474877753, -45.11742346171424, -45.129458886657, -45.14062684806273, -45.150878005666165, -45.160198219577005, -45.16862035966613])","array('d', [0.35769891738891585, 0.28356418990686266, 0.2237620999531675, 0.1760003431697148, 0.13830982103947148, 0.10897055111593386, 0.08646919604851466, 0.06947400250172868, 0.056819412492893795, 0.04749607007249173, 0.04064391524606662, 0.03554719350025808, 0.03163084526297142, 0.028458070183564933, 0.025729013041147976, 0.023280575836925502])","array('d', [0.009117640554905064, 0.009546467055944379, 0.009793101560306912, 0.009902412018988371, 0.00990225178030739, 0.00980940702778636, 0.009633566882407412, 0.00938014328969227, 0.009052456674229846, 0.008653606403522104, 0.008188212080480135, 0.007664112390107042, 0.0070940250363944034, 0.006497095077890055, 0.005900186945971435, 0.005338710175524617])","array('d', [0.46212120453384925, 0.44141818698691, 0.42519858868388927, 0.4124798900652925, 0.4024975272490056, 0.3946425068788482, 0.3884254288268885, 0.38345390217004205, 0.37941686529357804, 0.37607247195804866, 0.37323781064653216, 0.37077955851093547, 0.36860509997382235, 0.36665385323467997, 0.3648886489100962, 0.36328705706340103])",-46.735428609160905,-134.34856171724397,-45.04729679403069,0.10897055111593386,0.00980940702778636,0.3946425068788482,15.439364095536195,-1.0,"[-193.281901450181, -98.4385303247344, 44.86233928291639]","[-195.1620102740343, -86.48031406582874, 53.720457294983795]","[-181.34461810478197, -90.8386213978632, 49.83653777462559]",10000000000.0,0.01971888542175293
15,-138.6010284423828,-48.748783111572266,45.14622116088867,0.23146267235279067,-0.01637198030948649,0.44329865376022837,22.028301979770227,"array('d', [-49.75554656982422, -49.073653822673734, -48.418507023305295, -47.78461654062295, -47.16765800572805, -46.56424951614158, -45.97177618378234, -45.38824472739033, -44.81215948001199, -44.24241552897926, -43.678206862804565, -43.11894843338838, -42.564211518862656, -42.0136719943587, -41.46707123882949, -40.92418713530033])","array('d', [-141.04945373535156, -139.63435752625264, -138.21306699955906, -136.78823862310253, -135.36182285776377, -133.9352638008037, -132.50963299728974, -131.08572323512496, -129.66411706946045, -128.24523876147683, -126.82939480498247, -125.41680610792454, -124.0076336127419, -122.6019983566903, -121.19999649813295, -119.80170347701608])","array('d', [-44.99150466918945, -45.00884094083668, -45.02589259019783, -45.0426392060984, -45.059045561891345, -45.075063763270904, -45.090634832558294, -45.10569026114995, -45.12015399581376, -45.13394528416566, -45.146982764764275, -45.15919012575305, -45.17050355303046, -45.18088102767239, -45.190313300990326, -45.19883610779392])","array('d', [0.3365430831909178, 0.2650919672523651, 0.2075838967417047, 0.16179364141604544, 0.12580130256466798, 0.09792563905982439, 0.0766856515508968, 0.060777739615974755, 0.0490614739887502, 0.040550144801017554, 0.0344040384389763, 0.02992542964574672, 0.026554848155007225, 0.023868469618265307, 0.021576607323310477, 0.019523323428323875])","array('d', [0.011104632169008343, 0.010969276567094392, 0.010823073193463451, 0.010656051578815832, 0.010459689003886, 0.010226396212744675, 0.009949359364721857, 0.009622695893430943, 0.009241902827463124, 0.008804581883738678, 0.008311417311876021, 0.0077673605682017565, 0.007182941207890396, 0.0065755778266377105, 0.005970710384537307, 0.005402522427310457])","array('d', [0.4591177264836169, 0.43977647140309706, 0.4247084129986884, 0.4129799488128249, 0.4038588988181412, 0.3967592533559488, 0.3912088935748903, 0.38682900029778394, 0.3833194799484567, 0.3804474865535049, 0.37803753055100753, 0.3759623980238717, 0.37413447733364846, 0.3724972723815913, 0.37101696548609603, 0.36967393443755775])",-46.56424951614158,-133.9352638008037,-45.075063763270904,0.09792563905982439,0.010226396212744675,0.3967592533559488,15.439224467062306,-1.0,"[-193.281901450181, -98.4385303247344, 44.86233928291639]","[-195.1620102740343, -86.48031406582874, 53.720457294983795]","[-181.34461810478197, -90.8386213978632, 49.83653777462559]",10000000000.0,0.024318695068359375
16,-137.79356384277344,-48.42057418823242,45.20449447631836,0.20544734597206102,-0.015567724592983785,0.4386332790043688,21.884096005773735,"array('d', [-49.584869384765625, -48.906164958605906, -48.25250753526262, -47.6186430003264, -47.00043925766119, -46.39467519317916, -45.798872308763045, -45.21115394763224, -44.63012462293401, -44.05476575948215, -43.484346021179476, -42.918345269935315, -42.3563915925326, -41.798211009752215, -41.24358958230258, -40.69234522305993])","array('d', [-140.6389617919922, -139.2225689859187, -137.80076119362968, -136.3760366283495, -134.9502340432019, -133.52471584765428, -132.10049183640257, -130.67830661815805, -129.25870403001588, -127.8420763825809, -126.42870319957855, -125.01878219860586, -123.61245409168505, -122.20982207445215, -120.81096644499387, -119.41594825150047])","array('d', [-45.014278411865234, -45.033819879589736, -45.052447285927414, -45.07033112264732, -45.08756614066061, -45.104193993936974, -45.12021814178334, -45.13561413545871, -45.15033737981663, -45.164329823082554, -45.17752661678606, -45.18986349384809, -45.201285363319634, -45.211756366275104, -45.221271347280805, -45.22986839261754])","array('d', [0.3163475394248961, 0.24743507000790602, 0.19210448810061673, 0.14819040861411545, 0.11381734473475714, 0.08733942650805789, 0.0673054945356213, 0.05243816595759953, 0.041620585940436404, 0.033887409709983586, 0.028418199080787052, 0.024532361206643365, 0.021685273260995355, 0.019465491103317238, 0.01759304402184214, 0.015918845969639064])","array('d', [0.01274886727333081, 0.012143562163706184, 0.011670047184246007, 0.011272769847078526, 0.010912954973951191, 0.010562731816080966, 0.010201550083191775, 0.009814123008097217, 0.009389431158511628, 0.008920494092864207, 0.00840471178044799, 0.007844619892826856, 0.007248908596016028, 0.006633534387869052, 0.006022718272822458, 0.005449581114881529])","array('d', [0.45626898209122213, 0.43821315911876, 0.42423752969941514, 0.41345171194090996, 0.40515254745456836, 0.3987748987505473, 0.3938625305964276, 0.39004922731730585, 0.3870451662212761, 0.3846259840005428, 0.3826232201503784, 0.3809154671415209, 0.3794198822093791, 0.37808387082681943, 0.3768768206749425, 0.3757817975202443])",-46.39467519317916,-133.52471584765428,-45.104193993936974,0.08733942650805789,0.010562731816080966,0.3987748987505473,15.439095774611973,-1.0,"[-192.2470644934731, -96.36507229000273, 44.85733096992911]","[-193.7913793574338, -84.37151555563736, 53.73255989432927]","[-180.10832905426534, -88.98325798821014, 49.66980637773872]",10000000000.0,0.024188995361328125
17,-136.99085998535156,-48.0949821472168,45.263919830322266,0.18357512354850755,-0.013754495419561955,0.43403108517197175,21.74175899309938,"array('d', [-49.24729919433594, -48.57477890957502, -47.92419321754939, -47.290705711604865, -46.67052963298761, -46.06073550039313, -45.45909406775239, -44.86394304141054, -44.27407188270472, -43.68862194088549, -43.107000547052024, -42.52880831268271, -41.95377912897271, -41.38173247265084, -40.81253769431653, -40.246087472557754])","array('d', [-139.82069396972656, -138.40177877648728, -136.9788663674638, -135.55418233168385, -134.12937022594815, -132.70564782849237, -131.28391421354587, -129.86482654781585, -128.4488575907992, -127.03634038645367, -125.62750397009381, -124.22250230235774, -122.82143766407638, -121.42437915850206, -120.03137661983293, -118.64246373840916])","array('d', [-45.06398010253906, -45.08675866987259, -45.10768732246112, -45.127220146598795, -45.14564523484314, -45.16313763277492, -45.179793956455015, -45.195655622068, -45.21072517170797, -45.22497866410402, -45.23837614178434, -45.25087154959841, -45.262423013952095, -45.27300400146283, -45.282615499306125, -45.29129900251498])","array('d', [0.27902632951736445, 0.21471539915755283, 0.16335483365860892, 0.12287783766224782, 0.09148317550026595, 0.06758504069535506, 0.04978373536830139, 0.03684773302689412, 0.02770190588211638, 0.02141908925750208, 0.017213551459781064, 0.014435732766509586, 0.012568037812085523, 0.011221658548461778, 0.010134470364926335, 0.009170048828550745])","array('d', [0.01516858953982604, 0.013863976607719477, 0.012903186061076188, 0.012163073073353717, 0.011559964490816496, 0.011035868432163528, 0.010549822265194062, 0.010072557665337118, 0.009583361156024416, 0.00906842846426129, 0.008520257699328236, 0.00793776303688287, 0.007326855531400572, 0.006701255333205202, 0.006083287476632442, 0.0055043864017735745])","array('d', [0.45081885258224963, 0.43510605942109276, 0.42313654489374714, 0.4140911446120123, 0.407315441169027, 0.4022799978255753, 0.3985562130224916, 0.3958001280568004, 0.39374028553436563, 0.3921676438184225, 0.3909265420626903, 0.3899062164902107, 0.38903261541996115, 0.38826037164491684, 0.38756483514543744, 0.38693408671361174])",-46.06073550039313,-132.70564782849237,-45.16313763277492,0.06758504069535506,0.011035868432163528,0.4022799978255753,15.438844450860676,-1.0,"[-192.2470644934731, -96.36507229000273, 44.85733096992911]","[-193.7913793574338, -84.37151555563736, 53.73255989432927]","[-180.10832905426534, -88.98325798821014, 49.66980637773872]",10000000000.0,0.028082609176635742
18,-136.5927734375,-47.93288040161133,45.29337692260742,0.1739279627799986,-0.01254058163613092,0.4317985335972648,21.670564667274352,"array('d', [-48.91403579711914, -48.2474051305347, -47.599992817805045, -46.96731157833925, -46.345868093299515, -45.73298387126618, -45.126646300667915, -44.525380814014234, -43.928139786881566, -43.33420607515061, -42.74311012821764, -42.15456003719628, -41.5683840304366, -40.98448499162512, -40.40280662848517, -39.82330947228163])","array('d', [-139.00648498535156, -137.5851462370184, -136.16104148808265, -134.7361746621546, -133.31202812729845, -131.88969843543092, -130.46999047969894, -129.05348596496333, -127.6405954646849, -126.23159951739876, -124.82668193398771, -123.4259571069805, -122.02949228330283, -120.63732527179816, -119.24947777393217, -117.8659607435617])","array('d', [-45.11800765991211, -45.14231986120597, -45.16431640135799, -45.18459231893419, -45.203532129466396, -45.22137767609364, -45.23827246426476, -45.254291280428156, -45.26946074695104, -45.283774523464174, -45.29720564120111, -45.30971765303689, -45.32127571090741, -45.33185822523138, -45.341469343020705, -45.35015208226069])","array('d', [0.24615883827209453, 0.18579249973554576, 0.137861282159186, 0.10037245153011702, 0.07158153398601272, 0.0499495708277564, 0.034117849700565465, 0.022892080494882953, 0.015231583055096476, 0.010241136615187472, 0.007164357598358264, 0.0053781535285971765, 0.004388146073863558, 0.0038251000093937454, 0.0034424294701048833, 0.0031148392756223543])","array('d', [0.016325546428561315, 0.014672153778620377, 0.013468079199938598, 0.012556766779690207, 0.0118323195939165, 0.011221819977685602, 0.010674181778334133, 0.010153196353541477, 0.009633330561406873, 0.00909737501740005, 0.008535361707914893, 0.007944353041868744, 0.007328798649140958, 0.006701192616197201, 0.006082763810862293, 0.005503912716133307])","array('d', [0.44572420517471795, 0.4320448569648045, 0.42183203629821303, 0.41432075067330354, 0.40889453825487726, 0.40505241344396997, 0.40238828109198893, 0.40057666097235056, 0.3993615901230807, 0.3985471239003608, 0.3979886601296893, 0.39758471345759655, 0.397268955002474, 0.39700241026303656, 0.3967657344425354, 0.396551490248324])",-45.73298387126618,-131.88969843543092,-45.22137767609364,0.0499495708277564,0.011221819977685602,0.40505241344396997,15.438597337438214,-1.0,"[-192.2470644934731, -96.36507229000273, 44.85733096992911]","[-193.7913793574338, -84.37151555563736, 53.73255989432927]","[-180.10832905426534, -88.98325798821014, 49.66980637773872]",10000000000.0,0.017226696014404297
19,-135.8000030517578,-47.61011505126953,45.35195541381836,0.15653413534164412,-0.009631172753870591,0.4273993531849724,21.5302324649597,"array('d', [-48.748783111572266, -48.08500096390853, -47.43922872653516, -46.807129080749114, -46.185336375349834, -45.57128240876189, -44.96305050326805, -44.35924973102791, -43.75890540338366, -43.161363971303935, -42.566211382672755, -41.97320428914565, -41.382213610894574, -40.793180013817796, -40.20608090117193, -39.6209059430134])","array('d', [-138.6010284423828, -137.17850458612455, -135.75376300540285, -134.32871306575439, -132.90476778245176, -131.4829710832994, -130.0640865970089, -128.64866265382113, -127.23708207304561, -125.82960176217227, -124.42638502594703, -123.02752820001407, -121.6330824561466, -120.24307117711075, -118.85750304349666, -117.47637458157304])","array('d', [-45.14622116088867, -45.17058309850813, -45.19259480165257, -45.21286171244441, -45.23177568287447, -45.24958383617658, -45.266433568241666, -45.282402607038975, -45.29751985729165, -45.31178078862037, -45.32515988469732, -45.33762185636456, -45.34913274404515, -45.359671573864865, -45.36924281197961, -45.37788947817707])","array('d', [0.23146267235279067, 0.1728194283463523, 0.1263953990693993, 0.0902268482851402, 0.06259177273262653, 0.04197003524706107, 0.02701966426112946, 0.016561823197404343, 0.009570327602867086, 0.0051635532447377236, 0.0025977242668898514, 0.0012612049991444795, 0.0006697329115066358, 0.0004626533541970418, 0.0004002383798618312, 0.000362150695027438])","array('d', [0.01637198030948649, 0.014692178667498989, 0.013469527265805954, 0.01254513821741073, 0.011811552875107784, 0.01119479978865332, 0.010643075639977536, 0.010119677490322321, 0.009598723722055957, 0.00906274877650958, 0.008501582456107062, 0.007912110695580803, 0.007298611024524, 0.006673393743575824, 0.006057480769529846, 0.0054810355254264476])","array('d', [0.44329865376022837, 0.4305209341255645, 0.42109198124865854, 0.41426854214331194, 0.4094496302280351, 0.4061460502879929, 0.4039611817146025, 0.4025774338406653, 0.4017455394489685, 0.4012752708970258, 0.4010268943343585, 0.4009030391093898, 0.4008408238263914, 0.4008041450159928, 0.400776053347749, 0.4007511441135198])",-45.57128240876189,-131.4829710832994,-45.24958383617658,0.04197003524706107,0.01119479978865332,0.4061460502879929,15.43847206676524,-1.0,"[-192.2470644934731, -96.36507229000273, 44.85733096992911]","[-193.7913793574338, -84.37151555563736, 53.73255989432927]","[-180.10832905426534, -88.98325798821014, 49.66980637773872]",10000000000.0,0.018503427505493164
20,-135.40530395507812,-47.449405670166016,45.380836486816406,0.14858473837375627,-0.008001470007002446,0.4252669374134879,21.46174030319512,"array('d', [-48.42057418823242, -47.76237074260123, -47.120043745226965, -46.4895108197655, -45.86762612308815, -45.2520132672888, -44.6409237789496, -44.03311434848308, -43.42773971269347, -42.82425967752288, -42.22235947452861, -41.62188287663183, -41.0227775572156, -40.42505219943102, -39.82874490455647, -39.23390020239722])","array('d', [-137.79356384277344, -136.36869374788952, -134.9425769937207, -133.51696157862372, -132.09314141556698, -130.67206942297625, -129.25443731589507, -127.84073479181701, -126.43129552207057, -125.02633425377236, -123.62597746008431, -122.23028885439793, -120.83929042192166, -119.4529792433148, -118.07134017627666, -116.69434897947824])","array('d', [-45.20449447631836, -45.227747304061886, -45.24891493820464, -45.26852254701324, -45.28690780165705, -45.304280976494944, -45.320764254734684, -45.33641804444886, -45.351259333869635, -45.365275401510765, -45.37843511509675, -45.390699338800154, -45.40203145450255, -45.41240858329523, -45.42183370098012, -45.43034847072802])","array('d', [0.20544734597206102, 0.14977137617055514, 0.1059602211734899, 0.07209430984623104, 0.04648611785993969, 0.027644788594300366, 0.01425485389684522, 0.005162383126498304, -0.0006350685466137228, -0.003996555603662157, -0.005644690790826211, -0.006171697949069517, -0.0060445584831719575, -0.005609152411821461, -0.005093295039548381, -0.004608604350297536])","array('d', [0.015567724592983785, 0.014084623895256278, 0.012998707042284475, 0.012170574353146389, 0.0115057115629034, 0.010938834856298879, 0.010424031344155475, 0.009928630510853378, 0.009429533932694516, 0.008911206775545463, 0.008364816418282196, 0.007788162663942251, 0.007186123563972738, 0.006571368240578421, 0.005965082488695293, 0.005397430242807121])","array('d', [0.4386332790043688, 0.4274423639434804, 0.4194013698215412, 0.4138016990583683, 0.4100673531295382, 0.40772844715122186, 0.40640410456884524, 0.40579002467495595, 0.4056483564026794, 0.40579872248094767, 0.40610985481752765, 0.40649159773276566, 0.4068871618083756, 0.40726555400609943, 0.407614117080176, 0.40793110604272353])",-45.2520132672888,-130.67206942297625,-45.304280976494944,0.027644788594300366,0.010938834856298879,0.40772844715122186,15.438210008719455,-1.0,"[-192.2470644934731, -96.36507229000273, 44.85733096992911]","[-193.7913793574338, -84.37151555563736, 53.73255989432927]","[-180.10832905426534, -88.98325798821014, 49.66980637773872]",10000000000.0,0.025584936141967773
21,-134.61923217773438,-47.12921142578125,45.43797302246094,0.1336699724197386,-0.004621781408786873,0.42096443573502096,21.328277032386303,"array('d', [-48.25748062133789, -47.60210975144821, -46.96168055961051, -46.33221700198333, -45.71066627900492, -45.0947341990871, -44.48274511294482, -43.87352018073945, -43.26627108409299, -42.660507818718735, -42.05595980894605, -41.45250977321676, -40.850139806791496, -40.24888916268624, -39.64882325298613, -39.05001112503308])","array('d', [-137.39161682128906, -135.96554264839077, -134.53864991150746, -133.11261811396895, -131.6886903032811, -130.26778026495685, -128.85054856001236, -127.43745928414272, -126.02882447793412, -124.6248401927989, -123.22561645678876, -121.83120232967309, -120.44160661886008, -119.05681447861411, -117.67679992622001, -116.30152882603775])","array('d', [-45.23420715332031, -45.25639039914961, -45.276763544554726, -45.2957685423779, -45.31368660495359, -45.33068934590161, -45.34687225007999, -45.36227714990076, -45.37690802877822, -45.390743017679966, -45.403744530398974, -45.41586887018828, -45.427076191183716, -45.4373413200841, -45.44666557818794, -45.45508939101659])","array('d', [0.19404579699039437, 0.13961966678832222, 0.09691910456244718, 0.06404013276962761, 0.0393074349653585, 0.02124068614256446, 0.0085341836926793, 4.341733155717042e-05, -0.005224859524420713, -0.0081207746462552, -0.009358425525909266, -0.009522111129589296, -0.009071666291403482, -0.008346784165819333, -0.007570221410300359, -0.006849820215268597])","array('d', [0.014783120714128154, 0.013504858156172026, 0.012561551583452, 0.01183382517285531, 0.011240482404969705, 0.010725186437105976, 0.010248095208616359, 0.009780698280346854, 0.009302775526774077, 0.008800801619185433, 0.008267357570566555, 0.007701242141630992, 0.007108038234446621, 0.006500905911577712, 0.005901361207351988, 0.005339772837912622])","array('d', [0.43631894985703035, 0.425820717834997, 0.4183898976236047, 0.41333132996905286, 0.4100788119289339, 0.40817013425417686, 0.40723077715592304, 0.4069618911385661, 0.4071303776585196, 0.4075600159736268, 0.40812315475571836, 0.408732756585924, 0.40933469419798635, 0.409900231489909, 0.4104186250395689, 0.4108897737467519])",-45.0947341990871,-130.26778026495685,-45.33068934590161,0.02124068614256446,0.010725186437105976,0.40817013425417686,15.438064903138986,-1.0,"[-192.2470644934731, -96.36507229000273, 44.85733096992911]","[-193.7913793574338, -84.37151555563736, 53.73255989432927]","[-180.10832905426534, -88.98325798821014, 49.66980637773872]",10000000000.0,0.05501222610473633
22,-133.8375701904297,-46.81053924560547,45.4929084777832,0.11946356296539289,-0.0010228002211080049,0.41683848301437915,21.19751537302777,"array('d', [-47.93288040161133, -47.28313742604381, -46.64668473538027, -46.019725976475286, -45.399367642795994, -44.7834578150116, -44.17044806313985, -43.55927305593637, -42.9492454030464, -42.33996455764349, -41.73123908293521, -41.12302170303614, -40.51535656263375, -39.908338123549434, -39.30208116805482, -38.696699073057445])","array('d', [-136.5927734375, -135.1642969367656, -133.73575966681562, -132.30872392220112, -130.88434524377678, -129.46346970404994, -128.04670361323016, -126.6344661811103, -125.22703126231819, -123.82456168389668, -122.4271380704017, -121.0347831399905, -119.64748190248233, -118.26519789219667, -116.88788541397531, -115.51549228906481])","array('d', [-45.29337692260742, -45.3125149593221, -45.33064470244061, -45.347965722766155, -45.36459448965436, -45.380589555098574, -45.3959680989086, -45.41071726172023, -45.424802541811765, -45.43817482259962, -45.450777142597154, -45.4625519997112, -45.47344971887819, -45.48343815369958, -45.492513704931845, -45.50071333612078])","array('d', [0.1739279627799986, 0.12162605199295623, 0.08082937134266009, 0.04965573400626743, 0.026446856321983552, 0.00973736653843767, -0.0017641593153589045, -0.009188015947054146, -0.01351317291801286, -0.015575576326202932, -0.0160755384044051, -0.015584327805775849, -0.014549869428267314, -0.013301413392655698, -0.012053057809657958, -0.010906058695728464])","array('d', [0.01254058163613092, 0.01185997022913528, 0.011333003112462705, 0.01089844325095292, 0.010513789303456894, 0.010148714932213894, 0.00978103509343868, 0.009394344720673306, 0.008976806442063385, 0.008520759169871975, 0.00802292831500493, 0.007485070147874402, 0.006914895176983912, 0.006327100359414569, 0.005744307417480702, 0.005197664679353643])","array('d', [0.4317985335972648, 0.42251930416172023, 0.41616885110427815, 0.4120731636382342, 0.40968158849109293, 0.4085442551723742, 0.4082970166016216, 0.4086500558544345, 0.40937826360907775, 0.4103124983521324, 0.41133134197895005, 0.4123531900871813, 0.413328601545992, 0.4142328515947583, 0.41505862778091057, 0.41580879522016795])",-44.7834578150116,-129.46346970404994,-45.380589555098574,0.00973736653843767,0.010148714932213894,0.4085442551723742,15.437757835729942,-1.0,"[-192.2470644934731, -96.36507229000273, 44.85733096992911]","[-193.7913793574338, -84.37151555563736, 53.73255989432927]","[-180.10832905426534, -88.98325798821014, 49.66980637773872]",10000000000.0,0.02008676528930664
