,x_pos,y_pos,z_pos,roll,pitch,yaw,vel,x_traj,y_traj,z_traj,roll_traj,pitch_traj,yaw_traj,x_cmd,y_cmd,z_cmd,roll_cmd,pitch_cmd,yaw_cmd,vel_cmd,effector_dmg,effector_x,effector_y,effector_z,cost,time_solution
0,-65.57088470458984,-48.21206283569336,44.90970993041992,0.6307942271232605,0.03613607957959167,-0.3089387853953504,23.062244812604433,"array('d', [-47.27778625488281, -48.00328235211922, -48.780003916983986, -49.59357389045167, -50.43234547120481, -51.28679188687951, -52.149973892741734, -53.017092306505184, -53.884942354935816, -54.75151285526019, -55.61566743688546, -56.4768831564432, -57.335037593231476, -58.190241141289256, -59.04271299139205, -59.72253411104678])","array('d', [-68.15974426269531, -65.76851980324284, -63.39261741389529, -61.02877770691975, -58.67369742320764, -56.324291273875396, -53.97814280939516, -51.63350597041858, -49.289183379747, -46.944411196817995, -44.598752515556704, -42.25200293097771, -39.904111120245, -37.55511575744448, -35.20509889540752, -33.32405575461406])","array('d', [-44.90522766113281, -44.83276974524701, -44.79339703015198, -44.77782527363726, -44.779380040362916, -44.79314675843197, -44.81542714035236, -44.84338432726521, -44.874807190341905, -44.907952865471664, -44.941443125743305, -44.974199539676086, -45.00540763702607, -45.034503195503255, -45.06117521965534, -45.08054172718453])","array('d', [0.6313853859901425, 0.4965607206949781, 0.3745663077390168, 0.2641811884865395, 0.16430073124624442, 0.09161722320912656, 0.04049492797910383, 0.00619930925030663, -0.015258796712265424, -0.027259587528227217, -0.03263686593408937, -0.03371078047685289, -0.03230901030863033, -0.029782732660439445, -0.027018748896380326, -0.02444757720355642])","array('d', [-0.03684270009398453, -0.021390112037885604, -0.010294619950246098, -0.0022963268110785936, 0.0034443755031095366, 0.007501383078230616, 0.010276863436842925, 0.01205961518941544, 0.013062606155659807, 0.01344827702042963, 0.0133464313478668, 0.01286744019882087, 0.012112284036598227, 0.011180237286216256, 0.010174564237341888, 0.009206326958028314])","array('d', [-0.28154651721450297, -0.30635707619541197, -0.3245974581348219, -0.33754854459771594, -0.34605962760466524, -0.35108641055840645, -0.35366599235639373, -0.35457115889113217, -0.35438638026979224, -0.3535481041735928, -0.35237081989262453, -0.35106824934270253, -0.3497729294621039, -0.34855512492374213, -0.34744128479865627, -0.34617998134342315])",-51.28679188687951,-56.324291273875396,-44.79314675843197,0.09161722320912656,0.007501383078230616,-0.35108641055840645,25.00000024094802,-1.0,"[-141.33139080150815, -49.588432555855164, 44.835871277526074]","[-133.08039870246586, -39.286348059253086, 51.96245421792694]","[-126.37056577485758, -49.942140165857765, 43.81185689844137]",10000000000.0,0.02439117431640625
1,-65.57088470458984,-48.21206283569336,44.90970993041992,0.6307942271232605,0.03613607957959167,-0.3089387853953504,23.062244812604433,"array('d', [-47.42844009399414, -48.16501084259918, -48.95273535467801, -49.777252704628545, -50.626931792090105, -51.492258029487374, -52.36629329016033, -53.244238055900595, -54.12288816190639, -55.00023360588562, -55.87513955555137, -56.747084806092566, -57.615948747862845, -58.48184355758435, -59.34499010848153, -60.033338792356425])","array('d', [-67.72652435302734, -65.33867087519958, -62.96638696674415, -60.60634128047209, -58.25517445668268, -55.90975530963912, -53.56763095233749, -51.22702954275974, -48.886736723746, -46.54597827649404, -44.204311753086365, -41.86153058382291, -39.51758346661366, -37.17251034520627, -34.82639510169166, -32.94845582433842])","array('d', [-44.90566635131836, -44.833765779866376, -44.794799303239294, -44.77955436660886, -44.78139671269437, -44.79543273420374, -44.81797359446719, -44.84618524430913, -44.87785581967486, -44.91124013328476, -44.94495726107064, -44.97792642099467, -45.009331524005475, -45.03860761191091, -45.06544382266818, -45.08492933200801])","array('d', [0.6314089298248291, 0.49658202403865964, 0.3745855838013451, 0.2641986301831501, 0.1643164390708103, 0.09149027397412259, 0.040275358885704285, 0.0059255013304856715, -0.01555801664206134, -0.02756345870682454, -0.03293139885663084, -0.03398751861232166, -0.03256382060653871, -0.03001462811341939, -0.027228747013588725, -0.024637591374928405])","array('d', [-0.036579404026269934, -0.021206015042710125, -0.010152975179628806, -0.0021761516772228202, 0.0035544330009965293, 0.00760684839905993, 0.010379830887882456, 0.012160269532713078, 0.013160188667365754, 0.013541691718946201, 0.013434614333863672, 0.012949569703263891, 0.01218788041851851, 0.011249185215948813, 0.010237080425564385, 0.009262893949429784])","array('d', [-0.2861785133692884, -0.3109903074247566, -0.3292316591684596, -0.3421835452440359, -0.3506953095070186, -0.3557198345672369, -0.3582925584898209, -0.35918802143894196, -0.3589919909786433, -0.3581418750846942, -0.35695284248214143, -0.3556390569707756, -0.3543333038304167, -0.35310594834586057, -0.35198343838465673, -0.35071232800605306])",-51.492258029487374,-55.90975530963912,-44.79543273420374,0.09149027397412259,0.00760684839905993,-0.3557198345672369,25.00000024082603,-1.0,"[-141.33139080150815, -49.588432555855164, 44.835871277526074]","[-133.08039870246586, -39.286348059253086, 51.96245421792694]","[-126.37056577485758, -49.942140165857765, 43.81185689844137]",10000000000.0,0.015633583068847656
2,-64.71455383300781,-48.53862762451172,44.912113189697266,0.630662441253662,0.03622715920209873,-0.31792931159469107,23.061568589777902,"array('d', [-47.73603057861328, -48.494568305682435, -49.304098084603346, -50.15029480500601, -51.02156119767071, -51.90840897661367, -52.80390426802781, -53.70324849380502, -54.60323990080684, -55.50187174715037, -56.39801295946992, -57.29114633212929, -58.18115528372201, -59.06815588153354, -59.95237263468053, -60.657551049667305])","array('d', [-66.86194610595703, -64.48095733145342, -62.116016809933605, -59.763654396544275, -57.420401693815926, -55.08303783427193, -52.749038441011464, -50.41658105772904, -48.08441804793338, -45.75175493314155, -43.41813854954055, -41.083358274370475, -38.747363059382735, -36.41019555642002, -34.0719434461914, -32.20025893912205])","array('d', [-44.90680694580078, -44.83563586515131, -44.79719378841357, -44.782384745551234, -44.7846361198643, -44.799082880878146, -44.82204538278618, -44.850688018576335, -44.88279208356606, -44.91660369394637, -44.95073346798759, -44.9840936142884, -45.01586308984642, -45.04547422459279, -45.07261557744458, -45.092322319700436])","array('d', [0.6312959194183351, 0.4964797679833958, 0.3744930586843328, 0.2641149099736706, 0.16424067126492467, 0.09114784918442208, 0.03976218976517572, 0.005315180143460047, -0.016210282534508624, -0.02821803036669949, -0.0335617248403873, -0.03457774312787065, -0.033106438382747655, -0.030508198700650316, -0.027675679078706276, -0.0250419922673831])","array('d', [-0.036230035126209134, -0.020969652988877957, -0.009968891297060084, -0.0020111941025090104, 0.0037167427337212837, 0.007773070572404072, 0.01055085600317886, 0.012334010219358446, 0.013333278756684039, 0.01371054066685723, 0.013596036676800429, 0.013101128543091905, 0.012328033187049779, 0.011377289535434978, 0.010353302264637813, 0.009368055827632596])","array('d', [-0.2953916033122203, -0.32019746933268944, -0.3384341661838352, -0.3513822142060964, -0.359890700800181, -0.3649068108405744, -0.3674626202709186, -0.36833599564457975, -0.36811517780873265, -0.36723940829273255, -0.36602515026552895, -0.3646874033643714, -0.36335941440588826, -0.36211172471675257, -0.36097076198423955, -0.35967877937785975])",-51.90840897661367,-55.08303783427193,-44.799082880878146,0.09114784918442208,0.007773070572404072,-0.3649068108405744,25.00000024057226,-1.0,"[-138.22929696103114, -48.344047675820065, 44.82376736239007]","[-129.56291133291344, -38.27496983824732, 51.788495041607426]","[-123.30588907340343, -49.114148949739345, 43.520371395157085]",10000000000.0,0.020819902420043945
3,-63.8607177734375,-48.87322998046875,44.91473388671875,0.6302348375320433,0.03637041151523583,-0.3270167549464366,23.059332218728056,"array('d', [-47.89291000366211, -48.66223588748359, -49.48246500989371, -50.33929178104709, -51.22113688850188, -52.118526002740374, -53.02452830705148, -53.934346441717416, -54.844780402001945, -55.75382547551193, -56.66035276383098, -57.563847280940585, -58.46419462597419, -59.3615129414033, -60.25602866060078, -60.969432232627625])","array('d', [-66.43061065673828, -64.05307807368834, -61.69182413037073, -59.34331177152105, -57.00401981646535, -54.67068385247758, -52.340744694181026, -50.012355244899936, -47.684251701821005, -45.35562978896172, -43.02603121376304, -40.69524348221191, -38.363215777435045, -36.02999217700685, -33.695662313299486, -31.82709744653411])","array('d', [-44.907493591308594, -44.8365731282318, -44.79830799395797, -44.783652364076985, -44.78605882539268, -44.800672676683156, -44.82381601855954, -44.85265037828554, -44.884952081122634, -44.91896173330779, -44.95328484979233, -44.9868294775615, -45.01877160844019, -45.04854186249829, -45.075828265230406, -45.095640191869315])","array('d', [0.631166100502014, 0.496362302958961, 0.37438677192359493, 0.26401873772033607, 0.1641536218438872, 0.09093729805788817, 0.039473734181989815, 0.004983818338801954, -0.016558326562575415, -0.028563985756219667, -0.03389309507415313, -0.03488716015965262, -0.03339053481257219, -0.030766507203030324, -0.027909565657669295, -0.025253621614767123])","array('d', [-0.036107908934354734, -0.020890482448301613, -0.009906214867531696, -0.0019510946820195882, 0.0037806496252719077, 0.007842742107713758, 0.010625775121464903, 0.012412422148902565, 0.013412968908631764, 0.013789313831911816, 0.013671998856442468, 0.013172835739388124, 0.012394548091170316, 0.011438173017396226, 0.010408559436836665, 0.00941805458912999])","array('d', [-0.29992847045394405, -0.32472752774431346, -0.34295887788627355, -0.35590251728380734, -0.36440723859287416, -0.36941737837181204, -0.37196332985391606, -0.37282452342727807, -0.37259036921039684, -0.37170097706086275, -0.3704734218026263, -0.36912309510343244, -0.36778345624297076, -0.3665251221467129, -0.36537450229330204, -0.3640715966923177])",-52.118526002740374,-54.67068385247758,-44.800672676683156,0.09093729805788817,0.007842742107713758,-0.36941737837181204,25.000000240441256,-1.0,"[-138.22929696103114, -48.344047675820065, 44.82376736239007]","[-129.56291133291344, -38.27496983824732, 51.788495041607426]","[-123.30588907340343, -49.114148949739345, 43.520371395157085]",10000000000.0,0.03584456443786621
4,-63.43476486206055,-49.04356384277344,44.916133880615234,0.6287627816200255,0.03613150864839552,-0.33159558375808224,23.0619763188347,"array('d', [-48.05181121826172, -48.831763434422356, -49.66252155889877, -50.529800969993325, -51.42204126520719, -52.32978281736202, -53.24609868990295, -54.16619342289096, -55.086869288800486, -56.00612402824192, -56.92283126307753, -57.836478512318436, -58.74695379502437, -59.65437753334174, -60.558978263292616, -61.280434423875874])","array('d', [-65.99993896484375, -63.62587231869824, -61.26830290915485, -58.92363058825324, -56.58828377211731, -54.25895610693063, -51.933054698728334, -49.6087085631701, -47.28463825137917, -44.96003005161221, -42.63442079348035, -40.307596285249744, -37.97950606230057, -35.65019571470496, -33.3197568926266, -31.4542863749269])","array('d', [-44.908504486083984, -44.837541295391944, -44.799230363407794, -44.78455684746132, -44.78698508573849, -44.801661083022125, -44.824901681249784, -44.85386036540208, -44.88630461853798, -44.92046661437437, -44.95494454737628, -44.988640621193994, -45.02072659730231, -45.05063045423399, -45.07803902834019, -45.09793960842172])","array('d', [0.6309452652931212, 0.4961624829799385, 0.3742059673117231, 0.2638551389212272, 0.1640055857713165, 0.09067553945816303, 0.039141772394579076, 0.0046150745213144155, -0.016938848926354243, -0.02893846302511203, -0.034249759134447895, -0.03521919358393437, -0.03369497804462602, -0.031043190479205996, -0.028160073823534953, -0.025480290797289563])","array('d', [-0.036119900643825434, -0.020912518640518806, -0.009920943439044072, -0.001950923915792757, 0.0037976202201265206, 0.007875230389893448, 0.01067088479755293, 0.012466626977234599, 0.013472721352470024, 0.013851408566405906, 0.013733774387182703, 0.013232267113140425, 0.012450264322208821, 0.011489421245858576, 0.010455132166327843, 0.009460195341207362])","array('d', [-0.3044074018809459, -0.32919487929809726, -0.34741713543161135, -0.3603532759917895, -0.36885159342453894, -0.37385352774829594, -0.3763877574972336, -0.37723518347866264, -0.3769863236662294, -0.37608211249849544, -0.37484020386567996, -0.3734763568358601, -0.3721242246419005, -0.3708544860853954, -0.36969352231507063, -0.3683789171900666])",-52.32978281736202,-54.25895610693063,-44.801661083022125,0.09067553945816303,0.007875230389893448,-0.37385352774829594,25.00000024030778,-1.0,"[-138.22929696103114, -48.344047675820065, 44.82376736239007]","[-129.56291133291344, -38.27496983824732, 51.788495041607426]","[-123.30588907340343, -49.114148949739345, 43.520371395157085]",10000000000.0,0.031568050384521484
5,-62.584716796875,-49.390506744384766,44.91884994506836,0.619572579860687,0.034827791154384516,-0.34083084662887086,23.068382299778108,"array('d', [-48.21206283569336, -49.00275455342891, -49.84416066927624, -50.72201642879817, -51.624779728490346, -52.543005313760496, -53.46976994805947, -54.400279920241275, -55.33133961311018, -56.26094902918819, -57.1879840994973, -58.11193462576709, -59.03269082291759, -59.95037517502992, -60.865218115268284, -61.59485427421538])","array('d', [-65.57088470458984, -63.20037475598577, -60.846585424382745, -58.50585255688963, -56.174553396929504, -53.849338974848365, -51.52758209428177, -49.20738742272027, -46.8874595227991, -44.56697499612711, -42.24546561518588, -39.922715365850536, -37.59867405077882, -35.27338871441651, -32.94695298309979, -31.08466670067329])","array('d', [-44.90970993041992, -44.83869427377935, -44.800329334609785, -44.78563137131822, -44.78807643911613, -44.80281110465361, -44.826146739647626, -44.855228544144836, -44.88781491381671, -44.92212936279328, -44.956762569522695, -44.99061073754329, -45.02284128208308, -45.05287946324065, -45.08041088548756, -45.10040061260728])","array('d', [0.6307942271232605, 0.4960258179792169, 0.37408230769253475, 0.2637432470545275, 0.16390433935185938, 0.09045625328838608, 0.03884843744978055, 0.004281459427125845, -0.017287452031535595, -0.029283970326432304, -0.034580158306708936, -0.03552743513794521, -0.03397788247694738, -0.03130038141468567, -0.02839294418982136, -0.025691000637335846])","array('d', [-0.03613607957959167, -0.02093817107585876, -0.009938635079729087, -0.0019530503235778353, 0.0038129195880096966, 0.00790659847528552, 0.010715331330839252, 0.012520525720518929, 0.01353242857504647, 0.013913633300244197, 0.013795784089787669, 0.013291982159210961, 0.012506275389364066, 0.01154095203501758, 0.010501964221482111, 0.009502570740869075])","array('d', [-0.3089387853953504, -0.33371834465788786, -0.3519343819639514, -0.36486539425937997, -0.3733593321027711, -0.37835484073730125, -0.3808789461170944, -0.3817140514643662, -0.38145180052337435, -0.38053396442420445, -0.3792787860160953, -0.3779024008440692, -0.37653866476777165, -0.3752583267559809, -0.37408774744321754, -0.3727622664480721])",-52.543005313760496,-53.849338974848365,-44.80281110465361,0.09045625328838608,0.00790659847528552,-0.37835484073730125,25.00000024016877,-1.0,"[-136.09042341387985, -47.5676930248999, 44.820500108697814]","[-127.1452235565034, -37.67041960005821, 51.67815118362972]","[-121.20204237465008, -48.62530495132696, 43.33135033658528]",10000000000.0,0.016402006149291992
6,-62.160728454589844,-49.56715393066406,44.920318603515625,0.6109046936035155,0.03362531960010516,-0.34554211696120707,23.072935086390373,"array('d', [-48.53862762451172, -49.350588559925576, -50.21309828884482, -51.111928286449015, -52.03557082790323, -52.97460805801336, -53.92212363162658, -54.87332697317265, -55.82502625597547, -56.775225497557, -57.72280467576436, -58.66725755013523, -59.608478111223775, -60.546592366265216, -61.48183397536779, -62.227766057678686])","array('d', [-64.71455383300781, -62.351251637794505, -60.00511664848045, -57.67235823752619, -55.34925218964543, -53.03236480855897, -50.719000466604925, -48.40721512958869, -46.09568127142415, -43.78355594213624, -41.470360587660345, -39.15587532670172, -36.840050279661014, -34.52293519726636, -32.20462747285969, -30.348808450964572])","array('d', [-44.912113189697266, -44.84086387141692, -44.80229290237518, -44.78747098143664, -44.78989210207221, -44.80469990527642, -44.82819173650061, -44.85749381634033, -44.89034445782768, -44.924948339691746, -44.95987991055269, -44.994022442470154, -45.026533954212375, -45.05683376101358, -45.084604665713506, -45.10476821089168])","array('d', [0.630662441253662, 0.4959065730732833, 0.3739744102423209, 0.26364561698105154, 0.16381599088117868, 0.09012678499370781, 0.03836504699448469, 0.003711043928476672, -0.017894722732454123, -0.029892099551472047, -0.03516506799962495, -0.03607478717214949, -0.034480939864464745, -0.031757923408543436, -0.028807246437945362, -0.026065876848418337])","array('d', [-0.03622715920209873, -0.021034018395372344, -0.010008073315580688, -0.00198343205070698, 0.003823460907144492, 0.007953954357348532, 0.010792441716052653, 0.012619286544311237, 0.013644875037063983, 0.014032645609928828, 0.013915474857036425, 0.01340786775123247, 0.012615296906022977, 0.011641389468740953, 0.010593276664638086, 0.009585193861406634])","array('d', [-0.31792931159469107, -0.34270196318410673, -0.3609125749626574, -0.3738391129805246, -0.38232922947978293, -0.3873163390224624, -0.38982437974789497, -0.390638770139639, -0.3903533988704082, -0.3894117026666884, -0.38813310001494433, -0.3867344844077886, -0.3853501285247799, -0.38405093806848606, -0.38286325185663656, -0.38151842129120817])",-52.97460805801336,-53.03236480855897,-44.80469990527642,0.09012678499370781,0.007953954357348532,-0.3873163390224624,25.000000246328213,-1.0,"[-136.09042341387985, -47.5676930248999, 44.820500108697814]","[-127.1452235565034, -37.67041960005821, 51.67815118362972]","[-121.20204237465008, -48.62530495132696, 43.33135033658528]",10000000000.0,0.01644110679626465
7,-61.315425872802734,-49.92654037475586,44.924346923828125,0.5847171545028683,0.029997780919074887,-0.355350180468287,23.085942846075355,"array('d', [-48.70492935180664, -49.5275210874757, -50.400577985469496, -51.30988971850414, -52.24396589979671, -53.193402607749434, -54.15128733899882, -55.11283140950921, -56.074845097222884, -57.03533454642868, -57.99318180897775, -58.94788262469051, -59.8993328411701, -60.84766017834381, -61.7930998528758, -62.547179370039565])","array('d', [-64.28730773925781, -61.92769306180908, -59.58546622201919, -57.25677463117653, -54.93784401888405, -52.625198679863765, -50.316108924222696, -48.00860643446267, -45.70134766918007, -43.39347991270133, -41.08451945002614, -38.77424446684506, -36.46260524404501, -34.14965288925815, -31.83548668678845, -29.98296327637842])","array('d', [-44.91326141357422, -44.84173826353743, -44.8029442319896, -44.78796794561187, -44.79030566724996, -44.805094616934966, -44.82862137504163, -44.85799978495156, -44.89095587230157, -44.92568314337372, -44.96074656421718, -44.99502188601029, -45.027661631947836, -45.05808156435441, -45.0859626906052, -45.10620627620252])","array('d', [0.6305963397026062, 0.4958467620181882, 0.37392029113979447, 0.26359664838498276, 0.1637716915298346, 0.08996456873739146, 0.03812758634719737, 0.0034310743448584743, -0.018192652810650845, -0.030190378749128405, -0.035451918610178414, -0.03634319855631545, -0.034727621211805566, -0.0319822829348906, -0.029010402644358245, -0.026249700201670608])","array('d', [-0.036344181746244306, -0.021136398084825654, -0.010084597966990199, -0.002030887447926366, 0.0038037344328378606, 0.007958197972709689, 0.010815821708903094, 0.012656740104087268, 0.013691630336472367, 0.014084525692603692, 0.013969056721316608, 0.013460542879311851, 0.012665263064272774, 0.011687593680523129, 0.010635324561158982, 0.009623240177097033])","array('d', [-0.32243399222823566, -0.3472031794712711, -0.365411070132361, -0.3783353640776353, -0.3868235642424777, -0.3918065228475438, -0.3943066651266682, -0.3951108844803784, -0.3948141678555672, -0.3938607669485856, -0.39257067548153585, -0.39116115773115534, -0.38976669016812704, -0.3884582549800764, -0.3872621800955071, -0.3859078611666058])",-53.193402607749434,-52.625198679863765,-44.805094616934966,0.08996456873739146,0.007958197972709689,-0.3918065228475438,25.000000239726354,-1.0,"[-136.09042341387985, -47.5676930248999, 44.820500108697814]","[-127.1452235565034, -37.67041960005821, 51.67815118362972]","[-121.20204237465008, -48.62530495132696, 43.33135033658528]",10000000000.0,0.028320789337158203
8,-61.315425872802734,-49.92654037475586,44.924346923828125,0.5847171545028683,0.029997780919074887,-0.355350180468287,23.085942846075355,"array('d', [-49.04356384277344, -49.887624960900126, -50.78178999838208, -51.711926442241605, -52.666605514284896, -53.63646977291967, -54.61462855537756, -55.59630775533226, -56.57833050066749, -57.558714507636616, -58.53635238124142, -59.51074952441767, -60.48181061882426, -61.44967142665307, -62.41457445258695, -63.184170093147586])","array('d', [-63.43476486206055, -61.08273071928638, -58.74847524058046, -56.42802113792919, -54.117496436382964, -51.81334523248729, -49.512774036951754, -47.21377017390081, -44.91496200214648, -42.61548087209846, -40.314835970592256, -38.01280445768463, -35.70933941269682, -33.40449681275624, -31.098381606670195, -29.252250371348037])","array('d', [-44.916133880615234, -44.845041475530074, -44.806545998835304, -44.79183384714141, -44.79444949071932, -44.80954881458179, -44.83342007715148, -44.863169774811354, -44.89651260981391, -44.93162994151022, -44.967075663662236, -45.00171658454875, -45.0346988905644, -45.065434686497056, -45.09360379357683, -45.11405621729501])","array('d', [0.6287627816200255, 0.4941876899056576, 0.3724191004747422, 0.26223831476720416, 0.1625426156481756, 0.08862433040545603, 0.036743146241880006, 0.002054172523455459, -0.019523887253127814, -0.031449891443449646, -0.036624016186727865, -0.037420677510136106, -0.035709833627864285, -0.032873219643776645, -0.0298168354538622, -0.02697939084891107])","array('d', [-0.03613150864839552, -0.02100300334707832, -0.009978660238793161, -0.0019255038838648702, 0.003920498997343413, 0.008089494993838068, 0.010959927123130016, 0.012809540680315713, 0.013848192357394476, 0.014240059767851088, 0.014119479375974542, 0.013602764113135492, 0.012797283689144606, 0.011808468742665099, 0.0107450349233999, 0.009722510226887011])","array('d', [-0.33159558375808224, -0.3562687857789328, -0.37440125416417414, -0.3872633308656713, -0.3956983841356075, -0.400630074461388, -0.40307652047195347, -0.40382653801488894, -0.4034766970690344, -0.4024724570887442, -0.401134632564071, -0.3996809503974138, -0.39824605033633126, -0.3969008517700972, -0.39567147029252353, -0.39427948526476747])",-53.63646977291967,-51.81334523248729,-44.80954881458179,0.08862433040545603,0.008089494993838068,-0.400630074461388,25.000000239406376,-1.0,"[-134.71255978015378, -47.10078384255366, 44.82018021585688]","[-125.59522161132092, -37.313668343437975, 51.60888516762146]","[-119.85005184263277, -48.338814049514305, 43.216079528936724]",10000000000.0,0.014695882797241211
9,-60.47349548339844,-50.29435348510742,44.931148529052734,0.5477628707885742,0.02483692392706855,-0.3650566776606698,23.097640670156476,"array('d', [-49.390506744384766, -50.2556962822238, -51.16982773510092, -52.119013013646295, -53.09199276900935, -54.07953006685931, -55.07481208022522, -56.07312230651358, -57.071331748643274, -58.06749994234532, -59.06055700889347, -60.05004239145055, -61.03589175056887, -62.01826902153739, -62.99744228452777, -63.77825633144201])","array('d', [-62.584716796875, -60.24028446896033, -57.91373908854285, -55.6010003118067, -53.29812370716597, -51.00149922189595, -48.7082947493921, -46.416475653109686, -44.12466183876598, -41.831985903220165, -39.53796480694977, -37.242387435727416, -34.94522055395888, -32.646534333383876, -30.346447459519116, -28.50503375383377])","array('d', [-44.91884994506836, -44.85058869709192, -44.814235640943494, -44.801215354171255, -44.80522066598412, -44.821499734964625, -44.846398030816886, -44.877057490781844, -44.91121495993712, -44.947066046108674, -44.98317440659605, -45.018414218022535, -45.05193784129133, -45.08316295705545, -45.11177454664148, -45.13254727836251])","array('d', [0.619572579860687, 0.4858720507216537, 0.364894798304309, 0.2554300439981292, 0.156382235760899, 0.08288343579712068, 0.031412234723406346, -0.0028720795608280633, -0.024053065813726855, -0.03559437547275072, -0.040401306185371376, -0.04085257444786366, -0.03882112077176613, -0.0356902145360919, -0.03236598387216344, -0.029285955930763784])","array('d', [-0.034827791154384516, -0.020035265249819516, -0.009228623553140119, -0.0013196183801758182, 0.004427991887084033, 0.008526984945717764, 0.011344977711048036, 0.013153046064463209, 0.014157031931428078, 0.014518785248837509, 0.014371366577152978, 0.013830440068972669, 0.013003065143113997, 0.011994502698339416, 0.01091330617188182, 0.009874768362521642])","array('d', [-0.34083084662887086, -0.3650261300923933, -0.38278222658709105, -0.3953333360695215, -0.4035024514586689, -0.40819712941547937, -0.41042565261452474, -0.41097447995483505, -0.4104392230241411, -0.4092647992361875, -0.407771467482663, -0.4061762407057516, -0.40461288078667473, -0.40315131662266535, -0.40181662645352173, -0.40030556506553144])",-54.07953006685931,-51.00149922189595,-44.821499734964625,0.08288343579712068,0.008526984945717764,-0.40819712941547937,25.000000239082922,-1.0,"[-134.71255978015378, -47.10078384255366, 44.82018021585688]","[-125.59522161132092, -37.313668343437975, 51.60888516762146]","[-119.85005184263277, -48.338814049514305, 43.216079528936724]",10000000000.0,0.019134044647216797
10,-60.053558349609375,-50.48152542114258,44.93614959716797,0.525876462459564,0.02181848324835278,-0.3699822862956185,23.103690693106685,"array('d', [-49.56715393066406, -50.44285976396865, -51.36649365128285, -52.32437754374434, -53.30539407589579, -54.30040604846803, -55.30266929901325, -56.30751911310264, -57.31186933468605, -58.31381688892333, -59.31232545918774, -60.30696497049356, -61.29769885147771, -62.284716315433535, -63.26830841329628, -64.05247826328039])","array('d', [-62.160728454589844, -59.82012532085411, -57.49730356575974, -55.18814456402111, -52.88868204543712, -50.595293335882744, -48.305140865017805, -46.016191368169125, -43.72707143389912, -41.436923889846994, -39.14527795382572, -36.851935590908425, -34.55687659528904, -32.26018355015321, -29.96198661309258, -28.122001438346196])","array('d', [-44.920318603515625, -44.85468676575626, -44.820341104652364, -44.80889406365538, -44.814161949425205, -44.8314755269306, -44.857236596524345, -44.888626353095624, -44.92340969496742, -44.959802847764486, -44.996385069522105, -45.03204265391326, -45.065937539443105, -45.09749499273795, -45.12640587150102, -45.14739504760296])","array('d', [0.6109046936035155, 0.4780290220837818, 0.3577981316976756, 0.2490087135368161, 0.15057197065669684, 0.07757071929889314, 0.026552325450529192, -0.007311766850750802, -0.028100459178918145, -0.03927614817854895, -0.04374408387247043, -0.043883033755637776, -0.04156561067777706, -0.03817424071882234, -0.03461371217403831, -0.03131978478882436])","array('d', [-0.03362531960010516, -0.019128482829303677, -0.008525912123756897, -0.0007613050850239131, 0.0048814892252616, 0.00890241562550083, 0.011660795845107834, 0.013422287100932153, 0.014389155780475374, 0.014720861193790707, 0.014548830288694328, 0.013987567589991114, 0.013143256969369214, 0.01212043966372696, 0.011027020269507115, 0.0099776613403254])","array('d', [-0.34554211696120707, -0.36929139854329196, -0.3866950014180604, -0.3989541332105362, -0.4068730892705024, -0.4113465912897069, -0.413375036077031, -0.41374149889896145, -0.4130398069691824, -0.41171370182418787, -0.4100824410772267, -0.4083620505289666, -0.4066852864428396, -0.4051210713201973, -0.403693506236289, -0.4020774325328405])",-54.30040604846803,-50.595293335882744,-44.8314755269306,0.07757071929889314,0.00890241562550083,-0.4113465912897069,25.00000024598107,-1.0,"[-134.71255978015378, -47.10078384255366, 44.82018021585688]","[-125.59522161132092, -37.313668343437975, 51.60888516762146]","[-119.85005184263277, -48.338814049514305, 43.216079528936724]",10000000000.0,0.015456676483154297
11,-59.634307861328125,-50.67079162597656,44.94206619262695,0.5020661354064941,0.018593104556202767,-0.37474886973830673,23.10867185550762,"array('d', [-49.7459716796875, -50.63240937397614, -51.565453525528724, -52.53169594006792, -53.52020085505399, -54.521958412091905, -55.530313870175945, -56.54067050936159, -57.5499985384469, -58.55644420065111, -59.55901554806908, -60.55732286994088, -61.55136640854799, -62.54136891639827, -63.527651938343816, -64.31373696472254])","array('d', [-61.7374153137207, -59.40075692527713, -57.081659101524615, -54.775974396829575, -52.47972465856397, -50.18928449531763, -47.901820374916696, -45.61530903331291, -43.32839152044634, -41.04022786744734, -38.750365714312615, -36.45862548336237, -34.165004650964825, -31.869602231912484, -29.572563352411315, -27.73339532628297])","array('d', [-44.92207336425781, -44.8598849315834, -44.82817650123824, -44.818793520691955, -44.82570821589117, -44.84435802651486, -44.87121944247672, -44.90352723294441, -44.939085685753575, -44.97614069171823, -45.0132943283195, -45.049450709657314, -45.08378575915378, -45.1157355996901, -45.1449992193682, -45.16624342137174])","array('d', [0.5992522239685056, 0.46748543069940607, 0.3482578950125219, 0.24037635001870886, 0.1427610888072654, 0.07046236764743434, 0.02007487431863434, -0.013211159441614722, -0.03346626281444898, -0.04414929204550133, -0.048163828581623803, -0.04788736470419728, -0.04519100193253104, -0.04145524125469582, -0.037582559252495026, -0.03400610895627628])","array('d', [-0.03205419704318031, -0.017937590531451622, -0.007602359929919669, -3.037610816001451e-05, 0.005470382548744796, 0.009384321416910979, 0.012060585647352781, 0.013758051945746638, 0.01467438402800376, 0.014965843972824782, 0.014761567057424745, 0.014174342694241882, 0.013308996813220673, 0.012268922896792628, 0.011160991075770937, 0.010098882951499842])","array('d', [-0.3504263599726816, -0.37358310790179805, -0.3905165353063662, -0.4023851043470443, -0.4099687431660709, -0.4141460344381832, -0.4159074422727959, -0.41603122664980985, -0.4151085847093996, -0.4135814861876785, -0.4117676962677615, -0.4098818123593443, -0.4080551785482621, -0.40635533792296336, -0.4048050760670195, -0.40305027908187846])",-54.521958412091905,-50.18928449531763,-44.84435802651486,0.07046236764743434,0.009384321416910979,-0.4141460344381832,25.000000238758407,-1.0,"[-134.71255978015378, -47.10078384255366, 44.82018021585688]","[-125.59522161132092, -37.313668343437975, 51.60888516762146]","[-119.85005184263277, -48.338814049514305, 43.216079528936724]",10000000000.0,0.018917083740234375
12,-59.21576690673828,-50.86205291748047,44.94961166381836,0.47671210765838606,0.015137218870222444,-0.3794239004466196,23.11300638408013,"array('d', [-49.92654037475586, -50.82362773876527, -51.76571534880893, -52.73971745855158, -53.73491511452486, -54.74245048710685, -55.755776999268676, -56.77038078733657, -57.78330103287771, -58.792744572632856, -59.79777414766735, -60.798049915505494, -61.79361767076752, -62.78474170838839, -63.77178136873994, -64.558176103751])","array('d', [-61.315425872802734, -58.982714068694044, -56.667227324567385, -54.364798666507454, -52.07144819744697, -49.78355805918611, -47.49830858503783, -45.213695424119315, -42.928382084933496, -40.64155291363122, -38.35278019891281, -36.06190819486784, -33.76895665982237, -31.474044974280027, -29.177336620533723, -27.338302351129705])","array('d', [-44.924346923828125, -44.86667431479822, -44.83843381887485, -44.8317623186416, -44.84083046810363, -44.86121417453315, -44.88948897067759, -44.922962207649995, -44.959492588037804, -44.997367618954875, -45.035221693206566, -45.071984216785424, -45.1068508517466, -45.13927283722994, -45.16896022704933, -45.190510687104485])","array('d', [0.5847171545028683, 0.4543335547836571, 0.33635758449089537, 0.22960850280075507, 0.13301793691549843, 0.06161826011720065, 0.012033128489866346, -0.020522472676184282, -0.040107366874565405, -0.050174809801841865, -0.05362522646502749, -0.05283358548629858, -0.04966833904319249, -0.045507009752274764, -0.04124881165416644, -0.037323471613641176])","array('d', [-0.029997780919074887, -0.0163720631968818, -0.00638747154332451, 0.0009282126908458042, 0.006237757391675023, 0.010006527342734642, 0.012571017033148673, 0.01418150915594344, 0.015029686542228124, 0.015267529499147966, 0.0150209996003962, 0.014400431808151518, 0.013508657747704976, 0.012447363291210344, 0.011321883156220132, 0.01024446413918313])","array('d', [-0.355350180468287, -0.37777869896617305, -0.39413136105649016, -0.4055157685425149, -0.41268264037230373, -0.4164915631311201, -0.41792130351544937, -0.4177440710882175, -0.4165476948185466, -0.41477183751160057, -0.41273231587393916, -0.41064187878683006, -0.4086300653982722, -0.4067626765869414, -0.40506085271095915, -0.40313470527763257])",-54.74245048710685,-49.78355805918611,-44.86121417453315,0.06161826011720065,0.010006527342734642,-0.4164915631311201,25.000000238596563,-1.0,"[-134.71255978015378, -47.10078384255366, 44.82018021585688]","[-125.59522161132092, -37.313668343437975, 51.60888516762146]","[-119.85005184263277, -48.338814049514305, 43.216079528936724]",10000000000.0,0.015271902084350586
13,-58.38076400756836,-51.25010299682617,44.970298767089844,0.4221492111682891,0.008137864060699797,-0.38859061797591643,23.120535478699413,"array('d', [-50.29435348510742, -51.21195374855828, -52.17062453070486, -53.158041557340276, -54.16400007333912, -55.18000413236483, -56.19976825154291, -57.218981136850005, -58.234852430962064, -59.24574011448025, -60.250844284799804, -61.24995093068557, -62.24322112421131, -63.23102447329133, -64.2138162280508, -64.99606052901582])","array('d', [-60.47349548339844, -58.14850987477883, -55.83974215556387, -53.54302089251978, -51.25439578515475, -48.97029549325485, -46.68795708920871, -44.40544006329621, -42.12147605730167, -39.83531855282996, -37.54660694440714, -35.255248378274416, -32.96132007675917, -30.664993067717955, -28.36647684938835, -26.525677074023836])","array('d', [-44.931148529052734, -44.884830859218134, -44.86533464754159, -44.865497417499064, -44.879974454889144, -44.9046858316791, -44.93645783935591, -44.97278495359606, -45.01166846474135, -45.05150634888597, -45.09101949957471, -45.129205227563055, -45.16531204020401, -45.19883127534915, -45.22950183865309, -45.25176257125532])","array('d', [0.5477628707885742, 0.42089593298540295, 0.3061019701942459, 0.2022320880083554, 0.10824672587514492, 0.03916766432315843, -0.008351419855835712, -0.03903255420533639, -0.056903849185342956, -0.06540291456483355, -0.06742055449571042, -0.06532373581782923, -0.06097275324226567, -0.05573641198639635, -0.050504841146850936, -0.04569867420055322])","array('d', [-0.02483692392706855, -0.01242660056783011, -0.003322456523453006, 0.0033415043971458894, 0.00815982216537772, 0.011553005445861193, 0.0138273496115234, 0.015212263508028519, 0.015884584344565335, 0.015985389989587782, 0.015632336291227393, 0.014929164715900443, 0.013973237308637008, 0.012861501398517326, 0.011695025118850691, 0.010582097177951449])","array('d', [-0.3650566776606698, -0.38568448915970804, -0.4005873799770342, -0.41075491186449337, -0.4168690592463758, -0.4197450097599933, -0.4203342297862753, -0.41939426128310575, -0.41750463081482186, -0.41509916952721143, -0.41248867086377694, -0.40988108510245286, -0.4074012748171507, -0.4051105527418243, -0.4030258488642681, -0.4006668820242663])",-55.18000413236483,-48.97029549325485,-44.9046858316791,0.03916766432315843,0.011553005445861193,-0.4197450097599933,25.000000245749725,-1.0,"[-134.71255978015378, -47.10078384255366, 44.82018021585688]","[-125.59522161132092, -37.313668343437975, 51.60888516762146]","[-119.85005184263277, -48.338814049514305, 43.216079528936724]",10000000000.0,0.018733501434326172
14,-57.96424102783203,-51.44663619995117,44.983726501464844,0.3934730887413024,0.004705724772065758,-0.39304976066085306,23.122794740918902,"array('d', [-50.48152542114258, -51.40936414331978, -52.37602504743547, -53.369602103353245, -54.380175368548755, -55.39945060306545, -56.42128913288832, -57.44149508514425, -58.457376540546, -59.467379707211855, -60.470785474163776, -61.467454206673715, -62.4576153152397, -63.44170094069289, -64.42022332963319, -65.19860432910393])","array('d', [-60.053558349609375, -57.73250981707142, -55.42703456266737, -53.132973061560506, -50.846403020922295, -48.56378884784226, -46.28240749177783, -44.000361044993575, -41.71642509024321, -39.42989661996467, -37.14045648316847, -34.84805010369403, -32.552789256104525, -30.254875721589418, -27.954546194190023, -26.11211191856685])","array('d', [-44.93614959716797, -44.896482372040786, -44.88211810441051, -44.886292088197635, -44.903937839653345, -44.93117533395237, -44.96497821780017, -45.00295213868012, -45.04318390915022, -45.084138257654935, -45.12458860294709, -45.16357357355609, -45.2003737993109, -45.23450488486381, -45.26572303893225, -45.28837926156546])","array('d', [0.525876462459564, 0.40109228998999974, 0.2881828913766333, 0.1860182335308069, 0.09357582238067678, 0.025868947926804338, -0.02042554831936899, -0.049994441576825935, -0.06684875241349886, -0.07441735448577629, -0.07558551858894409, -0.07271541361643698, -0.06766233019565274, -0.06178970754765687, -0.05598212201317881, -0.05065472332636708])","array('d', [-0.02181848324835278, -0.01011209699156783, -0.001522704272173926, 0.004757137891432926, 0.009284074076601038, 0.012453489229711597, 0.014554595978733934, 0.015804853935229724, 0.016372482747362548, 0.016392133510002484, 0.015976488565949236, 0.015225284092601802, 0.01423252198741799, 0.013092218514271434, 0.011902797027122382, 0.010770096991926282])","array('d', [-0.3699822862956185, -0.3895752896785798, -0.4036363023179489, -0.4130918746214062, -0.418586703933609, -0.42091166450707357, -0.4210033309474116, -0.41961132825439984, -0.41731066305705966, -0.41453190059708844, -0.41158292853007744, -0.40866886233641025, -0.40591177537200035, -0.40337029641373545, -0.4010588395032967, -0.39844358217432313])",-55.39945060306545,-48.56378884784226,-44.93117533395237,0.025868947926804338,0.012453489229711597,-0.42091166450707357,25.00000024569265,-1.0,"[-134.71255978015378, -47.10078384255366, 44.82018021585688]","[-125.59522161132092, -37.313668343437975, 51.60888516762146]","[-119.85005184263277, -48.338814049514305, 43.216079528936724]",10000000000.0,0.017091035842895508
15,-57.54399108886719,-51.64646911621094,45.000267028808594,0.3640407621860503,0.0013641023542730574,-0.39736811717482984,23.128342221162065,"array('d', [-50.67079162597656, -51.60840094449249, -52.58244635646338, -53.58145142176407, -54.59579066294345, -55.617379402574485, -56.640232398606415, -57.66027571006405, -58.6749225803796, -59.682714305931356, -60.68301938168082, -61.67577913281131, -62.661297523480464, -63.64007499561172, -64.6126860843514, -65.3858481789796])","array('d', [-59.634307861328125, -57.31707148913576, -55.01467482166365, -52.722981537233146, -50.438107179102424, -48.15656079000712, -45.87566704102667, -43.59357771476733, -41.30911873306215, -39.02163624549741, -36.730857408561015, -34.43676999929333, -32.13952371411971, -29.839353857803616, -27.536526608602696, -25.69189892798701])","array('d', [-44.94206619262695, -44.90951134730777, -44.900642108485094, -44.90911088963984, -44.930145120721, -44.960077532281915, -44.99603974855903, -45.03575740549755, -45.07741014934194, -45.11953548550854, -45.160964259691355, -45.20078032436423, -45.23829944454952, -45.27306369549766, -45.304848056112625, -45.32791313912022])","array('d', [0.5020661354064941, 0.37954781318616215, 0.2686886408479197, 0.16837910462010747, 0.07761527712279406, 0.011395685709393658, -0.03356813515626692, -0.06192662382365966, -0.07767339199319999, -0.08422847593918209, -0.08447144707041306, -0.0807593495887468, -0.07494199459317986, -0.06837689067409576, -0.06194247699000376, -0.05604787602263131])","array('d', [-0.018593104556202767, -0.007634451365700321, 0.0004049133629875271, 0.006272255127196862, 0.01048506253661491, 0.013412609875555998, 0.015326236452582265, 0.016430800850356437, 0.01688535320508449, 0.016817639938874054, 0.01633494877497095, 0.01553263445454076, 0.014500999310649583, 0.013330820091361812, 0.012117593846248338, 0.010964453208673388])","array('d', [-0.37474886973830673, -0.3932404959094554, -0.40639855335872427, -0.4150862541646985, -0.41991038904584665, -0.4216368640779832, -0.42118703050656253, -0.41930256872793437, -0.4165539233169131, -0.4133682807092268, -0.4100504358682472, -0.4068024315186125, -0.40374329150534033, -0.40092870158177024, -0.3983703168639112, -0.39547600276643513])",-55.617379402574485,-48.15656079000712,-44.960077532281915,0.011395685709393658,0.013412609875555998,-0.4216368640779832,25.000000245637647,-1.0,"[-130.53898969791769, -45.75229159459319, 44.821976187556956]","[-120.92099899431035, -36.296058413804374, 51.38504778977734]","[-115.77193970775151, -47.52108892018959, 42.871183884697395]",10000000000.0,0.016152143478393555
16,-57.12453079223633,-51.847503662109375,45.01898956298828,0.3342629373073577,-0.0019317804835737803,-0.4013594826075694,23.131665941913646,"array('d', [-50.86205291748047, -51.809147021535246, -52.790195310952186, -53.79415292455468, -54.81169246126012, -55.83494253743982, -56.858074750960114, -57.877141212236694, -58.88966522542626, -59.89428854500025, -60.89047280867821, -61.8782457548464, -62.85799109824526, -63.830282424171045, -64.79576100378793, -65.56269193747741])","array('d', [-59.21576690673828, -56.90228960348789, -54.60284914293689, -52.3133407187654, -50.029925035756946, -47.74916248669138, -45.46843140933006, -43.18593887093184, -40.90056637140306, -38.611713946076875, -36.31915917434443, -34.022935660413346, -31.723233892003567, -29.420325041049573, -27.114506683268697, -25.267282755491408])","array('d', [-44.94961166381836, -44.92468232452297, -44.921709212085325, -44.93478472717355, -44.95944852368036, -44.9922608692044, -45.03052338688858, -45.07209152222367, -45.11524578339803, -45.15860298906006, -45.20105668220895, -45.24174011610018, -45.28000740687068, -45.31542945805749, -45.34780159839194, -45.371291044976516])","array('d', [0.47671210765838606, 0.35660653810468285, 0.24793051485762893, 0.14959637379624613, 0.0606199579436727, -0.004028480203206081, -0.047581206832365566, -0.07465273279993163, -0.08921990205450216, -0.09469446698602642, -0.09395060357329683, -0.08934025667272565, -0.0827075541015141, -0.07540372113227789, -0.068300638649818, -0.0618009791234094])","array('d', [-0.015137218870222444, -0.004976176123180846, 0.0024734059804042297, 0.007896596815803071, 0.0117701539695405, 0.014436011871829572, 0.016146663794563712, 0.017093581401325494, 0.017425996710629735, 0.017264205525757432, 0.016709633006899323, 0.015852844423742914, 0.01478008081507694, 0.01357855369232312, 0.01234053639094935, 0.011166179983382159])","array('d', [-0.3794239004466196, -0.39676854859712707, -0.4089787774378862, -0.416855791169352, -0.420968821681379, -0.42205865513801044, -0.42103142284756456, -0.4186211608775204, -0.4153939077088158, -0.4117734860550802, -0.40806149982299017, -0.40445674655503366, -0.4010749917459248, -0.3979687613574993, -0.39514674462425986, -0.3919545422724405])",-55.83494253743982,-47.74916248669138,-44.9922608692044,-0.004028480203206081,0.014436011871829572,-0.42205865513801044,25.000000245583465,-1.0,"[-130.53898969791769, -45.75229159459319, 44.821976187556956]","[-120.92099899431035, -36.296058413804374, 51.38504778977734]","[-115.77193970775151, -47.52108892018959, 42.871183884697395]",10000000000.0,0.020508289337158203
17,-57.12453079223633,-51.847503662109375,45.01898956298828,0.3342629373073577,-0.0019317804835737803,-0.4013594826075694,23.131665941913646,"array('d', [-51.25010299682617, -52.21556577616446, -53.20982329893273, -54.22267699281375, -55.245391567780416, -56.27052332345131, -57.29256002933111, -58.3078128027405, -59.314035929736086, -60.31008532195591, -61.29562321921353, -62.27086459862806, -63.23636653856469, -64.19286186295218, -65.14113720470282, -65.89316161207034])","array('d', [-58.38076400756836, -56.07476438949066, -53.78101320541365, -51.49549503762026, -49.214481919447664, -46.934654985986676, -44.65351514794133, -42.36939455918263, -40.08129973967481, -37.788751133817975, -35.49163819135623, -33.19009544182748, -30.884402543088154, -28.574908509895227, -26.261978603340847, -24.40864309456615])","array('d', [-44.970298767089844, -44.960824266272226, -44.96980990174434, -44.992222294792064, -45.024226717496155, -45.062843142158414, -45.105719349834445, -45.15097699515448, -45.19710469461666, -45.24288370529123, -45.28733799985001, -45.32970378619914, -45.3694151087895, -45.406102817235954, -45.43960430378629, -45.463908848813325])","array('d', [0.4221492111682891, 0.30723598325382134, 0.20325818543496735, 0.10917517492490152, 0.02404534133791861, -0.037277586414611076, -0.07782181484781613, -0.10213494295618879, -0.11416470325229507, -0.11730967727113566, -0.1144353896184772, -0.10788454329127935, -0.09948992894915076, -0.09058961713908918, -0.08204145221986495, -0.07423418252191424])","array('d', [-0.008137864060699797, 0.0004155340251522547, 0.006668686319941139, 0.01118612351471822, 0.014365093045479789, 0.01649377028420311, 0.017787301015220386, 0.018410398835556605, 0.018492485184257598, 0.018138672517249578, 0.01743832116799742, 0.016472050636784773, 0.015317603520410212, 0.01405468646471606, 0.012768758450438504, 0.011553651360975942])","array('d', [-0.38859061797591643, -0.40354719058858957, -0.41375998856344764, -0.41991342797105924, -0.42250469591043055, -0.42222492142499557, -0.41995054831513345, -0.4164020382373514, -0.4121375797589274, -0.4075746180554065, -0.40300827101317804, -0.3986304535422718, -0.39454987555049764, -0.3908121601395425, -0.38741949976765155, -0.38358268909066867])",-56.27052332345131,-46.934654985986676,-45.062843142158414,-0.037277586414611076,0.01649377028420311,-0.42222492142499557,25.000000245475523,-1.0,"[-130.53898969791769, -45.75229159459319, 44.821976187556956]","[-120.92099899431035, -36.296058413804374, 51.38504778977734]","[-115.77193970775151, -47.52108892018959, 42.871183884697395]",10000000000.0,0.016290664672851562
18,-56.2705078125,-52.26079177856445,45.0640754699707,0.27355411648750294,-0.008352496661245932,-0.40901403029891453,23.132336362547655,"array('d', [-51.44663619995117, -52.4209377474027, -53.42140904871977, -54.438255897090414, -55.463029833033325, -56.48849637106854, -57.50929856561118, -58.52187744822804, -59.52410588715909, -60.51495158063913, -61.49418258229762, -62.46211322696592, -63.41939286865414, -64.3668391958616, -65.3053163316309, -66.04889290811295])","array('d', [-57.96424102783203, -55.66193774029499, -53.370917442530185, -51.08722093851094, -48.80718482181608, -46.52755805731726, -44.24590892673095, -41.96063805889942, -39.67082027466602, -37.376041529328845, -35.07625180727145, -32.77163990849389, -30.462533118211372, -28.149321743519025, -25.832406709756498, -23.975669508037246])","array('d', [-44.983726501464844, -44.981833975556526, -44.99668845657531, -45.02367782081847, -45.05927133445092, -45.10071415319198, -45.14582490599191, -45.19285752995455, -45.24040465115941, -45.287330086015935, -45.33272350245709, -45.375873055642245, -45.4162531217761, -45.45352473375542, -45.48754633626584, -45.5122261206312])","array('d', [0.3934730887413024, 0.28128875232818235, 0.17978015787315715, 0.08793137516147576, 0.004823154566021633, -0.05478598558688915, -0.09376685481008278, -0.11663774700972745, -0.12733514709620297, -0.12925349079470552, -0.12525556675670171, -0.11768031657385679, -0.10835516919257727, -0.09861155570012337, -0.08930002947461856, -0.08080201541856541])","array('d', [-0.004705724772065758, 0.003062116722998195, 0.008727051338026877, 0.012796979675898379, 0.015631516856831635, 0.01749320461130886, 0.01857924048850709, 0.01904136928031514, 0.018999322260706185, 0.018550713970199716, 0.01777889101021932, 0.016759472771948773, 0.015565897750995563, 0.014274048931328354, 0.012965897521309586, 0.011732030184941046])","array('d', [-0.39304976066085306, -0.40678995532192586, -0.4159732056528533, -0.4212304984637617, -0.42302544364712485, -0.42202515435135357, -0.41909197310673707, -0.41494078512105664, -0.4101265507624767, -0.4050638383572427, -0.4000445638016303, -0.39525707371872854, -0.3908063371845595, -0.3867342834377752, -0.38303961866346664, -0.378861773732645])",-56.48849637106854,-46.52755805731726,-45.10071415319198,-0.05478598558688915,0.01749320461130886,-0.42202515435135357,25.000000245421724,-1.0,"[-130.53898969791769, -45.75229159459319, 44.821976187556956]","[-120.92099899431035, -36.296058413804374, 51.38504778977734]","[-115.77193970775151, -47.52108892018959, 42.871183884697395]",10000000000.0,0.016701936721801758
19,-55.85312271118164,-52.46427917480469,45.08951950073242,0.2443599551916122,-0.0112142497673632,-0.41258720954390965,23.13211912801311,"array('d', [-51.64646911621094, -52.62925538782814, -53.63557160993247, -54.65601246816508, -55.682407919417685, -56.70772788082487, -57.7267674310882, -58.736096788994956, -59.733708770725144, -60.71868549385204, -61.69090410415129, -62.65078178211533, -63.599063580698825, -64.5366552625571, -65.46450137374414, -66.19894160974864])","array('d', [-57.54399108886719, -55.245297674157946, -52.956880084948715, -50.674842736660764, -48.39559253855205, -46.11595111880695, -43.833557999246835, -41.54688606189437, -39.25508211316563, -36.95780095807054, -34.655055954263936, -32.34709245926203, -30.034287148529295, -27.71707293324581, -25.395887353105323, -23.535521230480015])","array('d', [-45.000267028808594, -45.00575611672546, -45.02632049889666, -45.05775459049803, -45.096822776360376, -45.14099006699969, -45.18824277770952, -45.23696528923525, -45.285853195538465, -45.33385229580833, -45.38011763112498, -45.42398910230586, -45.46498125068973, -45.50278510543483, -45.53727991950961, -45.56230095408474])","array('d', [0.3640407621860503, 0.2546572795495358, 0.1556830026234812, 0.06612736544817159, -0.014905931213671505, -0.07278110465897598, -0.1101705997484532, -0.1315668194105289, -0.14089766264671655, -0.14155536178295708, -0.13640124394113315, -0.12777120740633993, -0.11748762400548017, -0.10687531596773614, -0.09677741881527861, -0.08756783769599462])","array('d', [-0.0013641023542730574, 0.005638566490328344, 0.01072823651937267, 0.014359142270348995, 0.016855049797013386, 0.018453951599731754, 0.019335758699844115, 0.019639648667975435, 0.019475900766649148, 0.018934766301310642, 0.01809364719837262, 0.017023190078045394, 0.015792529906845963, 0.014473709057242363, 0.013145182185162411, 0.011894253671901483])","array('d', [-0.39736811717482984, -0.4098840222057599, -0.4180229987578044, -0.4223661468041022, -0.42334534405495, -0.42160435801574897, -0.4179920343294859, -0.413218622100546, -0.40783639932057025, -0.40225731176348045, -0.3967701258651718, -0.39155954939641313, -0.3867266778819461, -0.3823095929799804, -0.3783033639836441, -0.3737737822014917])",-56.70772788082487,-46.11595111880695,-45.14099006699969,-0.07278110465897598,0.018453951599731754,-0.42160435801574897,25.000000245368636,-1.0,"[-130.53898969791769, -45.75229159459319, 44.821976187556956]","[-120.92099899431035, -36.296058413804374, 51.38504778977734]","[-115.77193970775151, -47.52108892018959, 42.871183884697395]",10000000000.0,0.019373178482055664
20,-55.01987838745117,-52.8725471496582,45.14631271362305,0.18768715858459462,-0.016326358541846393,-0.4192810495707653,23.131796521632317,"array('d', [-51.847503662109375, -52.83801353479749, -53.84943352810494, -54.87272668969024, -55.899989015667856, -56.92438694837518, -57.94086207277657, -58.94611126072733, -59.93824708014532, -60.91646728914611, -61.88076009724058, -62.83164779848973, -63.76997342969811, -64.69673297985986, -65.61295337398805, -66.33744741867669])","array('d', [-57.12453079223633, -54.82917938591075, -52.543068017183685, -50.26237151742211, -47.98357254052341, -45.70356997676394, -43.42007817290841, -41.13164559366955, -38.83749410307929, -36.53734996367684, -34.231291949542666, -31.919623452240593, -29.602771512986344, -27.28121221963232, -24.955419998721187, -23.091161977479228])","array('d', [-45.01898956298828, -45.03175870039045, -45.05795037821683, -45.093756352725755, -45.136231399907324, -45.183058195825225, -45.23238996181394, -45.28274148540481, -45.33291164151126, -45.381928643948626, -45.42901332573903, -45.47355766764013, -45.51511659011554, -45.55341119667713, -45.58834148591206, -45.613676415134776])","array('d', [0.3342629373073577, 0.22771318693153805, 0.1313029772197063, 0.04406740421120582, -0.034866611552309155, -0.09101128387460011, -0.12680304952937596, -0.14671225794311932, -0.15466106249708853, -0.15404149232297074, -0.14771470104592055, -0.13801427377207257, -0.12675785939288578, -0.1152637539368846, -0.10436762061357832, -0.09443573691556136])","array('d', [0.0019317804835737803, 0.008179368065141947, 0.012698979043214367, 0.015893500910128283, 0.018052167258629122, 0.019389159060455328, 0.020067499651292044, 0.020213998770163825, 0.019929565249234515, 0.019297100638206714, 0.018388037947603752, 0.01726800725588835, 0.016001787171994443, 0.014657523277019554, 0.013310097042064498, 0.012043474818669787])","array('d', [-0.4013594826075694, -0.41265900580562387, -0.4197526855755859, -0.42317574111321715, -0.4233305197012621, -0.4208384242348583, -0.41653561032087144, -0.4111287104405849, -0.4051679077999837, -0.3990628091278409, -0.39309911315463253, -0.3874578520313474, -0.38223615340245654, -0.3774681387049694, -0.3731451312411449, -0.368258030750997])",-56.92438694837518,-45.70356997676394,-45.183058195825225,-0.09101128387460011,0.019389159060455328,-0.4208384242348583,25.000000245319118,-1.0,"[-128.93292735608662, -45.30572809806778, 44.82448098642016]","[-119.12922392610822, -35.96921472511926, 51.2833444385906]","[-114.20973542600943, -47.270473637678656, 42.734649807906194]",10000000000.0,0.02428722381591797
21,-54.18818664550781,-53.281524658203125,45.21091079711914,0.13398268818855283,-0.02027175202965748,-0.425437136492457,23.128650558820624,"array('d', [-52.26079177856445, -53.26595888277795, -54.2868248574512, -55.31503555122626, -56.34318708240589, -57.3648188277507, -58.375150181067255, -59.371124700127595, -60.35109501773084, -61.31449508118144, -62.26154237773172, -63.19297738015772, -64.10984696682932, -65.0133349160085, -65.90463952740497, -66.60786332927353])","array('d', [-56.2705078125, -53.98165262980493, -51.69989173297739, -49.42155550769652, -47.143289827876984, -44.86215806938608, -42.57603186497175, -40.28361898280595, -37.98429985498056, -35.67795145238108, -33.364789934398274, -31.045239860348445, -28.71983270250405, -26.389133399474257, -24.05369169596628, -22.18131491588065])","array('d', [-45.0640754699707, -45.09102533818723, -45.12816818704415, -45.1724604830208, -45.22152087536896, -45.27345806679481, -45.32675418637414, -45.38018243540221, -45.43274722492931, -45.483641269644885, -45.53221695561301, -45.57797045735417, -45.62053741638401, -45.659698893707485, -45.69539597742717, -45.72128320573026])","array('d', [0.27355411648750294, 0.17278156940161335, 0.08159878994730202, -0.000906807924337572, -0.07556095408172915, -0.1282683254862847, -0.1608520164669592, -0.17775134133698825, -0.18288702720591687, -0.17965803556441054, -0.17093009681193716, -0.15903514323963108, -0.1457829234194595, -0.13247927556220485, -0.11994494308407182, -0.10853068243335956])","array('d', [0.008352496661245932, 0.01312816807529904, 0.016530461324594934, 0.018866271210196427, 0.02035965294336433, 0.021179415066199005, 0.02145609499472836, 0.021292487497070106, 0.020771140378512052, 0.019960433160332896, 0.01891992046731266, 0.017705190580423472, 0.016372260448237357, 0.014981407300400854, 0.013600272379106318, 0.01230603613064682])","array('d', [-0.40901403029891453, -0.41789276183903024, -0.42288401395138575, -0.4244419062243369, -0.4229157045970708, -0.4188842954381204, -0.4131604977932354, -0.4064470325082465, -0.39929185488768076, -0.39210085692914454, -0.3851538869177382, -0.37862450551728705, -0.37260158359441903, -0.36711093367207276, -0.3621360066210982, -0.3565135106330463])",-57.3648188277507,-44.86215806938608,-45.27345806679481,-0.1282683254862847,0.021179415066199005,-0.4188842954381204,25.000000236798385,-1.0,"[-128.93292735608662, -45.30572809806778, 44.82448098642016]","[-119.12922392610822, -35.96921472511926, 51.2833444385906]","[-114.20973542600943, -47.270473637678656, 42.734649807906194]",10000000000.0,0.039479732513427734
