,current_time,x_pos,y_pos,z_pos,roll,pitch,yaw,vel,x_traj,y_traj,z_traj,roll_traj,pitch_traj,yaw_traj,x_cmd,y_cmd,z_cmd,roll_cmd,pitch_cmd,yaw_cmd,vel_cmd,effector_dmg,effector_x,effector_y,effector_z,cost,time_solution
0,27.145262956619263,-223.43118286132812,-151.75381469726562,49.90443420410156,0.6327727437019345,0.03700901940464961,0.8948806683209278,23.132795669257977,"array('d', [-153.5040283203125, -151.54042655605284, -149.61743978460538, -147.73285624562843, -145.8841211907749, -144.0685801597856, -142.28360751144604, -140.52667620337334, -138.7953952678352, -137.08752843554592, -135.40100124497965, -133.73390090355662, -132.08447153156803, -130.45110650430067, -128.83233907344191, -127.54922175721899])","array('d', [-224.94522094726562, -223.4000737574434, -221.803516905893, -220.16131799960166, -218.4786479782074, -216.76011463186842, -215.00980227736522, -213.23131777304317, -211.42783902281465, -209.60216265556514, -207.75674886006408, -205.89376240216154, -204.01510951502087, -202.12247071807485, -200.21732979247037, -198.68319303530748])","array('d', [-49.905128479003906, -49.825716099098436, -49.77314190507335, -49.737894917157334, -49.7139628066776, -49.69750342823746, -49.68603219910695, -49.677921681089394, -49.67209112643799, -49.66781248859136, -49.664588514314644, -49.66207595503767, -49.660037382885605, -49.658311363041776, -49.6567944700566, -49.65570355594082])","array('d', [0.6307018399238583, 0.5894258094348872, 0.5465684311744716, 0.5037493218791536, 0.4620749402513583, 0.42226817929052135, 0.3847709787301581, 0.34982220182169427, 0.3175155788643504, 0.2878425260161871, 0.26072382159557234, 0.23603318177399568, 0.21361496960583537, 0.19329764702977784, 0.17490412105643766, 0.15825980762987205])","array('d', [-0.038442056626081404, -0.025317931109322744, -0.016885322606103252, -0.011404665502907627, -0.007801434612288114, -0.005406124842709508, -0.00379772291639687, -0.002708867415956364, -0.0019679407277322647, -0.0014633881649330235, -0.0011214954105737774, -0.0008923745266483595, -0.0007410084488087326, -0.000641468054759905, -0.0005731854848239158, -0.0005186400374706277])","array('d', [0.9180075089123584, 0.8905924904885573, 0.8655659446896565, 0.8428430795906434, 0.8222824209368761, 0.8037177205476459, 0.786976454190774, 0.7718899766125831, 0.7582987530785447, 0.7460547853629383, 0.7350224803276786, 0.7250786720717276, 0.7161121912132825, 0.7080231926484944, 0.7007223509945946, 0.6924818728223726])",-144.0685801597856,-216.76011463186842,-49.69750342823746,0.42226817929052135,-0.005406124842709508,0.8037177205476459,25.000000246246465,-1.0,"[-222.80484833116898, -150.9272642883517, 49.848637624787216]","[-219.86295854638593, -134.90750198380852, 61.4552090479133]","[-204.2139905290959, -144.59578735222055, 53.62916748055321]",10000000000.0,0.015249013900756836
1,27.16898798942566,-223.12350463867188,-151.4081573486328,49.904422760009766,0.6328304409980771,0.03669983893632878,0.890349642434392,23.133996909004328,"array('d', [-153.15110778808594, -151.19473943571305, -149.27919867148495, -147.40218298872512, -145.5610735429225, -143.7531714890213, -141.97582133454335, -140.22647684155925, -138.50273558730825, -136.80235538345826, -135.123259708031, -133.46353628662135, -131.82143136445882, -130.1953413246732, -128.58380279430364, -127.30643022421368])","array('d', [-224.6456756591797, -223.09135037857249, -221.48585412847078, -219.83500426688005, -218.14399080904155, -216.41742127717433, -214.65936813252102, -212.87341990183725, -211.0627329797539, -209.2300814075778, -207.37790302629793, -205.50834130252736, -203.62328269074817, -201.7243896951761, -199.8131299250227, -198.2742064757087])","array('d', [-49.90481948852539, -49.825984373359994, -49.77380275495106, -49.73882544700185, -49.71508077101697, -49.69875341413849, -49.68737660352451, -49.6793348090812, -49.67355531554705, -49.669315547593406, -49.66612201414855, -49.66363407122262, -49.661616092932675, -49.659907869896706, -49.65840676705738, -49.65732723377839])","array('d', [0.6312054991722104, 0.5889900848495342, 0.5454756688172363, 0.5022233611825191, 0.4602887421881618, 0.4203523618154897, 0.3828217418573138, 0.34790813766953194, 0.3156833316488041, 0.2861214490095448, 0.2591298249654169, 0.23457195593710448, 0.21228474061504926, 0.19209158974884344, 0.17381252864478716, 0.15727209388113894])","array('d', [-0.03816567361354832, -0.025130772895837785, -0.01675736117809284, -0.011316201995542922, -0.007739500904608809, -0.005362139543781063, -0.0037659685546410043, -0.0026855026688712346, -0.001950359980072124, -0.0014498062440693401, -0.0011106785196084614, -0.0008834664836213955, -0.0007334193934943775, -0.0006348042259290474, -0.0005672057821966311, -0.0005132293782997973])","array('d', [0.9133361140873769, 0.8859193011113087, 0.8609350664892191, 0.8382808663731256, 0.8178030380174619, 0.7993271977305204, 0.7826755142220292, 0.7676759747398257, 0.7541670031583114, 0.7419994706633384, 0.7310372825897855, 0.7211572055289854, 0.7122482964008612, 0.704211123891111, 0.6969568779582922, 0.6887687851186473])",-143.7531714890213,-216.41742127717433,-49.69875341413849,0.4203523618154897,-0.005362139543781063,0.7993271977305204,25.000000246249492,-1.0,"[-222.49340757482304, -150.58441435228477, 49.84893334663969]","[-219.46091359263363, -134.57692094970105, 61.44911158726271]","[-203.86890899288906, -144.32526518369062, 53.584051049848775]",10000000000.0,0.016387224197387695
2,27.20403790473938,-222.50335693359375,-150.7212677001953,49.90477752685547,0.6328672170639037,0.03625950217246991,0.8811942497876027,23.13532195547832,"array('d', [-152.44952392578125, -150.5077334649893, -148.60718648382874, -146.74539879849442, -144.91962390728568, -143.1270749663474, -141.36503758065973, -139.63092787483498, -137.9223212032552, -136.23696416044163, -134.57277666381216, -132.9278479806446, -131.30042906085438, -129.68892271097306, -128.0918726724103, -126.8260117292178])","array('d', [-224.0416717529297, -222.46911368677974, -220.8458697093592, -219.17785259468025, -217.47028766198483, -215.72778011843917, -213.95437771792874, -212.15363185201576, -210.32865575357056, -208.48217833905585, -206.61659290878174, -204.7340005340038, -202.8362483287359, -200.924962977345, -199.0015799387959, -197.4531733438453])","array('d', [-49.9045524597168, -49.82688336943125, -49.77549296813647, -49.741057975135156, -49.71768933025075, -49.70162614021596, -49.6904376890163, -49.68253252040277, -49.67685413986008, -49.67269101208208, -49.66955723418649, -49.66711741509414, -49.66513956370006, -49.663465942583535, -49.661995509662496, -49.66093807686336])","array('d', [0.6321486234664914, 0.5880664680476815, 0.5432492077801174, 0.4991397658455987, 0.4566918010960853, 0.41650145070920724, 0.37890780121393697, 0.344067277121047, 0.3120080819382138, 0.2826699989473173, 0.25593364907226857, 0.2316422073061746, 0.20961772168993498, 0.18967355010239198, 0.1716239839474661, 0.15529181656866406])","array('d', [-0.03760690242052064, -0.02475322483189674, -0.01649979290487057, -0.011138541936802252, -0.007615428324588208, -0.005274270133187728, -0.0037027378328566723, -0.0026391505876750773, -0.0019156276114932803, -0.0014230926158389362, -0.0010894954099370786, -0.0008660870549038336, -0.0007186536933011974, -0.0006218580314853761, -0.0005555937808765515, -0.0005027224040657647])","array('d', [0.9040026823666433, 0.8765856580665573, 0.8516884766226662, 0.8291731861690365, 0.8088619870593071, 0.7905644493662957, 0.7740922930027405, 0.7592668771548557, 0.7459226055560303, 0.7339081212119601, 0.7230863412478534, 0.7133339018887308, 0.7045403121947231, 0.6966069658883567, 0.689446080673958, 0.6813629609695755])",-143.1270749663474,-215.72778011843917,-49.70162614021596,0.41650145070920724,-0.005274270133187728,0.7905644493662957,25.00000024625528,-1.0,"[-222.18042966256613, -150.24300479473308, 49.849385358326145]","[-219.0584215288178, -134.24604295269737, 61.44034205038839]","[-203.52305414348817, -144.05492085006907, 53.5385527215535]",10000000000.0,0.013653278350830078
3,27.216991901397705,-222.50335693359375,-150.7212677001953,49.90477752685547,0.6328672170639037,0.03625950217246991,0.8811942497876027,23.13532195547832,"array('d', [-152.10093688964844, -150.16629354234985, -148.27308931799135, -146.41875167374235, -144.60047247612215, -142.8154226658757, -141.06085978138748, -139.33418217610102, -137.6329548736012, -135.95491943657046, -134.29799442681175, -132.66027019600503, -131.04000028038888, -129.43559087642095, -127.84558942262616, -126.5853271862507])","array('d', [-223.73724365234375, -222.155871020398, -220.5240556820765, -218.84775395916714, -217.13220635695694, -215.38201565919556, -213.60121679683604, -211.7933426260438, -209.96148512886677, -208.10835115162632, -206.236312290516, -204.34744900300373, -202.44358929957704, -200.52634248379238, -198.59712842059005, -197.04416144735492])","array('d', [-49.904598236083984, -49.82753591353517, -49.7765558928076, -49.742401314712964, -49.71922650864677, -49.70329905544393, -49.69220704799939, -49.68437155755019, -49.678744514591926, -49.67462011017713, -49.67151637399812, -49.66910063625282, -49.66714278874856, -49.66548637451582, -49.664031175766524, -49.662984717705235])","array('d', [0.6325426697731014, 0.5875627009302361, 0.5421210133697013, 0.497602475261604, 0.45491112632377523, 0.4146022268773049, 0.3769818240710963, 0.3421799121807795, 0.31020370155161203, 0.2809764336049219, 0.25436585951130675, 0.2302053624785396, 0.20830983470445508, 0.18848779221442227, 0.17055076970454408, 0.15432073207617686])","array('d', [-0.03731573373079292, -0.024557150697209554, -0.016366444659998616, -0.011046841597568524, -0.007551585932917285, -0.005229207482444154, -0.0036704318841852576, -0.0026155681954147135, -0.0018980398270995432, -0.0014096328037520038, -0.0010788744719101078, -0.0008574104705870026, -0.0007113050089017931, -0.0006154259157274882, -0.000549827450630512, -0.0004975048122270214])","array('d', [0.8994637886669968, 0.8720501325407399, 0.8471979693611881, 0.8247522424554913, 0.8045235847164645, 0.7863139139284665, 0.7699299816088897, 0.7551900010998729, 0.7419264714930308, 0.7299869838629863, 0.7192339941751985, 0.7095440870168054, 0.7008069984786393, 0.6929245279961166, 0.6858093961264794, 0.6777777264891267])",-142.8154226658757,-215.38201565919556,-49.70329905544393,0.4146022268773049,-0.005229207482444154,0.7863139139284665,25.000000246257958,-1.0,"[-222.18042966256613, -150.24300479473308, 49.849385358326145]","[-219.0584215288178, -134.24604295269737, 61.44034205038839]","[-203.52305414348817, -144.05492085006907, 53.5385527215535]",10000000000.0,0.011471748352050781
4,27.233765363693237,-222.19085693359375,-150.3800506591797,49.905113220214844,0.6327081918716428,0.03585508093237866,0.8766734758999685,23.13719974078537,"array('d', [-151.75381469726562, -149.8264206287685, -147.9406483821587, -146.0938375394376, -144.28311921031812, -142.50562310095253, -140.75857964826292, -139.03937033755003, -137.34555068892024, -135.67485798465938, -134.02521011122363, -132.39469911980802, -130.78158168893756, -129.18426790740438, -127.60130936483792, -126.34663776148668])","array('d', [-223.43118286132812, -221.8409514002134, -220.20053916293958, -218.51594207641983, -216.7924127572656, -215.03454921934494, -213.2463717896206, -211.43139343125608, -209.5926838303537, -207.7329269478394, -205.85447203020274, -203.95937840164123, -202.0494545442096, -200.12629202745438, -198.19129482421897, -196.63380744843528])","array('d', [-49.90443420410156, -49.828010759833134, -49.77746244294787, -49.74360273028879, -49.72063178132324, -49.704847187009214, -49.69385682666912, -49.68609492862341, -49.68052225892933, -49.67643900594704, -49.67336731266145, -49.67097735196862, -49.66904098025358, -49.66740307536651, -49.66596427894037, -49.66492963967535])","array('d', [0.6327727437019345, 0.5869081972610161, 0.5408558505153969, 0.4959414589053669, 0.4530189802695189, 0.4126026519783958, 0.37496549048964084, 0.34021113645824463, 0.3083259077811081, 0.27921660806431997, 0.2527382170464413, 0.22871441530138242, 0.2069530181777562, 0.18725776859769266, 0.16943750315374276, 0.1533134067535893])","array('d', [-0.03700901940464961, -0.02435083650526148, -0.016226219264503943, -0.010950421256450276, -0.007484425298434832, -0.0051817499473243754, -0.003636347823808094, -0.002590625542615749, -0.0018793789646049444, -0.0013953002703290503, -0.0010675229421275314, -0.0008481061969825635, -0.0007034052169891795, -0.0006085019501498268, -0.00054361764396033, -0.0004918859324668219])","array('d', [0.8948806683209278, 0.8674795611794952, 0.8426802673548025, 0.8203107738218165, 0.800170345235179, 0.7820534316200516, 0.7657619673207074, 0.7511111377606216, 0.737931627811621, 0.7260700460145916, 0.7153884410369815, 0.7057633883405819, 0.6970848852511, 0.6892551649784624, 0.6821874743984168, 0.6742091567249451])",-142.50562310095253,-215.03454921934494,-49.704847187009214,0.4126026519783958,-0.0051817499473243754,0.7820534316200516,25.00000024626126,-1.0,"[-221.54963887538406, -149.56477949412658, 49.85040019087202]","[-218.24697269640805, -133.58891245005245, 61.42036424873813]","[-202.82712994882502, -143.5183672172225, 53.44324837478128]",10000000000.0,0.012675285339355469
5,27.25590419769287,-221.87667846679688,-150.04037475585938,49.90597915649414,0.6321647167205808,0.03527768328785878,0.8723524967816213,23.139543486892194,"array('d', [-151.4081573486328, -149.48796219868504, -147.6095541961093, -145.77018764917008, -143.96693521266326, -142.19688729150522, -140.4572488061476, -138.74538566079497, -137.0588449160568, -135.3953604243258, -133.75285009535244, -132.12940826037266, -130.52329522945655, -128.93292540272813, -127.35685488568889, -126.10764741204237])","array('d', [-223.12350463867188, -221.52455671680042, -219.8757030419105, -218.18297434954394, -216.4516320357681, -214.68626710653285, -212.89088382363107, -211.06897433204406, -209.22358545945522, -207.3573779601621, -205.47267856682683, -203.57152540542668, -201.655707424151, -199.72679848584858, -197.786186713859, -196.22431319918073])","array('d', [-49.904422760009766, -49.828642908315906, -49.7785287720951, -49.744965122861814, -49.722198493165884, -49.70655679388241, -49.695667869739, -49.68797921154764, -49.6824604847649, -49.67841791523468, -49.67537778574934, -49.67301313025227, -49.671097782753264, -49.6694779649358, -49.66805518310298, -49.667032080996314])","array('d', [0.6328304409980771, 0.586114421255717, 0.5394789191394647, 0.49419086318922895, 0.4510547960572101, 0.4105447037407434, 0.37290131467176746, 0.3382025752579618, 0.3064144721692772, 0.27742783688256534, 0.2510852567776847, 0.22720101225190548, 0.20557607652067877, 0.18600959340663295, 0.1683078198134642, 0.15229122690422453])","array('d', [-0.03669983893632878, -0.024143200261677815, -0.016085324407519534, -0.010853706034310944, -0.007417186307275587, -0.005134339799360422, -0.003602383905164509, -0.002565844108862056, -0.0018609008097235863, -0.0013811592676653943, -0.001056363153085888, -0.0008389877664189777, -0.0006956810114077666, -0.0006017404374572288, -0.0005375558080081907, -0.0004864009559844101])","array('d', [0.890349642434392, 0.862970164717358, 0.8382305548836706, 0.8159423890720726, 0.795894024443279, 0.7778727970605082, 0.7616760833205335, 0.7471162260734053, 0.7340222266751947, 0.7222398024022356, 0.7116306577050309, 0.702071401923701, 0.6934523223942667, 0.6856761049530713, 0.678656535015139, 0.6707323372057953])",-142.19688729150522,-214.68626710653285,-49.70655679388241,0.4105447037407434,-0.005134339799360422,0.7778727970605082,25.00000024626373,-1.0,"[-221.23190642755108, -149.22786899124114, 49.85134212178051]","[-217.840110891076, -133.26127343345647, 61.40831185146652]","[-202.4776886518954, -143.2530547935831, 53.398300103874966]",10000000000.0,0.013698577880859375
6,27.277251482009888,-221.5624542236328,-149.703857421875,49.90713882446289,0.630721867084503,0.034506902098655555,0.8682017485287526,23.142410231352653,"array('d', [-150.7212677001953, -148.8157444704082, -146.9523260628502, -145.12809795470187, -143.34001681842835, -141.58509513850817, -139.8604874177504, -138.16352900348718, -136.49175064659204, -134.84287995062283, -133.2148354760073, -131.6057167007272, -130.01379175692622, -128.43748419015725, -126.87535961814271, -125.6372341383257])","array('d', [-222.50335693359375, -220.8869081604445, -219.22111319800698, -217.51207132725594, -215.76505994365587, -213.98465465836517, -212.17482653727046, -210.33902530134483, -208.4802514813055, -206.6011189824195, -204.70390917150345, -202.79061750568135, -200.86299363811625, -198.92257582298026, -196.9707203129012, -195.40009094143133])","array('d', [-49.90477752685547, -49.829916296716924, -49.78042477969326, -49.74728703525705, -49.72481488919819, -49.70937930710564, -49.69863667141048, -49.69105352561901, -49.68561236947381, -49.681628161645186, -49.67863318658459, -49.67630463339017, -49.674419212124434, -49.672825100544856, -49.671425063555446, -49.67041836216544])","array('d', [0.6328672170639037, 0.5844438732514599, 0.5366419871077918, 0.4906087394564882, 0.44704881510111755, 0.4063551957346518, 0.3687037688912071, 0.3341209247809685, 0.3025318568287978, 0.27379533688123964, 0.24772906348172805, 0.2241284263607572, 0.20278064231208137, 0.18347560705896737, 0.166014393651566, 0.15021604891346751])","array('d', [-0.03625950217246991, -0.0238459059390738, -0.015882839026591034, -0.01071438246986501, -0.0073202066047418565, -0.005065945598223883, -0.003553422049707299, -0.002530173908799974, -0.0018343620170642434, -0.0013609038189508252, -0.0010404230466833295, -0.0008259968198442025, -0.0006846974765654857, -0.0005921359717501535, -0.0005289477728365569, -0.0004786118901682033])","array('d', [0.8811942497876027, 0.8538626953251676, 0.8292467465570562, 0.8071250441918413, 0.7872641926174571, 0.7694373883445951, 0.753432960906714, 0.739057611846759, 0.7261370002718908, 0.7145150743847687, 0.7040528584327127, 0.6946270364563809, 0.6861284835665987, 0.6784608001730901, 0.6715388595196963, 0.6637243407779677])",-141.58509513850817,-213.98465465836517,-49.70937930710564,0.4063551957346518,-0.005065945598223883,0.7694373883445951,25.00000024864628,-1.0,"[-220.91273857195532, -148.8923238502187, 49.85307360678035]","[-217.4357921208387, -132.93081231108278, 61.391747393749895]","[-202.1284467122965, -142.98683256513678, 53.35672199281698]",10000000000.0,0.015960693359375
7,27.29574680328369,-221.5624542236328,-149.703857421875,49.90713882446289,0.630721867084503,0.034506902098655555,0.8682017485287526,23.142410231352653,"array('d', [-150.3800506591797, -148.48181421208366, -146.62582748062107, -144.80909148963767, -143.02850625638726, -141.28104691539403, -139.5638442674538, -137.87421968083814, -136.20969683866437, -134.56800112172468, -132.94705216514637, -131.34495264814151, -129.7599751461881, -128.1905482351636, -126.63524268812225, -125.40251896579639])","array('d', [-222.19085693359375, -220.56581802955964, -218.89172958802448, -217.17471761805191, -215.4200629548797, -213.63233075191576, -211.81547382640932, -209.97291973000168, -208.10764532295423, -206.22224083615876, -204.31896487078362, -202.39979156565067, -200.46645099678548, -198.52046370980338, -196.56317012530096, -194.98829235273863])","array('d', [-49.905113220214844, -49.831091490509564, -49.78216259087521, -49.74940619462626, -49.727195717098, -49.71194207303599, -49.701327781848306, -49.69383666038412, -49.68846275364525, -49.684528830664156, -49.681572521783316, -49.679274707542945, -49.67741464916465, -49.67584225771654, -49.67446141147516, -49.673468526452794])","array('d', [0.6327081918716428, 0.5834668666291605, 0.5351111762201975, 0.48872878619233284, 0.44497525362595575, 0.40420396332592873, 0.36655923598597984, 0.33204242741234885, 0.30055895631607266, 0.2719520723365194, 0.24602743657177206, 0.22257131369633354, 0.20136428777934304, 0.1821918104316027, 0.16485248384390133, 0.1491647093478913])","array('d', [-0.03585508093237866, -0.023576169479031024, -0.0157009258071904, -0.010590226150878042, -0.007234380031400431, -0.005005790662847126, -0.003510611083098361, -0.0024991681363120966, -0.00181143339314076, -0.0013435121463584818, -0.0010268185754361812, -0.000814967164385293, -0.0006754077903804686, -0.000584029805953539, -0.0005216872312817663, -0.00047204227990174213])","array('d', [0.8766734758999685, 0.8493751462618, 0.8248278278897485, 0.802794320758484, 0.7830308746357488, 0.7653040088438426, 0.7493978106776558, 0.7351163572511764, 0.7222837714084797, 0.7107432084625315, 0.7003554140932594, 0.6909971503333676, 0.6825596124080672, 0.6749468744607064, 0.6680743637611071, 0.6603154666643999])",-141.28104691539403,-213.63233075191576,-49.71194207303599,0.40420396332592873,-0.005005790662847126,0.7653040088438426,25.00000024864708,-1.0,"[-220.5937313125172, -148.55978668519623, 49.85538874277226]","[-217.0350208869873, -132.59336053515153, 61.36229171891635]","[-201.78074439793696, -142.72026535281492, 53.31537630929561]",10000000000.0,0.013985395431518555
8,27.310837268829346,-220.92857360839844,-149.03518676757812,49.909576416015625,0.6236309409141537,0.03216979652643194,0.8601081530239917,23.14957561348163,"array('d', [-150.04037475585938, -148.1491125763505, -146.3002093410102, -144.49058698010302, -142.717094150079, -140.9766731764456, -139.26643484026607, -137.58368944153435, -135.9259558700036, -134.2909590545337, -132.67662108766785, -131.08104893986416, -129.50252050392126, -127.93947010399482, -126.39047427554625, -125.16274215075698])","array('d', [-221.87667846679688, -220.2434730319513, -218.56154074544446, -216.83702216887116, -215.07519400703455, -213.28060627447022, -211.45719070504947, -209.6083510394444, -207.7370395989903, -205.8458225690611, -203.9369357269885, -202.01233202335487, -200.07372219075737, -198.12260934688828, -196.16031837133966, -194.58154387264236])","array('d', [-49.90597915649414, -49.833153456909535, -49.785022114596636, -49.752803878055516, -49.73096107771624, -49.71596195115252, -49.70552633946628, -49.698162631400486, -49.69288124937135, -49.6890160205892, -49.686112136195575, -49.68385569587372, -49.68202956842877, -49.68048611638196, -49.679130790890575, -49.678156273305795])","array('d', [0.6321647167205808, 0.5821948893576412, 0.5333566522700137, 0.48668065294888335, 0.4427759831361461, 0.4019589189475751, 0.3643444026311064, 0.32991062037533686, 0.2985447759649436, 0.2700758837847184, 0.24429861444842574, 0.22099094303043346, 0.19992746754621865, 0.18088967047276747, 0.1636739985902284, 0.14809837169718781])","array('d', [-0.03527768328785878, -0.023193071163291303, -0.015443752499470892, -0.010415459261694042, -0.007114084656583574, -0.004921861529162138, -0.0034511865262591493, -0.00245638391897768, -0.0017800081803082915, -0.0013198523890284861, -0.0010084504393192992, -0.0008001764732065844, -0.0006630137468577076, -0.0005732454709961988, -0.0005120360599364258, -0.0004633095381530902])","array('d', [0.8723524967816213, 0.8451071160217423, 0.820642445277118, 0.7987070482807395, 0.7790480195293313, 0.7614260704767788, 0.7456216672543619, 0.7314367029644289, 0.7186940744948713, 0.7072363607749862, 0.69692417743319, 0.6876344635377538, 0.6792587976227669, 0.6717017653289304, 0.6648793686524633, 0.65717685750965])",-140.9766731764456,-213.28060627447022,-49.71596195115252,0.4019589189475751,-0.004921861529162138,0.7614260704767788,25.000000248647805,-1.0,"[-220.5937313125172, -148.55978668519623, 49.85538874277226]","[-217.0350208869873, -132.59336053515153, 61.36229171891635]","[-201.78074439793696, -142.72026535281492, 53.31537630929561]",10000000000.0,0.013833761215209961
9,27.327316761016846,-220.60891723632812,-148.7030487060547,49.91099166870117,0.6177152395248411,0.030354864895343572,0.8561147014286855,23.15580607582829,"array('d', [-149.703857421875, -147.8192759161914, -145.9770848120013, -144.17413775672338, -142.40724207858656, -140.67331587276124, -138.96945699843351, -137.29297048332927, -135.64137514050233, -134.01239929438174, -132.40397065506636, -130.81420310845175, -129.24138207618472, -127.68394952767387, -126.14048941863611, -124.91711682430024])","array('d', [-221.5624542236328, -219.92147250465908, -218.2321600120368, -216.50064960005415, -214.73219862645394, -212.93133145616724, -211.10195142924061, -209.24743337077956, -207.37070149307934, -205.47429543827187, -203.56042641120416, -201.63102494560368, -199.68778155874296, -197.73218130910465, -195.7655330635577, -194.18337476998911])","array('d', [-49.90713882446289, -49.83590799750437, -49.78883747450288, -49.75733352577694, -49.73597786272349, -49.721315416611404, -49.71111581911064, -49.703920164910485, -49.69876063627767, -49.69498573320907, -49.69215066964925, -49.68994845980198, -49.688166750328094, -49.68666114972222, -49.685339190996245, -49.68438868543651])","array('d', [0.630721867084503, 0.5801751638669755, 0.5309812351533146, 0.4841160031394407, 0.44014508004788006, 0.3993506964821154, 0.3618212790410383, 0.32751440026826495, 0.29630127242459736, 0.2679985741450953, 0.24239158173141678, 0.2192512955940542, 0.19834738068849267, 0.17945815643813703, 0.16237848397244214, 0.14692614148923505])","array('d', [-0.034506902098655555, -0.022683051596718865, -0.015102147042443684, -0.010183752960050538, -0.006954856982078462, -0.004810934201991678, -0.0033727586931336486, -0.002400000332929617, -0.0017386580444918938, -0.0012887705725183349, -0.0009843589400203886, -0.0007808048390363062, -0.0006467983429950031, -0.0005591444447164322, -0.0004994189161858048, -0.0004518930733492708])","array('d', [0.8682017485287526, 0.8410570489702175, 0.8167120621771015, 0.7949037708119078, 0.7753721398429879, 0.7578735829640327, 0.7421860613111471, 0.728110107358179, 0.7154679993840496, 0.7041021874320457, 0.6938734855308978, 0.6846592491166187, 0.6763516127195094, 0.6688557970006064, 0.6620884672390224, 0.654447920512477])",-140.67331587276124,-212.93133145616724,-49.721315416611404,0.3993506964821154,-0.004810934201991678,0.7578735829640327,25.000000248648437,-1.0,"[-219.9505466526378, -147.89890530535916, 49.86133004389221]","[-216.23247387710188, -131.8770721390463, 61.24011718605528]","[-201.0820543808489, -142.18351342590873, 53.225002895665206]",10000000000.0,0.015134572982788086
10,27.34434413909912,-220.28744506835938,-148.37240600585938,49.91317367553711,0.6101053953170774,0.02814528904855236,0.8521436611798145,23.160901901914716,"array('d', [-149.03518676757812, -147.16349322031482, -145.3339061181679, -143.54318601635433, -141.78809839958208, -140.06554839152764, -138.37263796128596, -136.70668659810104, -135.06523379680894, -133.44603208850182, -131.84703507458266, -130.26638292629227, -128.70238683584301, -127.1535134058134, -125.618369695412, -124.40143666992566])","array('d', [-220.92857360839844, -219.27269978843583, -217.56965488529679, -215.82546170985427, -214.0452719629811, -212.2335105412628, -210.39398888402997, -208.52999810206484, -206.6443869174888, -204.73962739268688, -202.81787056755144, -200.88099365200245, -198.93064008485203, -196.96825349896486, -194.9951064071867, -193.4079588943615])","array('d', [-49.909576416015625, -49.84317749785665, -49.79931484549535, -49.76996812754195, -49.75008265153536, -49.736436168080886, -49.726949051240986, -49.720261196245545, -49.71547040159322, -49.71196934815113, -49.709343393032086, -49.70730632477887, -49.70566013317709, -49.70427016569433, -49.70305020163921, -49.70217309848048])","array('d', [0.6236309409141537, 0.5725296807841413, 0.5231409240576049, 0.4763355785595053, 0.43260040653653814, 0.3921588066708187, 0.3550553492817311, 0.3212149091400053, 0.2904843736180497, 0.2626624698473995, 0.23752146986835068, 0.21482330107925351, 0.19433176226139234, 0.1758219968438731, 0.1590880128245886, 0.14394879979826233])","array('d', [-0.03216979652643194, -0.021139857158679803, -0.014070076529113866, -0.00948435647089336, -0.006474409881252836, -0.00447616748085433, -0.00313590298497804, -0.002229507997674714, -0.0016134078701195086, -0.0011944252563721323, -0.0009110662047120061, -0.0007217467892866691, -0.0005972828807001581, -0.0005160463387132793, -0.0004608457877829979, -0.0004169908808435506])","array('d', [0.8601081530239917, 0.8333889932916847, 0.8094629337876803, 0.7880541428114923, 0.7688962865771293, 0.7517431974904631, 0.7363723482115587, 0.7225849524316083, 0.7102046187299221, 0.6990754813149136, 0.6890602207872994, 0.6800381365121966, 0.6719033136750079, 0.6645628764816816, 0.6579353000533392, 0.6504520960774728])",-140.06554839152764,-212.2335105412628,-49.736436168080886,0.3921588066708187,-0.00447616748085433,0.7517431974904631,25.00000024627654,-1.0,"[-219.6263046371666, -147.5706177251346, 49.8654663634144]","[-215.82961153726694, -131.4965193506075, 61.14414017513532]","[-200.73053179166584, -141.91630146503638, 53.178844730281675]",10000000000.0,0.014963150024414062
11,27.362922191619873,-220.28744506835938,-148.37240600585938,49.91317367553711,0.6101053953170774,0.02814528904855236,0.8521436611798145,23.160901901914716,"array('d', [-148.7030487060547, -146.83762392738817, -145.01397462405882, -143.22883652851348, -141.47897558401212, -139.7613094128527, -138.07295826109024, -136.41126251322098, -134.7737834757232, -133.15829543528963, -131.5627731113628, -129.98537680030964, -128.4244366135712, -126.87843675194267, -125.34600050988104, -124.13105496398866])","array('d', [-220.60891723632812, -218.94583411602224, -217.2363673452126, -215.4864321919931, -213.70109068195927, -211.8846914795908, -210.04098065735897, -208.17319302867983, -206.28412869517248, -204.37621764164888, -202.45157443217255, -200.51204461460244, -198.55924411512927, -196.59459263837203, -194.61934186694404, -193.03058397375068])","array('d', [-49.91099166870117, -49.84834324178016, -49.80696754267543, -49.77929191932871, -49.76054481524454, -49.74768490193729, -49.738749499116246, -49.73245505045285, -49.72795013958336, -49.72466161401905, -49.722198126370785, -49.720289511690254, -49.71874883403189, -49.717448958193934, -49.716308484977176, -49.715488573601455])","array('d', [0.6177152395248411, 0.5666634117607797, 0.5174599555517826, 0.47092574281109467, 0.4275123639165207, 0.3874186064237129, 0.35067186932317723, 0.3171851127088138, 0.28679706011659845, 0.25930098970883686, 0.23446572393356702, 0.21205124210945073, 0.19182054679423968, 0.17354888915556047, 0.15703111176725446, 0.1420876385878774])","array('d', [-0.030354864895343572, -0.019943041119795137, -0.013270403836851682, -0.008942758011630275, -0.006102452694139135, -0.004216978223580049, -0.002952454436480405, -0.0020973743576870553, -0.00151625060519068, -0.0011211614697676517, -0.0008540843326974855, -0.0006757819851236604, -0.0005587131491316337, -0.00048245961812475074, -0.00043078107705232, -0.00038978720335044195])","array('d', [0.8561147014286855, 0.8297326336651962, 0.8061163260049273, 0.7849890698803446, 0.7660856024609324, 0.7491616492796307, 0.7339968380245272, 0.7203945371463605, 0.7081803981180848, 0.6972004471963427, 0.6873190998018845, 0.6784172391408193, 0.6703903925933419, 0.6631469931031068, 0.6566066965392512, 0.6492219732292748])",-139.7613094128527,-211.8846914795908,-49.74768490193729,0.3874186064237129,-0.004216978223580049,0.7491616492796307,25.00000024627762,-1.0,"[-219.3002794825535, -147.24381297785035, 49.87096131561753]","[-215.42542666861846, -131.10039117095684, 61.02333541421442]","[-200.37751962849825, -141.64952217807814, 53.131800157593425]",10000000000.0,0.014332294464111328
12,27.38055396080017,-219.964111328125,-148.04330444335938,49.9157829284668,0.6009399294853208,0.025659313425421527,0.8481992642071582,23.16809266717898,"array('d', [-148.37240600585938, -146.51315503549648, -144.6952124268472, -142.91530615612834, -141.1702182508005, -139.45689234243264, -137.7724783840045, -136.11434725560147, -134.48009013752892, -132.86750986881486, -131.2746080557112, -129.69957006107725, -128.14074919576254, -126.59665101277982, -125.06591837596935, -123.85210137474215])","array('d', [-220.28744506835938, -218.61729194175888, -216.9016836598809, -215.14639399468726, -213.3563710148815, -211.53586941083606, -209.68855670821844, -207.81760149980477, -205.92574770718034, -204.0153774135055, -202.08856416646304, -200.1471182644372, -198.1926252427721, -196.22647852829365, -194.24990702011323, -192.66013652346726])","array('d', [-49.91317367553711, -49.855090056443046, -49.81673895975438, -49.79109419035522, -49.77372943712527, -49.76182380680278, -49.7535570232813, -49.7477387040992, -49.743579231557895, -49.740547024367466, -49.738279079811015, -49.73652476032179, -49.73511060950658, -49.73391864378179, -49.732873332383896, -49.7321218712526])","array('d', [0.6101053953170774, 0.5593334927371124, 0.5105147256132399, 0.46442200220919905, 0.421474820452329, 0.3818507137325251, 0.34556319211543507, 0.31251634893589003, 0.2825434921613762, 0.25543487919428076, 0.23095799015457186, 0.20887264878204728, 0.1889425464697882, 0.17094422555769026, 0.15467424827861712, 0.13995506012106973])","array('d', [-0.02814528904855236, -0.0184870871345317, -0.012298284247364445, -0.008284856706381558, -0.005650999471140859, -0.003902706916386514, -0.0027302905093907013, -0.0019375928898205722, -0.0013989719558948315, -0.0010329011705904672, -0.0007855805112462278, -0.000620626937037577, -0.0005124975775821542, -0.00044224694882038357, -0.0003947937967712392, -0.0003572245626980786])","array('d', [0.8521436611798145, 0.8261851789567138, 0.8029488059872002, 0.782160672933219, 0.7635594087460679, 0.7469047612353671, 0.7319801236810034, 0.7185922437971022, 0.7065697518279769, 0.6957612841359048, 0.6860335429277038, 0.6772694195885071, 0.6693662098091325, 0.6622339064734014, 0.6557935417536271, 0.6485217223315012])",-139.45689234243264,-211.53586941083606,-49.76182380680278,0.3818507137325251,-0.003902706916386514,0.7469047612353671,25.000000246278496,-1.0,"[-219.3002794825535, -147.24381297785035, 49.87096131561753]","[-215.42542666861846, -131.10039117095684, 61.02333541421442]","[-200.37751962849825, -141.64952217807814, 53.131800157593425]",10000000000.0,0.01336979866027832
13,27.394404888153076,-219.964111328125,-148.04330444335938,49.9157829284668,0.6009399294853208,0.025659313425421527,0.8481992642071582,23.16809266717898,"array('d', [-148.04330444335938, -146.190139665849, -144.37768950754256, -142.60269169073075, -140.86195922394134, -139.15247423752578, -137.47142681684102, -135.81622704586286, -134.1845032781995, -132.57409305801258, -130.98303010372777, -129.40952932456395, -127.85197111486214, -126.30888578946407, -124.77893881221577, -123.56551161361767])","array('d', [-219.964111328125, -218.2870312140804, -216.56554498720624, -214.8052573440979, -213.01098218770255, -211.18686520824778, -209.33648407581927, -207.46293256047332, -205.56889179493075, -203.65669083141773, -201.72835817560238, -199.78566567597807, -197.8301658941524, -195.8632238588943, -193.88604391388984, -192.29586540037383])","array('d', [-49.9157829284668, -49.86283447890698, -49.82788441775991, -49.80452239692923, -49.788710895079674, -49.7778771214277, -49.7703610139004, -49.76507698703094, -49.76130491774426, -49.758559967849024, -49.756511004553204, -49.754929346898145, -49.75365669591361, -49.752585359344664, -49.751646405167754, -49.75097146872248])","array('d', [0.6009399294853208, 0.550660391926673, 0.502409386438315, 0.4569142784211232, 0.4145655419745499, 0.37552263787702533, 0.33978823120758905, 0.307260345788096, 0.27776938373821014, 0.2511047943446608, 0.22703463432193344, 0.20532020437504314, 0.1857272380919723, 0.16803464844365493, 0.15204152563233805, 0.13757287394371986])","array('d', [-0.025659313425421527, -0.016849712855487226, -0.011205441675077126, -0.007545512240911831, -0.0051438411607027945, -0.0035497975475888522, -0.002480928623260243, -0.0017583501189433848, -0.00126749489865111, -0.0009340283336961868, -0.0007088980944301578, -0.0005589298711841907, -0.0004608274934287103, -0.0003973015185990011, -0.0003545746010815721, -0.0003208327292711373])","array('d', [0.8481992642071582, 0.822741076959651, 0.799947152725325, 0.7795496714544388, 0.7612935791511534, 0.7449444774681834, 0.7302909153902223, 0.7171440818071649, 0.7053364016162537, 0.6947197505656534, 0.6851636037714145, 0.6765532362127156, 0.6687880015921852, 0.6617796767253553, 0.6554508450838925, 0.6483048771830362])",-139.15247423752578,-211.18686520824778,-49.7778771214277,0.37552263787702533,-0.0035497975475888522,0.7449444774681834,25.000000246279196,-1.0,"[-218.972435478644, -146.9185387193868, 49.87729818171496]","[-215.019987265527, -130.69064131606825, 60.87882075770398]","[-200.02311094589257, -141.38245623002726, 53.082745174486966]",10000000000.0,0.01111912727355957
14,27.416475296020508,-219.3119354248047,-147.3896942138672,49.92281723022461,0.5787907242774961,0.020143518224358503,0.8400805751469471,23.179254646710028,"array('d', [-147.3896942138672, -145.5490219853449, -143.74757483582624, -141.9821513865651, -140.2496601123009, -138.54718791864738, -136.8720285124057, -135.2216902046932, -133.5938926319575, -131.9865573151112, -130.39779481076286, -128.82589012702627, -127.26928751035486, -125.72657539943836, -124.19647216327508, -122.98248612866462])","array('d', [-219.3119354248047, -217.62082164683935, -215.88768021923892, -214.11772479169085, -212.31545959966837, -210.48477990609393, -208.62905808395823, -206.7512179301417, -204.85379872509483, -202.93901031910312, -201.00878042450307, -199.06479516986155, -197.10853382036257, -195.1412984090104, -193.16423887280231, -191.57448239466657])","array('d', [-49.92281723022461, -49.881260635858396, -49.8538507532569, -49.835546508000746, -49.82317406932221, -49.81471148662288, -49.80885427167355, -49.80474936735908, -49.80183083133413, -49.799717530333005, -49.79814904732655, -49.79694543160558, -49.79598203390835, -49.795174013697974, -49.794467088442744, -49.793959146944694])","array('d', [0.5787907242774961, 0.5299614672114676, 0.4832547801475152, 0.43931084033591306, 0.39846720111597816, 0.3608526598245442, 0.3264535903894614, 0.29516097654007584, 0.26680410267452465, 0.2411750416440039, 0.21804676656755753, 0.19718680808899966, 0.1783677664420047, 0.16137557806571967, 0.1460161633677854, 0.1321209002159016])","array('d', [-0.020143518224358503, -0.013218871919803303, -0.008783482512247686, -0.005908017936891134, -0.004021446557526914, -0.0027695175776022755, -0.0019302592607953338, -0.001363126580743614, -0.0009781253482615854, -0.0007168738375544047, -0.0005408490825088902, -0.00042399291581173405, -0.00034799308162925343, -0.000299236448102835, -0.0002668441231405239, -0.0002414509246417218])","array('d', [0.8400805751469471, 0.8158008206174687, 0.7940407873270772, 0.7745506475344666, 0.7570924981237727, 0.7414471355823491, 0.727416136863315, 0.7148217074138392, 0.7035055496290158, 0.6933273598277948, 0.6841632284297381, 0.6759040512794643, 0.6684539805133571, 0.6617289084495694, 0.6556549652143722, 0.648795965433765])",-138.54718791864738,-210.48477990609393,-49.81471148662288,0.3608526598245442,-0.0027695175776022755,0.7414471355823491,25.000000246280305,-1.0,"[-218.972435478644, -146.9185387193868, 49.87729818171496]","[-215.019987265527, -130.69064131606825, 60.87882075770398]","[-200.02311094589257, -141.38245623002726, 53.082745174486966]",10000000000.0,0.010647773742675781
15,27.444141149520874,-218.6526336669922,-146.74232482910156,49.93340301513672,0.5526078343391417,0.013918795622885146,0.8316401402142383,23.189205019946765,"array('d', [-147.0652313232422, -145.23100951244322, -143.43514366047754, -141.67447986856436, -139.94598772274725, -138.24681752596075, -136.5743240882593, -134.92607278870963, -133.29983577383322, -131.69358252302055, -130.10546723247037, -128.53381455384826, -126.97710473079687, -125.43395889853973, -123.90312514739978, -122.68838493961876])","array('d', [-218.983154296875, -217.2848950277308, -215.5459048864335, -213.7711845361959, -211.96506903116736, -210.13131670451003, -208.27318771832904, -206.39351305824806, -204.4947546470226, -202.57905741626212, -200.6482942534338, -198.70410470888103, -196.74792824804445, -194.78103270776023, -192.80453848789205, -191.21550721466951])","array('d', [-49.9276237487793, -49.89246158072174, -49.869281450877196, -49.853812555874406, -49.84336653511991, -49.836230899244796, -49.83130085639328, -49.82785391815517, -49.82541071281751, -49.823648340217375, -49.82234609971607, -49.821351417412295, -49.82055855530437, -49.81989551899259, -49.81931625930677, -49.81890021080467])","array('d', [0.5660942196846004, 0.5181813655000865, 0.47241499318898433, 0.42939373410939485, 0.38943085732505106, 0.3526419831088161, 0.3190074006526424, 0.2884165036275011, 0.26069979682705263, 0.23565228204060917, 0.21305083838715017, 0.1926673844492653, 0.1742790470064938, 0.157676182691358, 0.1426688452499818, 0.12909212125861277])","array('d', [-0.017046881839632818, -0.011181663965508473, -0.007425378740080635, -0.00499043883058044, -0.0033930505199931344, -0.0023331474377123605, -0.0016227404475996105, -0.0011428170932488127, -0.0008171797566348153, -0.0005964014509440503, -0.000447868807996837, -0.00034951773980523214, -0.000285834316572668, -0.00024527140240627776, -0.00021858158071217973, -0.00019778119060618682])","array('d', [0.8358926932003833, 0.8122720785834219, 0.7910886674908079, 0.772103547118519, 0.7550888670522674, 0.7398341825465937, 0.7261485116824384, 0.713860316251364, 0.702816545071826, 0.6928813002189622, 0.6839343843409609, 0.6758698341387015, 0.6685944709365513, 0.6620264660238309, 0.6560939057427636, 0.6493937235398537])",-138.24681752596075,-210.13131670451003,-49.836230899244796,0.3526419831088161,-0.0023331474377123605,0.7398341825465937,25.00000024628076,-1.0,"[-217.97752693286282, -145.95254995525042, 49.90205466444154]","[-213.78341813313682, -129.40959994046946, 60.32991428108959]","[-198.94766655991324, -140.59227908926667, 52.923959763767016]",10000000000.0,0.015666484832763672
16,27.45633816719055,-218.6526336669922,-146.74232482910156,49.93340301513672,0.5526078343391417,0.013918795622885146,0.8316401402142383,23.189205019946765,"array('d', [-146.74232482910156, -144.91467732119997, -143.12445503219917, -141.36856177019703, -139.64403517706117, -137.94809423517023, -136.27815916712228, -134.6318560736462, -133.00701277308318, -131.40164947059205, -129.81396644198733, -128.2423301469587, -126.68525875763079, -125.14140783933497, -123.60955676892232, -122.39372444826657])","array('d', [-218.6526336669922, -216.9471736221308, -215.20231822685093, -213.4228520585283, -211.61293721760188, -209.77619140232838, -207.91575919055836, -206.03437578391313, -204.13442316562376, -202.2179791189021, -200.28685978179678, -198.34265646082295, -196.3867673731027, -194.42042489151376, -192.4447187616082, -190.85647400838036])","array('d', [-49.93340301513672, -49.9046993036404, -49.8857891807496, -49.873180983633254, -49.8646771945003, -49.858878125110486, -49.85488080415369, -49.85209469288121, -49.85012790839036, -49.848716408577694, -49.847679644550915, -49.846892728232845, -49.8462690533536, -49.84574962482805, -49.84529672302866, -49.844971573545926])","array('d', [0.5526078343391417, 0.5057037788854465, 0.46095824602010804, 0.41892994331757044, 0.3799091803556194, 0.3439995276161101, 0.31117617994604263, 0.28132782807080176, 0.2542869983136122, 0.229852344562775, 0.20780529995521074, 0.18792274385188437, 0.16998682560483125, 0.15379273870422738, 0.13915500443184742, 0.12591266631746886])","array('d', [-0.013918795622885146, -0.009124675503927142, -0.00605478479248488, -0.0040650106297656875, -0.002759807599984126, -0.0018938972807706846, -0.0013136406961808634, -0.0009217856972398348, -0.0006560746364564798, -0.0004761271463782366, -0.0003552997325961112, -0.0002755634846584595, -0.0002242327163921007, -0.00019185030143691344, -0.0001708219186529762, -0.00015456687352835265])","array('d', [0.8316401402142383, 0.808708161519776, 0.788127242852242, 0.7696699617346098, 0.7531189565525515, 0.7382728945152853, 0.7249485314901818, 0.712980838848806, 0.7022222289985507, 0.6925413957382662, 0.6838220125161932, 0.6759613914152869, 0.6688691366108982, 0.662465794319047, 0.6566814885499735, 0.6501484286221365])",-137.94809423517023,-209.77619140232838,-49.858878125110486,0.3439995276161101,-0.0018938972807706846,0.7382728945152853,25.000000246281168,-1.0,"[-217.97752693286282, -145.95254995525042, 49.90205466444154]","[-213.78341813313682, -129.40959994046946, 60.32991428108959]","[-198.94766655991324, -140.59227908926667, 52.923959763767016]",10000000000.0,0.010722637176513672
17,27.480589628219604,-218.3217010498047,-146.42225646972656,49.94112777709961,0.5385484695434568,0.010593467392027257,0.8274793783810476,23.191961985404536,"array('d', [-146.42225646972656, -144.60104914993002, -142.8162904881668, -141.064951355419, -139.34414361766906, -137.65115942351966, -135.98348788747123, -134.33881863434192, -132.7150374621213, -131.11021722957733, -129.5226059209366, -127.95061319569673, -126.39279635881707, -124.84784646256446, -123.31457511093373, -122.09731060399861])","array('d', [-218.3217010498047, -216.60925779814787, -214.858766780445, -213.07479629024397, -211.26133449693918, -209.42185730030818, -207.5593925749532, -205.6765787439622, -203.77571699759628, -201.8588172488961, -199.92763827721046, -197.9837226268606, -196.0284268187174, -194.06294736655744, -192.08834300541136, -190.5011255206155])","array('d', [-49.94112777709961, -49.919288242394, -49.90491319686679, -49.89534067121319, -49.888895592865424, -49.88451111903008, -49.88149899910486, -49.879409073224856, -49.87794254423557, -49.87689800736744, -49.87613765970902, -49.875566103239365, -49.8751171223209, -49.87474558260076, -49.87442264280888, -49.87419096057049])","array('d', [0.5385484695434568, 0.4927444921462876, 0.4490942524542914, 0.40811988312081116, 0.3700912908863924, 0.3351020063703906, 0.3031237549521594, 0.2740458674143246, 0.24770401795294422, 0.2239014634127576, 0.20242499230326158, 0.1830571129081143, 0.16558554208999057, 0.14981073775368947, 0.13555200184913546, 0.12265253446817247])","array('d', [-0.010593467392027257, -0.006939350169642377, -0.004599780825793751, -0.0030835527759101385, -0.002089105143416238, -0.0014294796195902964, -0.0009875885229908533, -0.000689327945856616, -0.00048726609725110206, -0.00035064256638158944, -0.00025916164745403564, -0.00019908571317920267, -0.00016073872234706812, -0.00013689087738621492, -0.00012171412135363506, -0.0001101322060102339])","array('d', [0.8274793783810476, 0.8052529703993934, 0.7852889592039656, 0.7673719477592469, 0.751295428655936, 0.736867453999958, 0.7239127339905239, 0.7122729268142375, 0.7018060549810963, 0.692385524717274, 0.6838989785871704, 0.67624708290561, 0.6693422869429931, 0.6631075604718932, 0.6574751033866555, 0.6511132951528369])",-137.65115942351966,-209.42185730030818,-49.88451111903008,0.3351020063703906,-0.0014294796195902964,0.736867453999958,25.000000246281502,-1.0,"[-217.64223473568327, -145.63387630580547, 49.91252549582792]","[-213.36480965805487, -128.97341393804325, 60.11706509336267]","[-198.58549601410695, -140.33333446828166, 52.869714283550664]",10000000000.0,0.01161050796508789
18,27.522451162338257,-217.65469360351562,-145.7865447998047,49.96076583862305,0.5089934468269347,0.003970345947891351,0.819030419984136,23.197651601989115,"array('d', [-145.7865447998047, -143.97852807468934, -142.2048972032207, -140.46277941932266, -138.7494477812261, -137.06234943884823, -135.39911803496554, -133.75757593388718, -132.1357298959769, -130.531762566295, -128.9440213864154, -127.3710060724823, -125.81135551184133, -124.26383474462669, -122.72732257375469, -121.50691148005258])","array('d', [-217.65469360351562, -215.9281994074474, -214.16637595006677, -212.37337136458146, -210.5528302272973, -208.70794524517754, -206.841509444537, -204.9559654024952, -203.05345009979453, -201.13583501859037, -199.20476160176983, -197.26167238930375, -195.30783819683774, -193.34438168088835, -191.3722975853387, -189.78748252252404])","array('d', [-49.96076583862305, -49.95259380923272, -49.94724053047062, -49.943700090370115, -49.94133964379995, -49.93975612749711, -49.93868943099395, -49.93796929766906, -49.937482561198266, -49.93715276729689, -49.93692742795391, -49.93677004480784, -49.936655160266845, -49.93656536155959, -49.93648955549352, -49.93643554956159])","array('d', [0.5089934468269347, 0.4655531878672066, 0.424233940895992, 0.3854896680604345, 0.3495527015300898, 0.3164987360637323, 0.2862942493902314, 0.2588312283974223, 0.23395282773110437, 0.21147256452401328, 0.19118888872496123, 0.17289642187595936, 0.15639477497708915, 0.14149559192918976, 0.12802828346909703, 0.11584479193876171])","array('d', [-0.003970345947891351, -0.0025903113891654634, -0.0017070495573039781, -0.0011348489266815595, -0.000759765737017568, -0.0005111940514332995, -0.0003449366736794268, -0.00023303670312775805, -0.00015761072761272496, -0.00010706755230614106, -7.375956371860409e-05, -5.250157668642129e-05, -3.962092830342897e-05, -3.233950153201442e-05, -2.8371533234609676e-05, -2.567231496944777e-05])","array('d', [0.819030419984136, 0.7982515077070537, 0.7795562696752193, 0.7627530278609767, 0.7476567020543303, 0.7340939524755513, 0.7219053498743592, 0.710945963602292, 0.7010851302412622, 0.6922058069809134, 0.6842037152646632, 0.676986373036412, 0.6704720579713263, 0.6645887162330504, 0.6592728184613608, 0.6532677859270852])",-137.06234943884823,-208.70794524517754,-49.93975612749711,0.3164987360637323,-0.0005111940514332995,0.7340939524755513,25.000000246282116,-1.0,"[-217.30665751742703, -145.31797655125806, 49.92523787321374]","[-212.94781050740184, -128.53797492598125, 59.89679733996225]","[-198.22407826115517, -140.0768688300422, 52.82108986920989]",10000000000.0,0.012637138366699219
19,27.537548780441284,-217.31881713867188,-145.47084045410156,49.97292709350586,0.4937782883644102,0.0008301853085866781,0.81495584646729,23.198510392843215,"array('d', [-145.47084045410156, -143.66921790357895, -141.90091309795247, -140.16314248858401, -138.45326566807844, -136.76881093156277, -135.10748669645258, -133.46718357576015, -131.8459702919474, -130.24208558658546, -128.65392762708828, -127.0800419974334, -125.51910909450538, -123.96993157816428, -122.43142240612755, -121.2091606551192])","array('d', [-217.31881713867188, -215.5856283869411, -213.8184479744889, -212.02122371600015, -210.1974337838913, -208.3501324518562, -206.4819972683008, -204.59537412879266, -202.69231872154697, -200.7746338524289, -198.84390265396758, -196.90151789592855, -194.94870768155187, -192.98655780893824, -191.01603104152994, -189.43269314720217])","array('d', [-49.97292709350586, -49.97123251728707, -49.970149921133896, -49.96946052578125, -49.969026629960524, -49.96876043418237, -49.96860515172423, -49.968523458780744, -49.968490370537275, -49.968488816505804, -49.968506885080345, -49.96853611877139, -49.96857048549228, -49.96860579523223, -49.968639414581794, -49.96866402713317])","array('d', [0.4937782883644102, 0.4516018190824683, 0.41151188036632624, 0.37393289948066355, 0.3390815875341508, 0.3070270062050731, 0.27773472474893646, 0.25109939358530187, 0.22696897754578638, 0.2051629971095365, 0.18548645064671734, 0.16774060315174272, 0.15173148311501827, 0.13727668965676432, 0.12421094615807404, 0.11239072198974395])","array('d', [-0.0008301853085866781, -0.0005304755180658218, -0.00033879897080398784, -0.00021478609491923633, -0.00013368351264069755, -8.01658887329376e-05, -4.465251049126566e-05, -2.109483260122905e-05, -5.6336845533776904e-06, 4.225980746759588e-06, 1.0130382000208371e-05, 1.3205276113134777e-05, 1.4270334807419389e-05, 1.3982266350040465e-05, 1.2930765057353276e-05, 1.1699573020308425e-05])","array('d', [0.81495584646729, 0.7949039319921202, 0.7768466069063217, 0.7606039539400806, 0.7460014719394449, 0.7328750148921478, 0.7210730108379977, 0.7104571945539825, 0.7009025430854644, 0.6922967871297865, 0.6845396931212931, 0.677542213020046, 0.6712255466661113, 0.6655201348940478, 0.6603645887606475, 0.6545401968855468])",-136.76881093156277,-208.3501324518562,-49.96876043418237,0.3070270062050731,-8.01658887329376e-05,0.7328750148921478,25.000000246282347,-1.0,"[-216.63030699127012, -144.69082740894473, 49.95481033534798]","[-212.10649187031933, -127.67000573559042, 59.432506591049034]","[-197.4969266588534, -139.56890977525305, 52.72604053307002]",10000000000.0,0.010934829711914062
20,27.567139863967896,-216.6427459716797,-144.8435516357422,50.00180435180664,0.4634513854980466,-0.005193429067731005,0.8071201006558278,23.201602855251775,"array('d', [-145.1565399169922, -143.36117807858793, -141.59806073160058, -139.86449788315102, -138.1579373383584, -136.4759891477115, -134.8164366815477, -133.17723880476865, -131.5565261342712, -129.9525934123086, -128.36388942619078, -126.78900552005359, -125.22666349553226, -123.67570353329472, -122.13507265475128, -120.91084685172328])","array('d', [-216.98147583007812, -215.24180389289035, -213.4694470492048, -211.66816227908097, -209.84126738110336, -207.99168226090558, -206.12197184643244, -204.23438742087328, -202.33090491137133, -200.41325959991792, -198.4829771869071, -196.54140134733737, -194.58971799448045, -192.62897647292718, -190.6601078789708, -189.07830859947993])","array('d', [-49.986507415771484, -49.99118586475832, -49.994302251607664, -49.996413528173534, -49.99786983716034, -49.99889394662889, -49.99962935229832, -50.000169678857866, -50.00057681882494, -50.00089222316962, -50.00114398451409, -50.00135130668628, -50.001527332405836, -50.00168092976054, -50.00181781651271, -50.0019165891458])","array('d', [0.4785088896751401, 0.43761995524729824, 0.3987751113878982, 0.3623719003530563, 0.32861310375009617, 0.29756225450174123, 0.26918475727931723, 0.24337844561004782, 0.21999647072274575, 0.19886463719071845, 0.17979470533656092, 0.16259474650875214, 0.14707732862610168, 0.13306609254379598, 0.12040112844093763, 0.10894345605125884])","array('d', [0.002260098466649767, 0.0014954193328091708, 0.0010058576563702294, 0.0006884586352492667, 0.00048006503100035534, 0.000341533540460624, 0.00024834555910541845, 0.0001849728704058162, 0.0001414649011820312, 0.00011136076983541966, 9.039800517822044e-05, 7.570484318159372e-05, 6.528948186400843e-05, 5.771476580831417e-05, 5.189178404164433e-05, 4.695300910363565e-05])","array('d', [0.810983792939458, 0.7916501584747937, 0.774224004592874, 0.758536750460578, 0.7444241051556445, 0.7317308238319967, 0.7203129702484029, 0.7100387808491161, 0.7007887533655743, 0.6924553043786923, 0.6849421806084299, 0.6781637194179766, 0.6720440054555428, 0.6665159448477801, 0.6615202655735238, 0.6558760763078448])",-136.4759891477115,-207.99168226090558,-49.99889394662889,0.29756225450174123,0.000341533540460624,0.7317308238319967,25.00000024628255,-1.0,"[-215.94830014264764, -144.06909497318094, 49.98989756058529]","[-211.26784787622594, -126.81331674337984, 58.95268084847476]","[-196.7685819587425, -139.05686340331613, 52.63866049373523]",10000000000.0,0.02261519432067871
21,27.579771995544434,-216.6427459716797,-144.8435516357422,50.00180435180664,0.4634513854980466,-0.005193429067731005,0.8071201006558278,23.201602855251775,"array('d', [-144.8435516357422, -143.05431383708523, -141.29626238437015, -139.5668023153795, -137.86346907427537, -136.18395322750644, -134.5261117237123, -132.88797036416253, -131.26772046487008, -129.66371170310916, -128.0744425409178, -126.49854924340765, -124.93479426905078, -123.38205464954473, -121.83931086725994, -120.61312687852276])","array('d', [-216.6427459716797, -214.89679922493363, -213.1194257550888, -211.31420412801606, -209.4843002550029, -207.6325057543147, -205.7612774304577, -203.87277535366627, -201.96889830185, -200.05131606625977, -198.1214985156974, -196.18074150317707, -194.23018977357842, -192.27085704498762, -190.3036434213183, -188.72336957450764])","array('d', [-50.00180435180664, -50.01253000156534, -50.01962675790296, -50.02438929742075, -50.027631604228816, -50.02987169854062, -50.031443478171376, -50.03256506841252, -50.03338098150174, -50.033988346191784, -50.03445334079329, -50.03482152722382, -50.03512433758599, -50.03538310385226, -50.035611510111224, -50.03577595634071])","array('d', [0.4634513854980466, 0.42384038253689615, 0.3862273089005149, 0.3509851083042218, 0.3183039233078724, 0.28824245426344963, 0.2607662883732371, 0.23577658741138638, 0.2131317195575637, 0.19266374108263035, 0.17419110933976317, 0.15752862250962663, 0.1424953044178311, 0.12892075646617776, 0.11665036064055483, 0.10554962069182175])","array('d', [0.005193429067731005, 0.003416756548959581, 0.0022796259998635804, 0.001542701338766692, 0.0010592104258562672, 0.0007382200127479495, 0.0005227974422298868, 0.00037690849102347017, 0.00027748064044751304, 0.00020954442327696785, 0.00016322397416734636, 0.00013184857332672927, 0.00011075165466351575, 9.649912036216747e-05, 8.639445935020604e-05, 7.817243253001675e-05])","array('d', [0.8071201006558278, 0.7884844889056877, 0.7716729622707884, 0.7565275428029283, 0.7428935305326297, 0.7306240856081142, 0.7195825202746929, 0.7096432741164967, 0.7006921363088338, 0.6926260330281973, 0.6853525550333199, 0.6787893189976643, 0.6728632109944737, 0.6675095362042215, 0.6626710862741204, 0.6572041886683286])",-136.18395322750644,-207.6325057543147,-50.02987169854062,0.28824245426344963,0.0007382200127479495,0.7306240856081142,25.000000246282738,-1.0,"[-215.94830014264764, -144.06909497318094, 49.98989756058529]","[-211.26784787622594, -126.81331674337984, 58.95268084847476]","[-196.7685819587425, -139.05686340331613, 52.63866049373523]",10000000000.0,0.011281251907348633
