,current_time,x_pos,y_pos,z_pos,roll,pitch,yaw,vel,x_traj,y_traj,z_traj,roll_traj,pitch_traj,yaw_traj,x_cmd,y_cmd,z_cmd,roll_cmd,pitch_cmd,yaw_cmd,vel_cmd,effector_dmg,effector_x,effector_y,effector_z,cost,time_solution
0,3.3814780712127686,-224.59779357910156,-286.07122802734375,49.94186019897461,0.6291472315788266,0.03673183545470246,2.339957312741552,23.11006804869412,"array('d', [-287.8197021484375, -286.73989010974395, -285.6102631129599, -284.43227080913, -283.20781773537476, -281.9392480230934, -279.7693498053163, -277.5605782166946, -275.31659539236887, -273.04168766353223, -270.74014204104736, -268.4158999001528, -266.0724135380432, -263.7126222058255, -261.33898801386806, -259.4295641657235])","array('d', [-223.07437133789062, -224.11412929494892, -225.09989307219425, -226.02759459682116, -226.89325722168115, -227.69303095189895, -228.93398505696328, -230.10450531923192, -231.20614326021442, -232.24251736444728, -233.21838934776244, -234.13896532663466, -235.0094403920432, -235.83473490772732, -236.61936298770345, -237.21423868055567])","array('d', [-49.94655227661133, -49.89688092498365, -49.855108440267344, -49.82029513541999, -49.79152579656576, -49.767952800999666, -49.73594641069275, -49.70981217306462, -49.68828107486981, -49.67033452036221, -49.655164505065535, -49.64213885800634, -49.63077213644506, -49.62070230205679, -49.61167274107827, -49.605149590756895])","array('d', [0.6282311081886288, 0.6431875190081877, 0.6567206403758924, 0.6689659160685649, 0.6800459006838574, 0.6900714861307893, 0.690419598142191, 0.6702457433905137, 0.6361679370734548, 0.593808636470955, 0.5475476293052418, 0.5005756039910912, 0.4550713266621033, 0.41239123507797537, 0.3732251212717346, 0.33770808566298804])","array('d', [-0.03596043959259995, -0.03037342878011281, -0.025413223141705462, -0.02108099201683733, -0.01734286090580904, -0.01414249597985817, -0.011507283577459925, -0.00943505971374382, -0.007817025542101813, -0.00656129034969045, -0.005590983377858691, -0.004842074846710057, -0.004261026812265623, -0.003802511426326656, -0.003427410471015546, -0.003101249630880856])","array('d', [2.3613103787091116, 2.3130379954674494, 2.2633125155200835, 2.212244856226491, 2.1599392700958924, 2.1064935087573766, 2.074090926547349, 2.042346594702904, 2.012330185803506, 1.9846267700982547, 1.95945261154414, 1.936788084309667, 1.9164821673064467, 1.898321961610905, 1.8820757791589737, 1.863880841897248])",-281.9392480230934,-227.69303095189895,-49.767952800999666,0.6900714861307893,-0.01414249597985817,2.1064935087573766,25.000000241976004,-1.0,"[-225.07250060186587, -285.67327300235144, 49.88925348534222]","[-239.5198490276427, -282.74690389006076, 52.666029904652056]","[-228.83451258791962, -274.00987192549815, 58.53866624790854]",10000000000.0,0.013654947280883789
1,3.399287223815918,-224.89776611328125,-285.7177429199219,49.940765380859375,0.6294681429862973,0.03691932186484353,2.3356478373196463,23.112227657899457,"array('d', [-287.4725646972656, -286.3882050007158, -285.2542563640446, -284.0721887564352, -282.8439263466821, -281.5718321097275, -279.39646141197005, -277.1825337201813, -274.9337095686148, -272.65426064624, -270.3484520602956, -268.02020040639684, -265.67293309343563, -263.3095658931214, -260.93253954550545, -259.02054907237476])","array('d', [-223.38218688964844, -224.41719632379517, -225.39798364236862, -226.32048638138178, -227.18073592427052, -227.97489253825, -229.20623007947032, -230.36697038527376, -231.45869320922816, -232.48504215290905, -233.4507996999321, -234.36118857017553, -235.22141698626186, -236.03641571646634, -236.81070718857157, -237.39728344215266])","array('d', [-49.94548797607422, -49.89571714584061, -49.853898398865006, -49.81907574807083, -49.790321942928855, -49.766780852897526, -49.734844285481124, -49.70878762868626, -49.687335447250575, -49.66946541519906, -49.65436753447788, -49.641408718708, -49.63010325208467, -49.62008918942867, -49.61111020995241, -49.604623689089586])","array('d', [0.6283399462699888, 0.6432859997855912, 0.6568097494762576, 0.6690465453240673, 0.6801188570576108, 0.6901374997923221, 0.6903575271048954, 0.6701002118387377, 0.635975721522508, 0.5935968713374606, 0.5473344357239673, 0.5003718114227609, 0.45488238467008546, 0.4122189343894124, 0.3730690495766075, 0.33756686614055176])","array('d', [-0.03604806214571015, -0.030419216662022394, -0.025429633061253086, -0.021077381054406014, -0.017325977993127982, -0.014116977052024339, -0.01147701880563119, -0.00940328167665872, -0.007785660934743665, -0.006531410644621091, -0.005563120713153015, -0.004816434680069085, -0.004237625180294777, -0.003781259451326441, -0.0034081635333467896, -0.00308383427992424])","array('d', [2.35692955652741, 2.308646710097228, 2.25891155859886, 2.2078349726998288, 2.1555211592886736, 2.1020678255799146, 2.0696651841095997, 2.037927621268229, 2.0079217282460773, 1.9802301940967135, 1.955067806481423, 1.9324141893532787, 1.9121180391187966, 1.8939664359234243, 1.877727796922724, 1.859541154434898])",-281.5718321097275,-227.97489253825,-49.766780852897526,0.6901374997923221,-0.014116977052024339,2.1020678255799146,25.000000242152378,-1.0,"[-225.93570314823873, -284.63625261812723, 49.885398977798964]","[-240.3319530552306, -281.5711248533998, 52.77555129235501]","[-229.51705003728438, -272.94016747128046, 58.56730813984581]",10000000000.0,0.013092994689941406
2,3.4162983894348145,-225.1980743408203,-285.36016845703125,49.939022064208984,0.6296927928924557,0.03703881055116656,2.3313262621548514,23.115439788519478,"array('d', [-287.1241455078125, -286.0353682945952, -284.89722341034275, -283.7112007058214, -282.47924354012395, -281.2037332891011, -279.0230622893551, -276.8041436626807, -274.5506362579262, -272.2667973664764, -269.95687063520234, -267.6247484140877, -265.27383377657, -262.90701954529436, -260.5267255773549, -258.61226493073684])","array('d', [-223.6884307861328, -224.7187854494458, -225.69469663551013, -226.61210736194522, -227.46705687720467, -228.255715506645, -229.47764281844715, -230.62881480959362, -231.71083881451247, -232.72738289583893, -233.68324970935328, -234.58367806490375, -235.43388888486416, -236.23882298229353, -237.00301079963947, -237.58147526554524])","array('d', [-49.944679260253906, -49.89477150403405, -49.85287371570575, -49.818013313344046, -49.78925063444672, -49.765720627824116, -49.73382440495589, -49.70782026357468, -49.686425575036466, -49.66861362244808, -49.65357186011842, -49.64066583144893, -49.62940918286547, -49.61943977827109, -49.61050137754618, -49.604044254967526])","array('d', [0.6284471154212949, 0.6433829704524976, 0.6568974921720168, 0.6691259382054433, 0.6801906947136939, 0.6902025011961657, 0.6902971088748256, 0.6699580917934872, 0.635787905499563, 0.5933899139393672, 0.5471260663884472, 0.5001726240689531, 0.45469771012663235, 0.4120505247397693, 0.372916502362762, 0.337428835700947])","array('d', [-0.03616229072213181, -0.03048840987017292, -0.025466411003186598, -0.021091333325904946, -0.017324123457359706, -0.014104233623444505, -0.011457595428483774, -0.009380742428326814, -0.007762219228479011, -0.006508380724518226, -0.005541235997602827, -0.0047960638933429054, -0.0042189134600483435, -0.0037642165964198743, -0.0033927165560213315, -0.0030698572755835083])","array('d', [2.3526538173344473, 2.3043606665950214, 2.2546159905023857, 2.2035306137233417, 2.151208698202089, 2.097747907398256, 2.065345183911578, 2.0336142238956665, 2.003618600939995, 1.9759386742849323, 1.950787787714745, 1.9281448314389682, 1.9078582254018868, 1.8897150290312743, 1.8734837621377312, 1.855305223568116])",-281.2037332891011,-228.255715506645,-49.765720627824116,0.6902025011961657,-0.014104233623444505,2.097747907398256,25.000000242316386,-1.0,"[-225.93570314823873, -284.63625261812723, 49.885398977798964]","[-240.3319530552306, -281.5711248533998, 52.77555129235501]","[-229.51705003728438, -272.94016747128046, 58.56730813984581]",10000000000.0,0.014648914337158203
3,3.4313411712646484,-225.49671936035156,-285.00146484375,49.93724060058594,0.6298651695251463,0.03711218386888516,2.3270241777088976,23.119196478443534,"array('d', [-286.7744445800781, -285.6813582004343, -284.5391122522555, -283.3492179324944, -282.11363918537245, -280.8347771066448, -278.64890215909975, -276.4250816073215, -274.1669733824983, -271.8788213206696, -269.56484853707593, -267.2289239571748, -264.87442700484803, -262.5042281106601, -260.12072669568414, -258.20384254318446])","array('d', [-223.9931182861328, -225.01889190751194, -225.98999508448645, -226.9023761751028, -227.75208222659677, -228.53529363016062, -229.74788759509622, -230.8895621828235, -231.96195243155694, -232.96875129885353, -233.91478217721743, -234.80530054063732, -235.64554053559561, -236.4404534754387, -237.19457820524343, -237.76496097087932])","array('d', [-49.943809509277344, -49.89373442077927, -49.85173150579029, -49.81681122940493, -49.788021101217815, -49.76448672086135, -49.73260953152692, -49.70664025464047, -49.68528833716335, -49.667522066847646, -49.6525258583631, -49.63966349124921, -49.62844766586925, -49.61851582108399, -49.60961162843624, -49.603179301524726])","array('d', [0.6286577582359312, 0.6435735679702512, 0.6570699519534343, 0.669281986282821, 0.6803318928657032, 0.6903302625778039, 0.6902994724807493, 0.6698765647549736, 0.6356571003291943, 0.5932356961801742, 0.5469659714943713, 0.5000173516531548, 0.4545528536008538, 0.4119181643512142, 0.37279657607359157, 0.33732032189727224])","array('d', [-0.036298323422670524, -0.03057641393293099, -0.02551921879587988, -0.021118802368932536, -0.017333561242304642, -0.014100842326878287, -0.011445897276799639, -0.009364621272918119, -0.007744154704758644, -0.0064899053570664274, -0.005523259310734672, -0.00477909407415364, -0.004203203371055504, -0.003749856086023854, -0.003379688207081576, -0.0030580687369039117])","array('d', [2.348468498387609, 2.30015508982576, 2.2503916890803706, 2.1992890303313204, 2.146951187116611, 2.0934757368325028, 2.0610687882721703, 2.029340427519121, 1.99935141743849, 1.9716798711579764, 1.946537687256836, 1.9239029790781466, 1.903623834215743, 1.8854872373953298, 1.8692617646332623, 1.8510895952744353])",-280.8347771066448,-228.53529363016062,-49.76448672086135,0.6903302625778039,-0.014100842326878287,2.0934757368325028,25.00000024247096,-1.0,"[-226.23132338886336, -284.27420754583704, 49.88347655065145]","[-240.60932718524813, -281.1600605071273, 52.81180287338948]","[-229.74971807330607, -272.56654443820855, 58.575514482158695]",10000000000.0,0.013951301574707031
4,3.4453823566436768,-225.49671936035156,-285.00146484375,49.93724060058594,0.6298651695251463,0.03711218386888516,2.3270241777088976,23.119196478443534,"array('d', [-286.07122802734375, -284.96944052375164, -283.81891307887724, -282.62120166625374, -281.3783133192906, -280.0926903242907, -277.8963260110828, -275.6626314746025, -273.39526304174404, -271.09843731362474, -268.77633568512067, -266.43277941404034, -264.0710997591479, -261.69412152150886, -259.3042024621641, -257.38247415403106])","array('d', [-224.59779357910156, -225.61418747022762, -226.57544682589972, -227.4775306543043, -228.31650184552225, -229.08856140534644, -230.28204813738157, -231.4042804858312, -232.45695050884117, -233.44380229665455, -234.36970174402805, -235.23993840571845, -236.059773415992, -236.8341794760396, -237.5677125191033, -238.12155906931008])","array('d', [-49.94186019897461, -49.89122901267189, -49.84883210653815, -49.81364077413524, -49.7846720636782, -49.76102863925461, -49.7290546997984, -49.703046058841394, -49.681690478642146, -49.66394167263483, -49.648974403750834, -49.636146167983895, -49.62496568126641, -49.61506798667558, -49.606195493347215, -49.59978623281607])","array('d', [0.6291472315788266, 0.6440164617648242, 0.6574706988131204, 0.669644596992446, 0.6806599965044183, 0.6906271426805487, 0.6903361808685797, 0.669738191785361, 0.6354147648464981, 0.5929426887422102, 0.5466585423504553, 0.4997177256519956, 0.4542727505990465, 0.4116620577061164, 0.37256450750277653, 0.33711033754166947])","array('d', [-0.03673183545470246, -0.030886842078604197, -0.025735887106816856, -0.021264820902917526, -0.01742658143235709, -0.014153899244445722, -0.011470718000298563, -0.009371591370756925, -0.0077402955766870335, -0.006479895309322596, -0.005510168659826336, -0.004764897736699602, -0.004189126505980791, -0.003736598911315139, -0.0033675668260800696, -0.003047101061831341])","array('d', [2.339957312741552, 2.2915968076575153, 2.241789876256542, 2.1906470420895263, 2.138272172928234, 2.084762645893144, 2.052344829642643, 2.020619830896711, 1.9906426786928377, 1.962986869550086, 1.9378613062129104, 1.9152424709723859, 1.894977734949087, 1.8768539009965508, 1.8606396381470436, 1.842479800005959])",-280.0926903242907,-229.08856140534644,-49.76102863925461,0.6906271426805487,-0.014153899244445722,2.084762645893144,25.000000230047256,-1.0,"[-226.5252841662796, -283.9110718386551, 49.881585102687]","[-240.8848817054769, -280.7476611318844, 52.84718642662911]","[-229.9809516545281, -272.1915564366075, 58.58281035846741]",10000000000.0,0.013131141662597656
5,3.462193489074707,-225.49671936035156,-285.00146484375,49.93724060058594,0.6298651695251463,0.03711218386888516,2.3270241777088976,23.119196478443534,"array('d', [-285.7177429199219, -284.61157578354954, -283.4568768073861, -282.25522584940194, -281.0086529082122, -279.7196222086461, -277.51797267261423, -275.27930501859794, -273.0072750977491, -270.70608598889646, -268.3798981371216, -266.0325087519091, -263.6672247242455, -261.2868477252191, -258.893714367222, -257.0280240401993])","array('d', [-224.89776611328125, -225.9093795617765, -226.8656164002013, -227.76244128100316, -228.59592541829082, -229.3622806072671, -230.5459885952188, -231.65826737791332, -232.70083860002893, -233.67747296011424, -234.59305851227313, -235.45290259729185, -236.262280437834, -237.02617589927195, -237.74915383355471, -238.27736806186198])","array('d', [-49.940765380859375, -49.88989715378649, -49.84733876132208, -49.812042275107466, -49.7830099832549, -49.75933359605961, -49.727341226661565, -49.70133787393202, -49.680001414879406, -49.66227908213714, -49.64734147613363, -49.634543484612834, -49.62339224992557, -49.61352193542561, -49.60467454945156, -49.598478195916634])","array('d', [0.6294681429862973, 0.644306834440419, 0.6577334388988941, 0.6698823340747098, 0.6808751099315178, 0.6908217853782596, 0.6903956160662011, 0.669705255679717, 0.6353255286496595, 0.5928243971387479, 0.5465298985123301, 0.49959033774136635, 0.4541528714355159, 0.41155221960636396, 0.37246495012033787, 0.33702025428854376])","array('d', [-0.03691932186484353, -0.031016557200181327, -0.025822297199677213, -0.021319189805278426, -0.017457396838141265, -0.014167329851319193, -0.011472231428453217, -0.009365966242188233, -0.007730689645540888, -0.006468354376651425, -0.005497989510123885, -0.00475287850335245, -0.004177733435477655, -0.0037260732668769566, -0.0033579906212826706, -0.0030384361583802103])","array('d', [2.3356478373196463, 2.2872564369100594, 2.237420950493527, 2.1862517632444014, 2.1338526077606548, 2.0803207295969863, 2.047894599166899, 2.0161687738574936, 1.986195431817426, 1.958545723481455, 1.9334269944908191, 1.9108148525690305, 1.8905562611008784, 1.8724378939768425, 1.8562284387780494, 1.8375034936302221])",-279.7196222086461,-229.3622806072671,-49.75933359605961,0.6908217853782596,-0.014167329851319193,2.0803207295969863,25.000000230408276,-1.0,"[-226.5252841662796, -283.9110718386551, 49.881585102687]","[-240.8848817054769, -280.7476611318844, 52.84718642662911]","[-229.9809516545281, -272.1915564366075, 58.58281035846741]",10000000000.0,0.015684843063354492
6,3.4832708835601807,-226.08880615234375,-284.2805480957031,49.93345260620117,0.6304109692573545,0.03672327473759663,2.318745330968175,23.126429132045097,"array('d', [-285.36016845703125, -284.24963258119936, -283.0907836484743, -281.885223611436, -280.6350037048853, -279.34260843742885, -277.1357511453428, -274.8921909121691, -272.6155820890353, -270.31011331943876, -267.97992338453435, -265.628784935699, -263.2599801565594, -260.8762873755033, -258.4800219319757, -256.5535124949117])","array('d', [-225.1980743408203, -226.20488241673178, -227.15608182750384, -228.04764323280406, -228.8756463858259, -229.63631394521204, -230.8102853017701, -231.91266337329427, -232.94519898797066, -233.91168860393122, -234.81704141527962, -235.6665815335473, -236.4655973429718, -237.21908306246416, -237.9316117671812, -238.46859246681086])","array('d', [-49.939022064208984, -49.88801077940597, -49.84537010716783, -49.81003461005755, -49.780993523743575, -49.75732920370781, -49.72537980246476, -49.69943214672964, -49.678156611278354, -49.660495846204434, -49.64561778263144, -49.632875858483736, -49.62177652551228, -49.611953722887165, -49.60314952386276, -49.596789780108296])","array('d', [0.6296927928924557, 0.6445101060997438, 0.6579173667187117, 0.6700487588629432, 0.6810256973197096, 0.6909580424843939, 0.6903974806807893, 0.6696173764621982, 0.6351850299069427, 0.5926589626190992, 0.5463582675087566, 0.4994239302913331, 0.45399764974441315, 0.4114103952693621, 0.3723364498605965, 0.3369039824348787])","array('d', [-0.03703881055116656, -0.031088713713388984, -0.02586045938166883, -0.021333455681163217, -0.017455135036746304, -0.014153690000929791, -0.01145161043303145, -0.009342081683453862, -0.007705849491544609, -0.006443932186705026, -0.005474757058954425, -0.0047312300451479074, -0.0041578309822302584, -0.003707936470510732, -0.0033415493581835194, -0.0030235594812465694])","array('d', [2.3313262621548514, 2.2829132255589197, 2.2330577424127873, 2.181870100889792, 2.1294539388374307, 2.075906409596268, 2.0434757918665016, 2.011752789620593, 1.9817865560852772, 1.95414583631106, 1.9290364329396945, 1.9064331259749734, 1.8861825254621356, 1.868071226499965, 1.8518679772338187, 1.833720247462008])",-279.34260843742885,-229.63631394521204,-49.75732920370781,0.6909580424843939,-0.014153690000929791,2.075906409596268,25.000000230819936,-1.0,"[-227.10832326086881, -283.1816614401845, 49.87838007450198]","[-241.43203369421764, -279.9198199419251, 52.91016328934553]","[-230.44316713903132, -271.4407654075356, 58.59790853989569]",10000000000.0,0.014277935028076172
7,3.498339891433716,-226.38211059570312,-283.9181213378906,49.93131637573242,0.6310740113258361,0.03596333786845215,2.3150603334095816,23.132723254913284,"array('d', [-285.00146484375, -283.8866015644861, -282.7236488945755, -281.5142297645212, -280.26041556507437, -278.96471005330943, -276.75273662271076, -274.50437548459604, -272.2232788736621, -269.9136205334883, -267.57951728261, -265.2247170556614, -262.85247727203796, -260.4655529270258, -258.06623813618666, -256.13743552706967])","array('d', [-225.49671936035156, -226.49872922867036, -227.44490542483257, -228.33122484854164, -229.15377591953325, -229.90879218877095, -231.0730973437326, -232.1656524985675, -233.18823731801123, -234.14467340182355, -235.03989037208487, -235.87922841357772, -236.66798844005663, -237.41117447301565, -238.11336733902718, -238.64205279763775])","array('d', [-49.93724060058594, -49.88614962393144, -49.843479398617106, -49.80814833636703, -49.77913392590259, -49.75551035748898, -49.72364232797652, -49.69778129722141, -49.676591850171846, -49.659013403443915, -49.644212269552, -49.63154124429608, -49.62050669871593, -49.61074279524019, -49.60199198371955, -49.59567089864368])","array('d', [0.6298651695251463, 0.6446660789410154, 0.6580584967943094, 0.6701764586474385, 0.6811412448728231, 0.6910625942394543, 0.6903684841888778, 0.6695003365246329, 0.6350175217391937, 0.5924688146960339, 0.5461641746714723, 0.499237171869174, 0.45382401092861985, 0.4112519076129959, 0.3721928723415822, 0.33677406811152627])","array('d', [-0.03711218386888516, -0.031122322653455405, -0.025866727316200374, -0.02132157601586997, -0.017431634227149172, -0.014122969044703252, -0.011417288769872544, -0.009307110467835363, -0.007671929948154604, -0.006411962877132243, -0.005445142257356053, -0.004704083817562217, -0.004133106389903125, -0.0036855031579541885, -0.0033212370218963813, -0.003005180117679697])","array('d', [2.3270241777088976, 2.2785945347568695, 2.2287237038744987, 2.177521898731032, 2.125092684401526, 2.0715331434060524, 2.0391001034615552, 2.0073818706268614, 1.977424488510083, 1.9497942732307638, 1.9246954976453776, 1.9021021422405215, 1.8818604941794688, 1.8637570969216923, 1.8475607814404649, 1.8294206739078172])",-278.96471005330943,-229.90879218877095,-49.75551035748898,0.6910625942394543,-0.014122969044703252,2.0715331434060524,25.000000231179577,-1.0,"[-227.3975994550087, -282.81545476669186, 49.87738299657847]","[-241.70532380518975, -279.5062330137697, 52.93320944931156]","[-230.67865809320182, -271.0678552648177, 58.60827986667749]",10000000000.0,0.012733697891235352
8,3.514286518096924,-226.67347717285156,-283.55426025390625,49.929317474365234,0.6322759985923767,0.034724529832601665,2.311709896722112,23.139416897646093,"array('d', [-284.2805480957031, -283.15738679535633, -281.9865565279701, -280.76972309747765, -279.50899922216416, -278.206928260481, -275.98511735535936, -273.7275269048788, -271.4378056782453, -269.1200994101408, -266.7784831739385, -264.4166576557476, -262.0378327512774, -259.64471854890576, -257.23956822569625, -255.30638165797973])","array('d', [-226.08880615234375, -227.08153480955397, -228.017969937854, -228.894102537591, -229.70603952586055, -230.45003705339832, -231.59547478161105, -232.66884217266738, -233.6719763748507, -234.60874957230718, -235.48413280655853, -236.3034990478068, -237.0721748792284, -237.795184468547, -238.477124610652, -238.98955159811266])","array('d', [-49.93345260620117, -49.88293769221361, -49.84081981178826, -49.80600187341048, -49.77745342766722, -49.75424619324614, -49.72299119649149, -49.697667890564944, -49.67694870665669, -49.65978189294466, -49.645342459648106, -49.632991121780044, -49.62224106789977, -49.612732054097094, -49.60421089367339, -49.598055885874864])","array('d', [0.6304109692573545, 0.6451599390058869, 0.6585053599002487, 0.6705807971421497, 0.6815071055034707, 0.6913936386498646, 0.6904368468650194, 0.6693911430190002, 0.6348019168374224, 0.5922001636161993, 0.5458788579444127, 0.4989575802917611, 0.45356204286511703, 0.41101221131211746, 0.3719756525426592, 0.33657751949185855])","array('d', [-0.03672327473759663, -0.030742553374103712, -0.02550936718583577, -0.020994084470513222, -0.017137173249483006, -0.013861696189494989, -0.011187569628287583, -0.009106147318497895, -0.0074962475399318945, -0.006257969062632785, -0.0053094650644534835, -0.004583751895795744, -0.0040256283580365655, -0.00358888674218331, -0.0032339754100804688, -0.0029262225252342784])","array('d', [2.318745330968175, 2.2702630803331147, 2.220343630659407, 2.1690969592867604, 2.1166264004705853, 2.06302881212263, 2.0305827229805358, 1.9988658781354427, 1.9689186090158517, 1.9413026166600151, 1.9162191608241934, 1.893640563353613, 1.873412365235095, 1.855320901047427, 1.8391350722656936, 1.8210064976418716])",-278.206928260481,-230.45003705339832,-49.75424619324614,0.6913936386498646,-0.013861696189494989,2.06302881212263,25.00000023184813,-1.0,"[-227.3975994550087, -282.81545476669186, 49.87738299657847]","[-241.70532380518975, -279.5062330137697, 52.93320944931156]","[-230.67865809320182, -271.0678552648177, 58.60827986667749]",10000000000.0,0.014261245727539062
9,3.5319371223449707,-226.9628448486328,-283.1888732910156,49.92708969116211,0.6339984536170956,0.032910548150539516,2.308773712315831,23.148412744460767,"array('d', [-283.9181213378906, -282.7912510549625, -281.61687071453366, -280.39667123589675, -279.13278972364753, -277.8277930680985, -275.6014427202383, -273.33958222911144, -271.04586123271537, -268.7244152227281, -266.37930236849604, -264.0142034018832, -261.63230763820485, -259.23630538340893, -256.82843155568867, -254.8932002539211])","array('d', [-226.38211059570312, -227.37068037433292, -228.3027000775687, -229.17416915169298, -229.98120480212162, -230.72007528757464, -231.85668550032221, -232.92104041227438, -233.9150060077795, -234.8424812641301, -235.7084601042649, -236.51833420445578, -237.277445156921, -237.9908291295444, -238.66309256545156, -239.16773930009145])","array('d', [-49.93131637573242, -49.88186491393924, -49.84066626221285, -49.8066341172941, -49.778750972197656, -49.756102212012365, -49.72562421977258, -49.700950191313986, -49.68077701136867, -49.664073453303445, -49.65003140858664, -49.63802519577495, -49.62757871382975, -49.61833989465414, -49.610061502731504, -49.604081958208845])","array('d', [0.6310740113258361, 0.6457598843336013, 0.6590482129308429, 0.6710719909214659, 0.6819515560552996, 0.6917957941742079, 0.6907140547331513, 0.6695752005841125, 0.6349212634488163, 0.5922775552055465, 0.5459308932434327, 0.4989953545244205, 0.4535922566202358, 0.4110383614389254, 0.37199916358164575, 0.33659879316146135])","array('d', [-0.03596333786845215, -0.030082101083945215, -0.024942149274909717, -0.020511881164771883, -0.01673088417473241, -0.013522151622632586, -0.01090452025819529, -0.00886898304143372, -0.00729597842846065, -0.006087134071506458, -0.005161994242200523, -0.004454810277179567, -0.003911463728357104, -0.0034866944232401285, -0.0031417849741878284, -0.0028428051756301744])","array('d', [2.3150603334095816, 2.2665141199828507, 2.216535560835082, 2.165234345336779, 2.1127135265230783, 2.059069688692315, 2.026601218725047, 1.9948694407971879, 1.964912764843868, 1.9372910070894607, 1.912203977950559, 1.889623037233998, 1.869393151975341, 1.8513003475758554, 1.8351133791657541, 1.8169835447061555])",-277.8277930680985,-230.72007528757464,-49.756102212012365,0.6917957941742079,-0.013522151622632586,2.059069688692315,25.000000232113333,-1.0,"[-227.68531024483696, -282.4481490974095, 49.877241146633764]","[-241.97859747460674, -279.0931436053619, 52.95065591129381]","[-230.91748590963908, -270.69883651665447, 58.62405167113767]",10000000000.0,0.016482114791870117
10,3.553535223007202,-226.9628448486328,-283.1888732910156,49.92708969116211,0.6339984536170956,0.032910548150539516,2.308773712315831,23.148412744460767,"array('d', [-283.55426025390625, -282.4239847004929, -281.2462995598925, -280.0229279567625, -278.75603836397505, -277.44822802257244, -275.21748263634294, -272.95146900178355, -270.6538415474379, -268.32872996800535, -265.98017965207345, -263.61185482968295, -261.2269269739304, -258.8280687217458, -256.4174983455384, -254.48023677438985])","array('d', [-226.67347717285156, -227.6582357278917, -228.58613891778737, -229.45319588191975, -230.25553531546745, -230.9894388422729, -232.11742937004402, -233.17293511785735, -234.1578528105181, -235.0761118955739, -235.9327335020244, -236.73313226041947, -237.48266860286208, -238.18639401197476, -238.84892739830497, -239.3457360583889])","array('d', [-49.929317474365234, -49.88158597399846, -49.84185068012144, -49.80905195201023, -49.78219963364413, -49.76040543286802, -49.73110195812178, -49.70739847692865, -49.68803371147639, -49.67201060175385, -49.65854853583392, -49.64704360777033, -49.63703661661257, -49.62818823115084, -49.6202603629325, -49.614534105791414])","array('d', [0.6322759985923767, 0.6468474874868928, 0.6600323170490444, 0.6719624452314625, 0.6827572725068236, 0.6925248366321131, 0.691317155252506, 0.6700728681861927, 0.6353350176991159, 0.5926268713268374, 0.5462315835963806, 0.49925920251896605, 0.4538274000036883, 0.41125002882874767, 0.3721905469215021, 0.33677196398423276])","array('d', [-0.034724529832601665, -0.0290234092600561, -0.02404626501230737, -0.01976038899827086, -0.016105604138351142, -0.013006071042103965, -0.01047940152232196, -0.008516416933893439, -0.007000834623275599, -0.005837154032602686, -0.0049473939761907745, -0.004267916098170093, -0.003746398181140143, -0.0033391191782605263, -0.0030086980858482415, -0.00272238316842564])","array('d', [2.311709896722112, 2.26304757621557, 2.212961729549762, 2.1615615215918744, 2.108949493268872, 2.0552217307456564, 2.022709273704405, 1.990941795080595, 1.9609568210830326, 1.9333126748920355, 1.908207680755779, 1.885611997199781, 1.865369721639757, 1.8472662897030563, 1.8310700708920233, 1.8129301009578493])",-277.44822802257244,-230.9894388422729,-49.76040543286802,0.6925248366321131,-0.013006071042103965,2.0552217307456564,25.000000232371498,-1.0,"[-227.9714877136649, -282.07972791455467, 49.87773277984178]","[-242.25231804060695, -278.68058525889984, 52.96054227437767]","[-231.16086427599717, -270.3335872425137, 58.64449138586437]",10000000000.0,0.013031959533691406
11,3.571658134460449,-227.53549194335938,-282.45330810546875,49.92210006713867,0.6392553448677061,0.02781654149293909,2.3042096058514456,23.16687816364103,"array('d', [-283.1888732910156, -282.05557021715805, -280.87489713745225, -279.64861580507295, -278.3789324120539, -277.0684807742756, -274.833578960223, -272.5636180622206, -270.2622611170456, -267.9336366162845, -265.58178159232136, -263.21034760263973, -260.82249141595076, -258.4208705041455, -256.0076884712839, -254.06845990815884])","array('d', [-226.9628448486328, -227.94423519881, -228.86842073118993, -229.73142158845275, -230.5293791261238, -231.2585894784092, -232.37836336256075, -233.42538217208968, -234.40157467923393, -235.31090394081613, -236.15842216575277, -236.94957082262547, -237.68973272344613, -238.38397774787606, -239.03693990574544, -239.52602178886647])","array('d', [-49.92708969116211, -49.88186638166572, -49.844247040728455, -49.81321799461392, -49.78783393886619, -49.76724824982918, -49.73959400124779, -49.71724438383079, -49.69900091227104, -49.683917095974024, -49.67125255439475, -49.66043494018608, -49.65102934889759, -49.64271462800459, -49.63526564443665, -49.629885399514826])","array('d', [0.6339984536170956, 0.6484060293853854, 0.661442544204189, 0.6732384716450286, 0.6839118690568862, 0.6935695588878652, 0.6922383809434771, 0.6708789185938155, 0.6360397113384477, 0.593245787864701, 0.5467793038562415, 0.4997479009322338, 0.4542664714227739, 0.4116463387908042, 0.37254901511434757, 0.33709631944765517])","array('d', [-0.032910548150539516, -0.02748688855827389, -0.022756452970244843, -0.018686483954213632, -0.01521841105221327, -0.012279080028866598, -0.009884717870750664, -0.008026220094188097, -0.006592603390156056, -0.005492869117389708, -0.004652821354004453, -0.004011987471940654, -0.003520698986645901, -0.0031374827816910388, -0.0028268941034976973, -0.0025578801077167463])","array('d', [2.308773712315831, 2.259944664561301, 2.2097047772685285, 2.1581624580949974, 2.105419508892134, 2.051571297199359, 2.0189938023663756, 1.9871702216184193, 1.9571382889447186, 1.9294552744041122, 1.9043180147358754, 1.8816952510137335, 1.8614299289589418, 1.843306621042298, 1.8270930751605265, 1.808934083772211])",-277.0684807742756,-231.2585894784092,-49.76724824982918,0.6935695588878652,-0.012279080028866598,2.051571297199359,25.000000232598406,-1.0,"[-227.9714877136649, -282.07972791455467, 49.87773277984178]","[-242.25231804060695, -278.68058525889984, 52.96054227437767]","[-231.16086427599717, -270.3335872425137, 58.64449138586437]",10000000000.0,0.014268875122070312
12,3.589139938354492,-227.81874084472656,-282.0830993652344,49.919464111328125,0.6425641179084776,0.02449359558522718,2.3023128668454027,23.176326227109303,"array('d', [-282.45330810546875, -281.31513870563487, -280.1294649731657, -278.89815133771646, -277.62350414830274, -276.30825421628225, -274.06568716291605, -271.788373986839, -269.4800092598105, -267.1447352362377, -264.78658728659366, -262.4092043236654, -260.0157238894402, -257.60878108726337, -255.19055634986896, -253.24752169229328])","array('d', [-227.53549194335938, -228.51153047044886, -229.4295098596948, -230.2854744653365, -231.07559354199103, -231.79619542159085, -232.90063861778324, -233.9316383515064, -234.89119261823572, -235.78334341201779, -236.61321936089024, -237.3863297958484, -238.10811515567153, -238.78369327871218, -239.41773788208738, -239.89149167312792])","array('d', [-49.92210006713867, -49.88390012579603, -49.85216968615247, -49.82603793227925, -49.80469508963651, -49.787417799329745, -49.76425402777733, -49.745571975773444, -49.73035258146886, -49.717792463797196, -49.70726417179999, -49.69828333687295, -49.690482389847865, -49.68359028736458, -49.67741740220934, -49.67295911090512])","array('d', [0.6392553448677061, 0.6531626617226849, 0.6657465235170893, 0.677132873527111, 0.6874356699208156, 0.6967580260561982, 0.6951845180152759, 0.6735581720524977, 0.6384540303478066, 0.5954136607180037, 0.5487262294669732, 0.5014999738254174, 0.45584705336082687, 0.4130749221565172, 0.37384143513705514, 0.33826574954987765])","array('d', [-0.02781654149293909, -0.023199291582540294, -0.019178225593818682, -0.015723524596026873, -0.012783613335884413, -0.01029480752342673, -0.008270251510064167, -0.006701697207192749, -0.005494040196044583, -0.004569519326415943, -0.0038648938200430607, -0.0033287338103362546, -0.0029188712470484164, -0.0026001348551552366, -0.0023424765138875155, -0.0021195609074342887])","array('d', [2.3042096058514456, 2.254869173429248, 2.204156976412635, 2.1521790697029917, 2.0990349606409775, 2.04481778792265, 2.012036584888775, 1.9800297052978577, 1.9498390276831001, 1.922021163673027, 1.896769902412045, 1.8740503533373112, 1.8537021526821997, 1.8355071842787152, 1.8192311285688707, 1.801003509182006])",-276.30825421628225,-231.79619542159085,-49.787417799329745,0.6967580260561982,-0.01029480752342673,2.04481778792265,25.000000232973207,-1.0,"[-228.5392173472147, -281.3393984131323, 49.88038063552275]","[-242.80128279052207, -277.8604575636465, 52.96103963265251]","[-231.6621858671575, -269.6171355903217, 58.70283051842939]",10000000000.0,0.013500452041625977
13,3.611297369003296,-228.10110473632812,-281.70867919921875,49.91651153564453,0.6461033225059507,0.0206927917897702,2.300552682080541,23.188725976261424,"array('d', [-282.0830993652344, -280.94283905380223, -279.7549323109363, -278.52130551092665, -277.24432530947104, -275.92678080498877, -273.6805071116086, -271.399613433253, -269.08781553687146, -266.74926824532804, -264.3880111144272, -262.0076807649212, -259.6114082008473, -257.2018196246972, -254.78108555699848, -252.83615639847523])","array('d', [-227.81874084472656, -228.79250190508665, -229.70771163868852, -230.56042745345002, -231.34683379169704, -232.0632766732405, -233.16021665256696, -234.18330909735684, -235.1345895020369, -236.0181445920708, -236.83914724722257, -237.60314657156235, -238.31561702353716, -238.98170488447707, -239.6061074940087, -240.0720296891356])","array('d', [-49.919464111328125, -49.885839050349276, -49.857931855229346, -49.83496937591636, -49.81623350130341, -49.80108349892776, -49.78079740534719, -49.764458116457135, -49.75116489412945, -49.74020824590083, -49.73103447629876, -49.7232164522639, -49.71643025939913, -49.7104372354966, -49.705070615012666, -49.70119480150608])","array('d', [0.6425641179084776, 0.6561565636492201, 0.6684555182518797, 0.6795840735509742, 0.6896536076235261, 0.6987648992700727, 0.6970681515315958, 0.675292107862053, 0.6400307220001868, 0.596838462278982, 0.550011111487446, 0.5026590002395143, 0.45689380252275463, 0.4140213589774968, 0.37469770794976753, 0.3390405373009305])","array('d', [-0.02449359558522718, -0.0204117006180397, -0.016859320609338986, -0.013809405276106114, -0.011215686145145317, -0.009021271895306769, -0.007237539293185565, -0.005857015682767856, -0.004795323828636708, -0.003983564731800763, -0.0033657734567471573, -0.00289648463594303, -0.0025384490477621574, -0.00226060955337902, -0.0020364298656626997, -0.001842638430114098])","array('d', [2.3023128668454027, 2.2526485776161382, 2.201637397956525, 2.1493838686179774, 2.095986021882681, 2.0415355653954532, 2.008624614525176, 1.976499406344071, 1.9462052124665123, 1.9182987773607578, 1.89297227715579, 1.870188667861172, 1.8497855332873532, 1.8315430437182587, 1.815225535255534, 1.796952403596233])",-275.92678080498877,-232.0632766732405,-49.80108349892776,0.6987648992700727,-0.009021271895306769,2.0415355653954532,25.000000233122172,-1.0,"[-228.82043872397256, -280.9671908689277, 49.882727391488906]","[-243.07493930894648, -277.4482739873005, 52.952977715677]","[-231.91585434587935, -269.26283339637314, 58.738596534735755]",10000000000.0,0.018776416778564453
14,3.630305528640747,-228.38134765625,-281.332763671875,49.913700103759766,0.6498775482177731,0.0165277123451234,2.2989438335087637,23.201136138577866,"array('d', [-281.70867919921875, -280.56645445224615, -279.3764143515759, -278.1405514632709, -276.8612967596602, -275.5415013833689, -273.2915781010563, -271.00715127128, -268.69195986099857, -266.35017325788607, -263.9858369033938, -261.60258645265566, -259.20354735624676, -256.79133762640004, -254.36811837632985, -252.421312526382])","array('d', [-228.10110473632812, -229.0727247537226, -229.98527876737683, -230.83483732619158, -231.61760038047595, -232.32993218392775, -233.41942082510897, -234.4346369787548, -235.37765471080255, -236.252607418599, -237.06471443214232, -237.81956672641132, -238.52267462673208, -239.17921442438234, -239.79390839250354, -240.2519390755452])","array('d', [-49.91651153564453, -49.88811612075597, -49.86457292798475, -49.845222616155716, -49.82945353540717, -49.81672061901959, -49.79969885153203, -49.78601288485405, -49.77489806995718, -49.76575263872537, -49.758107337170145, -49.75160043457655, -49.74595781440853, -49.74097769189546, -49.736519290865814, -49.73329959094652])","array('d', [0.6461033225059507, 0.6593589686894256, 0.6713531744227356, 0.6822059815168467, 0.6920260082731552, 0.7009115363434317, 0.6990912174755266, 0.6771600941611706, 0.641733070582908, 0.5983791632741376, 0.5514018646552175, 0.5039142210993501, 0.4580277214987492, 0.41504669971236857, 0.3756253788473518, 0.33987992871672823])","array('d', [-0.0206927917897702, -0.017227844631110843, -0.014214646429339435, -0.011629615905865679, -0.009432863032910261, -0.007575548985396744, -0.0060671347443050135, -0.004901144839733889, -0.0040056748089387206, -0.0033220901224756123, -0.0028028230746165905, -0.002409270109483893, -0.0021098251702482643, -0.0018781404107352801, -0.0016916925986778704, -0.0015307072171720736])","array('d', [2.300552682080541, 2.250540262534175, 2.199207803377822, 2.1466581962479485, 2.092987868401986, 2.038286971984843, 2.005236486690225, 1.9729836101915024, 1.9425774811146324, 1.9145751330602219, 1.8891670870642023, 1.8663140179558642, 1.8458513114610569, 1.8275572913568874, 1.8111948388189847, 1.7928723816797263])",-275.5415013833689,-232.32993218392775,-49.81672061901959,0.7009115363434317,-0.007575548985396744,2.038286971984843,25.00000023329516,-1.0,"[-229.10092272739345, -280.5909132617018, 49.885474563032524]","[-243.34843020921124, -277.0301275521735, 52.93987068769687]","[-232.1707708340417, -268.9062326120661, 58.776159054011686]",10000000000.0,0.01979351043701172
15,3.6450395584106445,-228.38134765625,-281.332763671875,49.913700103759766,0.6498775482177731,0.0165277123451234,2.2989438335087637,23.201136138577866,"array('d', [-281.332763671875, -280.1887211440614, -278.99666397345544, -277.75865581983953, -276.47719652281734, -275.1552034588462, -272.9017011381988, -270.61380041829693, -268.2952657852153, -265.9502834396883, -263.5829066060981, -261.19677145219435, -258.7949989763958, -256.38019980168883, -253.954526209437, -252.00586742269465])","array('d', [-228.38134765625, -229.35097424799258, -230.26099945433452, -231.10750635399344, -231.88671023308783, -232.5949937928912, -233.67710797234113, -234.6845037611374, -235.61929471004368, -236.48566277750822, -237.28887594476242, -238.03456917927863, -238.72829054954974, -239.37524795160644, -239.98018992760953, -240.43028745011364])","array('d', [-49.913700103759766, -49.8910326831383, -49.87226330187493, -49.856859227617186, -49.84432696125658, -49.834227352994155, -49.82075655323917, -49.80995262107695, -49.80120079252663, -49.79401770805171, -49.788026763568325, -49.782937873064576, -49.77853139117558, -49.7746458139925, -49.77116870679476, -49.7686578907369])","array('d', [0.6498775482177731, 0.6627740296472499, 0.6744432496425603, 0.6850019974541732, 0.6945559483451147, 0.703200721001663, 0.7012569443650196, 0.6791655076351532, 0.6435643975543159, 0.6000389132728641, 0.5529014108871245, 0.5052683125789578, 0.4592512439555875, 0.4161531497180693, 0.376626443703145, 0.340785729738058])","array('d', [-0.0165277123451234, -0.013743128081069129, -0.011323733402039154, -0.009249991328914343, -0.0074892662701634884, -0.006001795155496315, -0.004795028622383059, -0.0038636809764999347, -0.003149706759144587, -0.0026058414994425444, -0.00219379246127067, -0.0018825154511897286, -0.0016466072779420249, -0.0014648871481935631, -0.0013192293447495704, -0.0011936885044435503])","array('d', [2.2989438335087637, 2.248558184043855, 2.1968814123350433, 2.14401461670146, 2.0900524808979957, 2.035083469345622, 2.0018833583546156, 1.9694931669304332, 1.9389664031683254, 1.9108605572869692, 1.8853644532703553, 1.8624363523824383, 1.841909290875727, 1.8235596077956482, 1.8071486144626538, 1.7887728963612617])",-275.1552034588462,-232.5949937928912,-49.834227352994155,0.703200721001663,-0.006001795155496315,2.035083469345622,25.000000233428924,-1.0,"[-229.3794434096178, -280.2133038462439, 49.888909663925936]","[-243.6205053160321, -276.6098386342954, 52.92324554578746]","[-232.4259070597211, -268.55037057817947, 58.81611789568994]",10000000000.0,0.013487100601196289
16,3.6794092655181885,-228.9355010986328,-280.576416015625,49.9089469909668,0.6582016944885252,0.007544293534010799,2.2958802739765978,23.225065008760414,"array('d', [-280.576416015625, -279.42890187172196, -278.23288813897403, -276.9906000348175, -275.70469296455343, -274.3782330397495, -272.117425707172, -269.82241839470436, -267.4970346469353, -265.14550072459645, -262.7718899439962, -260.37984233338597, -257.9724715423793, -255.55237408993537, -253.12168469956316, -251.16924767344366])","array('d', [-228.9355010986328, -229.90121992715783, -230.80618584146237, -231.64650378620104, -232.41841872919392, -233.11835115665318, -234.1851828708441, -235.176324853605, -236.09397497252593, -236.94242054289805, -237.72703566592736, -238.45355144805387, -239.1275984784662, -239.7544537447393, -240.3389231971704, -240.772354618186])","array('d', [-49.9089469909668, -49.898626709262764, -49.89013212114341, -49.88320809156774, -49.87761967330018, -49.873158968460274, -49.86727736115501, -49.862621112745124, -49.85890085673224, -49.85588968353013, -49.853411212900106, -49.85132988217841, -49.84954331526241, -49.84797657147851, -49.84657799311167, -49.845568647823974])","array('d', [0.6582016944885252, 0.6703060293491503, 0.6812584854236435, 0.6911686783614124, 0.70013579248272, 0.7082495732323801, 0.7060462680785482, 0.6836086367775268, 0.6476270432247296, 0.6037240519019879, 0.5562325963202298, 0.5082772531222212, 0.46197041288396745, 0.41861224443257705, 0.3788513327046328, 0.34279889273979824])","array('d', [-0.007544293534010799, -0.0062379836011785626, -0.0051070611812646044, -0.004141125218862721, -0.0033237520601007084, -0.002635347284296764, -0.0020792202237638786, -0.0016528926435794217, -0.0013287210769134343, -0.0010842955543539378, -0.0009015301487177302, -0.0007657988736410749, -0.0006651340563950998, -0.0005895223926038751, -0.0005303278283607374, -0.0004798608293499406])","array('d', [2.2958802739765978, 2.2446640946408416, 2.192221634165166, 2.1386499031111765, 2.0840396186934433, 2.0284754135836507, 1.9949428556068922, 1.9622470357783781, 1.931451540568826, 1.9031150699302506, 1.877422751453188, 1.8543274967123564, 1.833657109691641, 1.8151834997830625, 1.7986644698965129, 1.7801702129399533])",-274.3782330397495,-233.11835115665318,-49.873158968460274,0.7082495732323801,-0.002635347284296764,2.0284754135836507,25.000000233724183,-1.0,"[-229.9302702007563, -279.4537823380307, 49.89763065801392]","[-244.15839172211562, -275.7628707962692, 52.88723430470748]","[-232.9320549461725, -267.84128450830553, 58.90535970016516]",10000000000.0,0.013240575790405273
17,3.6984400749206543,-229.20986938476562,-280.1960144042969,49.907196044921875,0.6623813509941098,0.0029357846360654432,2.294180647530828,23.235323412674862,"array('d', [-280.1960144042969, -279.04663390119924, -277.84851205868995, -276.603959209282, -275.3157122594948, -273.98691480305723, -271.72229977037614, -269.4235991261696, -267.09466691561664, -264.73974925764117, -262.36292865661875, -259.96784588405086, -257.5576096291927, -255.1348081022642, -252.70156608165095, -250.74721100121693])","array('d', [-229.20986938476562, -230.17340907948457, -231.07561218032475, -231.91259268811007, -232.6806095386317, -233.37610203616399, -234.43483864842332, -235.41739169239662, -236.3260028533669, -237.16501379090835, -237.93985305315695, -238.65630086683367, -239.32002984216396, -239.93635205445736, -240.51010254550945, -240.93481467166632])","array('d', [-49.907196044921875, -49.90320627679491, -49.89997228987388, -49.89738338231143, -49.895338979581965, -49.89375116221094, -49.89172866970803, -49.89019255689941, -49.889021458810674, -49.8881205743292, -49.88741645373263, -49.88685282060872, -49.88638736398889, -49.885989403018385, -49.88563829084469, -49.88538557618316])","array('d', [0.6623813509941098, 0.6740879392928373, 0.6846804993627157, 0.6942650448995845, 0.7029375010412867, 0.7107846642055832, 0.7084441492030092, 0.68582801968703, 0.6496527306719799, 0.6055591340342862, 0.5578900121220232, 0.5097736031964708, 0.46332234492046886, 0.41983477693856563, 0.37995741850145837, 0.34379972064690745])","array('d', [-0.0029357846360654432, -0.0023929678535804123, -0.0019267948224903008, -0.0015316750795431675, -0.0011997335525498576, -0.000921990009762054, -0.0006997121933943093, -0.0005319762891146481, -0.0004069872730268883, -0.000315250669768559, -0.00024914852433307553, -0.00020253557023512683, -0.00017036636912647694, -0.0001483693571796207, -0.000132780429170583, -0.00012014503490492544])","array('d', [2.294180647530828, 2.242543556215457, 2.189713308914387, 2.135784791552321, 2.080846664108175, 2.024981576343176, 1.9912812764598755, 1.9584317264099151, 1.9275014405288333, 1.899049565431315, 1.8732592409846216, 1.8500806061456938, 1.8293387896810394, 1.8108034547014156, 1.794230635564592, 1.7756773904509582])",-273.98691480305723,-233.37610203616399,-49.89375116221094,0.7107846642055832,-0.000921990009762054,2.024981576343176,25.000000233879952,-1.0,"[-230.20275296999753, -279.0716644615024, 49.90279237429353]","[-244.4231267620842, -275.33387615514926, 52.87094125705272]","[-233.1796273341391, -267.48435785110814, 58.9511372249737]",10000000000.0,0.014276504516601562
18,3.7248177528381348,-229.48170471191406,-279.814208984375,49.90604019165039,0.6666266322135922,-0.0017603745218366116,2.292455152669225,23.24508133767472,"array('d', [-279.814208984375, -278.66295757457516, -277.4627134530081, -276.2158758277577, -274.92526638492745, -272.7195286878151, -270.47523267574354, -268.1951923255818, -265.8833164731212, -263.5439695878588, -261.1813794614366, -258.799335327102, -256.401085083638, -253.98934175070227, -251.5663393471609, -249.61952624053868])","array('d', [-229.48170471191406, -230.4430090508137, -231.34238581719464, -232.1759565394459, -232.9399933458065, -234.1164817916976, -235.21763267553595, -236.2427388104821, -237.19390698626844, -238.07539719402203, -238.8925957811896, -239.65126536420252, -240.35707457440537, -241.01533834369513, -241.63089758334652, -242.08894346315464])","array('d', [-49.90604019165039, -49.90849735258587, -49.91061276834475, -49.91242429146067, -49.91396935149781, -49.91616342140418, -49.918041039131616, -49.91966040210355, -49.921068836794326, -49.92230437642729, -49.92339719735163, -49.924370938213094, -49.925243896772535, -49.926030100691825, -49.92674026099874, -49.92725415393593])","array('d', [0.6666266322135922, 0.6779292289392934, 0.6881562422823074, 0.6974100274252687, 0.7057831991161696, 0.7133595582188633, 0.7118419067463896, 0.6896490051416241, 0.6535927868534057, 0.6094133193539473, 0.5615360897243826, 0.5131501267817772, 0.46640894254135884, 0.42263667958564644, 0.38249379522217997, 0.34609472941787767])","array('d', [0.0017603745218366116, 0.0015198539256934833, 0.0013042973001050875, 0.0011142380342399716, 0.0009486054805134303, 0.0008089798885101427, 0.0006950155736102125, 0.0006020261323479297, 0.0005259901024306874, 0.00046348435594046553, 0.00041163731585576186, 0.00036808197655201116, 0.0003309050650806693, 0.00029859703950762444, 0.00027000813362953227, 0.00024431316734356746])","array('d', [2.292455152669225, 2.2403878247469198, 2.18716138607727, 2.1328685127962874, 2.0775957285020303, 2.0438924681842394, 2.009987573646616, 1.9768962388286155, 1.945718243154864, 1.9170323429364495, 1.8910307525152195, 1.8676658742421162, 1.8467615660397525, 1.8280847627448644, 1.8113884325904093, 1.7926996971900842])",-272.7195286878151,-234.1164817916976,-49.91616342140418,0.7133595582188633,0.0008089798885101427,2.0438924681842394,25.000000232191635,-1.0,"[-230.47264949495386, -278.6881443927965, 49.90868075206933]","[-244.68480601144768, -274.9024273175576, 52.85536590269652]","[-233.42416009566261, -267.1267184314084, 58.998346032663825]",10000000000.0,0.01768660545349121
19,3.7423384189605713,-229.75146484375,-279.43096923828125,49.90547561645508,0.6707202196121212,-0.006294554099440463,2.290582255521093,23.254259738451776,"array('d', [-279.43096923828125, -278.27773633368395, -277.0752757243662, -275.82607550647424, -274.53304185181014, -272.3232752446404, -270.0750198014013, -267.7911308065417, -265.4755492331608, -263.132660660526, -260.7667029158817, -258.3814664839132, -255.98019456871828, -253.5655919914467, -251.13988284404047, -249.19103051478695])","array('d', [-229.75146484375, -230.71035075319313, -231.6067307203264, -232.43673241241063, -233.19664031578384, -234.36552363356563, -235.45855254733533, -236.47504354249628, -237.41714531359526, -238.2891714231336, -239.09656253071418, -239.84513052496115, -240.54058630590148, -241.18828014875143, -241.7930822854037, -242.242377123318])","array('d', [-49.90547561645508, -49.91414791285448, -49.92140089753793, -49.92741663347245, -49.932365902992785, -49.93911670804054, -49.944654859846864, -49.94923617179949, -49.95306551985463, -49.95630539532207, -49.95908330682368, -49.96149809198532, -49.96362515154307, -49.96552066346842, -49.967224901243426, -49.968456846937755])","array('d', [0.6707202196121212, 0.681633260327327, 0.6915077887838, 0.7004426323834821, 0.7085272138067084, 0.7158424456248115, 0.7141969667438525, 0.6918326453348461, 0.6555879482739883, 0.6112217863188776, 0.5631699381702001, 0.5146253904692336, 0.4677418879684462, 0.4238420584992203, 0.3835843629865618, 0.3470815160272929])","array('d', [0.006294554099440463, 0.005285407365869398, 0.0044000465527004795, 0.003633739985401736, 0.0029762661653444642, 0.002433439877026048, 0.0020042450101498753, 0.0016664418167956216, 0.0014014582593512039, 0.0011939052190161864, 0.0010311396753435625, 0.000902829212738033, 0.000800525259005841, 0.00071727322554502, 0.0006472846433560767, 0.0005856871008555287])","array('d', [2.290582255521093, 2.2380974344781572, 2.184486721607404, 2.1298406109907844, 2.0742435200405454, 2.0403618199692843, 2.00629086444265, 1.973046908165587, 1.9417349609856744, 1.9129343958514393, 1.886835504179645, 1.8633879285155535, 1.8424128467800338, 1.8236749400863863, 1.8069254026644954, 1.7881783425182955])",-272.3232752446404,-234.36552363356563,-49.93911670804054,0.7158424456248115,0.002433439877026048,2.0403618199692843,25.00000023237793,-1.0,"[-230.48625910583507, -278.6685639636162, 49.90899815223814]","[-244.69795469908996, -274.8803735188348, 52.85472752180461]","[-233.43637444482016, -267.10838912279223, 59.00070740497308]",10000000000.0,0.0157320499420166
20,3.7804698944091797,-230.28482055664062,-278.660400390625,49.906375885009766,0.67854368686676,-0.014974215999245546,2.2862581173565726,23.26939416089479,"array('d', [-278.660400390625, -277.5027365427569, -276.29542846607137, -275.041143608168, -273.74295775738136, -272.4043336904469, -270.12383454578645, -267.80981516028993, -265.4662522851213, -263.0974652970626, -260.7075640389544, -258.30018198513466, -255.87839812696623, -253.44475853914105, -251.00134041837924, -249.03939027109183])","array('d', [-230.28482055664062, -231.23816073695346, -232.12785693761182, -232.9500461777342, -233.70103635214494, -234.37733992029, -235.40132556660825, -236.347171163426, -237.21730019277837, -238.01627579533428, -238.74974589914459, -239.42368698512809, -240.04393845677032, -240.61595094322482, -241.14467389259266, -241.53280757798737])","array('d', [-49.906375885009766, -49.9269575592386, -49.94408629276441, -49.958228943583116, -49.96982049004163, -49.979249302356294, -49.991971804424914, -50.00231409793548, -50.01081513508995, -50.01789716807658, -50.02388804249657, -50.0290395079568, -50.033541849378224, -50.037535226799164, -50.04111823787454, -50.04370710105851])","array('d', [0.67854368686676, 0.6887122268791338, 0.6979131031829731, 0.7062384010607003, 0.7137714426999665, 0.7205876209029826, 0.7176599922977166, 0.694316054630686, 0.6573708949810535, 0.6125322592458153, 0.5641769424169525, 0.5154438284319343, 0.46844286483801445, 0.42446445446374914, 0.3841460245292572, 0.3475897284534208])","array('d', [0.014974215999245546, 0.012509992854658763, 0.010364608778001903, 0.008523258608566845, 0.006958397219173026, 0.00563550481206976, 0.0045604748134616055, 0.003727283055615169, 0.003084286294488336, 0.0025896000295490356, 0.0022094458075336697, 0.0019166144643249278, 0.001689056712425515, 0.0015086560042337307, 0.0013602298658568525, 0.0012307866729497896])","array('d', [2.2862581173565726, 2.2329680847554214, 2.1786167430059384, 2.12329026947886, 2.067068925070016, 2.0100272960279866, 1.9756735844286082, 1.9422290369050341, 1.910779980967185, 1.8818859789658569, 1.8557214861122435, 1.8322253023834463, 1.811211891797353, 1.79244210178417, 1.7756651044591265, 1.756888005324148])",-272.4043336904469,-234.37733992029,-49.979249302356294,0.7205876209029826,0.00563550481206976,2.0100272960279866,25.00000023457013,-1.0,"[-230.7559239026091, -278.2801377779053, 49.91533014566319]","[-244.95817500168496, -274.44264534319166, 52.8427377927657]","[-233.67795819363548, -266.74485610424045, 59.04763501964097]",10000000000.0,0.012824296951293945
21,3.799412965774536,-230.54847717285156,-278.2731628417969,49.9079475402832,0.6821627020835874,-0.019010668620467065,2.2838902632382254,23.27537126088605,"array('d', [-278.2731628417969, -277.11313239304803, -275.9032822791208, -274.64636739264523, -273.3455458257466, -272.00435721030055, -269.7197601967194, -267.40182158628704, -265.05454608401055, -262.68226715569483, -260.28909697009, -257.87866302693396, -255.45403333462, -253.0177404851804, -250.57184737014663, -248.60806351725316])","array('d', [-230.54847717285156, -231.49879611581568, -232.38492814505827, -233.20301366294544, -233.94937147484356, -234.62053171481566, -235.63529294764504, -236.57145774410841, -237.4314954232164, -238.2200230321392, -238.94274084423324, -239.60567154366325, -240.2146934179519, -240.7752891572291, -241.2924345312034, -241.67118190725364])","array('d', [-49.9079475402832, -49.934057927653164, -49.95575301814932, -49.973634588631846, -49.98826205561803, -50.00013384636285, -50.01611205266805, -50.02906580888227, -50.03968473011559, -50.04850845844368, -50.05595553621238, -50.06234704600391, -50.0679254317223, -50.07286902268676, -50.07730294133637, -50.080506349377835])","array('d', [0.6821627020835874, 0.6919868475606262, 0.7008761027741532, 0.7089194342036814, 0.7161973420271647, 0.7227826655882673, 0.7196998980280092, 0.6961777074722711, 0.6590519403208086, 0.614043514447518, 0.565535083256032, 0.5166664736518425, 0.46954601378421595, 0.4254615692083495, 0.3850481072383541, 0.3484059667166608])","array('d', [0.019010668620467065, 0.015857554599522965, 0.013115985562046665, 0.010765883272924475, 0.008770997251511082, 0.007086327961958374, 0.005719132531933666, 0.00466156158829257, 0.003847186497504485, 0.0032222362843933043, 0.002743422313782736, 0.002375921713628589, 0.0020915346818998026, 0.0018670849118106023, 0.0016831207383004088, 0.0015229504424402324])","array('d', [2.2838902632382254, 2.2302244421868305, 2.175527687258564, 2.1198841110217663, 2.06337199101071, 2.0060640169773976, 1.971563342977945, 1.9379864694881064, 1.9064231141529229, 1.8774324094669512, 1.8511865136128987, 1.8276214931427324, 1.8065493386936975, 1.7877289022155078, 1.7709078301889554, 1.7520824312440084])",-272.00435721030055,-234.62053171481566,-50.00013384636285,0.7227826655882673,0.007086327961958374,2.0060640169773976,25.0000002347473,-1.0,"[-231.52956531717282, -277.138855569227, 49.93646182560479]","[-245.69757424336163, -273.1509657434465, 52.82856448714202]","[-234.35450151766318, -265.67024648346666, 59.18258215259462]",10000000000.0,0.015605926513671875
22,3.825697898864746,-231.07179260253906,-277.49102783203125,49.9138069152832,0.6887220740318296,-0.02646948769688595,2.2786574522641043,23.290287813109355,"array('d', [-277.8826599121094, -276.72011521834327, -275.50760855573947, -274.2479790072525, -272.94446364192737, -270.71751622730676, -268.4525296038474, -266.1525239604369, -263.8215584011255, -261.46408545132954, -259.08436375497143, -256.68617056506133, -254.2727143412263, -251.84665363488605, -249.41016163527246, -247.45323890402486])","array('d', [-230.8111114501953, -231.75819190326408, -232.6405683555767, -233.45438383464958, -234.19596750985494, -235.33155083496234, -236.38931369150302, -237.36867563397158, -238.27195749487282, -239.10368421891522, -239.86950632241556, -240.5754235078463, -241.22730624562828, -241.83063728258406, -242.3903961493461, -242.8031294653846])","array('d', [-49.91048812866211, -49.94177794124118, -49.96766418885423, -49.988873244843816, -50.00607644895915, -50.029159730605535, -50.04776116193207, -50.0628689754849, -50.075268885609084, -50.08557998478038, -50.09428528273625, -50.101757180306315, -50.10827804998681, -50.114056290632654, -50.11923847474947, -50.122982423489304])","array('d', [0.6854987144470213, 0.6950053966485217, 0.7036073991836344, 0.7113908136105679, 0.7184335387418975, 0.7248060599380232, 0.722604639397131, 0.6995602643202228, 0.6626020781105197, 0.6175499085021785, 0.568869702706348, 0.5197629740624167, 0.47238004428805197, 0.4280351926043397, 0.3873779614018843, 0.3505141061332229])","array('d', [0.02282168716192235, 0.01896544532976284, 0.015607302078702506, 0.012720548510458082, 0.010258635487030241, 0.008241898399212346, 0.006665679848321071, 0.005441074067897939, 0.004494682677751028, 0.003766369860660508, 0.003207210496134908, 0.002777485125708921, 0.002444766914249761, 0.002182209670831395, 0.001967128553843968, 0.0017799313639633048])","array('d', [2.2813337008145194, 2.2273195907496817, 2.1723028344133772, 2.1163656013628485, 2.0595843056294987, 2.0250516374835916, 1.9903786665900145, 1.9565873589033864, 1.92479927235176, 1.8955939388404672, 1.8691533021454396, 1.8454162609216265, 1.8241939731956247, 1.805242895836654, 1.7883078616329515, 1.7693575499738454])",-270.71751622730676,-235.33155083496234,-50.029159730605535,0.7248060599380232,0.008241898399212346,2.0250516374835916,25.000000233230452,-1.0,"[-231.7892184827402, -276.74593876329646, 49.94471768793094]","[-245.94347960484552, -272.7056894130049, 52.83145932422723]","[-234.57626811671668, -265.2964132277605, 59.22592016114864]",10000000000.0,0.017011165618896484
