,x_pos,y_pos,z_pos,roll,pitch,yaw,vel,x_traj,y_traj,z_traj,roll_traj,pitch_traj,yaw_traj,x_cmd,y_cmd,z_cmd,roll_cmd,pitch_cmd,yaw_cmd,vel_cmd,effector_dmg,effector_x,effector_y,effector_z,cost,time_solution
0,-175.25729370117188,-61.402034759521484,50.026493072509766,0.6359274387359617,0.034551464021205715,0.7321419874813893,23.131912958850073,"array('d', [-63.157081604003906, -61.463369339080224, -59.81703807575169, -58.21390025395863, -56.6499613375504, -55.12151946974095, -53.6251917025035, -52.1579093013098, -50.71689992772966, -49.29966448082503, -47.90395218541277, -46.52773571257199, -45.16918732585439, -43.82665669320895, -42.49865084453981, -41.18381884885594])","array('d', [-177.39004516601562, -175.55274288152987, -173.67205700252208, -171.7540715174025, -169.8038350502342, -167.82558236152877, -165.8228919425307, -163.79880504395962, -161.75591894484637, -159.69646172557205, -157.6223531050592, -155.53525442097097, -153.4366099273944, -151.32768098406908, -149.20957429001504, -147.08326849212807])","array('d', [-50.0227165222168, -49.950630695437304, -49.90291005942643, -49.8708777321763, -49.84906901959694, -49.834002619460506, -49.823433227132355, -49.81589350443889, -49.810411071444285, -49.80633224725807, -49.80321155514452, -49.80074221758827, -49.79871252956364, -49.796978766420274, -49.795448712749696, -49.79407191291437])","array('d', [0.6355842947959899, 0.5795771734301042, 0.5265415622705945, 0.4770997956372948, 0.4315258968333585, 0.38986601706279705, 0.3520188149404742, 0.31778973379837905, 0.28692831912660854, 0.2591544486118726, 0.234177233391012, 0.2117090076605308, 0.1914759766579915, 0.17322655746365198, 0.15673810724822979, 0.14182251711564536])","array('d', [-0.03490189090371122, -0.022974087923734773, -0.015332312787623885, -0.010376941831134398, -0.00712451406177642, -0.004964711061580952, -0.0035150125095820338, -0.0025331543224894363, -0.001863959135636797, -0.001406729163576058, -0.0010950250070284708, -0.0008839662240867248, -0.0007421501341109586, -0.0006464568334869899, -0.0005787162162202349, -0.000523644216346515])","array('d', [0.7586620608952384, 0.7313941098740079, 0.7071864667197396, 0.6856720188642517, 0.6665221214856243, 0.6494479821911202, 0.6341978268505309, 0.6205528241781388, 0.6083229825716848, 0.5973434378054725, 0.5874712101664388, 0.5785823774401803, 0.5705695700972628, 0.563339693614174, 0.5568117956759613, 0.5509150025012279])",-55.12151946974095,-167.82558236152877,-49.834002619460506,0.38986601706279705,-0.004964711061580952,0.6494479821911202,25.00000024898931,-1.0,"[-174.1423431470668, -60.3999368240094, 49.974676187778556]","[-158.65812527831773, -21.835959259285886, 77.77860812879389]","[-125.25486076124825, -51.06812201751363, 54.76333971673384]",10000000000.0,0.0477755069732666
1,-174.89707946777344,-61.11494064331055,50.026737213134766,0.6359929442405697,0.034688740968704085,0.7276846329357959,23.131805738206214,"array('d', [-62.86069107055664, -61.17526031889109, -59.53734229703799, -57.94266022364643, -56.38716073550009, -54.867104027329965, -53.37908380221584, -51.9200182792305, -50.487129332547276, -49.07791711186358, -47.690133472652654, -46.32175584327429, -44.970962424948176, -43.63610930434136, -42.315709921434035, -41.00841943161251])","array('d', [-177.03811645507812, -175.19319370620363, -173.30516689304923, -171.3801409070325, -169.42316434657198, -167.43846014478376, -165.42958868181157, -163.39957014482474, -161.35097981039198, -159.28602403264284, -157.20660180531107, -155.11435515922926, -153.01071067820558, -150.8969137717198, -148.77405689537233, -146.64310608006673])","array('d', [-50.02334213256836, -49.95177421829904, -49.9043997789411, -49.872601007258794, -49.850951416632775, -49.835994555114546, -49.825501405621985, -49.81801540735321, -49.81257139145985, -49.8085205615669, -49.80542079033647, -49.802967619000306, -49.80095094978898, -49.799228152256234, -49.797707711723454, -49.79633954882155])","array('d', [0.6357411742210387, 0.5788792643035066, 0.5252588829104875, 0.47544023379784267, 0.42964748010537934, 0.3878871249632993, 0.3500263422043265, 0.3158455481246426, 0.28507439727818945, 0.25741702237095465, 0.23257020638689727, 0.210236840517415, 0.19013618739013322, 0.17201194615762908, 0.15563878655632193, 0.14082781052909282])","array('d', [-0.03465222194790824, -0.02280785661508155, -0.015220624781493754, -0.010301170425945149, -0.0070725851873067866, -0.004928741183065815, -0.003489807975342767, -0.0025152572155667323, -0.001851039453344413, -0.0013971968728163735, -0.001087782382106916, -0.0008782503967000191, -0.000737434226860539, -0.0006423894318547988, -0.0005750858161970199, -0.0005203592942665265])","array('d', [0.7541545192387439, 0.7269024000402909, 0.7027484795013481, 0.6813091439939218, 0.6622451873679682, 0.6452610220917284, 0.6301005005684311, 0.6165420113689171, 0.6043938598544247, 0.5934902263662645, 0.583687705142678, 0.5748623252884151, 0.5669069331975023, 0.5597288252100378, 0.5532475385270605, 0.5473927187941501])",-54.867104027329965,-167.43846014478376,-49.835994555114546,0.3878871249632993,-0.004928741183065815,0.6452610220917284,25.000000248989735,-1.0,"[-174.1423431470668, -60.3999368240094, 49.974676187778556]","[-158.65812527831773, -21.835959259285886, 77.77860812879389]","[-125.25486076124825, -51.06812201751363, 54.76333971673384]",10000000000.0,0.033362388610839844
2,-173.4490509033203,-59.98666000366211,50.02823257446289,0.6360664367675779,0.03496366739273063,0.7094849507000783,23.128098244994682,"array('d', [-62.56584930419922, -60.88864544213509, -59.25907060302437, -57.67276200584818, -56.125609853071374, -54.61383819761529, -53.134018773907584, -51.68305782008839, -50.25817225414394, -48.85686213244576, -47.47688246589685, -46.11621586658801, -44.77304682638538, -43.445738148876096, -42.13280994135539, -40.83292367164959])","array('d', [-176.6847381591797, -174.832316062862, -172.9370757340869, -171.00514007729942, -169.04155566483624, -167.0505323012485, -165.03561145567468, -162.99979179503913, -160.94562636476545, -158.87529971126884, -156.7906901131733, -154.6934203581083, -152.5848994511328, -150.46635695395636, -148.3388711815509, -146.20339564548402])","array('d', [-50.02389907836914, -49.95276693655985, -49.90568416973693, -49.87408232858006, -49.85256696401238, -49.83770251546873, -49.8272736836825, -49.8198329960757, -49.81442136943262, -49.81039413132601, -49.80731198276038, -49.804872422974405, -49.80286671124435, -49.80115314082505, -49.79964078844277, -49.79827989216158])","array('d', [0.635769426822662, 0.5780795316096914, 0.5238961127033777, 0.47371775789667725, 0.4277194844254443, 0.3858688653480795, 0.34800223454642193, 0.31387553111875494, 0.2831989749080144, 0.2556613258631303, 0.230947338249832, 0.2087506970407568, 0.1887839045973734, 0.17078607623666733, 0.1545292844992328, 0.1398238914615232])","array('d', [-0.034442283213138525, -0.0226678625026116, -0.01512647282129136, -0.010237260331300431, -0.007028774988010678, -0.0048983950382701594, -0.003468547917509262, -0.002500165675066007, -0.001840149441447827, -0.0013891657389164098, -0.0010816831454523417, -0.0008734389058729893, -0.0007334656681103707, -0.0006389671846084904, -0.0005720314056589054, -0.000517595549072103])","array('d', [0.7496923367169238, 0.7224627381969967, 0.6983673871718113, 0.6770066781631396, 0.6580312356398962, 0.6411389607189351, 0.6260695322669231, 0.6125986977645044, 0.6005331555435817, 0.5897061963313963, 0.5799740329613339, 0.5712126756152777, 0.5633152059285529, 0.5561893232188508, 0.5497550615783937, 0.5439425907072718])",-54.61383819761529,-167.0505323012485,-49.83770251546873,0.3858688653480795,-0.0048983950382701594,0.6411389607189351,25.000000248990133,-1.0,"[-173.04746543130304, -59.560892450469254, 49.97523783529549]","[-156.92062977694718, -21.160884477956223, 77.64046076026634]","[-124.02479015391717, -50.75175478933277, 54.354324762398804]",10000000000.0,0.03178119659423828
3,-173.08343505859375,-59.708492279052734,50.028202056884766,0.6350352764129639,0.03468446806073181,0.7050549546864372,23.129706674437514,"array('d', [-61.402034759521484, -59.75755011500333, -58.16112145609373, -56.60805923947609, -55.094037117112535, -53.61513980143987, -52.167854258493875, -50.749040696126784, -49.355897375446496, -47.98592470085207, -46.63689074674883, -45.306799125075514, -43.99385964252861, -42.69646205043752, -41.41315315886451, -40.14261968907376])","array('d', [-175.25729370117188, -173.37577264963218, -171.452530988878, -169.49376879306422, -167.50452653767564, -165.4889632696797, -163.45054698325623, -161.3921928263378, -159.3163676961564, -157.2251717260043, -155.12040306530224, -153.00361009110964, -150.87613383999386, -148.7391425926323, -146.59365997300478, -144.44059105963768])","array('d', [-50.026493072509766, -49.955143658574244, -49.90792812240668, -49.87624090763275, -49.85466764305119, -49.839761819849315, -49.829301949761934, -49.821836948966244, -49.816405556246046, -49.81236174322105, -49.80926534339468, -49.80681328989308, -49.80479646858767, -49.803072925653304, -49.80155157353002, -49.80018253761223])","array('d', [0.6359274387359617, 0.5749839989360197, 0.5185890953250337, 0.46699677763390907, 0.4201887177412873, 0.3779800203918429, 0.3400864500363744, 0.30616825827807487, 0.2758596178879055, 0.24878904626252404, 0.2245940782985289, 0.2029321950735235, 0.18348926671215585, 0.16598631681908826, 0.15018514149327902, 0.1358931479644193])","array('d', [-0.034551464021205715, -0.02273330316800242, -0.015167671759623306, -0.010264597217507668, -0.007047896932319392, -0.004912457820907565, -0.0034793700579859614, -0.002508830167609699, -0.0018473227246180925, -0.0013952702372963814, -0.0010869929219043256, -0.0008781343548451481, -0.00073766613944337, -0.0006427516666665351, -0.0005754527751120005, -0.0005206913324538897])","array('d', [0.7321419874813893, 0.7049979988409529, 0.6811294814560056, 0.6600740492746111, 0.6414426899474235, 0.6249079841169035, 0.6101933609238823, 0.5970642438518758, 0.5853210082266568, 0.5747934072611934, 0.5653360998381534, 0.5568249655861061, 0.5491539600886877, 0.5422323243252326, 0.5359820120116995, 0.5303352269832832])",-53.61513980143987,-165.4889632696797,-49.839761819849315,0.3779800203918429,-0.004912457820907565,0.6249079841169035,25.00000024899149,-1.0,"[-172.31170018648177, -59.010092577959995, 49.97579775812475]","[-155.7553368216966, -20.716084786149956, 77.5340233790531]","[-123.20308929829275, -50.55598958548191, 54.0834101089944]",10000000000.0,0.026291608810424805
4,-172.34765625,-59.157020568847656,50.027984619140625,0.6289725899696343,0.03358268737792953,0.6963451663639876,23.139778921080637,"array('d', [-61.11494064331055, -59.47885236235621, -57.89092505429962, -56.34638711246261, -54.84085766393822, -53.3703863002315, -51.931438630570824, -50.5208633024586, -49.13585395381174, -47.77391119007822, -46.432806517643556, -45.110548996904626, -43.80535497680218, -42.51562115993253, -41.23990123660422, -39.97688842970687])","array('d', [-174.89707946777344, -173.00826341357305, -171.07800082822519, -169.11251157723387, -167.11683452448818, -165.09511585830626, -163.0508050865225, -160.98679642556172, -158.90553523248172, -156.80910056266535, -154.699270571625, -152.57757507510593, -150.44533815599326, -148.30371280737722, -146.15370900640897, -143.99621974330663])","array('d', [-50.026737213134766, -49.955106630234084, -49.90770821350969, -49.875899740817914, -49.85424457498128, -49.839282434585826, -49.828783148991164, -49.821290054719206, -49.81583823520153, -49.81177922184201, -49.80867119070814, -49.806209934250745, -49.80418555029603, -49.80245554899977, -49.80092849823238, -49.79955433467559])","array('d', [0.6359929442405697, 0.574221611514825, 0.5172638762848573, 0.4653110757512721, 0.4182957119938759, 0.37599427938549274, 0.33809205817723725, 0.30422510478269743, 0.2740083424003754, 0.2470550150556373, 0.22299066420277233, 0.20146355795702045, 0.18215277620935127, 0.16477472014354072, 0.14908855217563166, 0.13490091282772407])","array('d', [-0.034688740968704085, -0.02282187008995418, -0.015225941974204188, -0.010303661845892492, -0.007074562680771454, -0.004930982466650165, -0.00349246862085787, -0.002518267564321322, -0.0018542683726715033, -0.0014005132759402582, -0.0010910743150058652, -0.0008814284633824148, -0.0007404309814926014, -0.0006451594714240699, -0.0005776080983307826, -0.0005226415497263016])","array('d', [0.7276846329357959, 0.7005609228203957, 0.6767485813211391, 0.655769259756226, 0.6372239361519493, 0.6207788091426671, 0.6061532052210816, 0.5931099295564252, 0.5814477421604939, 0.5709954817449369, 0.561607394394136, 0.5531593091549639, 0.545545388302618, 0.5386752517773279, 0.5324713308844296, 0.5268663383672051])",-53.3703863002315,-165.09511585830626,-49.839282434585826,0.37599427938549274,-0.004930982466650165,0.6207788091426671,25.000000248991782,-1.0,"[-171.9417582214657, -58.73696342868866, 49.97618578562687]","[-155.17653426536188, -20.47246017759297, 77.44899155148504]","[-122.79223925322609, -50.46124976429444, 53.955802417365746]",10000000000.0,0.02035689353942871
5,-171.9774169921875,-58.883697509765625,50.027896881103516,0.6234678030014036,0.032610248774289946,0.6920632878926135,23.150658923663777,"array('d', [-60.547767639160156, -58.92892930317301, -57.35847218421785, -55.83145458898641, -54.34338305325455, -52.89023474204515, -51.46843120528479, -50.07479718372356, -48.70651667306028, -47.36109056005412, -46.03629728396911, -44.730156994390136, -43.440899388207576, -42.16693536510207, -40.90683267253974, -39.65929781664479])","array('d', [-174.17588806152344, -172.27228340492437, -170.32778691771412, -168.34865735258344, -166.33992973974628, -164.30572405475547, -162.2494524237995, -160.1739668467039, -158.08166928034464, -155.97459632601465, -153.8544858692175, -151.72283033551037, -149.58091964807022, -147.42987598894806, -145.27068182336365, -143.1042057653468])","array('d', [-50.02758026123047, -49.95551321858322, -49.907831269692316, -49.8758345241479, -49.85405165395564, -49.83900108116277, -49.82843928632293, -49.82090106282803, -49.815415913347444, -49.81133165125178, -49.80820393136178, -49.805726813686164, -49.80368920097656, -49.80194779098737, -49.80041062760871, -49.79902735518114])","array('d', [0.6362161636352536, 0.5727438493627016, 0.5146281957906342, 0.4619315721547403, 0.41448583738021577, 0.3719886332752316, 0.33406302515355074, 0.30029567441669297, 0.2702621708721481, 0.24354451234802627, 0.21974367100885114, 0.19848901472735264, 0.17944567200162356, 0.16232052903089886, 0.1468673099941399, 0.13289104960535186])","array('d', [-0.03490203619003279, -0.022959161294517617, -0.015316302120611138, -0.01036442642516927, -0.007116283267130877, -0.004960217398383403, -0.003513380388212885, -0.0025335531974510035, -0.0018657108857249624, -0.001409313851673095, -0.0010980551139496593, -0.0008871575265830004, -0.0007452992848080733, -0.0006494281278687668, -0.0005814368704988216, -0.0005261059663619332])","array('d', [0.7185816923764089, 0.6914944652399031, 0.667792608767984, 0.6469649780757822, 0.628592059023479, 0.6123269911643027, 0.5978806905626027, 0.5850105743254782, 0.573512058202247, 0.5632120680947094, 0.5539639655003332, 0.5456434401052829, 0.538145046375973, 0.5313791541867177, 0.5252691513694209, 0.5197487752432578])",-52.89023474204515,-164.30572405475547,-49.83900108116277,0.3719886332752316,-0.004960217398383403,0.6123269911643027,25.00000024899232,-1.0,"[-171.9417582214657, -58.73696342868866, 49.97618578562687]","[-155.17653426536188, -20.47246017759297, 77.44899155148504]","[-122.79223925322609, -50.46124976429444, 53.955802417365746]",10000000000.0,0.017003774642944336
6,-171.23202514648438,-58.34184646606445,50.028621673583984,0.6069363951683042,0.0294560808688401,0.6833627978947499,23.177762845674117,"array('d', [-60.26642990112305, -58.656319892664385, -57.0946944748814, -55.57652686496418, -54.09726768372164, -52.6528583768516, -51.239698964507376, -49.85460270799313, -48.49474922353648, -47.15763994876039, -45.84105716999513, -44.54302693365966, -43.261785934982385, -41.995752468923, -40.74350158108261, -39.503746662382746])","array('d', [-173.8131866455078, -171.9021996124876, -169.9506054594524, -167.96467973616757, -165.94945383046192, -163.90903350132683, -161.8468114762039, -159.76561819934133, -157.66783364827495, -155.5554730256408, -153.43025397852145, -151.29365017634098, -149.14693442687803, -146.99121348567942, -144.82745604870223, -142.65651853204656])","array('d', [-50.02794647216797, -49.95572143591926, -49.90793737680799, -49.87587298837729, -49.854044240128026, -49.83896184313074, -49.82837748444421, -49.82082290633601, -49.815325624189065, -49.81123212853377, -49.80809717653129, -49.80561421033532, -49.80357170556479, -49.8018260689249, -49.8002851560479, -49.798898505675325])","array('d', [0.6362642645835873, 0.5719460649343285, 0.5132564826225947, 0.46019275656361536, 0.41253623705966697, 0.36994513156026687, 0.33201144602760696, 0.298297198912594, 0.26835835735779656, 0.2417613266261456, 0.21809481363652067, 0.19697874823469258, 0.17807129169351138, 0.16107458053894116, 0.14573962916639024, 0.13187068170438473])","array('d', [-0.034979440271854303, -0.02300867244154766, -0.015348778829581989, -0.010386246411470889, -0.00713128098013868, -0.0049707539468140305, -0.0035209446664213606, -0.0025391062225877336, -0.0018698869873400937, -0.0014125404474028555, -0.00110062516521675, -0.0008892738627506821, -0.0007471018332549154, -0.0006510105725483842, -0.0005828567371619204, -0.0005273907149633502])","array('d', [0.7140000025418141, 0.6869345444688844, 0.6632908425170163, 0.6425414596661692, 0.6242567630181377, 0.6080834641074218, 0.593728344726666, 0.5809461746131587, 0.5695307272999265, 0.5593079915634843, 0.5501308995735842, 0.5418750808024028, 0.5344352934806316, 0.5277222892557031, 0.5216599405999341, 0.5161825031918031])",-52.6528583768516,-163.90903350132683,-49.83896184313074,0.36994513156026687,-0.0049707539468140305,0.6080834641074218,25.000000248992553,-1.0,"[-170.44703621930023, -57.660318540161214, 49.98109541000313]","[-152.86404039071323, -19.145219793902065, 76.5785657080935]","[-121.14261290455062, -50.10422676241782, 53.44221064158576]",10000000000.0,0.045363664627075195
7,-170.48196411132812,-57.80815505981445,50.031494140625,0.5838194489479062,0.02508177980780584,0.6748135248806812,23.215494320811242,"array('d', [-59.708492279052734, -58.11543124475299, -56.570936592022576, -55.0698306758019, -53.60746942418193, -52.179737014776165, -50.783001840359454, -49.41406336430221, -48.07009979595868, -46.74861961168622, -45.44741763316397, -44.16453570009405, -42.89822786279524, -41.64693007985727, -40.4092344988056, -39.18387050558812])","array('d', [-173.08343505859375, -171.15818842180974, -169.19299796146245, -167.194139038164, -165.16661468975735, -163.1144887214719, -161.04110621401884, -158.9492486450867, -156.84124814529747, -154.71907454430809, -152.58440331766076, -150.43866951700014, -148.28311100269934, -146.11880321176952, -143.94668699385826, -141.76759415940285])","array('d', [-50.028202056884766, -49.95658907371969, -49.90921431111393, -49.8774260934733, -49.855785634721606, -49.840833115231035, -49.83033952021616, -49.8228493282209, -49.81739854257489, -49.81333937387327, -49.81023047802118, -49.80776797840298, -49.805742196904056, -49.80401079031875, -49.80248241346867, -49.801107038988775])","array('d', [0.6350352764129639, 0.5692543943045191, 0.5096050628881355, 0.45595996306361397, 0.40800519350087516, 0.36532533074946366, 0.32745481689693495, 0.29391026752693994, 0.2642116806180797, 0.23789701893059031, 0.21453273305010184, 0.1937217345678728, 0.17510973094718665, 0.158390490813045, 0.14331040995763442, 0.12967263306860755])","array('d', [-0.03468446806073181, -0.022812148550556854, -0.015216728288609807, -0.010296633681569817, -0.007069787142146251, -0.004928030713895199, -0.003490845700397545, -0.002517553491105196, -0.0018541454842889947, -0.001400754366235364, -0.0010915215607146273, -0.0008819741053423155, -0.0007410029363072145, -0.0006457120709780113, -0.0005781170925469618, -0.0005231021067803478])","array('d', [0.7050549546864372, 0.6781029914620005, 0.6546287899833559, 0.6340771026680183, 0.6160013760546424, 0.6000377819608067, 0.5858864693641974, 0.5732980824160852, 0.5620639543452479, 0.5520088130116483, 0.5429851783171642, 0.5348688832044258, 0.5275553269626391, 0.5209561922512592, 0.5149964416176123, 0.5096114579448564])",-52.179737014776165,-163.1144887214719,-49.840833115231035,0.36532533074946366,-0.004928030713895199,0.6000377819608067,25.000000248992922,-1.0,"[-170.06934899961217, -57.395150894362516, 49.984443941474474]","[-152.28403920912643, -18.714782170187362, 76.20489075342459]","[-120.72752015239524, -50.03232490573139, 53.327005754379464]",10000000000.0,0.020068645477294922
8,-170.10418701171875,-57.543582916259766,50.03398132324219,0.5702027082443236,0.022426329553127178,0.670489446320806,23.239065086548145,"array('d', [-59.157020568847656, -57.58038855913428, -56.05195106076527, -54.56645217497829, -53.11921309432444, -51.70610921031009, -50.32351635504554, -48.96825178881671, -47.63751804272, -46.32885176965912, -45.04007787830298, -43.76926875937156, -42.51470840702879, -41.27486135231986, -40.048346447499284, -38.833917648661355])","array('d', [-172.34765625, -170.40884596480151, -168.43110289022033, -166.42060026092116, -164.38224540712812, -162.3200141807497, -160.23717179003535, -158.1364277193635, -156.02004953555064, -153.8899493903075, -151.74775140693086, -149.5948450673579, -147.43242792825612, -145.26153989664206, -143.0830905901065, -140.89788443149237])","array('d', [-50.027984619140625, -49.95864816919767, -49.91278255172112, -49.88200763232807, -49.86105669178578, -49.84657995837041, -49.83641956565057, -49.82916655056857, -49.8238877870244, -49.81995623869105, -49.8169447000078, -49.8145590261352, -49.812596251113646, -49.810918585702574, -49.809437603627096, -49.80810487016465])","array('d', [0.6289725899696343, 0.5624585071570308, 0.5024605762423713, 0.4487428206147886, 0.4009116612278809, 0.35849215598983325, 0.3209735748892315, 0.2878378610286506, 0.25857826496893793, 0.23271217969358696, 0.20979045954526332, 0.18940455131340167, 0.1711922326344508, 0.15484245133459978, 0.14009958731738933, 0.12676736033789832])","array('d', [-0.03358268737792953, -0.02208568628304378, -0.014731629566640828, -0.00996841094549229, -0.0068446548455410846, -0.0047713848566677776, -0.00338016066437282, -0.0024379771957116765, -0.0017957504299848121, -0.0013568118960789624, -0.0010574141686154476, -0.0008545100482820039, -0.0007179875825801321, -0.0006256846313449456, -0.0005601936078202514, -0.0005068842656737249])","array('d', [0.6963451663639876, 0.6697631096979866, 0.646658956249894, 0.6264651202694648, 0.6087286868103632, 0.5930826533666044, 0.5792257865589607, 0.5669084202174114, 0.5559222624149418, 0.546092879875293, 0.5372739563120891, 0.5293427140715746, 0.5221960863282584, 0.5157473605024698, 0.5099231034433039, 0.5046602305356055])",-51.70610921031009,-162.3200141807497,-49.84657995837041,0.35849215598983325,-0.0047713848566677776,0.5930826533666044,25.000000248993125,-1.0,"[-170.06934899961217, -57.395150894362516, 49.984443941474474]","[-152.28403920912643, -18.714782170187362, 76.20489075342459]","[-120.72752015239524, -50.03232490573139, 53.327005754379464]",10000000000.0,0.028130769729614258
9,-169.34300231933594,-57.01881790161133,50.04183578491211,0.5402034521102903,0.016620680689811512,0.6617628494885306,23.297308380879386,"array('d', [-58.883697509765625, -57.315035366969646, -55.79415245212751, -54.315790240766816, -52.875282506506196, -51.46852444099205, -50.091915124601165, -48.742296559566796, -47.41689638975934, -46.113276041572334, -44.82928437637228, -43.563016580507934, -42.31277805682878, -41.077053215900946, -39.85447919616056, -38.64382665103987])","array('d', [-171.9774169921875, -170.03207900491373, -168.04848816328018, -166.03271706241813, -163.98959234743273, -161.92302333194002, -159.83621933420275, -157.73184230762598, -155.61211904722245, -153.4789265186071, -151.33385835248362, -149.17827753334106, -147.01335855429323, -144.8401212296134, -142.65945766228796, -140.47215700396646])","array('d', [-50.027896881103516, -49.96056823987532, -49.91603140417553, -49.886147612881004, -49.86580250196752, -49.85174346692892, -49.84187534093129, -49.834830141315635, -49.8297018978921, -49.82588182855869, -49.82295516788061, -49.820636339083926, -49.81872829032369, -49.81709724773147, -49.81565735932567, -49.814361592875954])","array('d', [0.6234678030014036, 0.5569521280819728, 0.4970860668086991, 0.4435876651039218, 0.3960312945897372, 0.3539191644810672, 0.3167239725765266, 0.28391551904392753, 0.25497814678622716, 0.22942278622514528, 0.2067957386503357, 0.18668543568261228, 0.16872791420773842, 0.1526114656465446, 0.1380807592765402, 0.12494064902050751])","array('d', [-0.032610248774289946, -0.021445705535543824, -0.014304847483927604, -0.009679928982707819, -0.006646941791529865, -0.004633928393733586, -0.0032831274794371495, -0.0023683009430950776, -0.0017446996109783037, -0.0013184674392867203, -0.0010277120026847262, -0.0008306388577795688, -0.0006980127521922662, -0.0006083176939658032, -0.000544655102259798, -0.000492824443152824])","array('d', [0.6920632878926135, 0.6657954118413275, 0.6429779339139933, 0.6230447380365457, 0.6055448861596274, 0.590113372125666, 0.576450826834842, 0.5643092917944165, 0.5534820439561917, 0.5437961064061151, 0.5351065287646726, 0.5272918228453802, 0.5202501406201872, 0.5138959162913113, 0.5081567844681052, 0.5029706380765396])",-51.46852444099205,-161.92302333194002,-49.85174346692892,0.3539191644810672,-0.004633928393733586,0.590113372125666,25.000000248993164,-1.0,"[-168.54547039726165, -56.353708815487295, 50.00811978037326]","[-149.95472610432176, -16.729967704367674, 74.18131499725538]","[-119.062117935669, -49.808865820243824, 52.93435615657485]",10000000000.0,0.04071855545043945
10,-168.5742950439453,-56.49956512451172,50.05488204956055,0.5078511834144592,0.010298413224518233,0.6530262986805778,23.364122091709042,"array('d', [-58.34184646606445, -56.78915065137607, -55.28290991334346, -53.81793258767264, -52.38963829579098, -50.99401180727648, -49.62753973290302, -48.287147389341754, -46.97014073614787, -45.67415427120631, -44.397104654686515, -43.13714967126803, -41.89265225629447, -40.662149473893486, -39.44432647481618, -38.23799758064171])","array('d', [-171.23202514648438, -169.2736974936873, -167.27886799958432, -165.25330390866972, -163.20160107497702, -161.12748734229, -159.03402535861463, -156.92375619914873, -154.79880561223513, -152.66096519462388, -150.51175587175723, -148.352478327208, -146.18425341724256, -144.00805460959506, -141.82473384118106, -139.63504539416556])","array('d', [-50.028621673583984, -49.9678027699506, -49.927569296587585, -49.90056852234216, -49.882181257122156, -49.86947028674211, -49.86054379011355, -49.85416663465972, -49.84952087686358, -49.84605691957884, -49.84340035177462, -49.84129341070575, -49.839558259100215, -49.83807417752413, -49.83676368233264, -49.83558428625892])","array('d', [0.6069363951683042, 0.5411745667841694, 0.48221484158003247, 0.42969900901958613, 0.3831518404579999, 0.34204272129046354, 0.3058224728232474, 0.273946420544979, 0.2458896104604574, 0.22115741407226036, 0.19929334882021807, 0.17988517202929835, 0.16256988108067555, 0.14703801437161448, 0.13303751342694284, 0.1203773310541248])","array('d', [-0.0294560808688401, -0.0193722677943146, -0.012923533995080255, -0.00874719067445988, -0.006008446315554148, -0.0041906987578368, -0.002970863376823677, -0.002144649506818059, -0.0015813557433259438, -0.0011962355328555426, -0.0009334036546594261, -0.0007551234542656916, -0.0006350017971778326, -0.0005536211139507522, -0.0004957406388865884, -0.0004485648024135339])","array('d', [0.6833627978947499, 0.6580035730100624, 0.6359838904046395, 0.6167554897232589, 0.5998814921632518, 0.5850079554962588, 0.5718443303733607, 0.5601498278198918, 0.5497236834729665, 0.5403979823115314, 0.5320321583392277, 0.524508580291547, 0.5177288301054821, 0.5116104106056507, 0.5060837050794206, 0.5010890602566164])",-50.99401180727648,-161.12748734229,-49.86947028674211,0.34204272129046354,-0.0041906987578368,0.5850079554962588,25.000000248993125,-1.0,"[-168.15980050840489, -56.09718241182599, 50.01690591171494]","[-149.36429780249236, -16.20219928933497, 73.57787787146636]","[-118.64311480964788, -49.76819296377911, 52.85270032898584]",10000000000.0,0.031157255172729492
11,-167.7982635498047,-55.98548889160156,50.074405670166016,0.4750868082046507,0.004217988345771982,0.6444192091610768,23.434797652702688,"array('d', [-57.80815505981445, -56.270891094255155, -54.77817349405309, -53.32496916879784, -51.906857594749546, -50.51997286385593, -49.16093764291185, -47.826800287274764, -46.51497786641466, -45.22320526663508, -43.949489928046226, -42.692071786511335, -41.44938815952411, -40.2200434868225, -39.002783972120945, -37.79647985520833])","array('d', [-170.48196411132812, -168.51122983570755, -166.50614287680577, -164.47206186933536, -162.41328172878065, -160.3332993269775, -158.23499469557913, -156.12076134789916, -153.99260381950765, -151.85221285536005, -149.7010246062474, -147.54026789701678, -145.37100224903867, -143.19414847072446, -141.01051306166005, -138.82081195977483])","array('d', [-50.031494140625, -49.97970051466684, -49.945427543068, -49.9224158527124, -49.90673415700283, -49.895883043404545, -49.8882528377896, -49.88279271139478, -49.87880685182543, -49.8758278041978, -49.87353719656668, -49.87171592032371, -49.87021286416037, -49.868925478239255, -49.867787922945865, -49.86676401093848])","array('d', [0.5838194489479062, 0.5197604081724634, 0.4625027608630164, 0.4116360954890155, 0.3666562147016926, 0.32701728221274484, 0.29216329366448257, 0.26154801600762934, 0.23464830487053373, 0.2109735096081027, 0.19007250121057387, 0.17153921753756451, 0.15501726529719725, 0.1402039193200132, 0.1268537476316029, 0.1147820278713478])","array('d', [-0.02508177980780584, -0.0164993846900434, -0.011011435790506495, -0.0074574732051936885, -0.005126847838251523, -0.003579877626158928, -0.0025416168156999095, -0.0018382218487213535, -0.0013584703667681084, -0.0010302437598382203, -0.0008059836916332096, -0.0006535798186930461, -0.0005505833591155953, -0.0004804946329225295, -0.00043038554390697396, -0.00038942906167766])","array('d', [0.6748135248806812, 0.6506759913892409, 0.629705459602224, 0.6113877646620105, 0.5953111355257097, 0.5811404802996807, 0.5685997214234493, 0.557459439950809, 0.5475280070175175, 0.5386450002571833, 0.5306761100742723, 0.5235090075484504, 0.5170498215744187, 0.51121998933423, 0.5059533215355764, 0.5011931648221195])",-50.51997286385593,-160.3332993269775,-49.895883043404545,0.32701728221274484,-0.003579877626158928,0.5811404802996807,25.00000024899296,-1.0,"[-167.38298519869983, -55.58822422665923, 50.03943470277783]","[-148.18184717087178, -15.152812559102244, 72.31708677186924]","[-117.80381724245541, -49.70105730877616, 52.731528766418684]",10000000000.0,0.024541616439819336
12,-167.7982635498047,-55.98548889160156,50.074405670166016,0.4750868082046507,0.004217988345771982,0.6444192091610768,23.434797652702688,"array('d', [-57.543582916259766, -56.01407430495046, -54.527984521643496, -53.08038467999643, -51.666954458709, -50.2839192658867, -48.927983608235365, -47.596268914297845, -46.28625755074589, -44.9957428769866, -43.72278481628892, -42.46567051257853, -41.222879829733095, -39.993055622299316, -38.77497883713348, -37.567551139671146])","array('d', [-170.10418701171875, -168.12728536608972, -166.11721879941413, -164.0791168328763, -162.01710618791674, -159.9345551263583, -157.8342423997651, -155.71848001268344, -153.5892058080238, -151.44805524239837, -149.29641814136025, -147.1354841674466, -144.96627948308085, -142.78969629445683, -140.60651643754284, -138.41743439526613])","array('d', [-50.03398132324219, -49.987665786353055, -49.95700862619313, -49.93641529193667, -49.92237250297835, -49.912646781336484, -49.90579980937703, -49.90089268958624, -49.897303790288916, -49.894615560454824, -49.892543685980236, -49.890892561629315, -49.88952733519906, -49.888356514945805, -49.88732134632862, -49.88638946506085])","array('d', [0.5702027082443236, 0.5072687883225989, 0.45109478981043466, 0.40125051335340567, 0.35722255189173957, 0.318461931487164, 0.28441307657874343, 0.2545323039331246, 0.22830027244399656, 0.20523084346088225, 0.18487774865499373, 0.1668398836145742, 0.15076572388078668, 0.13635717972755712, 0.12337310414349996, 0.11163261111921727])","array('d', [-0.022426329553127178, -0.014756262891356984, -0.00985191869581339, -0.006675923752308524, -0.004593113841045914, -0.0032105476023799014, -0.0022825183325269156, -0.0016536704813122835, -0.0012246075602210624, -0.0009308767231678529, -0.0007299744820351959, -0.0005932066425853067, -0.0005005207310776492, -0.0004371919469590615, -0.00039170182831043955, -0.0003544265851771436])","array('d', [0.670489446320806, 0.6470526060373388, 0.6266811340285283, 0.6088815080150415, 0.5932570379472917, 0.5794838998762852, 0.5672946357378329, 0.5564665740597211, 0.5468134829476763, 0.5381793404775521, 0.5304334843443177, 0.5234666498714078, 0.5171875686766776, 0.5115199085571057, 0.5063994070664672, 0.5017710890733633])",-50.2839192658867,-159.9345551263583,-49.912646781336484,0.318461931487164,-0.0032105476023799014,0.5794838998762852,25.000000248992844,-1.0,"[-166.59910101324922, -55.084395566550576, 50.06807870640835]","[-147.00048243331142, -14.142032668974466, 71.03512595015013]","[-116.96403826494516, -49.62969380359332, 52.638443398258374]",10000000000.0,0.020846843719482422
13,-167.40762329101562,-55.7302360534668,50.08719253540039,0.4588864147663114,0.001400084118358665,0.6401229063656666,23.4711717191885,"array('d', [-57.280487060546875, -55.75873797464968, -54.27920163272166, -52.83706476991804, -51.4281162035362, -50.048679935994805, -48.695548377634005, -47.36592115057975, -46.057350281300685, -44.76769134577998, -43.49505998492184, -42.2377933667554, -40.99441637460233, -39.763612470374305, -38.544199306501426, -37.335111285210324])","array('d', [-169.72454833984375, -167.74153020058654, -165.72657467647576, -163.68457581169528, -161.61948692400793, -159.53454342071558, -157.432419314634, -155.3153422734048, -153.18518112145944, -151.04351410012777, -148.89168309901862, -146.73083725815408, -144.5619682192833, -142.38593858234105, -140.2035046419188, -138.015337821336])","array('d', [-50.03739929199219, -49.997076903285155, -49.97037386862877, -49.95242382674025, -49.940171178387104, -49.931673568973935, -49.925680256113445, -49.92137487094741, -49.918216994582586, -49.91584372122874, -49.914008041282386, -49.91254010309973, -49.91132287759411, -49.91027699850324, -49.90935147867627, -49.9085181356383])","array('d', [0.5556097030639646, 0.4939301827880784, 0.4389493801524581, 0.3902206327154427, 0.3472239252461801, 0.30940927075391067, 0.27622331124650706, 0.247126449790052, 0.22160448313203157, 0.19917694779302667, 0.17940344601763628, 0.16188869801585418, 0.14628677727657233, 0.13230482274683314, 0.1197064293685385, 0.10831486628256569])","array('d', [-0.019520914182066838, -0.012849743879030697, -0.008584262876549563, -0.0058219788705424465, -0.004010401031388421, -0.0028077623422476435, -0.002000361673029887, -0.0014530779535493331, -0.0010794565488025612, -0.0008234333820356746, -0.0006480366609031207, -0.0005283112008614661, -0.00044682852603392857, -0.000390809275615583, -0.0003502826604343722, -0.0003169489688754502])","array('d', [0.6661579171803336, 0.6434586631138461, 0.6237178025354277, 0.6064634823204801, 0.5913148604816397, 0.5779599760766647, 0.5661404638076555, 0.555640782146954, 0.5462804080995978, 0.5379079755440341, 0.5303966784738237, 0.523640487090106, 0.5175508746677788, 0.5120538528043395, 0.5070871789284603, 0.5025976361703874])",-50.048679935994805,-159.53454342071558,-49.931673568973935,0.30940927075391067,-0.0028077623422476435,0.5779599760766647,25.000000248992716,-1.0,"[-166.59910101324922, -55.084395566550576, 50.06807870640835]","[-147.00048243331142, -14.142032668974466, 71.03512595015013]","[-116.96403826494516, -49.62969380359332, 52.638443398258374]",10000000000.0,0.024173259735107422
14,-166.6229248046875,-55.223777770996094,50.120216369628906,0.4274820685386655,-0.0040152114816010805,0.6318051377919055,23.542313451696668,"array('d', [-57.01881790161133, -55.50496021560894, -54.032044351685364, -52.59538236502281, -51.19087913325827, -49.814962729130414, -48.464518052734846, -47.13682687189292, -45.82951432661566, -44.54050125005975, -43.26796169071788, -42.01028523087996, -40.76604390712371, -39.5339637036462, -38.31290070611777, -37.101824131718])","array('d', [-169.34300231933594, -167.35383489727394, -165.333982563113, -163.2881039583326, -161.21997737551513, -159.13270323276726, -157.0288486336504, -154.91055488336505, -152.77961996356623, -150.63756328199642, -148.48567736457198, -146.3250695695491, -144.15669590445518, -141.98138837413453, -139.7998768495733, -137.61280982631484])","array('d', [-50.04183578491211, -50.00749499735455, -49.98473634735307, -49.969421229057026, -49.95895132887037, -49.951675129583634, -49.946529276479964, -49.94281981503056, -49.940087476086475, -49.93802397111948, -49.93641959043073, -49.935130245874916, -49.93405674830139, -49.93313187327631, -49.932312409079785, -49.93157434670455])","array('d', [0.5402034521102903, 0.4798737951768457, 0.42616885790035924, 0.3786275882598997, 0.3367249030956921, 0.299911035270837, 0.2676358853258739, 0.23936485189864118, 0.21458967865183604, 0.19283630199108345, 0.17367084223440774, 0.15670441667283655, 0.1415971935070649, 0.1280619591686554, 0.11586738824668918, 0.10484115791151365])","array('d', [-0.016620680689811512, -0.01094749031786961, -0.00732020143873742, -0.004971159248053257, -0.0034304876069584994, -0.002407544958392435, -0.0017206000803973891, -0.0012547416124092743, -0.0009364398724384434, -0.0007180081515739987, -0.0005679989285517326, -0.00046519178002245505, -0.00039478089072828834, -0.000345934002393533, -0.00031023292534604216, -0.00028071046671354237])","array('d', [0.6617628494885306, 0.6398287619739251, 0.6207432816121903, 0.6040564805649293, 0.5894036184269515, 0.5764848399849886, 0.5650510986308381, 0.5548941887327447, 0.5458394809625948, 0.5377404285897798, 0.5304742250946809, 0.5239381996676865, 0.5180466740277982, 0.5127280951545244, 0.5079223191736422, 0.5035779543433183])",-49.814962729130414,-159.13270323276726,-49.951675129583634,0.299911035270837,-0.002407544958392435,0.5764848399849886,25.000000248992574,-1.0,"[-166.20459094107252, -54.8342959023053, 50.085092409908974]","[-146.40837423959016, -13.657858208208722, 70.39791553059148]","[-116.54370253420687, -49.5918463835869, 52.597638068106264]",10000000000.0,0.020678281784057617
15,-165.83203125,-54.720977783203125,50.16029357910156,0.39773797988891585,-0.008864188566804017,0.6240486661579945,23.614060792203347,"array('d', [-56.49956512451172, -55.001443283598704, -53.54161161895789, -52.11564946143263, -50.71970526060243, -49.35042424047751, -48.004883892256146, -46.680536907075194, -45.375160497740744, -44.08681118484147, -42.81378441896769, -41.55457868849365, -40.307863976019526, -39.07245457686145, -37.84728639334544, -36.63140088293579])","array('d', [-168.5742950439453, -166.57305703560738, -164.54364246932874, -162.490251850202, -160.41631871179817, -158.32467524567014, -156.21767476549707, -154.09728504640924, -151.9651611944176, -149.82270360615416, -147.6711047014493, -145.5113869212894, -143.3444337038272, -141.17101462663226, -138.99180554314773, -136.80740786328917])","array('d', [-50.05488204956055, -50.03357770278212, -50.01940860714047, -50.00982537002837, -50.00322787305222, -49.998599355965844, -49.995285436258634, -49.992859359376965, -49.991039030804664, -49.989635457600265, -49.98852044984385, -49.987606269880835, -49.986832781685536, -49.98615935665429, -49.985559806601934, -49.98501921659774])","array('d', [0.5078511834144592, 0.4504223791814841, 0.3994384493800105, 0.3544160494835002, 0.31482444013759137, 0.28011764529830674, 0.24975475884445425, 0.22321341060148192, 0.19999916875442283, 0.17965245730614018, 0.1617539108857109, 0.1459287240775279, 0.13185034683533717, 0.11924376049864294, 0.10788850163118668, 0.09762156209364017])","array('d', [-0.010298413224518233, -0.006803579831466512, -0.004569036265751793, -0.0031217169648570502, -0.002172127925456849, -0.0015412128044946785, -0.0011170004382821818, -0.0008286712639107886, -0.0006308910778647451, -0.0004942470291925957, -0.00039934239528049975, -0.00033310653043568507, -0.0002864621507560826, -0.00025283878026546576, -0.00022722849221231965, -0.00020560494297116306])","array('d', [0.6530262986805778, 0.632657281709282, 0.6149166560926602, 0.599397335697584, 0.5857662865424788, 0.5737476796367552, 0.5631111032928457, 0.5536631230705554, 0.5452410476108326, 0.5377081393642827, 0.5309497618091945, 0.5248701227918461, 0.5193893858550148, 0.5144409964616565, 0.5099691199903045, 0.505926114657068])",-49.35042424047751,-158.32467524567014,-49.998599355965844,0.28011764529830674,-0.0015412128044946785,0.5737476796367552,25.000000248992265,-1.0,"[-164.6148000099077, -53.844523950057265, 50.17358968782912]","[-144.0839246890064, -11.883774721485857, 67.99993767990395]","[-114.86879691747782, -49.39267330499165, 52.5222493400537]",10000000000.0,0.040726661682128906
16,-165.4344482421875,-54.470741271972656,50.18259048461914,0.3837440907955168,-0.010673747397959305,0.6204312602665759,23.65023768570792,"array('d', [-55.98548889160156, -54.50301475041474, -53.056166896748145, -51.64079765730972, -50.253299220591465, -48.890532914391386, -47.54976789732531, -46.22862728847178, -44.92504028137208, -43.6371992888584, -42.363521559597004, -41.10261499261076, -39.85324807193826, -38.614323972860234, -37.384858973893515, -36.16396731140506])","array('d', [-167.7982635498047, -165.785303840007, -163.74656530344603, -161.68583603417508, -159.6062311583631, -157.51033065601865, -155.40028418173802, -153.27789256398475, -151.14467237527387, -149.00190787515746, -146.8506932636159, -144.69196727290736, -142.52654150882893, -140.35512352735228, -138.1783353357807, -135.9967312668385])","array('d', [-50.074405670166016, -50.06563281633006, -50.059707370596534, -50.05561295604848, -50.05271202916299, -50.050599878493315, -50.04901650042847, -50.047792880111025, -50.04681791487562, -50.04601784102449, -50.045343305495244, -50.04476115269915, -50.044249139680396, -50.04379247562835, -50.04338149388782, -50.04301001763402])","array('d', [0.4750868082046507, 0.42061106707377316, 0.37238894227266023, 0.3299193419073328, 0.2926681422344497, 0.2600943171785563, 0.23166677602272093, 0.2068757522596241, 0.1852409024551262, 0.1663173593124837, 0.1497004773924035, 0.13502972649978187, 0.12199202697222858, 0.11032472869285131, 0.0998183817521633, 0.09031941499768609])","array('d', [-0.004217988345771982, -0.0028235712827966836, -0.0019316685666443103, -0.0013535093956487264, -0.0009735707575257825, -0.0007203737964422729, -0.0005491845072983023, -0.0004316721172357588, -0.00034966807406383186, -0.0002913636454681553, -0.0002489719569372585, -0.00021727898149080037, -0.00019274077843338335, -0.0001729210934666217, -0.00015614416976552075, -0.00014128518237976597])","array('d', [0.6444192091610768, 0.6255843026311214, 0.6091703382257069, 0.5948085791618066, 0.5821947651522835, 0.5710751676025251, 0.5612367396547142, 0.5524999791657317, 0.5447135796428185, 0.5377502499562411, 0.5315032877688214, 0.5258836282778127, 0.5208171815529157, 0.5162423331706734, 0.5121075236881204, 0.5083688433060226])",-48.890532914391386,-157.51033065601865,-50.050599878493315,0.2600943171785563,-0.0007203737964422729,0.5710751676025251,25.000000248991945,-1.0,"[-164.6148000099077, -53.844523950057265, 50.17358968782912]","[-144.0839246890064, -11.883774721485857, 67.99993767990395]","[-114.86879691747782, -49.39267330499165, 52.5222493400537]",10000000000.0,0.02126002311706543
17,-164.63534545898438,-53.972206115722656,50.23181915283203,0.35789421200752236,-0.013608454726636538,0.61368723312882,23.71778089208315,"array('d', [-55.7302360534668, -54.255647145580824, -52.81537614481579, -51.405409164124165, -50.02225664681529, -48.662884685717636, -47.32465560109955, -46.00527564897248, -44.70274842817439, -43.41533309376301, -42.14150687485178, -40.87993166587631, -39.629424641484626, -38.38893296265348, -37.15751271573837, -35.93431422653687])","array('d', [-167.40762329101562, -165.38885947657272, -163.3454591574286, -161.2810243357159, -159.19852320492916, -157.10041753477802, -154.98876043026965, -152.86527287106492, -150.73140469284579, -148.58838386958868, -146.4372567534994, -144.27892111634048, -142.11415327888292, -139.94363022900168, -137.7679473578459, -135.58763571875335])","array('d', [-50.08719253540039, -50.084223814711365, -50.08210969412485, -50.08054646513525, -50.07934400101312, -50.07838208142454, -50.07758404660845, -50.07690074432119, -50.076300639691645, -50.075763639269624, -50.07527715988199, -50.07483354840246, -50.07442830103838, -50.07405873929511, -50.07372293255929, -50.07341874916302])","array('d', [0.4588864147663114, 0.40585500311030503, 0.35898603195017625, 0.317769818206302, 0.281670219943659, 0.250148120550267, 0.22267670936776193, 0.19875191541876924, 0.1778998913814898, 0.15968264833881832, 0.14370249979312993, 0.1296057250030329, 0.11708572033397763, 0.10588582564833073, 0.09580196473992268, 0.08668521026941334])","array('d', [-0.001400084118358665, -0.0009818696351494688, -0.0007138973354431431, -0.0005395936592706448, -0.00042430097797950203, -0.00034653204506124996, -0.0002927922983594591, -0.00025448851620805084, -0.00022606927678602066, -0.0002039008729995969, -0.0001855881287425531, -0.00016956829593860916, -0.00015487471178957473, -0.0001410060381016293, -0.00012785867300300278, -0.0001156914042114793])","array('d', [0.6401229063656666, 0.6220297820592712, 0.606261035978818, 0.5924649282481936, 0.5803501051073742, 0.56967286861353, 0.5602281438972043, 0.5518428953110214, 0.5443711550867164, 0.5376901040322729, 0.5316968283291771, 0.5263055002658397, 0.5214448138732327, 0.5170555620929164, 0.5130882790540098, 0.5095008894402466])",-48.662884685717636,-157.10041753477802,-50.07838208142454,0.250148120550267,-0.00034653204506124996,0.56967286861353,25.000000248991782,-1.0,"[-164.21407605789693, -53.598711799101096, 50.19860080170578]","[-143.51879015017158, -11.476333160727265, 67.44419035506614]","[-114.451141054453, -49.315104637196235, 52.50099293283655]",10000000000.0,0.024219512939453125
18,-164.23411560058594,-53.7237548828125,50.25852966308594,0.3459561467170713,-0.014645026996731862,0.6105891029026844,23.751711895160945,"array('d', [-55.223777770996094, -53.76457189762888, -52.33716204084475, -50.93779232954537, -49.5631992376234, -48.210548874107346, -46.87738173772596, -45.56156350833791, -44.261240841139156, -42.97480151177775, -41.700838559557475, -40.4381182887452, -39.18555213086936, -37.94217246274227, -36.70711253221939, -35.47959287561272])","array('d', [-166.6229248046875, -164.59302220436794, -162.5406179636646, -160.4689835797017, -158.38082060461974, -156.27837319977365, -154.16351491292562, -152.03781706513, -149.90260362340678, -147.75899584853286, -145.60794897103094, -143.4502824548069, -141.28670493477293, -139.11783458709115, -136.94421546043935, -134.76633401399164])","array('d', [-50.120216369628906, -50.12839382107352, -50.13358364867706, -50.13685648302045, -50.13888496154272, -50.14009749236297, -50.14077106245512, -50.14108781505846, -50.14116986264552, -50.14110086400368, -50.140939429919705, -50.14072738642546, -50.14049472362115, -50.140262352724925, -50.140043389579915, -50.13984346645214])","array('d', [0.4274820685386655, 0.3772362694268898, 0.3329779954728771, 0.29418209306444604, 0.2603086296680987, 0.23082184420261861, 0.20520270596422993, 0.18295764252764654, 0.16362489981079417, 0.14677939406071283, 0.1320365790432291, 0.11905566185945433, 0.10754239213081167, 0.09725158577981484, 0.08798950654637988, 0.0796162051287921])","array('d', [0.0040152114816010805, 0.0025511847443905125, 0.0016162765615993007, 0.0010120710265070494, 0.000617297571170116, 0.0003570682592734676, 0.00018466386488737686, 7.064035528042068e-05, -3.761121470335927e-06, -5.0655499845637695e-05, -7.8035021210986e-05, -9.137719861796747e-05, -9.469765149260394e-05, -9.125646969374991e-05, -8.4034521332123e-05, -7.603766838827076e-05])","array('d', [0.6318051377919055, 0.6151207552355901, 0.6005832672924204, 0.5878708031322963, 0.576714934215569, 0.5668899714972793, 0.5582053035341988, 0.5504997443097348, 0.5436372000649983, 0.5375031921085048, 0.5320019251723226, 0.5270536934183258, 0.5225924850463419, 0.518563692419901, 0.5149218649479076, 0.511628455685557])",-48.210548874107346,-156.27837319977365,-50.14009749236297,0.23082184420261861,0.0003570682592734676,0.5668899714972793,25.000000248991455,-1.0,"[-164.21407605789693, -53.598711799101096, 50.19860080170578]","[-143.51879015017158, -11.476333160727265, 67.44419035506614]","[-114.451141054453, -49.315104637196235, 52.50099293283655]",10000000000.0,0.02270817756652832
19,-163.42825317382812,-53.227996826171875,50.315025329589844,0.32454249262809726,-0.015800306573510246,0.6046800772335864,23.819831121173372,"array('d', [-54.971961975097656, -53.52009712028032, -52.098820078262996, -50.70449935964391, -49.33397936125362, -47.984521472766005, -46.653751114920965, -45.339610059217534, -44.040313345021836, -42.75431031393079, -41.480249498465355, -40.21694727339782, -38.96336029775863, -37.718561853775164, -36.48172223804261, -35.25209559102744])","array('d', [-166.22821044921875, -164.19307616980464, -162.1364297689605, -160.0613970280208, -157.97055928766392, -155.86606122501058, -153.7496935143849, -151.62295791644203, -149.48711957204475, -147.34324964207798, -145.19226041259913, -143.03493431911903, -140.87194789705566, -138.70389135877926, -136.5312842832904, -134.35459163214037])","array('d', [-50.13936996459961, -50.15277690895054, -50.161386967858896, -50.16691802118171, -50.17044902513246, -50.172666788257736, -50.17401489905619, -50.17478450610821, -50.17517018037778, -50.17530455866598, -50.17527990888837, -50.175161492240655, -50.174995669551116, -50.174814563681956, -50.17463843306315, -50.174476550816436])","array('d', [0.4123677313327788, 0.3634646446744118, 0.3204632279224267, 0.28283190522317797, 0.25002939559192455, 0.2215217523706676, 0.19679375406741118, 0.17535688518886755, 0.15675519306638097, 0.1405697813554761, 0.12642240752141898, 0.11397848584036996, 0.10294970223650317, 0.0930963912372556, 0.08422979131595981, 0.07621427379902455])","array('d', [0.006557608954608585, 0.004207209656871342, 0.002705896561535075, 0.0017351439244458272, 0.0011002514654707962, 0.0006809539798848594, 0.0004021851235690665, 0.00021659651017213143, 9.398825370586607e-05, 1.4834812877345136e-05, -3.374423943992383e-05, -6.054203720518454e-05, -7.192620266675206e-05, -7.29415532941575e-05, -6.804463092479365e-05, -6.156941593258531e-05])","array('d', [0.627859310307775, 0.6118399502957056, 0.5978859681717111, 0.5856886623634358, 0.5749898137991845, 0.5655718344582956, 0.5572506826504288, 0.5498706040141148, 0.5433000681735451, 0.5374284788589431, 0.5321633746853621, 0.5274279314554686, 0.523158639682748, 0.5193030728759429, 0.5158176896196162, 0.5126656245284386])",-47.984521472766005,-155.86606122501058,-50.172666788257736,0.2215217523706676,0.0006809539798848594,0.5655718344582956,25.000000248991295,-1.0,"[-162.60030033904565, -52.61950088166316, 50.30950568989782]","[-141.32272418532628, -9.993955008025416, 65.48605312325954]","[-112.7823594904392, -48.91024341296204, 52.41050036757694]",10000000000.0,0.03525543212890625
20,-163.42825317382812,-53.227996826171875,50.315025329589844,0.32454249262809726,-0.015800306573510246,0.6046800772335864,23.819831121173372,"array('d', [-54.470741271972656, -53.032771878542235, -51.62311488708015, -50.23837180650756, -48.87558869864272, -47.53220517333682, -46.20600583783844, -44.895075424528315, -43.59775771536771, -42.31261815277102, -41.038410055061014, -39.77404443567653, -38.51856349801365, -37.271117929839995, -36.03094815528231, -34.79737188702196])","array('d', [-165.4344482421875, -163.38954133802395, -161.32494010620127, -159.24351373730084, -157.14762822368934, -155.03924803512916, -152.92001252750813, -150.79129566410967, -148.65425396112983, -146.5098656704225, -144.3589631425135, -142.20225966519604, -140.04037165870778, -137.8738368325077, -135.7031287190835, -133.5286716654497])","array('d', [-50.18259048461914, -50.20445252128911, -50.21857054268382, -50.22771695344047, -50.23363276736544, -50.237425929940095, -50.23981167456565, -50.24125902176714, -50.24208093040873, -50.24249022158616, -50.24263442398751, -50.24261741943723, -50.24251265571172, -50.24237085861074, -50.24222410929542, -50.24208756049196])","array('d', [0.3837440907955168, 0.3373780188479827, 0.296751138802959, 0.26132073723512145, 0.23054325621644578, 0.20388811099945225, 0.1808470745529979, 0.1609409484499352, 0.1437245176589349, 0.1287903875020043, 0.11577207783011607, 0.10434662308062408, 0.09423685375166832, 0.08521349102365952, 0.077097158882223, 0.06976040049933446])","array('d', [0.010673747397959305, 0.006879412312361176, 0.004455503139370117, 0.0028877949652145745, 0.0018619734981346907, 0.001183869872995982, 0.0007322598686412496, 0.0004306494131310498, 0.00023022105076052913, 9.939433968396499e-05, 1.7336469036586596e-05, -3.014797406069376e-05, -5.327716458580102e-05, -6.0047571282572005e-05, -5.739611153620179e-05, -5.1934236276484714e-05])","array('d', [0.6204312602665759, 0.6056503634256891, 0.5927871130106465, 0.5815556977340502, 0.5717158194282499, 0.5630642513897179, 0.5554287113095209, 0.5486632554456593, 0.5426446638295959, 0.5372694619884637, 0.5324513424426163, 0.5281188282601256, 0.5242130737451737, 0.520685732259917, 0.5174968438984388, 0.5146127050856282])",-47.53220517333682,-155.03924803512916,-50.237425929940095,0.20388811099945225,0.001183869872995982,0.5630642513897179,25.000000248990982,-1.0,"[-162.60030033904565, -52.61950088166316, 50.30950568989782]","[-141.32272418532628, -9.993955008025416, 65.48605312325954]","[-112.7823594904392, -48.91024341296204, 52.41050036757694]",10000000000.0,0.017653942108154297
21,-162.61965942382812,-52.7331428527832,50.37532043457031,0.3055632412433622,-0.015777593478560583,0.599239424863134,23.888040071244923,"array('d', [-53.972206115722656, -52.54694278719615, -51.14795358743752, -49.77204452143077, -48.416439375170285, -47.0787356187864, -45.756859547579815, -44.449023679612814, -43.15368727763064, -41.86952021828466, -40.5953702823983, -39.330233938720966, -38.073230725015804, -36.82358136036272, -35.58058974457117, -34.34363202214865])","array('d', [-164.63534545898438, -162.58163239513428, -160.50981525763623, -158.4225491114138, -156.32201728941627, -154.21002964758077, -152.08809454844163, -149.9574744991454, -147.81923067407908, -145.6742593205939, -143.52332188794654, -141.36707006513876, -139.20606651585214, -137.04080184313324, -134.87170814485336, -132.69917466449837])","array('d', [-50.23181915283203, -50.25969226449358, -50.277693013014044, -50.28935564945526, -50.29689962005424, -50.3017373565665, -50.30478067463152, -50.306627520772984, -50.30767689010569, -50.30820011471831, -50.3083852838335, -50.308364838479235, -50.308232417006614, -50.30805268868734, -50.30786655390802, -50.307693334483986])","array('d', [0.35789421200752236, 0.3137986249861187, 0.27530001805820825, 0.24184575451343954, 0.21288975849406508, 0.18790378797676244, 0.16638519262364865, 0.14786249196041448, 0.13189955552409308, 0.11809886057554952, 0.10610413223114772, 0.09560257411739014, 0.08632684115580076, 0.07805687146519526, 0.0706216719441906, 0.06390113708710704])","array('d', [0.013608454726636538, 0.008771213094307229, 0.005681065596429266, 0.003682420253348488, 0.002374583086363445, 0.0015100310708826522, 0.0009342295087499732, 0.0005496628705965653, 0.0002940959788423771, 0.00012726675431881472, 2.2614347117166757e-05, -3.7960127507907853e-05, -6.748452387003811e-05, -7.615351424221209e-05, -7.281008301108514e-05, -6.588137569054228e-05])","array('d', [0.61368723312882, 0.6000034006093178, 0.5881111523779298, 0.5777430825687914, 0.5686734954656189, 0.5607110249293888, 0.5536932291533143, 0.5474824771106473, 0.5419626713510884, 0.5370365038594578, 0.5326230433891891, 0.528655520648533, 0.525079222838906, 0.5218494386221376, 0.5189294136033873, 0.5162882818678428])",-47.0787356187864,-154.21002964758077,-50.3017373565665,0.18790378797676244,0.0015100310708826522,0.5607110249293888,25.00000024899069,-1.0,"[-162.19438118451774, -52.375354903123416, 50.33872480332702]","[-140.78626364329716, -9.658143843619918, 65.06734940439266]","[-112.36486620834847, -48.78821232215385, 52.37633255348838]",10000000000.0,0.022562265396118164
22,-161.8071746826172,-52.238887786865234,50.43810272216797,0.28883382678031905,-0.014600594528019506,0.5939920107510427,23.956122196771606,"array('d', [-53.7237548828125, -52.304349208401774, -50.91028243506942, -49.5384526875716, -48.18616441220905, -46.851087093667374, -45.53121190131472, -44.224810018016726, -42.93039382606959, -41.64668130909368, -40.37256380619053, -39.10707721930283, -37.84937678903143, -36.59871557516889, -35.35442679546637, -34.115913397071715])","array('d', [-164.23411560058594, -162.17637821375357, -160.10125674778382, -158.01131129334274, -155.90864384450214, -153.7949951214382, -151.67181467449845, -149.54031477759276, -147.40151348141893, -145.2562698215362, -143.1053129792278, -140.94926653518974, -138.7886685654136, -136.62398808160364, -134.4556381545328, -132.2839915531618])","array('d', [-50.25852966308594, -50.28851727762987, -50.30786699664282, -50.32038724785959, -50.32846972144933, -50.33363654559388, -50.33687044666682, -50.338815977927545, -50.33990334800161, -50.34042523424126, -50.340584639166345, -50.34052460858781, -50.34034635625264, -50.34011982008875, -50.339889212481, -50.33967531588346])","array('d', [0.3459561467170713, 0.30290694665812573, 0.26538922583718694, 0.23284603537825854, 0.20473019473748302, 0.18051450211282338, 0.15969880075528942, 0.14181508336142876, 0.12643132951964958, 0.11315450238553128, 0.10163298108292688, 0.09155862048546386, 0.08266858019867801, 0.07474703359700695, 0.06762684729600237, 0.06119130743836409])","array('d', [0.014645026996731862, 0.009432620396701945, 0.006102863397850813, 0.003949306906035591, 0.002540190570914558, 0.0016088090945884765, 0.0009886578589822423, 0.0005746733878878713, 0.00029980799508237265, 0.00012068905670005934, 8.703032163838607e-06, -5.565389286687896e-05, -8.643449232739557e-05, -9.465726508465305e-05, -8.99080461500269e-05, -8.135239829611206e-05])","array('d', [0.6105891029026844, 0.5974055113603746, 0.5859572995475204, 0.5759849544722303, 0.5672690987052325, 0.5596235446871581, 0.5528901849934424, 0.5469350799196784, 0.5416453178656274, 0.5369263664163592, 0.532699727115287, 0.5289007703134255, 0.5254766684036568, 0.5223843730894593, 0.5195885997932888, 0.5170597865659393])",-46.851087093667374,-153.7949951214382,-50.33363654559388,0.18051450211282338,0.0016088090945884765,0.5596235446871581,25.000000247217464,-1.0,"[-161.3811663466148, -51.88722628116237, 50.3989858429116]","[-139.72756029769897, -9.01093594203703, 64.28225173510653]","[-111.53034124367127, -48.52045540222674, 52.2858060263115]",10000000000.0,0.02483510971069336
