,current_time,x_pos,y_pos,z_pos,roll,pitch,yaw,vel,x_traj,y_traj,z_traj,roll_traj,pitch_traj,yaw_traj,x_cmd,y_cmd,z_cmd,roll_cmd,pitch_cmd,yaw_cmd,vel_cmd,effector_dmg,effector_x,effector_y,effector_z,cost,time_solution
0,20.66004967689514,-226.74085998535156,-187.55429077148438,49.953895568847656,0.6296958923339839,0.03977241739630705,2.192715899148259,23.123298049111476,"array('d', [-187.94192504882812, -186.70677204465477, -185.4311640516603, -184.11723400869596, -182.76754282106873, -181.38505959437379, -179.04107947761915, -176.67032716236795, -174.27620265379835, -171.8623473724646, -169.4321979337666, -166.98877115044996, -164.53460355796443, -162.07177354463937, -159.60195885396348, -157.6217009380063])","array('d', [-226.4891815185547, -227.3382679347605, -228.12584233392678, -228.84811429331242, -229.50146515150743, -230.08247823982876, -230.95085471966084, -231.74348980670655, -232.46266152979382, -233.11271413625013, -233.6990657686202, -234.2274846193369, -234.70363279328316, -235.13281260134238, -235.5198483324575, -235.7954729626978])","array('d', [-49.95359420776367, -49.89879460020728, -49.853191098579934, -49.81555947565699, -49.78475849507288, -49.75976596161216, -49.72617166783344, -49.69900560336889, -49.67681903504379, -49.65846692762343, -49.643052861044815, -49.629883302555946, -49.618430849376594, -49.60830574561307, -49.59923455331565, -49.59268454281587])","array('d', [0.6294308304786679, 0.6442730727253158, 0.6577028900866891, 0.6698546924400292, 0.6808500988711179, 0.6907991547913775, 0.6896371256321103, 0.668485703384924, 0.6338658208838823, 0.5912836959406635, 0.5450118272500603, 0.49815482830918933, 0.4528283824864891, 0.41034629409258894, 0.37137285289411687, 0.33603208377489374])","array('d', [-0.03987609595060357, -0.03331588031172002, -0.02759370076062961, -0.02266926223071615, -0.018471653617920854, -0.014912655509899054, -0.01201198655032244, -0.009758883399931787, -0.008019620694684933, -0.006684471013844438, -0.0056638861838947, -0.004884806107566324, -0.004287158481905646, -0.003820727664817393, -0.0034425508179520884, -0.003114949184546062])","array('d', [2.197108582654271, 2.148720775158476, 2.0988886094382444, 2.0477224867644557, 1.9953261554544042, 1.941796876345834, 1.9093969281800804, 1.877735398306261, 1.8478452808562025, 1.820283611537264, 1.7952494215274364, 1.7727144087628528, 1.7525243436771465, 1.7344661552360219, 1.718309434286063, 1.7002074207851408])",-181.38505959437379,-230.08247823982876,-49.75976596161216,0.6907991547913775,-0.014912655509899054,1.941796876345834,25.000000243627703,-1.0,"[-227.34926594191742, -186.75649170646184, 49.893792675465654]","[-245.59192234464425, -180.58417493984777, 55.288975073181696]","[-229.4046668659671, -170.72307527751212, 61.671096469513806]",10000000000.0,0.021250247955322266
1,20.67507243156433,-226.74085998535156,-187.55429077148438,49.953895568847656,0.6296958923339839,0.03977241739630705,2.192715899148259,23.123298049111476,"array('d', [-187.55429077148438, -186.31540234756196, -185.03630852441046, -183.71916454605693, -182.36655233250093, -180.0682493934661, -177.73927036134288, -175.38220267797965, -173.00046991017882, -170.59778900879817, -168.17769819840166, -165.74332372638608, -163.2973086876392, -160.84182981461313, -158.37865290814815, -156.40254473607288])","array('d', [-226.74085998535156, -227.58450109682246, -228.36642229247389, -229.08284226840777, -229.7301539863059, -230.71281371168496, -231.62069090067405, -232.4531602334744, -233.21237698782576, -233.90259622825667, -234.52917639874755, -235.0978476280291, -235.61424837153157, -236.08366637933193, -236.51091691996464, -236.81877419624328])","array('d', [-49.953895568847656, -49.899323335196875, -49.854085544864276, -49.81695547005128, -49.78679709849811, -49.74630309565088, -49.71368458868607, -49.687235817730176, -49.66558686176425, -49.64764788478489, -49.632560890084115, -49.61965890695253, -49.60843268563359, -49.59850458625219, -49.589608849902326, -49.58318345996612])","array('d', [0.6296958923339839, 0.6445129106320171, 0.6579199044179892, 0.6700510551414242, 0.6810277751861279, 0.69095992284802, 0.6905033300894792, 0.6697912352091856, 0.6353964276228761, 0.5928848534955744, 0.5465828853104749, 0.4996376301137785, 0.4541954840331203, 0.41159075037351983, 0.3724998127964263, 0.33705179935547636])","array('d', [-0.03977241739630705, -0.03311777054328473, -0.027305477003695892, -0.022290066214339453, -0.0179954791911436, -0.014460133063102594, -0.011681769756131026, -0.009513811555006083, -0.00783360082068595, -0.0065392963630720585, -0.005546927723926677, -0.0047873755903051944, -0.004203373999129833, -0.0037467438763962007, -0.0033760442068477645, -0.003054771508841857])","array('d', [2.192715899148259, 2.1443025639777575, 2.094446804873052, 2.0432589086638253, 1.9908425118803021, 1.958713865301447, 1.9262796332416559, 1.8945475304508106, 1.8645693172316686, 1.836915753111389, 1.8117938868198726, 1.7891791245105555, 1.7689182994463275, 1.7507980014778375, 1.7345868612827153, 1.716430444514284])",-180.0682493934661,-230.71281371168496,-49.74630309565088,0.69095992284802,-0.014460133063102594,1.958713865301447,25.000000242973076,-1.0,"[-227.614063475004, -186.3361124634066, 49.894252669960984]","[-245.81813759168546, -180.0938109749635, 55.33900773164647]","[-229.5757601506485, -170.29601700092883, 61.67844053792053]",10000000000.0,0.0135345458984375
2,20.703592777252197,-227.23898315429688,-186.77569580078125,49.9544792175293,0.6306772232055663,0.03953989222645763,2.1837535063412528,23.12180566042373,"array('d', [-187.16554260253906, -185.9228479590196, -184.64019857436153, -183.31977398319762, -181.9641791025483, -179.6613282971754, -177.32813701307498, -174.96720379406986, -172.58194787549897, -170.17606886637134, -167.75308054290878, -165.31608202707127, -162.86768939330295, -160.41005397788038, -157.94491850318164, -155.96740114554652])","array('d', [-226.9907989501953, -227.82883850074865, -228.60492689751686, -229.31529367929403, -229.9563450524345, -230.9283120767652, -231.82531869472336, -232.6467690581049, -233.3948498005708, -234.07384266716016, -234.6891271907278, -235.24644956749265, -235.75146033613535, -236.20945635256322, -236.6252598280685, -236.92394229160877])","array('d', [-49.954185485839844, -49.89985334573225, -49.85485445802709, -49.81795208871061, -49.78800462856091, -49.74782957797719, -49.71549568516068, -49.68929792798131, -49.66786908840405, -49.65012294203653, -49.635205324201095, -49.62245290019757, -49.611359630779525, -49.601550551256935, -49.59276200397582, -49.586414117809696])","array('d', [0.6301087737083433, 0.6448865011410551, 0.6582579430641837, 0.6703569251002492, 0.6813045376261423, 0.6912103472326402, 0.6906114276847998, 0.6698005313621423, 0.635343895184335, 0.5927986678034567, 0.5464825822823854, 0.49953549387699053, 0.45409827805814507, 0.41150137325440145, 0.37241876216064296, 0.3369784616906475])","array('d', [-0.0396139919757843, -0.03295591681057109, -0.027148566617815357, -0.02214311017081872, -0.01786095574221491, -0.014339233960598925, -0.011574727030893774, -0.009419814421423435, -0.007751303097192983, -0.006467156200026833, -0.005483419941239801, -0.004731113618768951, -0.004153172293959954, -0.003701643849837368, -0.0033353194603388775, -0.0030179224360659443])","array('d', [2.1882177154209947, 2.1397645973368773, 2.0898720709700074, 2.0386502445895833, 1.9862025803255008, 1.9540566690025878, 1.921610672936032, 1.889874795718342, 1.859897941198836, 1.8322484576865965, 1.8071317536002711, 1.7845222837232038, 1.7642664121785863, 1.7461505543291655, 1.7299433268919078, 1.7117912254706398])",-179.6613282971754,-230.9283120767652,-49.74782957797719,0.6912103472326402,-0.014339233960598925,1.9540566690025878,25.000000230980827,-1.0,"[-227.8201561161989, -186.0050647201811, 49.89469745752384]","[-245.99292904915873, -179.70671520671613, 55.379322999283005]","[-229.70643001120754, -169.96125442261572, 61.68614019913711]",10000000000.0,0.0250093936920166
3,20.736093282699585,-227.72984313964844,-185.9925079345703,49.95516586303711,0.6320840716361996,0.039109133183956125,2.1752185980465746,23.124579651777324,"array('d', [-186.77569580078125, -185.52924768646696, -184.24308604578403, -182.9194166749836, -181.56086940665728, -180.17047813963532, -177.81465411072952, -175.4330981143272, -173.02919469713774, -170.6065315503627, -168.16847098325067, -165.71794803093206, -163.25741812824162, -160.78888364224235, -158.31395334771403, -156.3294845572631])","array('d', [-227.23898315429688, -228.07143318667937, -228.84168343452131, -229.54597530838254, -230.1807292527591, -230.74257438968854, -231.5783135766268, -232.33789362478663, -233.0236875761035, -233.64011871718313, -234.19266640053658, -234.6871445528193, -235.12924902972614, -235.52430712475845, -235.87716186628853, -236.12549005394905])","array('d', [-49.9544792175293, -49.90020713063435, -49.85515643522669, -49.818068862233275, -49.78778228675398, -49.76326347873362, -49.730383042751235, -49.70385345549474, -49.68222938918246, -49.66437283953733, -49.64939581531324, -49.636613240085374, -49.62550541393307, -49.615689129783014, -49.6068961745705, -49.60054541715955])","array('d', [0.6306772232055663, 0.6454008555622505, 0.6587233502341034, 0.6707780429697041, 0.6816855809223982, 0.6915551298801599, 0.6899502604586598, 0.6684929677825091, 0.6336828224680612, 0.5909981165565326, 0.5446842361862099, 0.49782317856491703, 0.4525134764839994, 0.4100569607491286, 0.3711105006008191, 0.3357946975716008])","array('d', [-0.03953989222645763, -0.03294877328170706, -0.027223447601521, -0.022313645148651952, -0.01814084030514632, -0.014611257465674937, -0.011741728025002484, -0.009519416902718954, -0.007808593758992661, -0.006498621266579958, -0.005499733606719045, -0.00473906082194441, -0.004156940311621468, -0.0037036686588392802, -0.003336829603397838, -0.003019288870133616])","array('d', [2.1837535063412528, 2.1352455777369386, 2.0853023980132477, 2.034033828988452, 1.9815430921015957, 1.9279269355065267, 1.895491933655534, 1.8638201312491898, 1.8339355088921265, 1.8063875894802388, 1.7813703352334234, 1.758852524327149, 1.7386785001136043, 1.7206346720253007, 1.7044906035775031, 1.6864079150822249])",-180.17047813963532,-230.74257438968854,-49.76326347873362,0.6915551298801599,-0.014611257465674937,1.9279269355065267,25.000000233329892,-1.0,"[-228.10124188309655, -185.54972921866138, 49.89518483217889]","[-246.2308586142344, -179.17693571661746, 55.43634898444455]","[-229.88463751930283, -169.503211983284, 61.69894629281071]",10000000000.0,0.031017780303955078
4,20.75367522239685,-227.9723663330078,-185.5990447998047,49.955387115478516,0.6331303715705869,0.03826438263058665,2.1714302460339407,23.127750846671052,"array('d', [-185.9925079345703, -184.73892364981108, -183.44606389241548, -182.11619158261928, -180.75199065122354, -178.43600775079256, -176.09065419555105, -173.71856577431342, -171.32315357289895, -168.90807050634936, -166.47676191560413, -164.0322496593275, -161.57707202367243, -159.11330669176357, -156.6426290871841, -154.66115166644855])","array('d', [-227.72984313964844, -228.55155167078652, -229.3105504327633, -230.00310340673443, -230.62565878569058, -231.56594522871174, -232.43068302810764, -233.21936567308165, -233.9342768342686, -234.57978330366876, -235.16133348773366, -235.68472712198505, -236.15565568874797, -236.57944733914076, -236.96094843922748, -237.23211882186862])","array('d', [-49.95516586303711, -49.90159073047037, -49.85733232968555, -49.82112739084772, -49.79182003544289, -49.75260583507137, -49.721124368589365, -49.69567507122014, -49.67490031475006, -49.65772565981967, -49.64330902879009, -49.63099834787576, -49.62029740668118, -49.610839362094524, -49.60236688950503, -49.59624754890748])","array('d', [0.6320840716361996, 0.6466738247796748, 0.6598751805167601, 0.6718202621932261, 0.6826286199016147, 0.6924084265127389, 0.6913775217203556, 0.6702513368541585, 0.6355819791770208, 0.5929047967044552, 0.5465147263115069, 0.49953168283678734, 0.45408087033755085, 0.4114814518711429, 0.3724002093450698, 0.33696167440730096])","array('d', [-0.039109133183956125, -0.03245078137815319, -0.02666557738358418, -0.02169532685311818, -0.017454410358251817, -0.013976274364306738, -0.01125496885783491, -0.009140104456966287, -0.007507134887544638, -0.006253609212484336, -0.00529573905041576, -0.004565035206678404, -0.00400508500788866, -0.0035686493194058244, -0.0032152373216777315, -0.002909267620490898])","array('d', [2.1752185980465746, 2.126574830155307, 2.076506125997235, 2.0251217344032226, 1.9725242782713008, 1.9402956659594697, 1.9077849675528689, 1.876009688610093, 1.8460114729159602, 1.8183519049891206, 1.7932313891447766, 1.770621185787337, 1.7503658445811796, 1.7322508759907485, 1.7160445319632154, 1.6978934090451039])",-178.43600775079256,-231.56594522871174,-49.75260583507137,0.6924084265127389,-0.013976274364306738,1.9402956659594697,25.000000231997564,-1.0,"[-228.10124188309655, -185.54972921866138, 49.89518483217889]","[-246.2308586142344, -179.17693571661746, 55.43634898444455]","[-229.88463751930283, -169.503211983284, 61.69894629281071]",10000000000.0,0.015275955200195312
5,20.771042108535767,-227.9723663330078,-185.5990447998047,49.955387115478516,0.6331303715705869,0.03826438263058665,2.1714302460339407,23.127750846671052,"array('d', [-185.5990447998047, -184.342280347679, -183.04641762109162, -181.7137498087148, -180.34698991312723, -178.02709133416965, -175.67810691096074, -173.30268540552706, -170.9042376630402, -168.48640481128146, -166.05261346755663, -163.60586359516202, -161.1486709599637, -158.68309160652825, -156.21078097349988, -154.22814275201847])","array('d', [-227.9723663330078, -228.7892779456113, -229.54319545982048, -230.230396808798, -230.84734605850377, -231.77796983584042, -232.6328243315565, -233.41143168707904, -234.11610781732412, -234.75124934459998, -235.32232987945545, -235.8351694285397, -236.29547541281548, -236.70858844914332, -237.07936471156378, -237.3419211260928])","array('d', [-49.955387115478516, -49.90298750959618, -49.859733411782614, -49.82437674085444, -49.79577825260402, -49.7575434593569, -49.72687248953765, -49.70209632011284, -49.6818842138124, -49.66518420373186, -49.65117263489517, -49.63921224082503, -49.62881843964794, -49.61963323316929, -49.61140569104634, -49.60546333565015])","array('d', [0.6331303715705869, 0.6476205561965357, 0.660731818605115, 0.672595380459376, 0.6833299759752892, 0.6930430397820325, 0.6918775120519216, 0.6706437899001748, 0.6358930958868, 0.5931569429771758, 0.5467252129354998, 0.49971283382632703, 0.45424076249868817, 0.4116249104116562, 0.372529860480569, 0.3370789876166146])","array('d', [-0.03826438263058665, -0.03172518881585456, -0.02604969409662566, -0.021178213545983062, -0.017024730871051764, -0.013621090352688313, -0.0109606889031741, -0.008895033709550424, -0.007301413811184943, -0.006079085199817987, -0.0051457979474077205, -0.004434421104715021, -0.0038897303441793717, -0.003465527901265902, -0.0031222443099867877, -0.002825124056361779])","array('d', [2.1714302460339407, 2.1226852763270783, 2.0725230661716285, 2.021052405671803, 1.9683754699315246, 1.9361029821527327, 1.9035547976727702, 1.8717505533912575, 1.8417304764734328, 1.8140543707752181, 1.7889210607347596, 1.766300624456615, 1.746036811125798, 1.7279146244892694, 1.7117020103274176, 1.6935440087558096])",-178.02709133416965,-231.77796983584042,-49.7575434593569,0.6930430397820325,-0.013621090352688313,1.9361029821527327,25.000000232283686,-1.0,"[-228.58162151377658, -184.75920589292687, 49.89651711670992]","[-246.63912459658854, -178.26323746074962, 55.52936511238609]","[-230.1950973746761, -168.71322329140577, 61.72542822458356]",10000000000.0,0.015706777572631836
6,20.804002046585083,-228.45114135742188,-184.8080291748047,49.95510482788086,0.6367141604423522,0.03489864990115173,2.1653129617359976,23.137726221363383,"array('d', [-185.2042236328125, -183.94466015238712, -182.64612343108325, -181.31094094841356, -179.94185892300007, -177.6183861992324, -175.26607585072225, -172.88759114285304, -170.48634580882762, -168.0659732886994, -165.6298856316255, -163.18106466302785, -160.72200683889378, -158.25474923284557, -155.780929488111, -153.7972203900015])","array('d', [-228.2128143310547, -229.02552335502085, -229.7749155178074, -230.45728470108202, -231.0691124856418, -231.9908366892348, -232.83653891452548, -233.60576893687403, -234.30087529725628, -234.9262866531239, -235.48750484425008, -235.9903733055937, -236.44061833266952, -236.8435955925985, -237.20417328738358, -237.45852361688247])","array('d', [-49.95536422729492, -49.904877229149356, -49.86323112663572, -49.829212748676, -49.80171689302809, -49.76498466026764, -49.73554153940302, -49.71177416240721, -49.69239762683055, -49.6763972221839, -49.662979164680074, -49.651529770850864, -49.64158270873947, -49.632793685541486, -49.624921554535504, -49.619235978433736])","array('d', [0.6346067786216734, 0.6489564646616574, 0.6619405986809523, 0.6736891300012532, 0.6843196415762609, 0.6939385263268608, 0.6926462837910543, 0.6713006884159626, 0.6364561985245354, 0.5936441203810927, 0.5471519219881815, 0.5000912342824255, 0.4545797357473841, 0.4119305697050632, 0.37280629564288353, 0.3373291165177825])","array('d', [-0.03687911480665211, -0.03055520794933374, -0.025071612889013967, -0.020368611340054472, -0.016361455242692776, -0.013080140226815218, -0.010517654636009616, -0.008529699412340873, -0.006997249938817538, -0.005822754705966232, -0.004926691218846188, -0.0042442405918866055, -0.0037221397917280162, -0.0033158706142527067, -0.0029873253624143918, -0.002703044333265059])","array('d', [2.1681343475964407, 2.1192463187122157, 2.0689519444978153, 2.0173593635929485, 1.9645701153443849, 1.9322356339726294, 1.899632361864007, 1.8677817807774144, 1.8377237566814988, 1.8100167898504862, 1.7848581908657017, 1.76221670857875, 1.7419350683502273, 1.7237975393189284, 1.7075715588363871, 1.6893988857754514])",-177.6183861992324,-231.9908366892348,-49.76498466026764,0.6939385263268608,-0.013080140226815218,1.9322356339726294,25.00000023252867,-1.0,"[-229.05304433556915, -183.96962675768538, 49.90003328001662]","[-247.0512977309011, -177.36041806494583, 55.59048450757655]","[-230.52628569527985, -167.9393729116278, 61.76850081070455]",10000000000.0,0.024378538131713867
7,20.827174186706543,-228.45114135742188,-184.8080291748047,49.95510482788086,0.6367141604423522,0.03489864990115173,2.1653129617359976,23.137726221363383,"array('d', [-184.8080291748047, -183.5460196051021, -182.2450973075859, -180.90763179790468, -179.53641019575045, -177.2096115253285, -174.85418721871707, -172.4728183094785, -170.06892599187842, -167.64614116494533, -165.20786608242497, -162.75706844911304, -160.29622862691025, -157.82736723026107, -155.35210604942623, -153.3673752865103])","array('d', [-228.45114135742188, -229.26021031822168, -230.0055750248932, -230.68354794346877, -231.2906306558313, -232.20400627682497, -233.0410527364031, -233.8013474065089, -234.4872735982925, -235.1032965187692, -235.65495162611828, -236.14811109403482, -236.58852487773407, -236.98156782467416, -237.33212366552522, -237.5783897780388])","array('d', [-49.95510482788086, -49.90734237154933, -49.867969593456856, -49.83582985869553, -49.80987110195634, -49.77521903716207, -49.74746486278755, -49.72507735219138, -49.706838263498284, -49.69178640904101, -49.679170483098794, -49.66841005629518, -49.65906434878572, -49.65080813700331, -49.64341380084264, -49.63807339609501])","array('d', [0.6367141604423522, 0.6508633027599354, 0.6636659772988388, 0.6752503172766099, 0.6857322623679426, 0.6952167185959239, 0.6938007230936737, 0.672331406520646, 0.6373719305535134, 0.5944580249629289, 0.5478779785525318, 0.5007420902090851, 0.4551658054694905, 0.41245995538574265, 0.3732851826953206, 0.3377624314810563])","array('d', [-0.03489864990115173, -0.02889563050223637, -0.023694266207708106, -0.019236395309772635, -0.015440354936531871, -0.012334015511853525, -0.009910219103248536, -0.00803137411152341, -0.006584169679912333, -0.005475875692702813, -0.004631002275751603, -0.003988090857756318, -0.003496690112857864, -0.0031146642516283476, -0.002805963026540148, -0.002538940890850364])","array('d', [2.1653129617359976, 2.116220212603298, 2.0657367426011004, 2.0139697519173128, 1.9610198644587615, 1.9285967282087215, 1.8959127644397729, 1.8639910405710804, 1.8338723916127264, 1.806114547068904, 1.7809132982243854, 1.7582357984673365, 1.737923404082267, 1.719759315906495, 1.7035101753355868, 1.6853120764627636])",-177.2096115253285,-232.20400627682497,-49.77521903716207,0.6952167185959239,-0.012334015511853525,1.9285967282087215,25.00000023273819,-1.0,"[-229.29079237219733, -183.56615680808423, 49.90276747828605]","[-247.26539627178613, -176.90575943424173, 55.60826670932614]","[-230.70709804884615, -167.5549034060691, 61.80376923136342]",10000000000.0,0.021366357803344727
8,20.856385946273804,-228.9213409423828,-184.01141357421875,49.95418930053711,0.6423020362854003,0.029445895925164296,2.160868124165807,23.149862565890995,"array('d', [-184.01141357421875, -182.74541518231146, -181.44047240028667, -180.09905638430664, -178.7240532859688, -176.39129551942392, -174.03024617271285, -171.6436291977771, -169.23489125401483, -166.80767018314378, -164.36535993888256, -161.91090961938824, -159.44677522944713, -156.97495068378905, -154.497030960088, -152.51042106162654])","array('d', [-228.9213409423828, -229.72455900802265, -230.46316162644965, -231.13350353744778, -231.7321312643216, -232.63037279722948, -233.45155492031296, -234.19530900191987, -234.86409170507252, -235.46245070854977, -235.99600021997213, -236.4706813519908, -236.89230175317067, -237.26628360357216, -237.59754930215345, -237.82820731040738])","array('d', [-49.95418930053711, -49.913909417969876, -49.880745478642766, -49.8537092526197, -49.83190375424071, -49.80284165799553, -49.779602593467544, -49.76088688611918, -49.74566231096236, -49.73311573662253, -49.722612488832844, -49.71366286742316, -49.70589542964618, -49.69903644279941, -49.692894624178415, -49.688459003455755])","array('d', [0.6423020362854003, 0.6559194223684461, 0.668240943925592, 0.679389918642482, 0.6894779289205302, 0.6986059381695313, 0.6969554838288028, 0.6752168838308655, 0.6399832623894586, 0.5968099135734241, 0.5499943226286509, 0.5026487755217457, 0.45688678278708866, 0.4140157073619913, 0.37469268518167825, 0.3390359925119699])","array('d', [-0.029445895925164296, -0.0243521043389588, -0.01994366271544922, -0.0161695719561927, -0.012959021173760967, -0.010334960550091058, -0.008290664827759813, -0.006708437048386256, -0.005491598294575623, -0.004561224075392113, -0.0038532100561243956, -0.0033154729096568237, -0.002905329307199833, -0.0025871744830914976, -0.00233056606649054, -0.002108783894431185])","array('d', [2.160868124165807, 2.111229543415659, 2.060242094002856, 2.0080104375730463, 1.9546327241340877, 1.9219735555065895, 1.889071656732247, 1.8569525925894848, 1.8266622342981513, 1.798758041618017, 1.7734327996576922, 1.7506498979335667, 1.730247192565773, 1.7120050050697848, 1.6956877421283132, 1.677414863238851])",-176.39129551942392,-232.63037279722948,-49.80284165799553,0.6986059381695313,-0.010334960550091058,1.9219735555065895,25.000000233080364,-1.0,"[-229.755610151864, -182.7656027687102, 49.91002683921808]","[-247.69432657533275, -176.01384170258868, 55.62108414801634]","[-231.0835158352188, -166.81002351397302, 61.895691490872345]",10000000000.0,0.01703357696533203
9,20.88011622428894,-229.38040161132812,-183.2127685546875,49.9531364440918,0.6492938399314879,0.022195529192686095,2.157409564652715,23.163361790319772,"array('d', [-183.61285400390625, -182.3452049331827, -181.03853395039422, -179.69537111664354, -178.31865985708126, -175.98317457502094, -173.61953091446023, -171.2304777094024, -168.81947878522823, -166.3901802665229, -163.94597634003333, -161.48981045283287, -159.02412933836746, -156.55091582577387, -154.07175323515182, -152.08426847379408])","array('d', [-229.15211486816406, -229.95294388382746, -230.6886457508025, -231.35559806936712, -231.9503716951756, -232.84160112164943, -233.6553579574865, -234.39130023662014, -235.05192311369015, -235.64181958102486, -236.1666481135419, -236.63238910003548, -237.0448833461371, -237.40958039994513, -237.7314251175546, -237.9544412873682])","array('d', [-49.95365524291992, -49.91805727604099, -49.88876630075066, -49.86490377740254, -49.84567286109376, -49.820064540068856, -49.79960623271207, -49.78314534457702, -49.76976717043165, -49.75875166990051, -49.749537195070374, -49.741690647845125, -49.73488370399772, -49.72887455653743, -49.72349438121749, -49.719608923682344])","array('d', [0.6456461548805233, 0.6589453062780117, 0.6709788771579427, 0.6818673033041162, 0.6917195594654945, 0.7006342495578304, 0.698871057030921, 0.6769884800086122, 0.6415997022170301, 0.5982740893384094, 0.5513167121939918, 0.5038426629735574, 0.45796545200071465, 0.41499113560118067, 0.37557520396769334, 0.339834528603961])","array('d', [-0.026029592379927715, -0.021514186870132762, -0.01760811567450459, -0.014265697648271649, -0.011423646551747425, -0.009102100986639832, -0.007294877742905113, -0.005897244183358114, -0.0048232627776330205, -0.0040028524059669245, -0.003379148816893902, -0.0029059924592537197, -0.0025455816948996104, -0.002266398210124315, -0.0020414971369212627, -0.001847223487143119])","array('d', [2.159099415936742, 2.1091320659098436, 2.0578411935219507, 2.005329905178372, 1.9516948370722442, 1.9188937416319638, 1.8858599055717444, 1.8536198904389474, 1.823223329449427, 1.7952280378127865, 1.7698252863091595, 1.7469763329355636, 1.7265169647881908, 1.7082257579273776, 1.6918657396420345, 1.673545932665162])",-175.98317457502094,-232.84160112164943,-49.820064540068856,0.7006342495578304,-0.009102100986639832,1.9188937416319638,25.000000233224142,-1.0,"[-229.8809015188326, -182.54633806423354, 49.91254211131232]","[-247.81202789799272, -175.77084927904028, 55.61933267136519]","[-231.18957215616825, -166.6099060905356, 61.92576470604821]",10000000000.0,0.01747274398803711
10,20.902402877807617,-229.6066131591797,-182.81117248535156,49.95272445678711,0.6532224416732785,0.017965182662010255,2.155727879205022,23.17061935104911,"array('d', [-183.2127685546875, -181.94352616251737, -180.6351592610614, -179.2902627397046, -177.9118428336006, -175.57361703784355, -173.20736060400895, -170.815849802887, -168.40256798076192, -165.9711714969961, -163.52505616494207, -161.06716065780992, -158.59992291611576, -156.12531488378784, -153.64490824261242, -151.65655169672075])","array('d', [-229.38040161132812, -230.1789161998077, -230.91175453350004, -231.5753180150668, -232.1662031128655, -233.0503181919241, -233.8565158544253, -234.5844818161394, -235.23675199279137, -235.81796794730798, -236.33383584539249, -236.7903784941354, -237.19347255531468, -237.54859719436732, -237.86072158085318, -238.075847273891])","array('d', [-49.9531364440918, -49.922790485275634, -49.89783876529521, -49.877527515941885, -49.861173552171465, -49.83941903516933, -49.822059100302454, -49.808107220575586, -49.79678110640917, -49.787465409101905, -49.779680467178835, -49.77305663266399, -49.76731385018624, -49.76224600498706, -49.757709344206056, -49.75443317417234])","array('d', [0.6492938399314879, 0.6622458685005981, 0.6739653496284005, 0.6845695755887004, 0.6941646767652693, 0.7028466833964822, 0.7009668830273902, 0.6789311024392727, 0.6433749995377593, 0.5998838904044566, 0.5527716147053343, 0.5051566905477396, 0.4591528797737352, 0.41606497635193823, 0.3765467694828643, 0.34071363751572625])","array('d', [-0.022195529192686095, -0.01833297056682668, -0.014993252880132322, -0.012136899741961556, -0.00970931973919576, -0.007727575647220827, -0.006186198353268283, -0.004995231620643932, -0.004080943093120044, -0.003383270646293458, -0.002853530098719337, -0.0024522380490874965, -0.0021470825494585817, -0.0019111324751752462, -0.00172136383275042, -0.0015575548688662748])","array('d', [2.157409564652715, 2.107081772352089, 2.0554583661959045, 2.0026407242387756, 1.9487238020698474, 1.9157673176553982, 1.8825888495814667, 1.8502159373014657, 1.8197025104354716, 1.7916068836829329, 1.7661187238299518, 1.7431969743608537, 1.7226751582461117, 1.7043299335858053, 1.687922807702391, 1.669551300544294])",-175.57361703784355,-233.0503181919241,-49.83941903516933,0.7028466833964822,-0.007727575647220827,1.9157673176553982,25.00000023336239,-1.0,"[-230.20576987931753, -181.97226480617883, 49.91973632316577]","[-248.11749989444652, -175.1330908535543, 55.61145201449021]","[-231.46562250341807, -166.08974477561142, 62.009332215674846]",10000000000.0,0.017317771911621094
11,20.917428731918335,-229.6066131591797,-182.81117248535156,49.95272445678711,0.6532224416732785,0.017965182662010255,2.155727879205022,23.17061935104911,"array('d', [-182.81117248535156, -181.5403436158638, -180.2302669302956, -178.88360853340293, -177.50344334751824, -175.1624108097253, -172.79347525633463, -170.39944317201864, -167.98381965808704, -165.5502728873376, -163.10220120877776, -160.64253889366037, -158.1737150896733, -155.69769062499233, -153.21602518406394, -151.22679077526936])","array('d', [-229.6066131591797, -230.4027961062349, -231.1327169573733, -231.7928015748769, -232.3796731978375, -233.25642120707286, -234.05477571208294, -234.77445148667817, -235.41802780812804, -235.9901982393753, -236.49672010933324, -236.94366175771438, -237.33693833401284, -237.68206078683244, -237.98402436933858, -238.1908989615641])","array('d', [-49.95272445678711, -49.928171113614205, -49.90800026544573, -49.89159730685641, -49.8784056462377, -49.86088158224721, -49.84691833559128, -49.83571361624568, -49.826631780394514, -49.819173233298386, -49.812948828555726, -49.807658874819246, -49.80307647025194, -49.7990347577017, -49.7954175229386, -49.792805456506535])","array('d', [0.6532224416732785, 0.6658006146794405, 0.6771818172744017, 0.6874799561329653, 0.6967980982224895, 0.7052295018971089, 0.7032270604844091, 0.6810279397767449, 0.645292377959924, 0.6016232018533838, 0.5543439375353313, 0.5065769536760003, 0.4604363846590539, 0.41722572633478255, 0.37759696962770434, 0.34166389798921937])","array('d', [-0.017965182662010255, -0.014826444596881705, -0.012114086315427125, -0.00979564242911725, -0.00782632035444626, -0.006219846219014916, -0.004971632499980327, -0.004008244480788401, -0.0032695629561718493, -0.002706673708263809, -0.0022799734312950255, -0.001957374290062714, -0.0017126341437801837, -0.0015238859742413042, -0.0013724294180814643, -0.0012418259257644024])","array('d', [2.155727879205022, 2.1050097252669326, 2.053026326182957, 1.9998771600669334, 1.9456553372124517, 1.9125308158816505, 1.8791958858066162, 1.8466790944639788, 1.8160391072974642, 1.7878348209737702, 1.762254179264595, 1.7392536207755407, 1.718664213809908, 1.700260535682376, 1.6838024441258785, 1.66537501426734])",-175.1624108097253,-233.25642120707286,-49.86088158224721,0.7052295018971089,-0.006219846219014916,1.9125308158816505,25.000000233506157,-1.0,"[-230.43469298392174, -181.56074947714464, 49.92577813232644]","[-248.33268856647427, -174.67291003008373, 55.60199358616903]","[-231.66038179038208, -165.7214070399433, 62.07538380933467]",10000000000.0,0.013984203338623047
12,20.95522928237915,-230.05279541015625,-182.00360107421875,49.9525260925293,0.661249279975891,0.009129551239311742,2.1521471897747855,23.184985007146206,"array('d', [-182.00360107421875, -180.72948414382466, -179.41586264421375, -178.06555551861396, -176.68178393306573, -174.33496427966173, -171.96051575021386, -169.56130982059673, -167.14089735792913, -164.70297049256556, -162.25093171944366, -159.78770489815392, -157.31569969920247, -154.8368527837177, -152.35269798923133, -150.36174510256907])","array('d', [-230.05279541015625, -230.8439798254311, -231.56770148891235, -232.22043336847992, -232.79885216288682, -233.66011719123958, -234.44200980073276, -235.14430535047458, -235.76967364309658, -236.3229163320788, -236.80989669123474, -237.2367770290673, -237.60955169344572, -237.93379687255393, -238.2145612487438, -238.40422818016143])","array('d', [-49.9525260925293, -49.94006512323702, -49.929860574084245, -49.921592435387865, -49.91497175712686, -49.906222012018134, -49.89929065424413, -49.89376311032355, -49.88931163608217, -49.88567915148246, -49.882665769610774, -49.880117806985666, -49.87791911408074, -49.87598449795368, -49.874254921913234, -49.87300626813312])","array('d', [0.661249279975891, 0.673063598982696, 0.6837536378347091, 0.6934263858204569, 0.7021786507978233, 0.7100980276626965, 0.7078374357248375, 0.6852992049908687, 0.6491937807701136, 0.6051594156535567, 0.5575389237088914, 0.50946204804369, 0.46304328241657167, 0.4195831823991616, 0.3797298867149619, 0.34359384135403037])","array('d', [-0.009129551239311742, -0.007512247415826597, -0.0061171965372989945, -0.004926901463696184, -0.003917536878332083, -0.0030959788554842356, -0.002459728433619371, -0.0019704720783092077, -0.001596940434900395, -0.0013137720614711107, -0.0011004919379550622, -0.0009405467022113209, -0.0008204119193323562, -0.0007288092363711417, -0.0006560652057682187, -0.0005936327234956566])","array('d', [2.1521471897747855, 2.1006243639384534, 2.0478993718588128, 1.994067679843058, 1.939218509534845, 1.905748435440132, 1.8720921595441347, 1.839280459820835, 1.8083815723631886, 1.77995538916052, 1.7541861509422265, 1.731025047081369, 1.7102980504841914, 1.6917754444409028, 1.6752136970466978, 1.6566725585025244])",-174.33496427966173,-233.66011719123958,-49.906222012018134,0.7100980276626965,-0.0030959788554842356,1.905748435440132,25.000000233806382,-1.0,"[-230.87649115625283, -180.75007094355396, 49.93883195590361]","[-248.74457790880223, -173.76017230302264, 55.58443137478434]","[-232.03084283327175, -164.99834552558303, 62.208738987442686]",10000000000.0,0.018405675888061523
13,20.979032039642334,-230.49058532714844,-181.19044494628906,49.95393371582031,0.6689392924308772,0.0001377143198625153,2.1477484861996508,23.19451219830158,"array('d', [-181.5977020263672, -180.3217219500065, -179.00613255081345, -177.65383144069847, -176.2681144706716, -173.91820111531138, -171.5408236672246, -169.13888708594877, -166.7159642941089, -164.27575727023014, -161.8216679228166, -159.3566121977547, -156.88298751049757, -154.4027162046209, -151.917317255109, -149.92551544366583])","array('d', [-230.2727508544922, -231.06099484066155, -231.78118162318407, -232.42980638325912, -233.00357206893304, -233.85639027186687, -234.6293516193705, -235.32226374191865, -235.93784341598393, -236.48094709033418, -236.95749103560578, -237.37368413681477, -237.73555972762912, -238.04872593821233, -238.31825749910655, -238.4988199345509])","array('d', [-49.95295333862305, -49.94655088824503, -49.94133248297989, -49.93712779081665, -49.933783672507964, -49.929400786969396, -49.92596227696646, -49.9232494193336, -49.92108964640909, -49.91934783865822, -49.917919098207484, -49.916722889439015, -49.91569845495371, -49.91480137780183, -49.914001114816905, -49.91342365642198])","array('d', [0.6651275157928467, 0.6765727722241766, 0.6869288694322464, 0.6962994545237184, 0.7047783112645811, 0.712450298548907, 0.71004971212219, 0.6873377518493006, 0.6510482797519004, 0.6068355177745158, 0.55905047736249, 0.5108255378938408, 0.4642746784044207, 0.4206965668118642, 0.3807372019829724, 0.34450529799338536])","array('d', [-0.004700216464698359, -0.0038505838656077034, -0.0031195000146534025, -0.0024971457976962464, -0.0019704684289246345, -0.0015429732614378302, -0.0012133346227811365, -0.0009611586906963509, -0.0007698512388209013, -0.0006259948728354636, -0.000518785996900275, -0.00043950363303824134, -0.00038101960045819653, -0.000337370287138557, -0.0003034066864351877, -0.0002745338574950511])","array('d', [2.1500250856068477, 2.0981100002355433, 2.0450237352711897, 1.9908597532575414, 1.9357053376789015, 1.9020672236332374, 1.8682552800843244, 1.835301662558729, 1.8042788625607056, 1.775746927179857, 1.749888085154723, 1.7266508644611656, 1.7058587197236093, 1.6872798441835555, 1.6706690741272257, 1.6520741825312286])",-173.91820111531138,-233.85639027186687,-49.929400786969396,0.712450298548907,-0.0015429732614378302,1.9020672236332374,25.000000244203914,-1.0,"[-231.07959279041933, -180.36906078699994, 49.94544078063371]","[-248.9303547512577, -173.32610785367, 55.5798982874736]","[-232.1943877607237, -164.65706681349465, 62.26982626432893]",10000000000.0,0.019073009490966797
14,20.999829292297363,-230.70628356933594,-180.78182983398438,49.95556640625,0.6725581288337703,-0.0044363904744385745,2.145162181058202,23.19947753188404,"array('d', [-181.19044494628906, -179.91250982530042, -178.59487065615923, -177.24050540493707, -175.85278581690824, -173.49970094662103, -171.11933009079553, -168.71461241293562, -166.28914259884993, -163.84663146678727, -161.3904790330931, -158.92359198612743, -156.4483542336586, -153.96667268954445, -151.48005050279446, -149.48742306500193])","array('d', [-230.49058532714844, -231.27567708955894, -231.99212085878128, -232.63643304768726, -233.20534245008176, -234.0493784239001, -234.8130758833918, -235.49627571166383, -236.10174254418814, -236.6343880316788, -237.1001814696028, -237.505378114558, -237.85604996651034, -238.1578367393461, -238.4158388564213, -238.58706250208706])","array('d', [-49.95393371582031, -49.95376878563484, -49.953677818167485, -49.953646445426635, -49.95366282274711, -49.95375189151489, -49.95388478595331, -49.9540456918475, -49.95422251527678, -49.95440604507019, -49.954589294242645, -49.95476701886362, -49.95493540358289, -49.955091895124, -49.95523515983486, -49.955339141785004])","array('d', [0.6689392924308772, 0.6800218106679886, 0.6900496887552761, 0.6991232888781119, 0.7073334224826596, 0.7147622589987355, 0.712216215808239, 0.689328390975082, 0.6528552489120275, 0.6084661271296655, 0.5605195167736344, 0.512149908116224, 0.46547041677066325, 0.4217776127570045, 0.3817152471633656, 0.3453902699492786])","array('d', [-0.0001377143198625153, -8.31036120775812e-05, -3.8923360241568767e-05, -3.4979280608364786e-06, 2.486126771240138e-05, 4.604043514914641e-05, 6.004154815413981e-05, 6.854137203538279e-05, 7.284556757004241e-05, 7.395968023656634e-05, 7.266131572958527e-05, 6.95699499222409e-05, 6.521054780313626e-05, 6.006846416744175e-05, 5.4633961858289276e-05, 4.9434747485055814e-05])","array('d', [2.1477484861996508, 2.095445616467304, 2.0420023552894615, 1.9875101523494054, 1.9320543470124933, 1.898250376352833, 1.864285109202748, 1.8311922122253688, 1.8000481695656034, 1.7714130069146883, 1.7454668539718352, 1.722155553253078, 1.701300051781843, 1.6826664785412428, 1.6660080677292814, 1.6473609365530417])",-173.49970094662103,-234.0493784239001,-49.95375189151489,0.7147622589987355,4.604043514914641e-05,1.898250376352833,25.000000244266822,-1.0,"[-231.30879330518744, -179.93325138044426, 49.95372714434117]","[-249.13793567163114, -172.82573780873625, 55.575553654032554]","[-232.3753547937006, -164.26606986152396, 62.33927799379566]",10000000000.0,0.019318342208862305
15,21.036593914031982,-231.13136291503906,-179.9607391357422,49.9606819152832,0.6795507669448849,-0.012945938855409666,2.1393255750325064,23.206363553432723,"array('d', [-180.78182983398438, -179.501734425863, -178.18186923036524, -176.82529242092266, -175.43545109251596, -173.07903224620307, -170.69553151762605, -168.28792219058732, -165.85981916551478, -163.41493959029197, -160.95667882675605, -158.4879316820502, -156.01106623263348, -153.5279719742587, -151.04013455492955, -149.04669577581615])","array('d', [-230.70628356933594, -231.48781962913935, -232.20013150211147, -232.83975575794997, -233.40344650576884, -234.23811353815034, -234.99197342471018, -235.6649019606527, -236.25971260277055, -236.78137195399387, -237.23590136566904, -237.62960119136267, -237.96858077299368, -238.25851016203927, -238.5045143562052, -238.66603205041176])","array('d', [-49.95556640625, -49.96165124217714, -49.96669116300827, -49.970830186661544, -49.97419967308315, -49.97874357532413, -49.982428282746, -49.98544264526864, -49.98793610865013, -49.99002597330493, -49.99180346802748, -49.99333876181651, -49.99468499511237, -49.99588143206535, -49.9969558695272, -49.99773234498107])","array('d', [0.6725581288337703, 0.6832962695517789, 0.6930125419456495, 0.7018041895519225, 0.7097592019464636, 0.7169571952267056, 0.7142563096574372, 0.6911908545541633, 0.6545376826807827, 0.609979141550721, 0.5618795693680374, 0.513374454174991, 0.46657535911151404, 0.42277637213963126, 0.3826188207464685, 0.34620785721126035])","array('d', [0.0044363904744385745, 0.0036892110562599415, 0.0030415013012373296, 0.002486463172176444, 0.002014069716388984, 0.0016275027715985891, 0.0013253054684082772, 0.0010901086670023184, 0.0009077052051318955, 0.0007665415886877562, 0.0006572770461237916, 0.0005723743959954241, 0.0005057241414974043, 0.0004523163959645335, 0.00040797332298142514, 0.00036914945153667723])","array('d', [2.145162181058202, 2.0924890671374055, 2.0387051026139456, 1.9838997850445452, 1.9281565710922055, 1.894194494429543, 1.860083699606664, 1.8268596114930007, 1.7956020652477154, 1.7668707141023523, 1.7408434727152782, 1.7174635199574788, 1.6965493784501373, 1.6778652129844303, 1.6611627511898326, 1.6424673283018705])",-173.07903224620307,-234.23811353815034,-49.97874357532413,0.7169571952267056,0.0016275027715985891,1.894194494429543,25.00000024433475,-1.0,"[-231.52122931629225, -179.5225367202506, 49.962220970132904]","[-249.3266996687876, -172.34862682839488, 55.574728644064734]","[-232.5361248190038, -163.89527696392142, 62.40242754505722]",10000000000.0,0.026494741439819336
16,21.06356978416443,-231.3397216796875,-179.55001831054688,49.96499252319336,0.6830771565437316,-0.016937673091888338,2.136165753999028,23.208324940966655,"array('d', [-179.9607391357422, -178.67590445408663, -177.35121936618145, -175.9899066274596, -174.5955668191554, -173.17215231853612, -170.76599414662527, -168.33817696639923, -165.89229774794472, -163.4319561018041, -160.960375535727, -158.48025842920083, -155.9937807398651, -153.5026513361975, -151.00819170141085, -149.01058552569862])","array('d', [-231.13136291503906, -231.90489416214135, -232.60805801798762, -233.2374294460866, -233.78981291866455, -234.2622725699347, -234.94026839828373, -235.5361306457208, -236.0529623245133, -236.49596836812523, -236.87135123431534, -237.18554331031243, -237.4447487385165, -237.65470585411498, -237.82058966567953, -237.91791364931214])","array('d', [-49.9606819152832, -49.97840299879222, -49.99302230510235, -50.00498874042747, -50.01470991834406, -50.022542391319256, -50.03300210735914, -50.04141550733098, -50.04826146539147, -50.05391165453761, -50.058652347515206, -50.06270186930391, -50.06622421254231, -50.06933934838195, -50.07213082533517, -50.074147201997995])","array('d', [0.6795507669448849, 0.689623470698337, 0.6987376307607548, 0.7069844645303585, 0.7144465088990851, 0.7211984460811639, 0.7170981304984311, 0.6930006100425337, 0.655641296346682, 0.6106343667235864, 0.5622720012902709, 0.5136264720692142, 0.466759714526625, 0.4229301501645051, 0.38275631869948934, 0.346332270504746])","array('d', [0.012945938855409666, 0.01071986267185229, 0.00880480450514293, 0.007177756155092833, 0.00580677692132831, 0.004655769556795208, 0.0037275130779629846, 0.0030151040848549623, 0.002470750132750582, 0.0020563185663513076, 0.0017414900361942243, 0.0015021219266989874, 0.001318811557900154, 0.0011756853711001383, 0.0010594359172649561, 0.0009586170224275228])","array('d', [2.1393255750325064, 2.0859311824696802, 2.0314839011551777, 1.9760693383044499, 1.9197672068414766, 1.862651568834816, 1.8282967964212913, 1.7949160450985515, 1.7635650965261804, 1.734780765582825, 1.7087239516579122, 1.6853268842777969, 1.66440175932531, 1.6457094604381417, 1.629000251024654, 1.6102975210550987])",-173.17215231853612,-234.2622725699347,-50.022542391319256,0.7211984460811639,0.004655769556795208,1.862651568834816,25.00000023617102,-1.0,"[-231.9388850983245, -178.69680446552812, 49.98010028114466]","[-249.68957923101402, -171.38681709641355, 55.59053185733269]","[-232.837116961493, -163.14809421903382, 62.52724295151197]",10000000000.0,0.0257570743560791
17,21.083760261535645,-231.5460205078125,-179.13800048828125,49.970176696777344,0.6863929033279416,-0.020840846002101975,2.132873074212346,23.211426080999345,"array('d', [-179.55001831054688, -178.26266840043314, -176.93543803392174, -175.571636883502, -174.17494606397432, -171.80786202458876, -169.41441802545538, -166.99769382192272, -164.56136178905243, -162.1091497310137, -159.64442862576107, -157.17004702265905, -154.68831563424445, -152.20106292947708, -149.70971442906352, -147.71399346813197])","array('d', [-231.3397216796875, -232.10891052100447, -232.8071475423014, -233.43102651301032, -233.97737760436158, -234.78113238937627, -235.50267912734014, -236.1420085247486, -236.70208945357138, -237.18805817272718, -237.60609376237173, -237.96263140394774, -238.2638909413096, -238.51563147142423, -238.72304965215542, -238.85339574202345])","array('d', [-49.96499252319336, -49.98813290734391, -50.00713077169468, -50.022577140359765, -50.035005241688175, -50.051536854021606, -50.064741016767975, -50.07537378472148, -50.084030158467705, -50.091174854522336, -50.097167753625484, -50.102284580984026, -50.10673323102095, -50.11066623479045, -50.11418999629386, -50.11673521735014])","array('d', [0.6830771565437316, 0.6928142802875242, 0.7016247949850465, 0.7095968790618783, 0.7168103196418036, 0.7233373109394197, 0.7201199165127253, 0.6964956765451209, 0.659296639892995, 0.614237700502308, 0.5656952047446685, 0.5168035240989886, 0.46966678406150747, 0.425569903864086, 0.38514601500538465, 0.3484945573464585])","array('d', [0.016937673091888338, 0.013966965418107703, 0.011406911631397851, 0.009225013306483726, 0.007376812264016081, 0.005873650837161514, 0.004709155077836081, 0.0038120506220562927, 0.003124531470547562, 0.002599983665538775, 0.002200996100828798, 0.0018975310217288182, 0.0016652655108513788, 0.001484159977858955, 0.0013373000511567395, 0.0012100391246294355])","array('d', [2.136165753999028, 2.0824046423583997, 2.0276203232453773, 1.971896380446204, 1.9153105840665852, 1.880885317723572, 1.8463507974873818, 1.8127488676096393, 1.781167338258675, 1.7521633253234918, 1.7259073696215566, 1.7023344172559167, 1.681255746999372, 1.6624297829315398, 1.6456039225235843, 1.626773259277521])",-171.80786202458876,-234.78113238937627,-50.051536854021606,0.7233373109394197,0.005873650837161514,1.880885317723572,25.00000024455566,-1.0,"[-232.14319810354505, -178.28361386989695, 49.99039781805851]","[-249.86364096657806, -170.90557429403736, 55.60737536430453]","[-232.97824842457868, -162.77553396902337, 62.5920702764849]",10000000000.0,0.018610715866088867
18,21.102484941482544,-231.7503204345703,-178.72470092773438,49.976234436035156,0.689582288265228,-0.02447911351919171,2.1295562545445303,23.21429310883093,"array('d', [-179.13800048828125, -177.84807048988276, -176.51825013008562, -175.1519344500063, -172.83034678053318, -170.47826251485972, -168.09820616000567, -165.69325643981983, -163.2671560059741, -160.82375757336294, -158.36657774931905, -155.89861032885926, -153.42230037816213, -150.93959584538493, -148.45202631022266, -146.45871924105657])","array('d', [-231.5460205078125, -232.31069197156737, -233.00385091109004, -233.6221085943444, -234.54893331236076, -235.39550490795378, -236.15999963330756, -236.8422435418512, -237.44507024426056, -237.9735436970705, -238.43381501317384, -238.83231747623938, -239.17528224761628, -239.4684852735874, -239.71714145656804, -239.8802920916639])","array('d', [-49.970176696777344, -49.99858404394094, -50.02176913274725, -50.04046134464522, -50.065325502554366, -50.08513163449828, -50.10098578062431, -50.113772204946756, -50.124192028803606, -50.13279641636716, -50.14001457072717, -50.14617687402144, -50.151533398423, -50.15626818084336, -50.16050986636986, -50.16357356741253])","array('d', [0.6863929033279416, 0.6958144923180366, 0.7043394993362048, 0.7120532453512529, 0.7190329319526652, 0.7253484139325995, 0.7229931656775563, 0.6998348276416593, 0.6627974763773571, 0.6176932770757952, 0.5689803371870932, 0.5198534941957116, 0.47245798641244224, 0.42810456214834697, 0.3874405856030138, 0.35057077086954147])","array('d', [0.020840846002101975, 0.017100303622778628, 0.013868309109361045, 0.011101450126266475, 0.008828131736638632, 0.007046660022855377, 0.005659877091671957, 0.004587201718088035, 0.0037624403205384098, 0.0031316069249581, 0.0026509430167007226, 0.0022850090970168943, 0.002004886675442983, 0.0017865832328934177, 0.0016097172664932841, 0.0014565324366189515])","array('d', [2.132873074212346, 2.078765297877166, 2.0236625050476387, 1.9676463378599895, 1.9335341587909392, 1.898961757363049, 1.8642563353963513, 1.8304424010129132, 1.7986390540203374, 1.7694233966426227, 1.7429755163221947, 1.7192330860711234, 1.6980065276937413, 1.6790518870822277, 1.6621137819376481, 1.6431600887833655])",-170.47826251485972,-235.39550490795378,-50.08513163449828,0.7253484139325995,0.007046660022855377,1.898961757363049,25.00000024404386,-1.0,"[-232.3452637834617, -177.86905089871092, 50.00143570282189]","[-250.03379412081156, -170.42114651129023, 55.626790335242156]","[-233.1144662598741, -162.39960021894447, 62.65467336029731]",10000000000.0,0.017147541046142578
19,21.120532751083374,-231.7503204345703,-178.72470092773438,49.976234436035156,0.689582288265228,-0.02447911351919171,2.1295562545445303,23.21429310883093,"array('d', [-178.72470092773438, -177.43220346263735, -176.09981766814408, -174.7310221797369, -173.32965363200915, -170.95535849372993, -168.55524508553935, -166.13246375061235, -163.69072090985298, -161.23374487218877, -158.7648833271048, -156.28694750099862, -153.8022042796592, -151.31243679042137, -148.81902663438822, -146.8220237526831])","array('d', [-231.7503204345703, -232.51043589518787, -233.1984922914004, -233.81111841792816, -234.3451939658181, -235.1272015779106, -235.82610845479792, -236.44198660331296, -236.97791104239874, -237.43913015599912, -237.831925090464, -238.1628169305878, -238.43809507053814, -238.66357410062858, -238.84449497808438, -238.95346455315197])","array('d', [-49.976234436035156, -50.00964042291274, -50.03700036470519, -50.05918772076004, -50.07698744724452, -50.10058607367536, -50.11936841402368, -50.13443938111523, -50.146666174245134, -50.15672445083363, -50.165136311346835, -50.17230099510326, -50.17851897313861, -50.18401023713647, -50.1889277550163, -50.19247931034488])","array('d', [0.689582288265228, 0.6987003673724549, 0.7069507472547613, 0.7144160003184069, 0.7211708411121223, 0.7272828736952665, 0.7236984881369551, 0.6996983359939773, 0.6621456613775181, 0.616771669353244, 0.5679565352495105, 0.5188310586208048, 0.47149267837530723, 0.4272192562796922, 0.38663804160236087, 0.34984459895166464])","array('d', [0.02447911351919171, 0.02013833352446918, 0.016405898042446885, 0.013231293701187656, 0.010547018389175223, 0.008368508587346758, 0.0066855812692196035, 0.0053928317977666364, 0.004405119023813892, 0.003654053341295965, 0.0030849417111381305, 0.002654002063458041, 0.002325859542262759, 0.002071400054588441, 0.0018660425391582296, 0.0016884649472453253])","array('d', [2.1295562545445303, 2.075113312062943, 2.019702732787897, 1.9634042544497958, 1.9062919627164234, 1.8715775148732188, 1.836780359184619, 1.8029472549974779, 1.7711696408012156, 1.7420019956867028, 1.715609619909577, 1.6919220154295747, 1.6707458419707915, 1.6518359531012068, 1.6349371051424786, 1.6160264841216434])",-170.95535849372993,-235.1272015779106,-50.10058607367536,0.7272828736952665,0.008368508587346758,1.8715775148732188,25.000000235384654,-1.0,"[-232.44221842288948, -177.66749075420978, 50.00701846032397]","[-250.11507181100856, -170.18673308313862, 55.63805014099829]","[-233.17929875572796, -162.21626367992522, 62.68441150786489]",10000000000.0,0.01745128631591797
20,21.15172004699707,-232.1529083251953,-177.89453125,49.99068069458008,0.6955060362815856,-0.030870225280523245,2.1226750771191454,23.216626386523863,"array('d', [-177.89453125, -176.59678840371126, -175.25920948503148, -173.88543550412876, -172.4794515195471, -170.09810176382183, -167.69150874385977, -165.26288938555447, -162.81597879533632, -160.35450007210733, -157.88177257722023, -155.40056619920745, -152.91310097321377, -150.42111247369883, -147.92593678492207, -145.92789106546525])","array('d', [-232.1529083251953, -232.90358701467488, -233.58116203844827, -234.18229608462175, -234.70391754491092, -235.46396022430548, -236.14006815658033, -236.7323963213544, -237.24412475826816, -237.68060976643085, -238.04822897512486, -238.35358359625877, -238.6030272134303, -238.80242518928864, -238.95705872150205, -239.04484297657035])","array('d', [-49.99068069458008, -50.03276721571086, -50.06716612553452, -50.09500096339245, -50.117277679039056, -50.14673272285577, -50.17011031495453, -50.18881626002035, -50.203951054442975, -50.2163701107911, -50.2267330556349, -50.235543363988484, -50.24317931248762, -50.24991735762606, -50.25594924170729, -50.26030527654349])","array('d', [0.6955060362815856, 0.7040603967575604, 0.7118007028967857, 0.7188044221373473, 0.7251416499000409, 0.7308758109844827, 0.7269189381998014, 0.7025521886395076, 0.66466473076122, 0.6189994765000248, 0.5699371689716499, 0.5206030432348213, 0.4730867885877125, 0.4286587429537967, 0.38794015873631416, 0.3510228033745334])","array('d', [0.030870225280523245, 0.025344749752026288, 0.020603619551077538, 0.01657879550609188, 0.013181276004863022, 0.010429221260077781, 0.008308506079824883, 0.006683499467245911, 0.005445070156661373, 0.004505883557087515, 0.0037963328716867618, 0.003260861150965872, 0.0028546829902922023, 0.0025409925977952926, 0.0022887276003016764, 0.0020709264493071937])","array('d', [2.1226750771191454, 2.0676050976119265, 2.011619034013913, 1.9547929879435384, 1.897197571843113, 1.8622179334992772, 1.8271814569837488, 1.7931401355035024, 1.7611876245970643, 1.7318751401721941, 1.7053626767640395, 1.681574511626521, 1.6603129998026147, 1.641329736543081, 1.624367108642093, 1.6053866274368533])",-170.09810176382183,-235.46396022430548,-50.14673272285577,0.7308758109844827,0.010429221260077781,1.8622179334992772,25.000000244847193,-1.0,"[-232.54528489132605, -177.45321222505896, 50.01294943928738]","[-250.20133510457785, -169.93759346842765, 55.65026844499416]","[-233.24815240223887, -162.02156412878045, 62.71610708983738]",10000000000.0,0.013745784759521484
21,21.17995595932007,-232.54769897460938,-177.05999755859375,50.008243560791016,0.7012146711349483,-0.03632843866944315,2.115625695386205,23.2153471104874,"array('d', [-177.477783203125, -176.17736404767635, -174.8371469200037, -173.460855174123, -172.0525488439292, -169.66766633299267, -167.25784235272414, -164.82632708855843, -162.37686918128097, -159.91318781368096, -157.43858673163805, -154.95581376903075, -152.46706430223813, -149.97404906762762, -147.47808049048717, -145.47959100317047])","array('d', [-232.3512725830078, -233.0970699652208, -233.76923785535033, -234.36445659646492, -234.87967988904091, -235.62845368131354, -236.29287594433714, -236.87314504233393, -237.37249506695605, -237.79633710179593, -238.15109729705975, -238.44341686743323, -238.67968125183125, -238.86578088411858, -239.00701674975318, -239.0840082375206])","array('d', [-49.99905776977539, -50.04504665661481, -50.082597942166046, -50.11295186027589, -50.137216784446395, -50.16925993950767, -50.19465792358336, -50.21495400209232, -50.2313547024858, -50.24479674712785, -50.2560017058444, -50.265519825150726, -50.27376417438218, -50.281036373557626, -50.287545370499565, -50.292245789118255])","array('d', [0.698441684246063, 0.7067166811226685, 0.7142042086010574, 0.72097920423011, 0.7271094742920149, 0.732656372287871, 0.7285061439176831, 0.7039521376425757, 0.6658958338450867, 0.6200852324605591, 0.5709006858299904, 0.5214641372241536, 0.4738610523896054, 0.429357788599362, 0.38857248002673955, 0.351594951390145])","array('d', [0.033748682588338755, 0.027680763899979265, 0.022479669882845568, 0.01806860237491666, 0.014348125103628347, 0.01133733631749039, 0.009020061595311372, 0.007246566978053, 0.005896608322125854, 0.004874136439573552, 0.004102729288598693, 0.00352148096504411, 0.00308135258202917, 0.002742074764964363, 0.0024696728466184277, 0.002234652493559792])","array('d', [2.1191214481976366, 2.0637385165413704, 2.0074653931122, 1.9503763282893074, 1.8925401699875695, 1.857428447397094, 1.822273144510537, 1.7881290269992516, 1.7560905923271166, 1.7267072279079019, 1.7001361648310938, 1.6762990219833627, 1.6549959937568102, 1.6359770562552842, 1.6189834284515099, 1.5999689891961106])",-169.66766633299267,-235.62845368131354,-50.16925993950767,0.732656372287871,0.01133733631749039,1.857428447397094,25.000000244918,-1.0,"[-233.09820566524812, -176.2731204770971, 50.047411513195335]","[-250.65701407921676, -168.5751020579095, 55.74203700565682]","[-233.60507075744724, -160.94358203044715, 62.882844454510206]",10000000000.0,0.019785404205322266
22,21.203062534332275,-232.7422332763672,-176.64122009277344,50.018192291259766,0.703936696052551,-0.038645774126052856,2.112188653149877,23.214276670825907,"array('d', [-177.05999755859375, -175.75696627746785, -174.41418467817445, -173.03545516431993, -171.62490956634932, -169.2366333926409, -166.82371572635154, -164.3894382715858, -161.93756181673209, -159.47180069834278, -156.99544257335614, -154.51121310934187, -152.0212831578037, -149.5273388970298, -147.03066944750643, -145.031803985641])","array('d', [-232.54769897460938, -233.28869322534564, -233.95555409951814, -234.54497942914543, -235.05394782573566, -235.7917191803447, -236.44474203232338, -237.0132574189756, -237.50055200197403, -237.9120896324711, -238.25434288530445, -238.53399105343667, -238.7574497706348, -238.9306331500581, -239.05886080924324, -239.12537688299054])","array('d', [-50.008243560791016, -50.05772519108832, -50.09809010373386, -50.13068574359287, -50.156714142274275, -50.19104433416376, -50.21822060472045, -50.23991068570377, -50.257416776081676, -50.271748727556, -50.283683660147815, -50.293813657069556, -50.30258283663013, -50.31031522081869, -50.31723502554739, -50.322231932842854])","array('d', [0.7012146711349483, 0.7092257836467858, 0.7164745386562754, 0.7230334840015128, 0.7289682636647635, 0.7343382746168897, 0.7299993193722513, 0.7052645717974948, 0.6670467560172127, 0.6210981753083051, 0.5717983446372455, 0.5222657282017416, 0.4745815382070885, 0.43000819857914857, 0.3891607976134608, 0.35212728320450715])","array('d', [0.03632843866944315, 0.02976859086590413, 0.024151565193240625, 0.0193921473647868, 0.015381062643006862, 0.012138065576270122, 0.009644974249800223, 0.007739104410310226, 0.006290056447131297, 0.005193854825959423, 0.004367906163166444, 0.003746480224657598, 0.0032767144353767334, 0.0029152329834306622, 0.002625451961552008, 0.002375607278415336])","array('d', [2.115625695386205, 2.0599457883948564, 2.003400361088306, 1.9460618842196866, 1.8879975118336154, 1.8527606162422612, 1.8174929603091619, 1.7832520517236055, 1.7511330025337786, 1.7216833274989831, 1.6950575567539, 1.6711747523541536, 1.6498330503880325, 1.6307808955259706, 1.6137584087663324, 1.5947123700835586])",-169.2366333926409,-235.7917191803447,-50.19104433416376,0.7343382746168897,0.012138065576270122,1.8527606162422612,25.000000244984978,-1.0,"[-233.3245942937075, -175.7780203671145, 50.06272423342231]","[-250.8419233358385, -168.00935634168104, 55.78907058075844]","[-233.74889411611494, -160.49033317279566, 62.95095878705165]",10000000000.0,0.022033214569091797
