,x_pos,y_pos,z_pos,roll,pitch,yaw,vel,x_traj,y_traj,z_traj,roll_traj,pitch_traj,yaw_traj,x_cmd,y_cmd,z_cmd,roll_cmd,pitch_cmd,yaw_cmd,vel_cmd,effector_dmg,effector_x,effector_y,effector_z,cost,time_solution
0,-189.54957580566406,-196.85275268554688,44.928401947021484,0.6346368193626402,0.04033162444829944,2.1616603891041617,23.104354977758046,"array('d', [-199.5904998779297, -198.35282188882928, -197.07436428951223, -195.7574488583422, -193.51432429298018, -191.23696003660956, -188.92725838995347, -186.5878823904123, -184.22235625574584, -181.8345045034712, -179.42797483923334, -177.0060017117383, -174.57133265597867, -172.1262431630407, -169.67259082022983, -167.70330978929064])","array('d', [-187.8433837890625, -188.68881569250112, -189.4721147373427, -190.18943817871542, -191.29269818601756, -192.32366794101293, -193.28007340467343, -194.16142265423278, -194.96996861927465, -195.7099952641248, -196.3868429436966, -197.0061983561807, -197.57364696815097, -198.09442356711315, -198.57329543845523, -198.92266447170337])","array('d', [-44.93649673461914, -44.88239072057221, -44.84367476528207, -44.8177693801766, -44.79192170274124, -44.77931460157299, -44.77631467663446, -44.780086195855546, -44.78842963574964, -44.799647834966905, -44.81243896683609, -44.82581544802788, -44.83904710530718, -44.85162594263456, -44.86324908013871, -44.87170280215029])","array('d', [0.6343987584114072, 0.6487682401716408, 0.6617702860949326, 0.6735350247536762, 0.6841802012835664, 0.6938123554462345, 0.6918618249170834, 0.6701070956953301, 0.635053230208112, 0.5921753094024581, 0.5457104421647846, 0.4987307445646649, 0.45332546465499984, 0.4107888548961587, 0.3717723821814255, 0.3363935928461775])","array('d', [-0.04177928343415267, -0.030565176431641337, -0.02121795061471254, -0.013453887837952058, -0.007326865880788644, -0.0028338192449311223, 0.00038026043395338104, 0.0025999281962597607, 0.0040506359394483545, 0.004909624112869766, 0.005316537873989147, 0.005383579654806972, 0.0052047782726800315, 0.00486401856536787, 0.004441572191345445, 0.004018900751619746])","array('d', [2.1943888823178153, 2.145521028111256, 2.095245290951794, 2.043669901567072, 2.01200585468556, 1.9796801138138194, 1.9471073849853826, 1.9153212787609277, 1.8853440746297754, 1.8577214899023904, 1.8326434032506, 1.8100751411011753, 1.7898584545967435, 1.7717779301576095, 1.755601891350127, 1.7374849377769295])",-191.23696003660956,-192.32366794101293,-44.77931460157299,0.6938123554462345,-0.0028338192449311223,1.9796801138138194,25.000000233874655,-1.0,"[-189.9192439484388, -196.4017672401756, 44.86935755109954]","[-203.43572339220808, -191.50917642219773, 49.155070856256785]","[-191.06942362599514, -184.38741134553854, 53.776227885079734]",10000000000.0,0.014981746673583984
1,-189.7854461669922,-196.4581298828125,44.92759704589844,0.6343627572059628,0.040265634655952474,2.1570496122029166,23.102357323048267,"array('d', [-198.81222534179688, -197.56687128227207, -196.28129625671673, -194.9578595237741, -192.70470375838408, -190.41796670682433, -188.09957492862776, -185.75220883770191, -183.37937931927513, -180.9848721272065, -178.57228306769358, -176.14479041302866, -173.70508659070893, -171.2553958365902, -168.79752950637473, -166.82518674388555])","array('d', [-188.3408660888672, -189.1749893682294, -189.9465789515047, -190.65181555158097, -191.73445739726236, -192.74447394934865, -193.6796184439229, -194.53945969273295, -195.32631221347555, -196.04450915087122, -196.69942767877757, -197.29678126808278, -197.84217473484134, -198.34085697151787, -198.79760573015278, -199.12925743961316])","array('d', [-44.934078216552734, -44.880592287188485, -44.84243061515207, -44.81700207819435, -44.79181694906349, -44.77974798595983, -44.77717679847763, -44.781285896576776, -44.78989410876183, -44.801320981299014, -44.814278910844536, -44.8277917881016, -44.84113822817562, -44.85381656962789, -44.86552811895489, -44.87404559342551])","array('d', [0.6346198320388792, 0.6489682758797458, 0.6619512859044755, 0.6736988001677268, 0.6843283914158446, 0.6939464433987339, 0.691698032830549, 0.6697512988122338, 0.6345915106322095, 0.591670534281855, 0.5452042581483404, 0.49824785263414245, 0.452878167897343, 0.4103810768288635, 0.3714030284328399, 0.3360593877237224])","array('d', [-0.04134628176689144, -0.030170224625962416, -0.020872780151497603, -0.01316227148665099, -0.007087542260288643, -0.0026418368910480577, 0.0005319407446863496, 0.002718857705680296, 0.004143952746548528, 0.004983570797006455, 0.005376268251319296, 0.005433137405601305, 0.005247167638216172, 0.004901318419492142, 0.004475066058068823, 0.004049207258237078])","array('d', [2.1852810541775565, 2.136391759121435, 2.086096215251716, 2.034502555428654, 2.0028284107503174, 1.970493380858249, 1.9379217953049916, 1.9061526372860775, 1.8762008553172453, 1.8486066349599395, 1.8235564831433586, 1.8010140400248287, 1.780820439826672, 1.7627602439536822, 1.7466020333865813, 1.7285046829066677])",-190.41796670682433,-192.74447394934865,-44.77974798595983,0.6939464433987339,-0.0026418368910480577,1.970493380858249,25.000000234394292,-1.0,"[-190.38451447230184, -195.60807623475858, 44.86792091027284]","[-203.8386776853455, -190.60710305427793, 49.22403838858954]","[-191.39191317746253, -183.58018895744678, 53.77382207147607]",10000000000.0,0.01557612419128418
2,-190.01951599121094,-196.0623779296875,44.92683792114258,0.6341527104377745,0.040102910250425415,2.1525122682240347,23.099810828444475,"array('d', [-198.42138671875, -197.17214501531083, -195.88297400443113, -194.55625084822879, -192.29805107384115, -190.00660961203764, -187.68386465462257, -185.3325047558309, -182.95603328267404, -180.55821559818094, -178.14262056080833, -175.71239745030906, -173.2702103564971, -170.81825722258557, -168.35832572951247, -166.38448836969053])","array('d', [-188.58694458007812, -189.41525894279565, -190.1808420316967, -190.87988683797147, -191.95197727875438, -192.95127876024412, -193.87555844301738, -194.72441642784824, -195.50019855316535, -196.20726255522075, -196.85100371389882, -197.4371484467047, -197.97131077077637, -198.45874617633845, -198.90423723571962, -199.22687617222746])","array('d', [-44.93293380737305, -44.879833797544244, -44.84201064324453, -44.81686941501222, -44.79207958399371, -44.78032976968016, -44.778012252233424, -44.7823211884454, -44.791086571944575, -44.8026378510291, -44.81569572547238, -44.82929072818089, -44.842706543722066, -44.85544516653833, -44.867210330113366, -44.87576647263024])","array('d', [0.6346821188926695, 0.6490246353606546, 0.6620022820760202, 0.6737449434155023, 0.6843701435547177, 0.6939842222797551, 0.6915822605061414, 0.6695377309314156, 0.6343252134612799, 0.5913842279221363, 0.5449194763264495, 0.4979772531001607, 0.45262794868204426, 0.41015309108176284, 0.37119654132842095, 0.33587255044839276])","array('d', [-0.04107388108968746, -0.029927245393786217, -0.020663689257524653, -0.012987652872136782, -0.006945364593851121, -0.002528215936021142, 0.0006216548251585272, 0.002789335264110615, 0.004199462685240168, 0.005027775731813187, 0.005412159010937212, 0.005463047737211067, 0.0052728293509798725, 0.004923933249705003, 0.004495381458708323, 0.00406758939454837])","array('d', [2.1806208054211473, 2.1317254682500955, 2.081424342850158, 2.0298255344879186, 1.9981485443259963, 1.9658108968899997, 1.9332419774114649, 1.9014835498075027, 1.8715466804488416, 1.8439686681705045, 1.818934288265703, 1.796406336269887, 1.7762256573112143, 1.7581768267642435, 1.7420285809752014, 1.7239421867613771])",-190.00660961203764,-192.95127876024412,-44.78032976968016,0.6939842222797551,-0.002528215936021142,1.9658108968899997,25.000000234647302,-1.0,"[-190.61463925972365, -195.20961363820436, 44.86721491347462]","[-204.0382433122446, -190.15624082534887, 49.257007329459256]","[-191.5530808661633, -183.17398397353185, 53.77018890681852]",10000000000.0,0.01293802261352539
3,-190.25181579589844,-195.6654815673828,44.926177978515625,0.6340585947036739,0.03994287922978405,2.148021117844854,23.099573134617856,"array('d', [-198.02940368652344, -196.77632103921792, -195.48359862045288, -194.15363184608273, -191.890457277345, -189.59437918148632, -187.26734754784945, -184.91205903672676, -182.53200948135205, -180.13094390576293, -177.71240431397797, -175.27951110382577, -172.83490013949137, -170.38074317651223, -167.91880431519982, -165.94351808522524])","array('d', [-188.83123779296875, -189.65375032613125, -190.41333529072926, -191.10619776615437, -192.1677539621314, -193.15635859051636, -194.06979273502785, -194.90768781415758, -195.67242097142477, -196.36837447775702, -197.00096163964193, -197.57592173235727, -198.09887788447628, -198.57509209891177, -199.00935169080512, -199.32299928952548])","array('d', [-44.9313850402832, -44.878601664487405, -44.84106047725115, -44.816161044016404, -44.79170621963044, -44.780227874817065, -44.77812626483742, -44.782604999549335, -44.79150346969204, -44.80315961559647, -44.81630132873836, -44.82996492059974, -44.84343848772306, -44.85622719650877, -44.8680368727307, -44.87662511398304])","array('d', [0.6347573399543758, 0.6490926981979189, 0.6620638678832713, 0.6738006685627764, 0.6844205657555708, 0.6940298461572855, 0.6914738645954577, 0.6693310038363723, 0.6340651892716186, 0.5911036305198976, 0.5446398686200806, 0.49771133489433766, 0.45238196348063875, 0.40992893549130105, 0.370993519738419, 0.3356888489004637])","array('d', [-0.04085233435034753, -0.029726007884273608, -0.020488416486846968, -0.012840024893301372, -0.006824526682115705, -0.002431473682675138, 0.0006979793016137233, 0.002849125634071522, 0.004246357416504636, 0.005064937717073133, 0.005442187896980696, 0.005487976075391258, 0.005294162914806762, 0.004942711610038356, 0.004512245546062754, 0.004082848653176984])","array('d', [2.175982431569371, 2.127079796890837, 2.076771930311042, 2.0251669037611517, 1.9934864769661027, 1.961145668209909, 1.928578910313247, 1.8968307488027418, 1.8669083797500596, 1.8393462182171367, 1.8143273041718053, 1.7918135816925862, 1.7716455994309666, 1.7536079401162448, 1.7374694900365295, 1.7193938658391013])",-189.59437918148632,-193.15635859051636,-44.780227874817065,0.6940298461572855,-0.002431473682675138,1.961145668209909,25.000000234890745,-1.0,"[-190.97987992270197, -194.56827401159103, 44.866446004932016]","[-204.35494852921838, -189.43220452329774, 49.30810447698971]","[-191.8098794965701, -182.52238453539795, 53.766313837361864]",10000000000.0,0.013718366622924805
4,-190.25181579589844,-195.6654815673828,44.926177978515625,0.6340585947036739,0.03994287922978405,2.148021117844854,23.099573134617856,"array('d', [-197.63839721679688, -196.38139330139305, -195.085049587982, -193.75177985662913, -191.4835458085464, -189.18275717610953, -186.85137582643426, -184.4921064566883, -182.10843684710724, -179.7040908509109, -177.2825826699979, -174.84700287829912, -172.39995823977955, -169.943593539614, -167.47964861105208, -165.5029186773859])","array('d', [-189.0724639892578, -189.88899280854866, -190.6423955458282, -191.3288897991352, -192.3796000332161, -193.35719494182928, -194.25946996353977, -195.08608897892557, -195.83946136570117, -196.5239944314033, -197.14511970803406, -197.70858934391208, -198.22003549687497, -198.68472655683158, -199.1074544432303, -199.41187193182927])","array('d', [-44.930267333984375, -44.87781833812419, -44.84057328398228, -44.81592654825718, -44.79182017168517, -44.78062287239246, -44.77874374282321, -44.7833965865511, -44.79243080342582, -44.8041933162452, -44.81741959090627, -44.83115200812897, -44.844683289584566, -44.85752192139719, -44.86937591342089, -44.87799610307576])","array('d', [0.6348181366920467, 0.6491477093658745, 0.6621136440506795, 0.673845707905026, 0.6844613190392013, 0.6940667212340259, 0.6913505768992045, 0.6691058819561961, 0.6337852968890227, 0.5908030946148117, 0.5443411263468991, 0.49742756159463225, 0.45211959990888295, 0.4096898954350827, 0.37077702210702235, 0.3354929537249294])","array('d', [-0.04061768949031833, -0.029514154280152177, -0.02030482918016092, -0.012686139288505762, -0.006699164364340719, -0.0023315722690772896, 0.0007764203543784507, 0.0029102607382863314, 0.004294044728855819, 0.005102513544808316, 0.005472385309220571, 0.0055129272948769795, 0.005315445042544222, 0.004961411505734789, 0.004529030632118501, 0.004098036428468585])","array('d', [2.171212569871221, 2.1223040364778862, 2.0719907209101, 2.0203806681467085, 1.9886974635092687, 1.956354099462361, 1.9237902893171341, 1.8920534727893803, 1.8621467862216339, 1.8346016355690833, 1.8095992598381565, 1.7871007267218468, 1.7669462865252752, 1.7489205386169373, 1.7327925326867042, 1.7147283915757938])",-189.18275717610953,-193.35719494182928,-44.78062287239246,0.6940667212340259,-0.0023315722690772896,1.956354099462361,25.000000235134298,-1.0,"[-190.97987992270197, -194.56827401159103, 44.866446004932016]","[-204.35494852921838, -189.43220452329774, 49.30810447698971]","[-191.8098794965701, -182.52238453539795, 53.766313837361864]",10000000000.0,0.011699676513671875
5,-190.25181579589844,-195.6654815673828,44.926177978515625,0.6340585947036739,0.03994287922978405,2.148021117844854,23.099573134617856,"array('d', [-196.85275268554688, -195.58800834204587, -194.2845538656504, -192.944829243172, -191.5716558808277, -189.24203724415017, -186.88415503858093, -184.50077132413983, -182.0953207955797, -179.67138556380607, -177.23229463387972, -174.7809412541208, -172.3197409057957, -169.85066212210978, -167.37528694040756, -165.3281257685849])","array('d', [-189.54957580566406, -190.35407524804944, -191.09509034732793, -191.76886644059329, -192.37187289025985, -193.27859496593246, -194.10915050169262, -194.86343689837102, -195.54408653844123, -196.1556680929794, -196.70372128432047, -197.19406764877516, -197.6323828586138, -198.02396243234483, -198.37361536242497, -198.62791643879677])","array('d', [-44.928401947021484, -44.87612225926715, -44.83851205212069, -44.81291624301971, -44.79712569307113, -44.78382071841117, -44.7802170897741, -44.78341904847453, -44.79120549824737, -44.801877472919436, -44.814139755069206, -44.827013305446144, -44.83977506815237, -44.85192131583452, -44.86315034581827, -44.87157509122214])","array('d', [0.6346368193626402, 0.6489836466478367, 0.6619651939571242, 0.67371138472164, 0.6843397784580464, 0.6939567463137463, 0.6899807591348662, 0.6669506838314196, 0.6312236952911043, 0.5881072839847722, 0.5416882267224858, 0.49492012855614126, 0.44980640458124704, 0.40758381588306564, 0.3688697396644362, 0.3337671730478357])","array('d', [-0.04033162444829944, -0.029568633568780017, -0.02073115661744559, -0.013518639205750683, -0.0076340143191711155, -0.0030858964844784065, 0.00014902636645217835, 0.0023754014255087156, 0.003829511503150848, 0.0046936783274276065, 0.005109254076198742, 0.0051883127926702554, 0.005023884622537732, 0.004698578468395039, 0.004291467154628761, 0.0038830800732408714])","array('d', [2.1616603891041617, 2.1127694462579214, 2.062472380209638, 2.010877316301262, 1.9580857809280834, 1.9257500371922844, 1.8932358819259685, 1.8616135806676735, 1.8318530514277769, 1.8044616572574614, 1.7796066060962714, 1.7572424072226984, 1.7372073339964837, 1.7192864519062645, 1.7032503760860727, 1.6858346559443063])",-189.24203724415017,-193.27859496593246,-44.78382071841117,0.6939567463137463,-0.0030858964844784065,1.9257500371922844,25.000000236761593,-1.0,"[-191.0697136171969, -194.40951367887496, 44.866279589953024]","[-204.43275596918016, -189.25330419328677, 49.32078324803124]","[-191.8730770841017, -182.36145908764382, 53.765660900288964]",10000000000.0,0.016910314559936523
6,-190.7109375,-194.86814880371094,44.92496109008789,0.634437024593353,0.03925060480833054,2.1390351812031603,23.10083072565754,"array('d', [-196.4581298828125, -195.18969020699697, -193.88284323893726, -192.54004757805748, -190.25729043210734, -187.9430298946165, -185.59925727124278, -183.22869527648217, -180.83480227994073, -178.42123490702363, -175.99142183996082, -173.54836336165525, -171.09457901515887, -168.6321333107288, -166.16269422097452, -164.182037480817])","array('d', [-189.7854461669922, -190.58412904532116, -191.31918766243066, -191.98687369915118, -193.00566119140174, -193.95092843583512, -194.82050977312747, -195.61416324390194, -196.33438892244462, -196.9856612305915, -197.57345808014568, -198.10356256846723, -198.58162725079418, -199.01293400170977, -199.4022837868344, -199.6800094568178])","array('d', [-44.92759704589844, -44.87567087779815, -44.83892033302194, -44.81471261696804, -44.79122544933757, -44.78053106201229, -44.779047030224014, -44.78400301630997, -44.79326653715754, -44.80520193258471, -44.81855986263979, -44.83239506035868, -44.84600966622236, -44.85891884494136, -44.870834878650946, -44.87949970603778])","array('d', [0.6343627572059628, 0.6487356649295684, 0.661740810792114, 0.6735083543893478, 0.6841560689201666, 0.6937905193987979, 0.6906093680521459, 0.6680829496960997, 0.6326257159950927, 0.589609936356263, 0.5431805268663308, 0.4963370062750083, 0.4511161232134568, 0.4087770278295057, 0.3699504175184415, 0.3347450108955635])","array('d', [-0.040265634655952474, -0.02916857115023736, -0.019990343536404755, -0.01241447114199299, -0.006474655026328518, -0.002152981697792689, 0.0009145826418112739, 0.0030151675731511104, 0.004373014965651754, 0.005162173078690677, 0.0055182811795452934, 0.005549414033063417, 0.0053457223985159405, 0.004987639967508137, 0.0045524824010867646, 0.0041192564684575704])","array('d', [2.1570496122029166, 2.1081852489428456, 2.0579127367071606, 2.006340322153484, 1.9746779194346382, 1.9423536910600887, 1.909823819524688, 1.878144316898111, 1.8483053119595616, 1.8208290335841943, 1.7958915487988782, 1.7734516654394707, 1.7533491127290204, 1.7353688640606493, 1.7192807210851373, 1.7012604011334627])",-187.9430298946165,-193.95092843583512,-44.78053106201229,0.6937905193987979,-0.002152981697792689,1.9423536910600887,25.000000235803036,-1.0,"[-191.0697136171969, -194.40951367887496, 44.866279589953024]","[-204.43275596918016, -189.25330419328677, 49.32078324803124]","[-191.8730770841017, -182.36145908764382, 53.765660900288964]",10000000000.0,0.014408111572265625
7,-190.93759155273438,-194.46763610839844,44.92428970336914,0.6351021528244016,0.03837133571505539,2.134925560155187,23.103577886665647,"array('d', [-196.0623779296875, -194.79031860771502, -193.48014474030742, -191.24842342727308, -188.9823906540129, -186.6836946653601, -184.3542752764156, -181.99681536574963, -179.6147943241467, -177.21193987614106, -174.79177690373987, -172.35740949325898, -169.91145836845942, -167.45608149692947, -164.99303060117032, -163.01693182736668])","array('d', [-190.01951599121094, -190.81245895566735, -191.54163455491684, -192.66746189638937, -193.72298280873474, -194.7055159753759, -195.61284672430224, -196.44460034569144, -197.20314957165212, -197.89287682184587, -198.51919863230032, -199.08785905292007, -199.60448640014712, -200.07434759669567, -200.50223427234147, -200.81077044892538])","array('d', [-44.92683792114258, -44.87550754613656, -44.840056142826526, -44.80258515008373, -44.78178497376649, -44.773254395396414, -44.773551227872076, -44.78000193186378, -44.790541386998285, -44.80358147560131, -44.81790706932919, -44.83259808856741, -44.84697563284537, -44.86056935071061, -44.87310257140416, -44.88221386895278])","array('d', [0.6341527104377745, 0.6485456067318882, 0.661568838990056, 0.6733527478233318, 0.6840152702735206, 0.6936631196193324, 0.6912368442649636, 0.6691885782813533, 0.633986684738203, 0.5910649746260644, 0.5446238049433014, 0.49770653648751184, 0.45238175306439343, 0.40992997928272384, 0.3709946202139421, 0.33568984465204504])","array('d', [-0.040102910250425415, -0.028544161595695762, -0.01889001351126834, -0.01121599495215544, -0.0055193913298781, -0.0013742388922549662, 0.0015627107720414084, 0.003564465700890849, 0.004845749515535579, 0.005574216525223812, 0.00588120001940306, 0.00587183906555813, 0.0056342235848496425, 0.005247259602598781, 0.004787036410561506, 0.00433148973842887])","array('d', [2.1525122682240347, 2.1036682690824042, 2.0534145693538908, 2.0224815334378126, 1.9908287221062575, 1.9585133170928721, 1.9259664901790168, 1.8942306128537987, 1.8643150842752374, 1.836756348500788, 1.8117389406370787, 1.7892257600914065, 1.7690579010795648, 1.751020221652861, 1.7348817223641815, 1.7168061294888375])",-186.6836946653601,-194.7055159753759,-44.773254395396414,0.6936631196193324,-0.0013742388922549662,1.9585133170928721,25.00000023471018,-1.0,"[-191.51753852577048, -193.6048474966113, 44.86610029917928]","[-204.81941485162676, -188.34684085194246, 49.384225168662475]","[-192.1864017806304, -181.55136896181438, 53.76926137586928]",10000000000.0,0.012718677520751953
8,-191.1621856689453,-194.0657958984375,44.923404693603516,0.6363204121589658,0.03705001622438432,2.1311159888890128,23.10647308831018,"array('d', [-195.6654815673828, -194.38987073392587, -193.07644057704542, -190.83970369629833, -188.5689768815523, -186.26591845631185, -183.93247806082516, -181.5713449280039, -179.18598977908414, -176.78011955070625, -174.357232369922, -171.92040390696002, -169.47222733251922, -167.0148351895267, -164.5499563981328, -162.57256210065262])","array('d', [-190.25181579589844, -191.03904785812358, -191.76235194152244, -192.87819154012018, -193.92358102078492, -194.89584647665458, -195.79278567299895, -196.61405338827544, -197.36205118429336, -198.0411832940032, -198.65688170115524, -199.2149010536549, -199.7208768762822, -200.1800810282854, -200.5973085804766, -200.8973148543435])","array('d', [-44.926177978515625, -44.87507840102605, -44.83983544765696, -44.80266385498537, -44.78211137346085, -44.77377887309219, -44.77423013180944, -44.78079910119899, -44.79142825867821, -44.80453640250552, -44.81891426595247, -44.83364646199136, -44.84805764423997, -44.86167998091726, -44.87423842250399, -44.88336779468856])","array('d', [0.6340585947036739, 0.6484604472861889, 0.6614917835298766, 0.6732830251529878, 0.6839521825862369, 0.6936060354943592, 0.6910351163410174, 0.6688980843257682, 0.633651915978827, 0.5907177227544341, 0.544284599735597, 0.4973871192864536, 0.4520875614701695, 0.4096622697483543, 0.37075219804533793, 0.33547049198299506])","array('d', [-0.03994287922978405, -0.028396081190558, -0.01875978390766493, -0.01110633369922733, -0.005430542348780643, -0.0013043088087768492, 0.0016165894946172218, 0.0036054153048881146, 0.004876728751600646, 0.005597805493788853, 0.005899515486214697, 0.00588652613862047, 0.005646487754159834, 0.005257917617353584, 0.004796574056846239, 0.004340119751535378])","array('d', [2.148021117844854, 2.0991862412902482, 2.0489409691946956, 2.0180125978333834, 1.986364083375264, 1.9540526312193938, 1.9215144512158977, 1.8897945768834348, 1.8598984551985998, 1.8323597030958794, 1.807361237119951, 1.784865229303203, 1.7647125848352667, 1.7466882537371566, 1.7305614501469513, 1.7124985570372957])",-186.26591845631185,-194.89584647665458,-44.77377887309219,0.6936060354943592,-0.0013043088087768492,1.9540526312193938,25.000000234923625,-1.0,"[-191.7390214544501, -193.20098740826955, 44.86674682285606]","[-205.01285149747727, -187.89440583328405, 49.4104928519441]","[-192.34636449618841, -181.14957008374813, 53.777104554163884]",10000000000.0,0.014483451843261719
9,-191.1621856689453,-194.0657958984375,44.923404693603516,0.6363204121589658,0.03705001622438432,2.1311159888890128,23.10647308831018,"array('d', [-194.86814880371094, -193.58547339297414, -192.2655418519439, -190.01876597285994, -187.7386299788138, -185.4268167505128, -183.0853000530984, -180.7167853293083, -178.32472926588846, -175.91280003560698, -173.48444426522317, -171.04268201558247, -168.59005194620985, -166.1286359012574, -163.660117058183, -161.68010489257935])","array('d', [-190.7109375, -191.4866683882025, -192.19807894511595, -193.29360191650713, -194.31832418821628, -195.26959128528952, -196.14522974978433, -196.94495645471412, -197.6712352751675, -198.328519775253, -198.92227852746083, -199.45829249454042, -199.9422159795792, -200.37933434241845, -200.77445253442835, -201.05675859200025])","array('d', [-44.92496109008789, -44.87482533282106, -44.84040020504225, -44.80435438513856, -44.7847110797263, -44.77710038804759, -44.778117937744405, -44.78512840842334, -44.79610184783357, -44.80948054714369, -44.824074444824085, -44.83898327001661, -44.8535430988384, -44.867294289937966, -44.87996721098617, -44.88917918714704])","array('d', [0.634437024593353, 0.6488028648411625, 0.6618016157736228, 0.6735633729842488, 0.6842058518126171, 0.6938355648797003, 0.6909595473352097, 0.6686228799932691, 0.6332632174549641, 0.5902788270088513, 0.5438377832890615, 0.49695776437766104, 0.45168861080835637, 0.40929820370349096, 0.370422391932668, 0.33517207104456664])","array('d', [-0.03925060480833054, -0.027800896533861807, -0.018262597597352073, -0.010701264612424318, -0.005106887307387988, -0.001049367133681658, 0.001815613587441739, 0.003760329403753475, 0.00499780719927272, 0.005693596304101593, 0.005976862634670988, 0.00595070447686068, 0.00570138352364735, 0.005306216973720418, 0.0048399417079982385, 0.004379360428770975])","array('d', [2.1390351812031603, 2.0901636162318207, 2.039884451099325, 2.008937320761565, 1.977271526216912, 1.9449441776509362, 1.9124010605221844, 1.8806926336496508, 1.8508171238464197, 1.8233026147302296, 1.7983285799978888, 1.7758554089268863, 1.7557232956340916, 1.7377170852285333, 1.7216061860121032, 1.7035609006578996])",-185.4268167505128,-195.26959128528952,-44.77710038804759,0.6938355648797003,-0.001049367133681658,1.9449441776509362,25.00000023537623,-1.0,"[-191.7390214544501, -193.20098740826955, 44.86674682285606]","[-205.01285149747727, -187.89440583328405, 49.4104928519441]","[-192.34636449618841, -181.14957008374813, 53.777104554163884]",10000000000.0,0.011911153793334961
10,-191.38375854492188,-193.66419982910156,44.92255401611328,0.6380457282066341,0.03527732938528057,2.1276682178166246,23.109392490677088,"array('d', [-194.46763610839844, -193.18173409720862, -191.858824883927, -190.5014536903544, -188.19648770834698, -185.86165282797455, -183.4989954745839, -181.11127204186278, -178.70190036382826, -176.274437088395, -173.83218103063854, -171.3779936575993, -168.91425921764656, -166.4429168411756, -163.96552164549348, -161.97925126994224])","array('d', [-190.93759155273438, -191.70801730821339, -192.41387133439918, -193.0514711195576, -194.0190197514313, -194.91228121170025, -195.7291622104583, -196.46957750049668, -197.13618103087435, -197.7335658065579, -198.26729534532532, -198.7432125877564, -199.16701152558508, -199.54400290397447, -199.87900816559164, -200.11324482089185])","array('d', [-44.92428970336914, -44.87499667378287, -44.840475539454346, -44.81810804808499, -44.79709644292032, -44.78836801786428, -44.78843044393402, -44.79459787707398, -44.80481234050871, -44.8175009587574, -44.831465360129116, -44.84580024115212, -44.85983790991414, -44.87311520409037, -44.88535882437698, -44.89425994149786])","array('d', [0.6351021528244016, 0.6494046978116926, 0.6623461768312979, 0.6740561122798625, 0.6846517007897074, 0.6942389855456906, 0.6902872925108456, 0.6672623849992474, 0.6315271260139311, 0.5883942218259257, 0.5419544460041832, 0.4951641373389478, 0.4500284274015856, 0.4077850577750095, 0.3690518727826009, 0.3339319739231958])","array('d', [-0.03837133571505539, -0.027545459747575624, -0.018635571844098725, -0.011311109381226848, -0.005593772163821052, -0.0014579802857067328, 0.0014592558356986305, 0.0034416265495940757, 0.004708827961672164, 0.005430078450296325, 0.0057363907812703705, 0.005731655762859864, 0.0055023632399009564, 0.005125803769407374, 0.004676624829028682, 0.004231585192480361])","array('d', [2.134925560155187, 2.0859894637475533, 2.035650687044806, 1.9840171490073852, 1.9523209649414193, 1.919965661518887, 1.8874320061003116, 1.8557896895060264, 1.8260101435835316, 1.7986015179344355, 1.7737312568936114, 1.7513537949515163, 1.7313071955786588, 1.7133762791913836, 1.6973314283516383, 1.679358727791239])",-185.86165282797455,-194.91228121170025,-44.78836801786428,0.6942389855456906,-0.0014579802857067328,1.919965661518887,25.00000023673381,-1.0,"[-191.95882409096205, -192.79603999503928, 44.8678423830679]","[-205.2066947189256, -187.4433287225786, 49.433190766095535]","[-192.50913568494346, -180.7519781822694, 53.79183992899472]",10000000000.0,0.014617443084716797
11,-191.38375854492188,-193.66419982910156,44.92255401611328,0.6380457282066341,0.03527732938528057,2.1276682178166246,23.109392490677088,"array('d', [-194.0657958984375, -192.7768728102524, -191.4511336959028, -190.09115209278494, -187.78216358485798, -185.44357665197873, -183.0774550068606, -180.6865674859068, -178.27433119884685, -175.84429070792385, -173.39972595089108, -170.94347643356758, -168.47790385534316, -166.00492568325595, -163.52607701219546, -161.5387848505395])","array('d', [-191.1621856689453, -191.9276593936658, -192.6282535565911, -193.2603056623042, -194.21824745536642, -195.10164981347748, -195.90844001998815, -196.6385659603621, -197.29471738464952, -197.88151925728084, -198.40456142971976, -198.86970762899324, -199.28266796009416, -199.6487656403867, -199.97283185942675, -200.19828417009492])","array('d', [-44.923404693603516, -44.87591120971968, -44.842856359047076, -44.821665676239625, -44.80220701520129, -44.79470117769672, -44.795727502621524, -44.80265855662753, -44.81348330246358, -44.82666606435314, -44.84103752707025, -44.85571470611313, -44.87004667125424, -44.88358241524175, -44.89605693006959, -44.905124753783035])","array('d', [0.6363204121589658, 0.6505070245422764, 0.6633436033942476, 0.6749586212370652, 0.6854683247358887, 0.6949778975580221, 0.6908668494636485, 0.6677158506397313, 0.6318859126168898, 0.5886847166575547, 0.5421968581532611, 0.49537275482477805, 0.450212571498862, 0.4079502814377317, 0.36920119524400646, 0.3340670864859148])","array('d', [-0.03705001622438432, -0.026462139488376595, -0.01775987413240478, -0.010614568246716385, -0.005045442040193262, -0.0010262885103309873, 0.001800197313476967, 0.003712748621733692, 0.004926822389284142, 0.005608071510334843, 0.005884549709661302, 0.0058577086309508425, 0.005612024707766719, 0.005223111216112737, 0.00476419766705313, 0.004310824386886556])","array('d', [2.1311159888890128, 2.082061536958881, 2.0316134382885873, 1.979879069189665, 1.9481271634278936, 1.9157206066533239, 1.8831433592539677, 1.8514676218753319, 1.8216629713448549, 1.7942353960866178, 1.769350482181665, 1.7469612956226461, 1.7269049814365822, 1.7089657815827577, 1.6929137301672696, 1.6749331776008487])",-185.44357665197873,-195.10164981347748,-44.79470117769672,0.6949778975580221,-0.0010262885103309873,1.9157206066533239,25.000000236897392,-1.0,"[-192.17606522591007, -192.3916232372196, 44.86964899692307]","[-205.40052531855906, -186.99561720021754, 49.45187270453182]","[-192.67475939973926, -180.35985565954843, 53.81324296567466]",10000000000.0,0.016217708587646484
12,-191.82058715820312,-192.8566131591797,44.92083740234375,0.6426849365234371,0.030229350551962884,2.121401802697454,23.120319902542303,"array('d', [-193.66419982910156, -192.372517021316, -191.04416237885616, -189.68174299906826, -187.36897113675187, -185.02683953649702, -182.6574321975507, -180.26353324059258, -177.8485628373999, -175.4160575874912, -172.96928231745383, -170.51105771823154, -168.04372544864222, -165.5691832661377, -163.0889477501542, -161.10069003378496])","array('d', [-191.38375854492188, -192.14471148516068, -192.84042229840767, -193.46725147397387, -194.41606174038043, -195.29003424070604, -196.08711948010935, -196.80729879496053, -197.45329970933645, -198.0297828366488, -198.54236863747008, -198.9969457879606, -199.39924423849658, -199.7546028944027, -200.06786541775068, -200.2846255917574])","array('d', [-44.92255401611328, -44.877468819347875, -44.8463664744158, -44.82673657396123, -44.809331203446405, -44.803438842844564, -44.80573658170762, -44.81367545275758, -44.825306750450096, -44.839143780784994, -44.854055267065824, -44.869187343174886, -44.8839109189793, -44.8977908363165, -44.91057292706718, -44.919862798037684])","array('d', [0.6380457282066341, 0.6520681552016102, 0.66475617295728, 0.6762367671491936, 0.6866248390883047, 0.6960243550452362, 0.6917545667512984, 0.6684668680277883, 0.6325247124940155, 0.589234294467221, 0.5426764639052997, 0.49579717928257183, 0.4505924074624024, 0.4082926811150341, 0.3695108449105738, 0.3343472691160239])","array('d', [-0.03527732938528057, -0.02501675406114117, -0.016596599994781216, -0.009692573264634982, -0.004321453381751454, -0.0004569106686168818, 0.002249946778951901, 0.004070786322808676, 0.005215194809528625, 0.0058439963935812, 0.006081304509938763, 0.0060253633964251095, 0.0057580250065526134, 0.005352727067662622, 0.004880861761375894, 0.004416386427582281])","array('d', [2.1276682178166246, 2.0784457963641745, 2.027842571192791, 1.9759651442557473, 1.9441341919342212, 1.9116549367221902, 1.879013615244126, 1.847284781976388, 1.8174371280219557, 1.7899748401015378, 1.7650616092938298, 1.742648910620277, 1.7225726960188334, 1.7046163674337866, 1.6885493863194332, 1.670552429249737])",-185.02683953649702,-195.29003424070604,-44.803438842844564,0.6960243550452362,-0.0004569106686168818,1.9116549367221902,25.000000237029717,-1.0,"[-192.17606522591007, -192.3916232372196, 44.86964899692307]","[-205.40052531855906, -186.99561720021754, 49.45187270453182]","[-192.67475939973926, -180.35985565954843, 53.81324296567466]",10000000000.0,0.016947507858276367
13,-191.82058715820312,-192.8566131591797,44.92083740234375,0.6426849365234371,0.030229350551962884,2.121401802697454,23.120319902542303,"array('d', [-192.8566131591797, -191.55984470190648, -190.2265937870596, -187.95886175803918, -185.65884705066136, -183.328330110534, -180.96938743007618, -178.5848037565996, -176.17805419288723, -173.75276962336102, -171.31232299112907, -168.85964160506535, -166.3971648472334, -163.92687667721793, -161.45036819538868, -159.4646711691745])","array('d', [-191.82058715820312, -192.57323183277052, -193.259771823165, -194.31159289577712, -195.2910306742721, -196.1955355934158, -197.02304400886263, -197.77343150389717, -198.4493444437978, -199.05541117105525, -199.59725188658166, -200.08077213774934, -200.51172597761885, -200.89547804547823, -201.23689659248367, -201.47599025772237])","array('d', [-44.92083740234375, -44.882922645396775, -44.85832876399861, -44.83528197100395, -44.825882203698825, -44.82634051579061, -44.83372826443656, -44.84579494852531, -44.86081830497764, -44.87748373902515, -44.89479084005235, -44.91198504393508, -44.92851202705221, -44.943991854743054, -44.958209486032665, -44.96853665960542])","array('d', [0.6426849365234371, 0.656265884852387, 0.6685544361431383, 0.6796735780850401, 0.6897345945185659, 0.6988381785755059, 0.6952073875067865, 0.6722185040108489, 0.6363221936568675, 0.5929105621952921, 0.5461342724894394, 0.4989898662875755, 0.4535071335861168, 0.41093746086256777, 0.37190485186881267, 0.33651345638695396])","array('d', [-0.030229350551962884, -0.020491688514407122, -0.012436095715529573, -0.0061072091496198145, -0.0014896590414911865, 0.0018014073165868968, 0.004070941070011074, 0.005557643328635917, 0.0064462900576235885, 0.006878938468040164, 0.006965410302967085, 0.0067929383160381844, 0.0064347202257294, 0.005957187274524277, 0.0054258430042188385, 0.004909505892366777])","array('d', [2.121401802697454, 2.071725658684114, 2.020703536667869, 1.98934536820464, 1.9573010906981372, 1.924625697122996, 1.8917754702345864, 1.8598120660748714, 1.8297298777536408, 1.802048531174111, 1.7769384523199891, 1.7543523831725525, 1.734124766118856, 1.7160363918494843, 1.6998539040372653, 1.6817300734572587])",-183.328330110534,-196.1955355934158,-44.82634051579061,0.6988381785755059,0.0018014073165868968,1.924625697122996,25.000000236211644,-1.0,"[-192.6050335769828, -191.57888534716312, 44.87550028219845]","[-205.787177902775, -186.09710840108303, 49.477803236960256]","[-193.0098997826093, -179.58325992373673, 53.872224911550404]",10000000000.0,0.012897491455078125
14,-192.03578186035156,-192.45059204101562,44.92012023925781,0.6455979943275447,0.02705575712025174,2.1183597604420523,23.1272945356586,"array('d', [-192.45059204101562, -191.15134960047115, -189.81569600911791, -188.44636599268094, -186.1227579090422, -183.77041145545195, -181.39148732067633, -178.98883013983482, -176.5658857361642, -174.12618270573617, -171.67295369496853, -169.20897291303402, -166.73652902996307, -164.2574655825351, -161.77324686955757, -159.78223254627218])","array('d', [-192.03578186035156, -192.78433714909826, -193.4662740095257, -194.0780390726514, -195.0001190250819, -195.84622710782605, -196.6143987700986, -197.30472323451397, -197.92005640000758, -198.46518738823488, -198.94585137915305, -199.36803319295387, -199.7375408737969, -200.0597760722009, -200.33963297570605, -200.52945298603814])","array('d', [-44.92012023925781, -44.88617605800245, -44.864056597278044, -44.85157320067247, -44.843531069575214, -44.844974152177244, -44.85304210689896, -44.865551772238085, -44.88084157451872, -44.897648375160244, -44.9150133345838, -44.932213996679856, -44.94871960369222, -44.964166328076765, -44.978348853669466, -44.988649822393924])","array('d', [0.6455979943275447, 0.6589017287981365, 0.6709394466068335, 0.6818316250205497, 0.6916872762973943, 0.7006050381335014, 0.6958331107159014, 0.6720672983888635, 0.6356966022565517, 0.5920370206205087, 0.5451674218573009, 0.4980255179621931, 0.45259703029667603, 0.41010286359109177, 0.37114828353183527, 0.3358288849844415])","array('d', [-0.02705575712025174, -0.01835234932440991, -0.011259715758224733, -0.005481422141895359, -0.0010266142351083058, 0.0021284481076386413, 0.004289871224910533, 0.005694472001409308, 0.006523614565113077, 0.006915391566670059, 0.0069756817922801174, 0.0067880858200357365, 0.0064225928264624085, 0.005942868085056113, 0.0054120680998028066, 0.004897041848941838])","array('d', [2.1183597604420523, 2.0683971565512125, 2.017110663664077, 1.9646034107900998, 1.9324245985360542, 1.899625550686962, 1.8666959934573106, 1.8347173591531738, 1.804659475017381, 1.7770222122732637, 1.7519630281563716, 1.7294273861695515, 1.7092462941612, 1.6911993974922328, 1.6750534110040542, 1.6569697408028206])",-183.77041145545195,-195.84622710782605,-44.844974152177244,0.7006050381335014,0.0021284481076386413,1.899625550686962,25.00000023741849,-1.0,"[-192.6050335769828, -191.57888534716312, 44.87550028219845]","[-205.787177902775, -186.09710840108303, 49.477803236960256]","[-193.0098997826093, -179.58325992373673, 53.872224911550404]",10000000000.0,0.014813899993896484
15,-192.4595184326172,-191.63409423828125,44.91939163208008,0.6529114246368405,0.01922993734478953,2.1121461550381517,23.140983932081884,"array('d', [-192.0430908203125, -190.74135860044743, -189.40324241289096, -187.12766820298407, -184.8201029079516, -182.4823894335035, -180.11666972272988, -177.72578144329424, -175.31322942193825, -172.88265037992687, -170.43740440816384, -167.98039384101918, -165.51402662981874, -163.0402529244997, -160.56063023469872, -158.57083998235555])","array('d', [-192.248779296875, -192.99321483099416, -193.67044503516166, -194.7053585316611, -195.66691290254806, -196.55262485930098, -197.36049377611536, -198.09046880320938, -198.74528977086405, -199.3296840866531, -199.84936345798334, -200.31031189566713, -200.7183482419224, -201.07888983630394, -201.39684776420276, -201.61720876056523])","array('d', [-44.9195556640625, -44.89089297205027, -44.87368003094947, -44.86031928296762, -44.858506311292935, -44.86491599417005, -44.87699026746292, -44.89277245395482, -44.91077150590381, -44.929853288624926, -44.949156912797285, -44.96803437711382, -44.98601126660106, -45.00276572619372, -45.01812255562934, -45.029282868662634])","array('d', [0.6490992903709407, 0.6620698327523653, 0.6738060658518653, 0.6844254495831358, 0.6940342660488394, 0.7027286825992455, 0.6987552443305904, 0.6754118866331096, 0.6391779282173778, 0.5954612857291348, 0.5484173709562805, 0.5010406171677784, 0.4553555588291969, 0.412607660690335, 0.37341580057896484, 0.33788061944030806])","array('d', [-0.023374311625957486, -0.014985000803953229, -0.008081304630095525, -0.00269717558975798, 0.0011820834214445785, 0.003900324350418083, 0.0057286332595006245, 0.0068780262111141225, 0.007510784189598282, 0.007750786392931195, 0.007693226474245419, 0.007413553901042271, 0.0069753910445196085, 0.0064372542089310425, 0.00585795062718186, 0.005300493060775084])","array('d', [2.115325526395116, 2.065017006858915, 2.013411378002473, 1.9817306183296879, 1.9493895033318382, 1.9164413219507856, 1.8833422761262044, 1.8511583479629399, 1.820887331456525, 1.7930468381702922, 1.7678028910195336, 1.745103497159386, 1.7247789751693292, 1.7066068553130485, 1.690351320751641, 1.672164727014233])",-182.4823894335035,-196.55262485930098,-44.86491599417005,0.7027286825992455,0.003900324350418083,1.9164413219507856,25.000000236487946,-1.0,"[-193.0255901981493, -190.7603844076729, 44.88449738922448]","[-206.16650200574972, -185.1892640500948, 49.49741997975716]","[-193.33943787935362, -178.8180083163579, 53.95539331667236]",10000000000.0,0.020620346069335938
16,-192.4595184326172,-191.63409423828125,44.91939163208008,0.6529114246368405,0.01922993734478953,2.1121461550381517,23.140983932081884,"array('d', [-191.63409423828125, -190.32977743382042, -188.98910299533742, -186.70938064494064, -184.39780814031886, -182.05626672313974, -179.6869377364023, -177.2926907237803, -174.87704944865047, -172.44365607391043, -169.99586535646196, -167.53656716159395, -165.06815304443379, -162.59255516982094, -160.11131298091604, -158.12228736761807])","array('d', [-192.4595184326172, -193.19960832945804, -193.8718552708605, -194.8976565341357, -195.84953282923564, -196.72503885230006, -197.52221015673524, -198.24103739716443, -198.88431392344336, -199.45682447788258, -199.96433398439157, -200.41287219180498, -200.8082957529957, -201.15605278115757, -201.46107938238939, -201.67075455446232])","array('d', [-44.91939163208008, -44.89631684202177, -44.88355027774212, -44.87600898748139, -44.878742416395475, -44.8887099936118, -44.90357989906631, -44.92157406713519, -44.94134147209638, -44.961856909925594, -44.982343481540234, -45.00221719360463, -45.02105154443117, -45.03855945244503, -45.05458953456452, -45.066225255990986])","array('d', [0.6529114246368405, 0.6655191947913991, 0.6769271779760776, 0.687249548874838, 0.6965896169904406, 0.7050408600035416, 0.700873899965182, 0.6773260117352949, 0.6408944869053261, 0.5969975669532299, 0.5497942535471247, 0.5022783025697075, 0.4564715300151247, 0.4136161481542651, 0.3743281452232247, 0.33870614308743807])","array('d', [-0.01922993734478953, -0.011663952884962928, -0.0054618297937036, -0.0006514639009935005, 0.0027809490161370214, 0.005153555870154121, 0.006716368904228925, 0.007663293661411828, 0.00814279604129626, 0.008267655385933437, 0.008124178677441387, 0.0077806884648548595, 0.007295036387384349, 0.00672098097430841, 0.006113309866692169, 0.005531551695485721])","array('d', [2.1121461550381517, 2.0614589873734968, 2.0095041584542286, 1.977630442938112, 1.9451118633234317, 1.9120006709531239, 1.8787526618182129, 1.8464362237350365, 1.8160514467398619, 1.788114905737971, 1.7627900790718094, 1.7400221794985318, 1.719639067764674, 1.7014163181246889, 1.6851166299578142, 1.6668642279307448])",-182.05626672313974,-196.72503885230006,-44.8887099936118,0.7050408600035416,0.005153555870154121,1.9120006709531239,25.000000236664114,-1.0,"[-193.23231544757996, -190.3488110602947, 44.89054850379201]","[-206.3513498067781, -184.728793992954, 49.5064282298007]","[-193.49851802691265, -178.43902131606566, 54.00570316155912]",10000000000.0,0.016478776931762695
17,-192.87393188476562,-190.8116455078125,44.9207649230957,0.6612070798873898,0.010074066929519199,2.105502025285039,23.153476626810594,"array('d', [-190.8116455078125, -189.50201438995992, -188.1560525453691, -185.86773355695766, -183.5478466590204, -181.19836240875995, -178.8215514760114, -176.42035505619424, -173.9983397162631, -171.55916064316875, -169.10616193707347, -166.64220715837396, -164.1696529389646, -161.69039300264657, -159.20592811166037, -157.2146811435014])","array('d', [-192.87393188476562, -193.6048541275026, -194.26655861322024, -195.27304724527187, -196.2043888392154, -197.058218438982, -197.83264937386483, -198.52776221371823, -199.14646680158148, -199.69367273696417, -200.1752606806691, -200.59735967003138, -200.96590828003258, -201.28642118044695, -201.56388850812547, -201.751273224392])","array('d', [-44.9207649230957, -44.910021976421746, -44.90704157364525, -44.91227114417164, -44.924952097874616, -44.94268204996245, -44.963634427546786, -44.98642846782633, -45.0100234921401, -45.0336349575262, -45.056671002892195, -45.07868830786169, -45.099365450043734, -45.11849146054618, -45.13596696986544, -45.148646122862964])","array('d', [0.6612070798873898, 0.6730254147498019, 0.6837190872786696, 0.6933951231102269, 0.702150363021649, 0.7100724315536894, 0.7054857998469385, 0.6814932404595465, 0.6446317361797149, 0.6003423216461451, 0.5527919437127431, 0.5049729200599399, 0.4589011502431938, 0.4158117596179215, 0.3763144407424476, 0.3405034177591476])","array('d', [-0.010074066929519199, -0.0043455671250551475, 0.00029428843150053775, 0.0038303840444376025, 0.006273666040028452, 0.00788355970174192, 0.008862213221684883, 0.009364886098709847, 0.009509009174801767, 0.009382553334592923, 0.009052057001421641, 0.008570055429919857, 0.007981662570877382, 0.007330163532194819, 0.006661512372571193, 0.006027585873254452])","array('d', [2.105502025285039, 2.0539834551643525, 2.0012623834827106, 1.9689655328480378, 1.9360580195104944, 1.9025897700237717, 1.869015606165697, 1.8364091706424064, 1.8057756088847556, 1.7776291809419233, 1.752127736948068, 1.7292103287061393, 1.708699409956687, 1.6903662589299842, 1.673970320134739, 1.6556122988907123])",-181.19836240875995,-197.058218438982,-44.94268204996245,0.7100724315536894,0.00788355970174192,1.9025897700237717,25.00000023697371,-1.0,"[-193.6382748562495, -189.52108303961785, 44.90565407829639]","[-206.71049150231386, -183.79680456100775, 49.52623714298414]","[-193.80486682036732, -177.68407024592597, 54.117460374537444]",10000000000.0,0.01636815071105957
18,-193.27857971191406,-189.98329162597656,44.92489242553711,0.6694572567939755,0.00019068294204773318,2.0985887805607657,23.163772561874413,"array('d', [-190.398193359375, -189.08590462892744, -187.73729947140757, -185.4446864813492, -183.12065084480452, -180.76721098176472, -178.3866843227017, -175.9820491363823, -173.55689358311696, -171.11487881019542, -168.65934268455405, -166.19313460905008, -163.7185927818483, -161.23759082329855, -158.7516093763058, -156.75932976905662])","array('d', [-193.07749938964844, -193.80370263762782, -194.46000125298252, -195.45660912091967, -196.37745882216615, -197.22022480007948, -197.983059375332, -198.6660892280878, -199.27228369734283, -199.80661570165674, -200.27502426662363, -200.68368826532037, -201.03858722906023, -201.3452689910196, -201.60875053550367, -201.784827758827])","array('d', [-44.92256164550781, -44.918395669374014, -44.92062057043572, -44.932623348043826, -44.950564616682016, -44.97238779680199, -44.996538916328575, -45.02185071799764, -45.04744868891485, -45.07267671663018, -45.097041402285264, -45.120174095812985, -45.14180903499509, -45.1617754916803, -45.1800015383894, -45.19322247457708])","array('d', [0.665337264537811, 0.6767625607037013, 0.6871005970810982, 0.6964548399865558, 0.7049189095910869, 0.7125775163227758, 0.7077757505481447, 0.6835576804753372, 0.6464798245942606, 0.6019941407091848, 0.5542710752960665, 0.5063018398824447, 0.4600990953282963, 0.4168942397472337, 0.3772937132428219, 0.3413895002402006])","array('d', [-0.005185637623071672, -0.0004480422238258994, 0.003351200901124137, 0.006203479550058454, 0.008117727163566247, 0.009320967116753029, 0.009989083697671724, 0.010256246673053191, 0.010223041639280556, 0.00996404355612436, 0.009535168007201087, 0.008980503874748134, 0.008338375632966535, 0.007646501548208764, 0.006946148459959482, 0.006285135285290422])","array('d', [2.1021026531842093, 2.05016628760391, 1.9970604279794895, 1.9645512281237125, 1.931448650119241, 1.8978014276225301, 1.864064089864452, 1.831313032482349, 1.8005557592272212, 1.7723052111469249, 1.746716310893024, 1.723724965582248, 1.7031508963171427, 1.684763224973644, 1.668319770928084, 1.6499096451806283])",-180.76721098176472,-197.22022480007948,-44.97238779680199,0.7125775163227758,0.009320967116753029,1.8978014276225301,25.00000023713792,-1.0,"[-193.83747919706616, -189.10499183274615, 44.91478322393469]","[-206.88510502607986, -183.32538874024263, 49.53600041415399]","[-193.95308975979148, -177.30508302218766, 54.17484727664461]",10000000000.0,0.01841592788696289
19,-193.27857971191406,-189.98329162597656,44.92489242553711,0.6694572567939755,0.00019068294204773318,2.0985887805607657,23.163772561874413,"array('d', [-189.98329162597656, -188.66830467933454, -187.31701874929277, -185.02005608366198, -182.6918226139083, -180.33438746636952, -177.95011667395426, -175.5420266447518, -173.11372716939914, -170.66888466797806, -168.21082974720608, -165.74239653416555, -163.2659037154615, -160.7832038274341, -158.29575652646693, -156.3024925647545])","array('d', [-193.27857971191406, -193.99988857361964, -194.650604886249, -195.63703575791536, -196.54709555231912, -197.3784975099375, -198.12943316074373, -198.8000766163282, -199.39345807289277, -199.91461472836616, -200.3695445336976, -200.76447645858553, -201.10543105940133, -201.39798929142518, -201.64719488905644, -201.81173409100145])","array('d', [-44.92489242553711, -44.92744160220446, -44.934971428510494, -44.953863086695875, -44.97714329118158, -45.00311231437475, -45.03049674984539, -45.05834853283689, -45.08596334137729, -45.11281632026682, -45.13851450386557, -45.162765275161455, -45.18535945994751, -45.20616718080013, -45.22514432032049, -45.23890739819189])","array('d', [0.6694572567939755, 0.6804904841971045, 0.6904737620555637, 0.6995070061501246, 0.707680623994525, 0.7150764190849471, 0.7100529520640232, 0.6856053339226448, 0.6483091893016955, 0.6036268320764346, 0.555731669494766, 0.5076133747329794, 0.4612810581891534, 0.41796218535560603, 0.3782598252990127, 0.34226367465773067])","array('d', [-0.00019068294204773318, 0.0035275610502160585, 0.006463279586329045, 0.00861431010689421, 0.009987221060329727, 0.010775225980172701, 0.01112689390131869, 0.011154532157444124, 0.010941320572439413, 0.010548036342442835, 0.010019686574782227, 0.009391710755250209, 0.008695497571663727, 0.007963089560641741, 0.007230981113011356, 0.006542862544126513])","array('d', [2.0985887805607657, 2.046233043129134, 1.992741123729042, 1.9600189671658403, 1.9267208483676466, 1.8928942866666403, 1.858993752908882, 1.8260985345224798, 1.7952182977091347, 1.7668644967817222, 1.7411890165346458, 1.7181245603657596, 1.6974880922515088, 1.6790465729306332, 1.6625562015533575, 1.6440946134779026])",-180.33438746636952,-197.3784975099375,-45.00311231437475,0.7150764190849471,0.010775225980172701,1.8928942866666403,25.000000237287946,-1.0,"[-193.83747919706616, -189.10499183274615, 44.91478322393469]","[-206.88510502607986, -183.32538874024263, 49.53600041415399]","[-193.95308975979148, -177.30508302218766, 54.17484727664461]",10000000000.0,0.012900829315185547
20,-193.47633361816406,-189.5681610107422,44.92881774902344,0.6735457181930539,-0.004617904778569851,2.0949412147190904,23.16808826964026,"array('d', [-189.5681610107422, -188.25042531296523, -186.0052451262859, -183.72544108650052, -181.41287604696356, -179.06962304525953, -176.69804971629412, -174.30117832872554, -171.88268986534922, -169.4463702231293, -166.9956865857623, -164.53360784437294, -162.0625764626761, -159.5845544722286, -157.10109649407275, -155.11047464623516])","array('d', [-193.47633361816406, -194.19254767714827, -195.29169638787548, -196.3169817140657, -197.26597159852415, -198.13637243623464, -198.9263343757443, -199.63588231362527, -200.26792786307112, -200.82745078703263, -201.32043301119228, -201.75311083914332, -202.1315232317502, -202.46127346667024, -202.74742779502162, -202.9413286572818])","array('d', [-44.92881774902344, -44.938105097760356, -44.96027341449735, -44.98706667258297, -45.016679189612695, -45.047756496363455, -45.07929397393776, -45.11055313037234, -45.14099334145677, -45.170217717086686, -45.197933214990314, -45.2239249299288, -45.248043531711005, -45.27020424790093, -45.29039547768411, -45.30503587249303])","array('d', [0.6735457181930539, 0.6841898773777426, 0.6938211117181106, 0.7025358136564225, 0.7104212026218, 0.7175561975365105, 0.7133522668527943, 0.6893254036683544, 0.6521491170155324, 0.6073848486206431, 0.559287649544372, 0.5109068910344944, 0.46429195742295293, 0.42069542633586227, 0.3807340541735613, 0.34450244972684324])","array('d', [0.004617904778569851, 0.007713667563323091, 0.009983358928151748, 0.011427567292617567, 0.01224929276465833, 0.012607221916877126, 0.012623163195144576, 0.01238872434030257, 0.011971014477060888, 0.011418239986248338, 0.010765501702190613, 0.010040342231935902, 0.009267727570283314, 0.008474313600921336, 0.007691898379775655, 0.006959917770784458])","array('d', [2.0949412147190904, 2.04216670351643, 2.009840356139205, 1.9769057421438299, 1.9434126234139022, 1.9094072895053236, 1.875307812221711, 1.8421772369559302, 1.811056024034184, 1.7824746493938608, 1.756593716473651, 1.7333480809973243, 1.7125534706576342, 1.6939742117274055, 1.6773635413868668, 1.6587700027701626])",-179.06962304525953,-198.13637243623464,-45.047756496363455,0.7175561975365105,0.012607221916877126,1.9094072895053236,25.0000002363649,-1.0,"[-194.03402083486304, -188.6874102162991, 44.92460640112577]","[-207.05573991862283, -182.85053225508497, 49.54690969813459]","[-194.09692582184826, -176.92514229665002, 54.23294117964585]",10000000000.0,0.012107372283935547
21,-193.8644561767578,-188.7335968017578,44.93986892700195,0.6813721060752866,-0.01402923557907339,2.087189928689275,23.173743873374253,"array('d', [-188.7335968017578, -187.41017905080787, -185.15560857287124, -182.86660925071067, -180.54516112737917, -178.19345030085992, -175.81394820003845, -173.40975744817135, -170.98460314108627, -168.54228018982352, -166.0862385456231, -163.61941345807844, -161.1442053471468, -158.66253132993882, -156.17590164747546, -154.18313176771278])","array('d', [-193.8644561767578, -194.5698282770766, -195.64912062084485, -196.65328713673466, -197.57996525807565, -198.42693083486458, -199.1924077798425, -199.87651378968968, -200.48228112289522, -201.0148171768047, -201.48022070449042, -201.88482707927986, -202.23475616347142, -202.5356763709736, -202.79270642213712, -202.96308187714604])","array('d', [-44.93986892700195, -44.961718620883595, -45.000200362362804, -45.039609161090404, -45.078969549343945, -45.11758703859038, -45.15497727910099, -45.19080896787128, -45.22485798706801, -45.25697167593754, -45.28704387424135, -45.3150010952409, -45.340799153474926, -45.364429025161044, -45.38593045305618, -45.40151632416307])","array('d', [0.6813721060752866, 0.691271486623757, 0.7002288173251274, 0.7083337459798306, 0.7156673892126375, 0.7223031439066201, 0.7176608066369181, 0.6931855960513811, 0.6555872480939863, 0.6104461279047865, 0.562021815788044, 0.5133596589949057, 0.46650137732612684, 0.42269140385555226, 0.3825396661955003, 0.34613623519463255])","array('d', [0.01402923557907339, 0.015087074716015052, 0.015689485072523112, 0.015836408502187756, 0.015656208959981596, 0.015245856591161984, 0.014676941833215343, 0.014000672502353914, 0.013251876826308332, 0.012453106374390349, 0.011619145084171624, 0.010761407165188745, 0.009891911116034305, 0.009026701567630607, 0.008188633833992574, 0.0074093826370303095])","array('d', [2.087189928689275, 2.0336063818926498, 2.0008336961788307, 1.9674891926894054, 1.9336200999165596, 1.8992702820466865, 1.8648579676832326, 1.8314520463217223, 1.8000969389240062, 1.7713199434810718, 1.7452755364476782, 1.7218922234612921, 1.700980331410947, 1.6822999947523716, 1.6656013354279073, 1.6469113506736126])",-178.19345030085992,-198.42693083486458,-45.11758703859038,0.7223031439066201,0.015245856591161984,1.8992702820466865,25.000000236733445,-1.0,"[-194.2270349225701, -188.26954652963013, 44.93574458157206]","[-207.22137133082788, -182.375550510988, 49.56262606279213]","[-194.23522651970748, -176.54530115153807, 54.29213294525296]",10000000000.0,0.013286828994750977
22,-194.2426300048828,-187.89358520507812,44.954986572265625,0.6887825727462766,-0.022834990173578144,2.0787221352246146,23.177451677185925,"array('d', [-188.3142547607422, -186.9878861822628, -184.7284616599457, -182.43472524104024, -180.1087199079715, -177.75269046344226, -175.36916114028764, -172.96127480546747, -170.53277700523074, -168.08746450910044, -165.6287757394884, -163.1596263712685, -160.68239337683335, -158.19896935097267, -155.7108406118621, -153.71707534006975])","array('d', [-194.05477905273438, -194.7543681662257, -195.82315083632366, -196.81619074434172, -197.73115729094107, -198.56585973506637, -199.31855893761553, -199.98942139077002, -200.5815413609008, -201.10009039339758, -201.5512250972277, -201.94132937328988, -202.27656237273575, -202.5626239240074, -202.8046579122914, -202.9629312519726])","array('d', [-44.947078704833984, -44.974928440047066, -45.02116820472688, -45.066548409555985, -45.11050044963493, -45.15265176274213, -45.19277062449133, -45.230722581063496, -45.266435881252065, -45.299874970239316, -45.331022965649694, -45.35987370821782, -45.386432906107, -45.41072735501194, -45.43282096635058, -45.44883409185031])","array('d', [0.6851245164871215, 0.6946668082800445, 0.7033010316846537, 0.7111136007408195, 0.7181827060455797, 0.724579096902471, 0.7197063149622561, 0.6950033061820691, 0.6571958481730756, 0.6118717206398756, 0.5632911400766232, 0.5144963060540603, 0.4675243855282675, 0.4236153244963131, 0.3833754356044364, 0.3468924706971473])","array('d', [0.01853294670581821, 0.018601031851828775, 0.018396304350516875, 0.0179178353282537, 0.017256638699675034, 0.016478983058504173, 0.015631620398293338, 0.014745887643369234, 0.013840823317019215, 0.012926499037136625, 0.012007867276049062, 0.011088575337263316, 0.010174432931607032, 0.009276413347684923, 0.008413107875624132, 0.007612495167488922])","array('d', [2.0830596248295645, 2.029084672905758, 1.9960962024576687, 1.962553665781288, 1.9285030377295012, 1.8939869852450917, 1.8594245132357743, 1.8258877097660589, 1.7944223273185094, 1.76555368882848, 1.7394330511204135, 1.7159857315745772, 1.6950194125353928, 1.676292212352694, 1.6595527761644917, 1.6408180998820845])",-177.75269046344226,-198.56585973506637,-45.15265176274213,0.724579096902471,0.016478983058504173,1.8939869852450917,25.00000023692249,-1.0,"[-194.78987970577896, -187.00702321636584, 44.97487653354171]","[-207.69219582641202, -180.9344996641077, 49.6283372275331]","[-194.61988038264852, -175.3946593197491, 54.468248166564806]",10000000000.0,0.027293682098388672
