,x_pos,y_pos,z_pos,roll,pitch,yaw,vel,x_traj,y_traj,z_traj,roll_traj,pitch_traj,yaw_traj,x_cmd,y_cmd,z_cmd,roll_cmd,pitch_cmd,yaw_cmd,vel_cmd,effector_dmg,effector_x,effector_y,effector_z,cost,time_solution
0,-76.66783905029297,-44.939083099365234,44.9768180847168,0.6317430734634398,0.03146560490131371,-0.18207089503737914,23.081567486789904,"array('d', [-43.653167724609375, -43.873954015325296, -44.14593103911013, -44.454490550860314, -44.78794243502987, -45.13719037095462, -45.49568150015523, -45.85883957028803, -46.22356297708415, -46.5878566995772, -46.950540487494756, -47.31101001771765, -47.669041995463026, -48.02463983218737, -48.37791862681915, -48.729030064149086])","array('d', [-82.48257446289062, -80.9385558787593, -79.41309133298684, -77.90285203398966, -76.40448981338201, -74.9149472804657, -73.43183214856552, -71.95344987586044, -70.47866037530623, -69.00674717301052, -67.53730067383401, -66.07011945555787, -64.60513179608313, -63.14233736170333, -61.68176736278198, -60.22345613521845])","array('d', [-44.95689010620117, -44.917367669187286, -44.89303377201317, -44.87969110080015, -44.874329461231, -44.8747343083774, -44.87923997151163, -44.88656902370851, -44.89572691062086, -44.905932206715796, -44.91657049614117, -44.92716465980797, -44.93735699589813, -44.94690007517131, -44.95565402799317, -44.96358837507272])","array('d', [0.6317359805107114, 0.4968779516485519, 0.3748533500089304, 0.26444091473757475, 0.17156063980042982, 0.10359756377982121, 0.055348165652305506, 0.022519288857142328, 0.0014821280740655906, -0.010840362563614077, -0.017028075504574573, -0.019193991023335345, -0.019004203383356552, -0.017692793219726864, -0.016072795611678948, -0.014543268199125287])","array('d', [-0.031005049124359862, -0.019845617125845334, -0.011694907102992945, -0.005716048629237992, -0.0013425894315627687, 0.0018190779859038346, 0.004049554940507073, 0.005553981572268371, 0.006486361513540184, 0.006966008425752958, 0.00708917033324887, 0.006937572406107646, 0.006584865471355894, 0.0061015232399643715, 0.005558463626829028, 0.0050295062485378505])","array('d', [-0.12114624579879259, -0.16092762281716888, -0.19037520242061112, -0.21139817309504377, -0.22551373852410497, -0.23435784629510267, -0.23945311793047117, -0.24194582235182477, -0.24270945949110284, -0.24240009085463643, -0.24149356236063438, -0.24031630537791812, -0.23907391637946596, -0.23787882873044028, -0.23677746506924943, -0.23577707906074075])",-45.13719037095462,-74.9149472804657,-44.8747343083774,0.10359756377982121,0.0018190779859038346,-0.23435784629510267,15.25835206868701,-1.0,"[-75.78904649055922, -45.05293000972707, 44.9275856089951]","[-61.69322595174589, -40.668207812333144, 47.588798601081486]","[-64.31788202931163, -52.634663224239, 38.9334461906151]",10000000000.0,0.0228271484375
1,-76.66783905029297,-44.939083099365234,44.9768180847168,0.6317430734634398,0.03146560490131371,-0.18207089503737914,23.081567486789904,"array('d', [-43.7398681640625, -43.96780536067396, -44.24683185671265, -44.56235952602354, -44.902712759973326, -45.258793485150235, -45.62404695928486, -45.99389714465375, -46.36524399935048, -46.736095065515364, -47.105273410933876, -47.47217854895146, -47.83659130204591, -48.19851925776971, -48.558081565240116, -48.915433713645385])","array('d', [-82.03291320800781, -80.4901831111648, -78.96625332217201, -77.45771586691065, -75.9611614291683, -74.47348006779224, -72.99223912844505, -71.51571706697435, -70.0427566064603, -68.57263125920156, -67.1049264966826, -65.63943936295475, -64.17609868648695, -62.71490578491215, -61.2558939356423, -59.79909958854626])","array('d', [-44.95808410644531, -44.91863895318863, -44.89435348707763, -44.881046004059634, -44.87571501462218, -44.876150365772645, -44.8806881824652, -44.888051323458875, -44.89724470871308, -44.90748603050936, -44.91815992142408, -44.928788413264904, -44.93901315031823, -44.94858628346766, -44.95736776032555, -44.96532713741709])","array('d', [0.6316236853599548, 0.4967763427846238, 0.3747614104973056, 0.2643577244117023, 0.1712389419141588, 0.10311910059856039, 0.05477592059658621, 0.0219014880334838, 0.0008546389386139343, -0.011452181109456148, -0.017607684270057444, -0.019732030453540578, -0.01949689001994395, -0.018140363108337335, -0.016477999372193818, -0.014909911756776195])","array('d', [-0.030947759747505115, -0.019811476538974884, -0.011671568799549774, -0.005696537443303784, -0.0013232897381126785, 0.0018397196627989011, 0.004071875934862342, 0.005577656382843945, 0.006510758992656263, 0.006990416449813746, 0.0071129310506651035, 0.006960157156685015, 0.006605908976441837, 0.006120830452591785, 0.005575998921878118, 0.005045372841067309])","array('d', [-0.1258041103694103, -0.1655823759430962, -0.19502738578695994, -0.2160476636377165, -0.230151860331328, -0.23897110864691917, -0.2440330587501025, -0.24648764909572593, -0.24721114993679624, -0.24686166670733387, -0.24591646289715544, -0.24470285541117195, -0.2434268959938323, -0.24220114880048316, -0.24107194734693707, -0.24004633694631425])",-45.258793485150235,-74.47348006779224,-44.876150365772645,0.10311910059856039,0.0018397196627989011,-0.23897110864691917,15.256184781800865,-1.0,"[-75.78904649055922, -45.05293000972707, 44.9275856089951]","[-61.69322595174589, -40.668207812333144, 47.588798601081486]","[-64.31788202931163, -52.634663224239, 38.9334461906151]",10000000000.0,0.020943164825439453
2,-76.66783905029297,-44.939083099365234,44.9768180847168,0.6317430734634398,0.03146560490131371,-0.18207089503737914,23.081567486789904,"array('d', [-43.9194450378418, -44.161384188842845, -44.454222144969464, -44.783409015841144, -45.13729700641919, -45.50678450935315, -45.8853131199843, -46.268307132352206, -46.652669361272125, -47.03641207500652, -47.41836448631554, -47.79793323860709, -48.17490682853245, -48.54930064519562, -48.92124141645358, -49.29089177055152])","array('d', [-81.13420104980469, -79.59409817549627, -78.07327991325971, -76.56818304742231, -75.07527821384778, -73.59135183937288, -72.11389156216812, -70.6411224820388, -69.17185331296976, -67.70533771713289, -66.24115135099493, -64.77908816792873, -63.319078035524164, -61.86112549733876, -60.40526788796216, -58.95154576281692])","array('d', [-44.960819244384766, -44.92152431715614, -44.89733242069109, -44.88409262795776, -44.87882061793451, -44.87931489324346, -44.88391510342924, -44.891344644723205, -44.9006073692225, -44.91091919734263, -44.92166285548809, -44.93235867622656, -44.94264699549702, -44.952279123195375, -44.96111463843905, -44.96912316383625])","array('d', [0.6315090060234069, 0.49667257661956477, 0.37466751897763084, 0.26427276782915426, 0.17068006168919114, 0.10224709429193389, 0.05371461530240503, 0.020745724016736876, -0.00032497412223347514, -0.012605621019688066, -0.018702205764900465, -0.02074895657032991, -0.020428476714153335, -0.018986755527811632, -0.017244288362049318, -0.015603278770627066])","array('d', [-0.03083623014390459, -0.019745465957060785, -0.011626719901019876, -0.005659082194797087, -0.0012860934739962863, 0.0018797141640299094, 0.004115318558496798, 0.005623884222244537, 0.006558504324440421, 0.007038252803282771, 0.00715954203407956, 0.007004485349342398, 0.006647223614527195, 0.006158740465282103, 0.005610430600023722, 0.005076527914632453])","array('d', [-0.13493399222823604, -0.1747151400565995, -0.2041622194444572, -0.2251831013960272, -0.23927007993267208, -0.24804511020648434, -0.25304582464910097, -0.25542941859590595, -0.25607763133150446, -0.25565260303400167, -0.25463439982834885, -0.25335209640120204, -0.25201265772462356, -0.25072892416319864, -0.2495470733341293, -0.24847375976629882])",-45.50678450935315,-73.59135183937288,-44.87931489324346,0.10224709429193389,0.0018797141640299094,-0.24804511020648434,15.251885628972252,-1.0,"[-75.19336303139815, -45.21054859468768, 44.92962746537956]","[-61.06669865844738, -40.89366948593695, 47.53767433122282]","[-63.78135361167181, -52.84903505208626, 38.894764944640926]",10000000000.0,0.020418405532836914
3,-76.66783905029297,-44.939083099365234,44.9768180847168,0.6317430734634398,0.03146560490131371,-0.18207089503737914,23.081567486789904,"array('d', [-44.10728454589844, -44.36366725149743, -44.67075763784592, -45.01404478295062, -45.38190955951357, -45.765247525187924, -46.15749726205834, -46.55408379827262, -46.95191298874391, -47.34900184367278, -47.744185622951626, -48.13687793522496, -48.5268747554154, -48.91419907214829, -49.29898499922884, -49.68140213411651])","array('d', [-80.2364730834961, -78.69923179888393, -77.18177082000743, -75.68036922490556, -74.19137492542131, -72.71146754035263, -71.23805236293136, -69.76929928962029, -68.30398178745763, -66.8413329042961, -65.38091807413721, -63.92252800594048, -62.466093618317075, -61.01162278699862, -59.55915705098992, -58.108741205137996])","array('d', [-44.96345138549805, -44.92395809747453, -44.89958950211894, -44.88620535323624, -44.880824184326514, -44.88124270768662, -44.88579633251711, -44.89320313024254, -44.9024614038687, -44.91278185129925, -44.923542630262915, -44.93426032788604, -44.94457241751341, -44.954228214140116, -44.963086106166315, -44.97111523946233])","array('d', [0.6314784288406371, 0.4966449092370834, 0.37464248449019205, 0.26425011567258505, 0.1701698214499842, 0.10141338048247873, 0.05268375091060561, 0.019614488044817687, -0.0014844637386807152, -0.013742189600387745, -0.019782254682026032, -0.021753203441262005, -0.021348770496546203, -0.019822984206269247, -0.018001387781543293, -0.016288330716606035])","array('d', [-0.03097731620073307, -0.019875616919891367, -0.011735861628776692, -0.005743685217600724, -0.0013465293096721705, 0.001840891914163322, 0.004094500000869208, 0.00561713589756202, 0.00656202994776016, 0.007048666047323925, 0.0071740112559842304, 0.007020792011956931, 0.006663763034565815, 0.006174484663680845, 0.005624867826362247, 0.005089591258415743])","array('d', [-0.14436904986831153, -0.1841606580314565, -0.21361578052957605, -0.23464217004093943, -0.24871581340899465, -0.2574495465604483, -0.2623912738186827, -0.26470563523919777, -0.2652799733503319, -0.26478056207478606, -0.2636903423764501, -0.2623401974833513, -0.26093803942597876, -0.25959700587575407, -0.25836313082063345, -0.2572426850449782])",-45.765247525187924,-72.71146754035263,-44.88124270768662,0.10141338048247873,0.001840891914163322,-0.2574495465604483,15.247422694338258,-1.0,"[-75.19336303139815, -45.21054859468768, 44.92962746537956]","[-61.06669865844738, -40.89366948593695, 47.53767433122282]","[-63.78135361167181, -52.84903505208626, 38.894764944640926]",10000000000.0,0.019893407821655273
4,-76.66783905029297,-44.939083099365234,44.9768180847168,0.6317430734634398,0.03146560490131371,-0.18207089503737914,23.081567486789904,"array('d', [-44.20430374145508, -44.467937498691555, -44.782186810181415, -45.13255978141795, -45.50745144099158, -45.897756014165694, -46.29691070151293, -46.70034093269328, -47.10495403412592, -47.50876927326916, -47.91062477523145, -48.309937447487044, -48.70650681075315, -49.100359462395986, -49.49163302839025, -49.880500425805586])","array('d', [-79.78802490234375, -78.25227543764773, -76.73655608857798, -75.23706676246688, -73.75009365863679, -72.27226246813238, -70.80093686766067, -69.33425882824011, -67.87098395882268, -66.41033483691733, -64.95187167947238, -63.49538351162553, -62.04080174764467, -60.58813592011924, -59.137429672522906, -57.68872992217811])","array('d', [-44.964717864990234, -44.92510943927103, -44.90063975373393, -44.88717321104268, -44.881729256288835, -44.88210330432044, -44.88662832147988, -44.89401945349827, -44.90327201215005, -44.91359390615104, -44.92436086439786, -44.935087486205056, -44.9454097245363, -44.95507583079463, -44.96394355197244, -44.97198176699386])","array('d', [0.6315146088600158, 0.496677646274943, 0.3746721061885998, 0.2642769184898024, 0.16994985924703312, 0.10102894324537029, 0.05219814019627138, 0.019076211079496898, -0.002039225604859055, -0.01428771426603829, -0.020301596433288948, -0.022236567081403428, -0.021791923795270375, -0.02022571647584013, -0.018366018508056147, -0.01661826227160354])","array('d', [-0.03105932660400856, -0.019949896015594416, -0.011797841180744768, -0.005791954271504547, -0.001381552102439388, 0.0018176124174377503, 0.004080971740421402, 0.005611236351622959, 0.006561731697834618, 0.007052169853266243, 0.00717981583396614, 0.007027721009642211, 0.0066709633426282515, 0.006181405883892157, 0.005631230176030632, 0.0050953481509821395])","array('d', [-0.1491115530345103, -0.188912791930896, -0.21837541770098653, -0.23940744182335258, -0.2534769014529423, -0.2621922042434458, -0.26710645050424275, -0.26938803227811553, -0.2699271110886981, -0.26939204028623787, -0.2682672090226505, -0.26688441492313936, -0.26545205338125827, -0.2640834202925682, -0.2628244870444158, -0.2616813412622068])",-45.897756014165694,-72.27226246813238,-44.88210330432044,0.10102894324537029,0.0018176124174377503,-0.2621922042434458,15.245163265646475,-1.0,"[-75.19336303139815, -45.21054859468768, 44.92962746537956]","[-61.06669865844738, -40.89366948593695, 47.53767433122282]","[-63.78135361167181, -52.84903505208626, 38.894764944640926]",10000000000.0,0.025117158889770508
5,-76.66783905029297,-44.939083099365234,44.9768180847168,0.6317430734634398,0.03146560490131371,-0.18207089503737914,23.081567486789904,"array('d', [-44.30339050292969, -44.574342464772904, -44.89581720432233, -45.25334217822426, -45.63532689476102, -46.03266458187841, -46.4387913384217, -46.84913316868517, -47.26059896015583, -47.67121026572604, -48.079808062003316, -48.48581251565833, -48.88902663992296, -49.289480582769784, -49.687315425104444, -50.082707270558124])","array('d', [-79.33991241455078, -77.80570442270115, -76.29177967998615, -74.79425776085401, -73.30936232956864, -71.8336644054989, -70.36448550089945, -68.89993929977393, -67.43876332089516, -65.98016953305262, -64.52371286536072, -63.069180635254696, -61.616504758991745, -60.165696449451715, -58.71680148542655, -57.26986923120364])","array('d', [-44.96641159057617, -44.92675360151422, -44.9022326940466, -44.88872221326701, -44.8832455185244, -44.883598867413916, -44.888114332637365, -44.89550527160523, -44.90476485086977, -44.91509882595807, -44.925880978702246, -44.936624286636466, -44.94696345916255, -44.956645889805245, -44.965528830934495, -44.973580988858366])","array('d', [0.6315659284591675, 0.4967240821723204, 0.3747141231288264, 0.2643149369868986, 0.1697396835725174, 0.10065311546645932, 0.05172014333236719, 0.0185446964584535, -0.00258795713992846, -0.014827840572541696, -0.020816088524644432, -0.022715561125217356, -0.022231131402179076, -0.020624880997928686, -0.018727421316476613, -0.016945273085264154])","array('d', [-0.031093535944819357, -0.01998778549266935, -0.01183175567128814, -0.005818311451530779, -0.0013992622196039928, 0.0018081757455345503, 0.004078648360675469, 0.0056145238006993555, 0.006569069441946406, 0.0070621130874461676, 0.007191133674002601, 0.007039443246687867, 0.006682392381800232, 0.006192105430475019, 0.005640999231949211, 0.0051041875591142675])","array('d', [-0.15390281280013524, -0.1937150558686082, -0.2231862666782307, -0.24422481236586888, -0.25829082370560064, -0.26698831143722623, -0.2718756047021432, -0.27412486706295625, -0.2746290924450909, -0.27405872352626837, -0.27289960511247785, -0.2714844548409708, -0.2700221556690539, -0.26862616487836866, -0.26734239370034363, -0.2661767483567462])",-46.03266458187841,-71.8336644054989,-44.883598867413916,0.10065311546645932,0.0018081757455345503,-0.26698831143722623,15.242873768677766,-1.0,"[-75.19336303139815, -45.21054859468768, 44.92962746537956]","[-61.06669865844738, -40.89366948593695, 47.53767433122282]","[-63.78135361167181, -52.84903505208626, 38.894764944640926]",10000000000.0,0.02862381935119629
6,-75.33628845214844,-45.2849235534668,44.981266021728516,0.6312576532363888,0.03174887970089901,-0.19512323935958342,23.076846661972333,"array('d', [-44.40412902832031, -44.6823965667919, -45.011093245709446, -45.37576623198056, -45.76483983182044, -46.16920671123234, -46.582302223215706, -46.999553167518975, -47.41787011456716, -47.83527695265533, -48.250617509695864, -48.6633151788069, -49.07317641432104, -49.480234855178594, -49.88463497662557, -50.286556105367])","array('d', [-78.89387512207031, -77.36124692890284, -75.84915459101882, -74.35363749303704, -72.87085684045901, -71.39732893823547, -69.93033309991031, -68.4679547030152, -67.00891316629514, -65.55240984837275, -64.09799439671787, -62.64545243361307, -61.19471639443126, -59.745799192055394, -58.29874876103903, -56.853616586167554])","array('d', [-44.96826171875, -44.92854401506318, -44.90396360148871, -44.890402349956936, -44.88488723023343, -44.88521511234357, -44.889716996208506, -44.897104309081385, -44.906367958694666, -44.91671145622542, -44.927506563705805, -44.93826457953758, -44.94861892506562, -44.95831610205501, -44.96721284292426, -44.975277664603716])","array('d', [0.6316209435462949, 0.4967738618858085, 0.37475916567929296, 0.26435569316990054, 0.16953398744756895, 0.10028286428756424, 0.05124832022677831, 0.018019573920473694, -0.003130355117887232, -0.01536188320763379, -0.02132486764728738, -0.023189277054981715, -0.02266551629331391, -0.021019667546817163, -0.019084860953492277, -0.017268697872818813])","array('d', [-0.031134981662034874, -0.020031585126735675, -0.011870545615381178, -0.00584872282992076, -0.001420367340304224, 0.0017958764036585418, 0.004073893198070065, 0.005615728355340714, 0.0065746068141517575, 0.007070485101805549, 0.007201067059672707, 0.0070499347051016055, 0.0066927190090911816, 0.006201811989308362, 0.005649870816335976, 0.005112214901349435])","array('d', [-0.158698125681605, -0.19852174040551993, -0.22800181905883726, -0.24904711351907116, -0.2631099308288014, -0.27178993519066474, -0.2766506531255755, -0.27886799573366966, -0.2793377712102634, -0.2787324983011839, -0.2775394683532063, -0.27609231340270857, -0.2746004012261136, -0.27317734997111487, -0.2718690117539475, -0.27068111358126795])",-46.16920671123234,-71.39732893823547,-44.88521511234357,0.10028286428756424,0.0017958764036585418,-0.27178993519066474,15.240573927542764,-1.0,"[-75.19336303139815, -45.21054859468768, 44.92962746537956]","[-61.06669865844738, -40.89366948593695, 47.53767433122282]","[-63.78135361167181, -52.84903505208626, 38.894764944640926]",10000000000.0,0.026465177536010742
7,-74.89322662353516,-45.40424346923828,44.982666015625,0.6311537623405454,0.031825490295886896,-0.199394269785609,23.07505656980233,"array('d', [-44.71883773803711, -45.01866406330251, -45.36863265680512, -45.75435212119597, -46.16429300988847, -46.58934925981621, -47.022956354776646, -47.4605449431, -47.89903147260501, -48.33644721270898, -48.771644601492326, -49.20405655614387, -49.633499572758026, -50.06001742102873, -50.48376440372531, -50.90492917784114])","array('d', [-77.5573501586914, -76.02961049809421, -74.52314661376779, -73.03376237238189, -71.55743539246, -70.09052051565737, -68.6301725309277, -67.1743933499081, -65.72184908114924, -64.27170990518957, -62.82351004061667, -61.37703028251601, -59.93220478281851, -58.48905165639603, -57.04762537762497, -55.60798385816696])","array('d', [-44.973472595214844, -44.933518107072075, -44.90871403754322, -44.894964679539875, -44.88930560006676, -44.88953388015181, -44.89397608648611, -44.90133692883004, -44.91059981860664, -44.92096096914971, -44.93178563865298, -44.94257974006904, -44.95297256170615, -44.962707727605434, -44.971640264597966, -44.979738024923385])","array('d', [0.6317526698112487, 0.49689305274891327, 0.3748670140389891, 0.26445327839461247, 0.16891669331487713, 0.09918861527413632, 0.04986011199878798, 0.016477683171962826, -0.00472123993920921, -0.016927289410741612, -0.022815692182430024, -0.024577096002466256, -0.02393799831554182, -0.022176117245400518, -0.020131905917303374, -0.01821610342025098])","array('d', [-0.031301092356443266, -0.020195709161030848, -0.012012872475112815, -0.005960755008378409, -0.0015004911070244516, 0.0017452854889002938, 0.004048380871004935, 0.0056100192095399825, 0.006583408621128037, 0.007088977663345804, 0.007225173673938258, 0.007076445039470318, 0.00671931114191311, 0.006227007152670183, 0.005672945902098669, 0.005133094104257006])","array('d', [-0.17286769946547925, -0.21272275018606862, -0.24222725643022996, -0.263290964305201, -0.2773433496175717, -0.2859714040401914, -0.2907537718110948, -0.2928772712372947, -0.2932459063613934, -0.29253824317027816, -0.29124578515677946, -0.28970482425172017, -0.2881261351082603, -0.28662379834436735, -0.2852434878271795, -0.2839904030286232])",-46.58934925981621,-70.09052051565737,-44.88953388015181,0.09918861527413632,0.0017452854889002938,-0.2859714040401914,15.233702553407735,-1.0,"[-73.86549436382295, -45.575608143898116, 44.93365070242307]","[-59.67462096940784, -41.40316329134784, 47.42560099408386]","[-62.581466873721055, -53.33714742532044, 38.81570729098463]",10000000000.0,0.029151439666748047
8,-74.45197296142578,-45.52528762817383,44.983970642089844,0.6307593584060665,0.031918123364448464,-0.20364324649306742,23.073296895652096,"array('d', [-44.827911376953125, -45.13490433521221, -45.49193904124171, -45.88464595279698, -46.3015120960357, -46.733433010608806, -47.173845146712075, -47.61818103727815, -48.06335946746322, -48.50741438663006, -48.949201211668125, -49.388156069185236, -49.82409879158301, -50.257076490074965, -50.687246698373066, -51.11480114082791])","array('d', [-77.11239624023438, -75.58635860298139, -74.08184074455777, -72.59456853406918, -71.1204587706409, -69.65581264058527, -68.19774357703282, -66.74422580191708, -65.29390776705503, -63.84594935937313, -62.39987974353282, -60.955478187283006, -59.512679490550774, -58.07150357253583, -56.632007152341494, -55.194250338058396])","array('d', [-44.97517395019531, -44.935132361533945, -44.91024691999552, -44.89642919431452, -44.890717445382954, -44.89090867120015, -44.89532782282367, -44.90267724760525, -44.911937749273555, -44.922303014199585, -44.93313605303444, -44.94394091852288, -44.95434547009548, -44.964092334127145, -44.973035941906325, -44.98114390705283])","array('d', [0.6317723393440248, 0.4969108504794087, 0.37488311809204616, 0.26446784994104966, 0.16869937481129982, 0.0988169053937482, 0.04939363635384348, 0.01596215526634487, -0.005251710065750154, -0.01744845282958275, -0.023311584108347237, -0.02503850536731945, -0.02436096907674436, -0.02256049133889814, -0.020479913151703076, -0.018530993416203713])","array('d', [-0.031362317502498585, -0.020255320638674874, -0.01206440245682675, -0.006001487226763462, -0.001529991425024367, 0.0017261306633230675, 0.004038000579894522, 0.005606577480522556, 0.006585073246639617, 0.007094083657259062, 0.007232313889747267, 0.007084510845074756, 0.006727499129747449, 0.006234803163249596, 0.005680094829470422, 0.005139562721825813])","array('d', [-0.17759160598250837, -0.2174552305477034, -0.24696634817962348, -0.26803490510398853, -0.2820828467320631, -0.29069298478276767, -0.29544888416537174, -0.29754091954616646, -0.29787577045538827, -0.2971339775233692, -0.2958084186282745, -0.29423625172996914, -0.29262870712805805, -0.29110001199610785, -0.28969577733317514, -0.28842102586130713])",-46.733433010608806,-69.65581264058527,-44.89090867120015,0.0988169053937482,0.0017261306633230675,-0.29069298478276767,15.231393841219235,-1.0,"[-73.65062080234162, -45.63669332476165, 44.934275642847204]","[-59.44974832482158, -41.48744018865668, 47.4079205829582]","[-62.38713586615286, -53.417593395237176, 38.803084797218375]",10000000000.0,0.027788162231445312
9,-73.130859375,-45.90085983276367,44.98683547973633,0.6203631162643433,0.030228523537516507,-0.21599058707686886,23.053147742554415,"array('d', [-44.939083099365234, -45.25285824745138, -45.61657375137558, -46.015882232754976, -46.43928730898468, -46.87768682500307, -47.32451872924473, -47.77521775334522, -48.22670520405923, -48.67701780688628, -49.125013989957054, -49.57013307581572, -50.01219818886851, -50.451259719816235, -50.88747836427751, -51.32104884449602])","array('d', [-76.66783905029297, -75.14345337782615, -73.64081522766837, -72.15557726265075, -70.68359913990906, -69.22113147607615, -67.76524871972221, -66.31389903164445, -64.86571429147571, -63.41984477634212, -61.97581499230706, -60.533402876673264, -59.092543947062794, -57.65325992376583, -56.215609733152846, -54.77965563383152])","array('d', [-44.9768180847168, -44.93663142368197, -44.91161991157989, -44.89769865944995, -44.89190605915478, -44.89203723776984, -44.896414265085475, -44.903736217719924, -44.91298063006201, -44.92333817250299, -44.93416924165035, -44.944975751997, -44.955383921438575, -44.96513521597815, -44.97408334849084, -44.982195604416255])","array('d', [0.6317430734634398, 0.496884369612844, 0.37485915721010427, 0.26444616923228453, 0.16846210437254375, 0.09843677596642483, 0.04892664730693352, 0.015451243262864883, -0.005774529189132855, -0.017960457743403765, -0.023797866767294062, -0.02549052783853669, -0.024775147712655148, -0.02293681953268158, -0.020820628588947933, -0.018839285520648417])","array('d', [-0.03146560490131371, -0.020347308806205004, -0.012141341996570796, -0.006062532766356571, -0.0015760157307804063, 0.0016933150506528315, 0.004016157118187808, 0.005593385181348401, 0.006578341496905209, 0.007091878913436978, 0.007233025126651262, 0.007086873028980559, 0.006730588299014118, 0.006238012762516799, 0.005683100595714931, 0.005142282451839207])","array('d', [-0.18207089503737914, -0.221938773476341, -0.2514530698417279, -0.27252364143049007, -0.2865651640724281, -0.29515640332505183, -0.2998855140920408, -0.3019462017941719, -0.3022476574397122, -0.30147227600988535, -0.3001142240979335, -0.29851146830052006, -0.29687565984720793, -0.295321155041294, -0.29389349663991393, -0.2925975322062594])",-46.87768682500307,-69.22113147607615,-44.89203723776984,0.09843677596642483,0.0016933150506528315,-0.29515640332505183,15.229176866346652,-1.0,"[-72.98371677355173, -45.82849105861268, 44.93610158590859]","[-58.752228041731264, -41.75045374770268, 47.3515394689627]","[-61.78426234611975, -53.67093247273068, 38.766147518494385]",10000000000.0,0.044812917709350586
10,-72.6916275024414,-46.03022003173828,44.98793029785156,0.6117960810661316,0.028920169919729177,-0.21995334228011587,23.042066491084665,"array('d', [-45.2849235534668, -45.618379507820286, -46.00143181158866, -46.41980882001429, -46.86207012720592, -47.31912682270855, -47.784425997641165, -48.253412142750726, -48.72301637800692, -49.19128539524695, -49.6570878663924, -50.119873606958144, -50.579476307812605, -51.03595674262509, -51.48948554293543, -51.940266811377356])","array('d', [-75.33628845214844, -73.81691019729544, -72.31992092151599, -70.84076312500218, -69.37513273040082, -67.91913530097459, -66.46973375043872, -65.0248020288239, -63.58292518960557, -62.143226746150674, -60.705218673049565, -59.268675907047616, -57.833536794025655, -56.399828926794555, -54.96761819891011, -53.53697361261744])","array('d', [-44.981266021728516, -44.9406813264849, -44.9153202809516, -44.90111074036422, -44.895093000831814, -44.89505770344128, -44.89931913357859, -44.90656722245722, -44.915770218726145, -44.926110154319844, -44.936939902746424, -44.94775520881177, -44.95817754959213, -44.9679450426748, -44.976909335902896, -44.98503678531575])","array('d', [0.6312576532363888, 0.4964451431872209, 0.37446172866691907, 0.2640865609715654, 0.1675190721552325, 0.09711294786689424, 0.04737840837891275, 0.013798522615909657, -0.0074425007907339535, -0.01958068726794103, -0.025329457666572932, -0.026910599070209533, -0.02607480978676347, -0.02411725460151942, -0.02188929851669749, -0.01980625814638804])","array('d', [-0.03174887970089901, -0.0206025766972699, -0.012355981425130213, -0.006232990546129348, -0.0017041325802448263, 0.001602708214075831, 0.0039568294274308505, 0.005558753048050835, 0.006562133308290676, 0.007088530082438881, 0.007237885808467033, 0.007096287383669631, 0.006741886831595478, 0.006249447274972435, 0.005693744068099191, 0.005151913064779727])","array('d', [-0.19512323935958342, -0.23497054519397872, -0.2644678564542598, -0.28552241932524436, -0.29952693523266566, -0.3080478366275372, -0.3126858101213161, -0.31464377170210156, -0.31483790595930694, -0.3139557778125639, -0.3124951304390822, -0.3107961460197593, -0.30907159089907277, -0.3074361098752122, -0.3059349777583483, -0.3045724760718454])",-47.31912682270855,-67.91913530097459,-44.89505770344128,0.09711294786689424,0.001602708214075831,-0.3080478366275372,15.222654068238686,-1.0,"[-71.66638185943971, -46.22218562442338, 44.94149959954595]","[-57.377005583677885, -42.275572351375914, 47.23016063226807]","[-60.590263500274986, -54.25347806975548, 38.79187003742387]",10000000000.0,0.0172884464263916
11,-72.25309753417969,-46.16168212890625,44.989139556884766,0.6002522110939026,0.02725814469158637,-0.22398833831283055,23.026088202770932,"array('d', [-45.40424346923828, -45.744126096434044, -46.13349668550981, -46.558107807458505, -47.00653712111117, -47.469700137478476, -47.94104706882252, -48.41602562730908, -48.89157008144388, -49.36573025066584, -49.837377976277146, -50.30596629645235, -50.7713321379241, -51.233539452576366, -51.69276191524523, -52.14920650186137])","array('d', [-74.89322662353516, -73.37554501946154, -71.88046342609545, -70.40335543101735, -68.93986322848643, -67.48604461383948, -66.03882574587847, -64.59605609318913, -63.156305230532325, -61.71868779299074, -60.28271156563942, -58.848150441546466, -57.41494365182689, -55.98312068635992, -54.55274970414872, -53.12390192277014])","array('d', [-44.982666015625, -44.94197316899791, -44.91651452576243, -44.90222366184008, -44.89614256688012, -44.89606115695364, -44.90029168703659, -44.907521456112164, -44.91671592645462, -44.927054480817645, -44.937887657377296, -44.948709273634954, -44.95913932314866, -44.96891487913672, -44.97788695315963, -44.986021627413805])","array('d', [0.6311537623405454, 0.49635113880845627, 0.3743766699791254, 0.2640095966777017, 0.16724886172521056, 0.09671576865154648, 0.04690536845748298, 0.01328882505446373, -0.007959652135238866, -0.020084625258489412, -0.025806702809157606, -0.0273535338510549, -0.026480372666549346, -0.024485667791122257, -0.022222836912640664, -0.020108056194724007])","array('d', [-0.031825490295886896, -0.02067392356947201, -0.012416803399045745, -0.006281339129875933, -0.0017400619489946637, 0.0015780002277799997, 0.003941571571849389, 0.005550978241791698, 0.006559920827283242, 0.007090152281641863, 0.007241888313526186, 0.00710152342230548, 0.006747520318597857, 0.006254935088162932, 0.005698805422910468, 0.00515649276841241])","array('d', [-0.199394269785609, -0.23923954280327414, -0.2687350123457737, -0.2897874110218118, -0.3037824958382283, -0.31228282045074857, -0.3168932204430359, -0.3188196456666019, -0.31898057861403745, -0.318065282405112, -0.31657267713091714, -0.31484367762852977, -0.3130914239602621, -0.3114306649961956, -0.3099065979243351, -0.3085233289718234])",-47.469700137478476,-67.48604461383948,-44.89606115695364,0.09671576865154648,0.0015780002277799997,-0.31228282045074857,15.220492336692867,-1.0,"[-70.79111186023376, -46.49473848849533, 44.948257402903636]","[-56.46466272622748, -42.62079065340979, 47.126647492342855]","[-59.79522632211826, -54.740772658881106, 38.94047730593831]",10000000000.0,0.03979372978210449
12,-71.37862396240234,-46.43083953857422,44.99263000488281,0.5687801837921141,0.02287403866648669,-0.23210720618697633,22.982565965329385,"array('d', [-45.52528762817383, -45.871533441499395, -46.26712750771443, -46.697853330027066, -47.152311062782324, -47.621424161391495, -48.09864844967679, -48.57943667137523, -49.06072766566653, -49.54057555775732, -50.01785636724832, -50.49202723618767, -50.962929106377565, -51.43062980307737, -51.89530666922166, -52.35717012826897])","array('d', [-74.45197296142578, -72.93601397065915, -71.44285033477858, -69.9677892801014, -68.50642144496345, -67.05475891862322, -65.60969288814258, -64.16904975630885, -62.731384760932144, -61.29580457840139, -59.86181353931212, -58.42918507697916, -56.997859772164375, -55.567869385737254, -54.13928465037514, -52.712179230299526])","array('d', [-44.983970642089844, -44.943147757147266, -44.917574213161444, -44.90318818271649, -44.89703250452577, -44.8968957422014, -44.901087655678396, -44.90829256826008, -44.917472901491884, -44.92780519985923, -44.938637524815064, -44.949461659995826, -44.95989603443132, -44.9696766150012, -44.978653729679976, -44.98679315156141])","array('d', [0.6307593584060665, 0.4959942673381237, 0.3740537592894235, 0.26371741497334117, 0.16679319470031154, 0.09615707886206101, 0.046290559302774925, 0.01265388229754725, -0.008588074281631242, -0.020687916353169803, -0.026373050736273124, -0.027876669221710018, -0.026958318618557575, -0.02491951884806612, -0.02261557856337144, -0.020463423568113263])","array('d', [-0.031918123364448464, -0.020757862237435976, -0.012487649757715939, -0.006337781822196159, -0.001782624315133625, 0.0015477748140742904, 0.003921657060601742, 0.005539219317385996, 0.006554257277749773, 0.007088752562458384, 0.007243220045687272, 0.0071043806632113985, 0.006751021629507382, 0.006258502394002468, 0.005702131209940246, 0.005159502065233052])","array('d', [-0.20364324649306742, -0.24346228248999988, -0.27293666534136013, -0.2939708888977376, -0.3079430905119374, -0.3164114843568869, -0.3209844823051431, -0.3228707379875783, -0.32299081743706176, -0.32203552788712675, -0.3205048475590724, -0.31874032903487143, -0.3169554093910812, -0.3152648795337817, -0.3137138086467893, -0.312306085893954])",-47.621424161391495,-67.05475891862322,-44.8968957422014,0.09615707886206101,0.0015477748140742904,-0.3164114843568869,15.218350629623508,-1.0,"[-70.79111186023376, -46.49473848849533, 44.948257402903636]","[-56.46466272622748, -42.62079065340979, 47.126647492342855]","[-59.79522632211826, -54.740772658881106, 38.94047730593831]",10000000000.0,0.01897740364074707
13,-70.50467681884766,-46.709564208984375,44.998695373535156,0.527538537979126,0.017342872917652012,-0.2401055534693855,22.921631680146515,"array('d', [-45.77358627319336, -46.13198291344752, -46.53902858208062, -46.98065739777011, -47.44557260197222, -47.92475763889612, -48.41171026658869, -48.90191592215129, -49.392340786411594, -49.881063105380896, -50.36698091414671, -50.84957178886457, -51.328695723402376, -51.80443825623653, -52.276993094383755, -52.746585752815335])","array('d', [-73.57071685791016, -72.05825213504026, -70.56879256215682, -69.09753438413456, -67.63998699833206, -66.19209467855673, -64.75070001641502, -63.31360076367697, -61.879337967395074, -60.44701430675773, -59.016136892154044, -57.58648603076647, -56.158011254922734, -54.7307539281595, -53.304794112317964, -51.88021386429095])","array('d', [-44.98600769042969, -44.94616840779087, -44.92134025744081, -44.90753897990039, -44.901857232326726, -44.90211585911201, -44.9066456786389, -44.91414483858032, -44.92358493858752, -44.93414873826471, -44.94518864668986, -44.956199632296986, -44.96680258749436, -44.9767354847365, -44.98585034502066, -44.994114393711534])","array('d', [0.6260305047035215, 0.4917154231758137, 0.37018210063394397, 0.2602141930304915, 0.16333956525252025, 0.09280423317270592, 0.0430823124061347, 0.00962393405050546, -0.011417023166636777, -0.02330373557033729, -0.028772896236088145, -0.030065236008000335, -0.028945920081661768, -0.026720168065058867, -0.02424515174278727, -0.02193792248982697])","array('d', [-0.031208386644720924, -0.020222015800336182, -0.012069250508494868, -0.0060002917726142595, -0.0015022610411814638, 0.0017865506262810648, 0.004129045841601249, 0.005721975348030363, 0.00671692985937378, 0.007234498254156796, 0.007374328538877451, 0.007222607667667766, 0.006857790984434408, 0.006355019791906834, 0.0057894396437954375, 0.0052385020102291594])","array('d', [-0.2119635780665536, -0.2514025739642062, -0.28057411730462073, -0.3013550083425701, -0.31509818099245424, -0.32334643782444006, -0.32770812328560084, -0.32939321583528614, -0.3293238335673802, -0.32819199529961135, -0.32649833211566426, -0.3245844780744053, -0.3226634734829438, -0.3208493682179424, -0.3191862854880951, -0.3176770940840049])",-47.92475763889612,-66.19209467855673,-44.90211585911201,0.09280423317270592,0.0017865506262810648,-0.32334643782444006,15.214358630777221,-1.0,"[-69.91923008185864, -46.775792373084805, 44.95832193885284]","[-55.55574416252175, -42.966769986556656, 47.003223086570806]","[-59.00527250762763, -55.30874200111853, 39.20729588141539]",10000000000.0,0.021779775619506836
14,-70.0678939819336,-46.8524284362793,45.00321578979492,0.5039267539978026,0.014271779917180398,-0.24395649035903397,22.885645647867122,"array('d', [-45.90085983276367, -46.264883392912076, -46.67685974427114, -47.122870566710986, -47.59171795993638, -48.0744510726574, -48.5646134894748, -49.05772542101336, -49.550781658148985, -50.04188534577956, -50.52995691956904, -51.01449443330188, -51.49537669885009, -51.972706539543104, -52.44669349323368, -52.91757724201889])","array('d', [-73.130859375, -71.6201609222385, -70.1324178150373, -68.66279035151818, -67.20676628382745, -65.7602760781542, -64.32015606661355, -62.884204436549034, -61.450967379489306, -60.01955566422608, -58.58948600298236, -57.16054875337666, -55.732703232905315, -54.30599990379183, -52.88052704046851, -51.45637485268274])","array('d', [-44.98683547973633, -44.94835719463248, -44.92458485503594, -44.91161991606646, -44.90661301275814, -44.90742524743211, -44.91241600306001, -44.9203041028362, -44.93007641507454, -44.94092717474799, -44.95221754123836, -44.96344922312064, -44.97424832404498, -44.98435682376887, -44.99362976692848, -45.00203656553459])","array('d', [0.6203631162643433, 0.4865873575891027, 0.3655420345886814, 0.2560156872697463, 0.1594765931677106, 0.0892457248192516, 0.03980957751807391, 0.006622699917924526, -0.014160377968556032, -0.025803711564354032, -0.03104519718259815, -0.0321264963436235, -0.030813195957730598, -0.028410386356674668, -0.025774603995302785, -0.023321828242347485])","array('d', [-0.030228523537516507, -0.01946136812653422, -0.011467031982400955, -0.005515009216086018, -0.0011049603491446384, 0.0021165020914573826, 0.004406648111772071, 0.00595833852642833, 0.006920423827462221, 0.00741152149701323, 0.007529827028905133, 0.007360426988975117, 0.006980915807956085, 0.0064657367983117576, 0.005889448780265343, 0.005328994027224219])","array('d', [-0.21599058707686886, -0.25496750327208273, -0.28377042392431406, -0.30424343200270654, -0.31771862982793975, -0.3257255378546155, -0.329866606320432, -0.331349172051502, -0.33109401441734665, -0.32979223524367257, -0.32794359656210703, -0.3258887898081935, -0.32383983428791235, -0.3219097192188943, -0.320141514029026, -0.31853708045798984])",-48.0744510726574,-65.7602760781542,-44.90742524743211,0.0892457248192516,0.0021165020914573826,-0.3257255378546155,15.21260814524133,-1.0,"[-69.15594643793837, -47.02991524696858, 44.97076143324188]","[-54.76109926417461, -43.27190503059123, 46.885372113664666]","[-58.31349676477411, -55.85689042980462, 39.536997157300505]",10000000000.0,0.03302764892578125
15,-70.0678939819336,-46.8524284362793,45.00321578979492,0.5039267539978026,0.014271779917180398,-0.24395649035903397,22.885645647867122,"array('d', [-46.16168212890625, -46.5362351436259, -46.956451108597065, -47.40888646114124, -47.88265975792629, -48.369040979829954, -48.8617282146907, -49.35635852562486, -49.85002285648561, -50.340908046163584, -50.82800971890568, -51.31089445597884, -51.7895038044115, -52.26399800129681, -52.734639021433125, -53.20171512522047])","array('d', [-72.25309753417969, -70.74609082849358, -69.26153192879096, -67.79456260142963, -66.34067719489417, -64.89583013085085, -63.45689140388631, -62.02169824659611, -60.58883912277611, -59.15746759963573, -57.727141450336234, -56.2976888649182, -54.869103044243175, -53.44146426765801, -52.01488682789656, -50.58948116734737])","array('d', [-44.989139556884766, -44.95479008678758, -44.934236811944665, -44.923826990569324, -44.9208796330685, -44.92337477847758, -44.9297579126677, -44.9388115619284, -44.949570683765906, -44.961266376690936, -44.97328834586587, -44.98516049090386, -44.996526098433414, -45.00714026218686, -45.01686773947358, -45.0256847574007])","array('d', [0.6002522110939026, 0.4683902565259451, 0.34907661532036227, 0.24111715886230223, 0.14604762481129757, 0.07708427987044525, 0.028777725927676263, -0.0033856776943499743, -0.023235352135922836, -0.034026609496900874, -0.038491525828501114, -0.03886675982514893, -0.03691288407053072, -0.03392979686615628, -0.030768789870357083, -0.027840754903488755])","array('d', [-0.02725814469158637, -0.017141198829345474, -0.009624401372319366, -0.00403041810416602, 0.00010649494540967316, 0.0031166395714549, 0.005241481039377342, 0.006662762212830525, 0.007521298680620099, 0.007929740143575033, 0.007981722996179825, 0.007758748826818158, 0.00733551033471852, 0.006784035957538006, 0.006176823891504384, 0.005589021657589365])","array('d', [-0.22398833831283055, -0.26133911697898327, -0.2888387563747767, -0.30822039743049534, -0.3207539323600495, -0.32792834379318664, -0.33132011923207105, -0.3321233343034055, -0.33125096281609223, -0.3293885285221309, -0.32703105635377366, -0.32451483341007814, -0.3220476898093165, -0.31973866356994646, -0.3176271574769666, -0.31571168225816443])",-48.369040979829954,-64.89583013085085,-44.92337477847758,0.07708427987044525,0.0031166395714549,-0.32792834379318664,15.209633705822025,-1.0,"[-68.61245735898456, -47.21470730588618, 44.98180884664399]","[-54.196612120229176, -43.489829906434494, 46.80079054289819]","[-57.819400816297964, -56.26125548242149, 39.81751832848026]",10000000000.0,0.027516603469848633
16,-69.18080139160156,-47.149051666259766,45.01675033569336,0.45106282830238326,0.008000008761882687,-0.25149647792312124,22.7975067757764,"array('d', [-46.43083953857422, -46.815317827605554, -47.24206724662616, -47.69832086331011, -48.17365017130343, -48.6596497215743, -49.15024687874307, -49.64125358979811, -50.129906025906784, -50.61451836165034, -51.094201124425076, -51.56862581402754, -52.03783004154605, -52.50206190018119, -52.96166354073683, -53.41699602278766])","array('d', [-71.37862396240234, -69.875587011779, -68.3939842216415, -66.92900302862962, -65.47620513637992, -64.03163163390167, -62.592243109393, -61.155963976387866, -59.721465955816434, -58.28797989760578, -56.85513313868115, -55.42281489138686, -53.991070948263676, -52.56002653324436, -51.12983435885584, -49.70063846538301])","array('d', [-44.99263000488281, -44.9643707844317, -44.94858286999223, -44.94196053405913, -44.94206355157827, -44.947044440445204, -44.955475387911896, -44.96623403151327, -44.97842809724389, -44.991345098562604, -45.00441879035248, -45.0172074749353, -45.02938108857676, -45.04071497229243, -45.05108871731277, -45.06048871670747])","array('d', [0.5687801837921141, 0.43991318593064127, 0.32330949379417817, 0.2178021006478984, 0.12519458106249176, 0.05832844715401163, 0.011862544085273681, -0.018659333097018692, -0.03703420429538533, -0.046496928683869426, -0.04976440850031163, -0.049060283371336375, -0.046133085980190475, -0.04227146592868735, -0.0383164901166916, -0.03467019712558654])","array('d', [-0.02287403866648669, -0.013702881864478652, -0.006888859668313434, -0.0018273160933652305, 0.0018999259469786114, 0.0045911647239323785, 0.006465701670258073, 0.007689448713344543, 0.008391565699258008, 0.008675862491756642, 0.008629074752156041, 0.008327165714268782, 0.007840266716966148, 0.007236561484170403, 0.006585243402597032, 0.005958575093630259])","array('d', [-0.23210720618697633, -0.2669758201684161, -0.29246745092837056, -0.3101568924735329, -0.32122946184184115, -0.3271182583416068, -0.3293585335739202, -0.3291224320819318, -0.3273094241327582, -0.3245951360197231, -0.3214662492828044, -0.31825150875054664, -0.3151518095524285, -0.31226985524066014, -0.30963932699689384, -0.30725360089870485])",-48.6596497215743,-64.03163163390167,-44.947044440445204,0.05832844715401163,0.0045911647239323785,-0.3271182583416068,15.207228384109825,-1.0,"[-68.61245735898456, -47.21470730588618, 44.98180884664399]","[-54.196612120229176, -43.489829906434494, 46.80079054289819]","[-57.819400816297964, -56.26125548242149, 39.81751832848026]",10000000000.0,0.022516727447509766
17,-68.31814575195312,-47.44500732421875,45.036827087402344,0.39504671096801747,0.0020680301822720813,-0.2584894140574592,22.69098850382818,"array('d', [-46.56846237182617, -46.95766130251874, -47.38709613308471, -47.844390820981744, -48.31938034716078, -48.8038504282439, -49.29186493107341, -49.779341163307755, -50.26360376239677, -50.74304513747063, -51.21684681001804, -51.68474530939115, -52.1468378744648, -52.60342715695735, -53.05490509866071, -53.50167807978786])","array('d', [-70.94286346435547, -69.44189030009501, -67.96167973195524, -66.49746347117322, -65.04485715770008, -63.59996574519404, -62.15981394247719, -60.72238602213318, -59.286409340623656, -57.85116521571685, -56.41632551754642, -54.981817844312786, -53.547720561255794, -52.11418635848043, -50.68139117274377, -49.24949883694004])","array('d', [-44.99530792236328, -44.97071471875386, -44.95779950946034, -44.953460835861804, -44.95540139260355, -44.96187690177583, -44.97153593597619, -44.98331387197464, -44.99636287473137, -45.010005072343276, -45.02370133559992, -45.03703117878704, -45.04968096633737, -45.06143849055094, -45.07219241481172, -45.08193528337028])","array('d', [0.5492323040962218, 0.4222255313372907, 0.30730504063260755, 0.20332067126493178, 0.11226222682106292, 0.046715483129355515, 0.0014052242700017925, -0.02808919418442685, -0.04554421190951563, -0.05418124175723008, -0.05670690350453121, -0.05533589871995795, -0.051808522515155046, -0.04740583006754814, -0.04296212139225494, -0.0388737385148434])","array('d', [-0.0202322099357842, -0.011627819308775678, -0.005237416512493341, -0.0004983676212347482, 0.002979839499233762, 0.005476769581507419, 0.007198653358543048, 0.008301987228327787, 0.00890893413631966, 0.009117946430391356, 0.00901153868931676, 0.008662258198038635, 0.008137403546147426, 0.0075027584493406385, 0.006825446365500661, 0.006175919742014971])","array('d', [-0.23616830905410244, -0.26953329428358525, -0.29379762553975913, -0.31044628517437206, -0.32061693519343915, -0.3257109979460299, -0.3272393764170929, -0.32636107469205755, -0.3239672978084176, -0.3207274821810388, -0.3171230245353906, -0.3134778793627967, -0.30998855339924464, -0.3067537686319711, -0.303803636583178, -0.3011283504586361])",-48.8038504282439,-63.59996574519404,-44.96187690177583,0.046715483129355515,0.005476769581507419,-0.3257109979460299,15.206215819218885,-1.0,"[-67.29719554388386, -47.674884049849666, 45.018297251575504]","[-52.835063459918004, -44.01652080342456, 46.58772834057925]","[-56.61927383146151, -57.257063937378845, 40.64064759606278]",10000000000.0,0.019545316696166992
18,-67.88931274414062,-47.594512939453125,45.04963302612305,0.3660454750061034,-0.0007222854183056409,-0.26189462741347763,22.630779912586075,"array('d', [-46.709564208984375, -47.10317292390102, -47.534811408890405, -47.99251440939054, -48.46639542529857, -48.94844375416969, -49.43286997279036, -49.91570582918253, -50.39437296925199, -50.86735021196471, -51.33389786177755, -51.79382480568675, -52.24729471556972, -52.69467105722823, -53.13640127680131, -53.57294223996333])","array('d', [-70.50467681884766, -69.00575954088585, -67.5268403664961, -66.0632085551474, -64.61054607825626, -63.16503396740578, -61.72377223870671, -60.28481477889938, -58.84695295694245, -57.40952555818742, -55.97225466224273, -54.53511073544636, -53.09820818969888, -51.6617298550209, -50.22587696440473, -48.79083487421911])","array('d', [-44.998695373535156, -44.978107815655285, -44.96833373464884, -44.96649188280944, -44.97043993727016, -44.97854611743147, -44.98954264367213, -45.00242837515236, -45.016404493534594, -45.03083139858594, -45.045199987203276, -45.0591132761066, -45.072275824237465, -45.084489191342875, -45.09565203769822, -45.10576363930163])","array('d', [0.527538537979126, 0.40259619823940124, 0.2895436839473676, 0.18724952969053418, 0.09791291982981355, 0.033835370436816316, -0.010187436981219124, -0.03853769388126058, -0.05496936033660997, -0.06268891389017617, -0.06439134055887924, -0.062281102653605494, -0.058089016370931744, -0.05308741156125352, -0.048102860552256335, -0.04352527208448054])","array('d', [-0.017342872917652012, -0.009356772243776786, -0.0034301339476056495, 0.0009548995641495984, 0.004159217158713823, 0.006442223524353446, 0.007996008741685877, 0.00896682647245661, 0.009469185424870899, 0.009595645611139427, 0.009424056610555745, 0.009023174990464101, 0.008457145593010572, 0.007789073831582101, 0.007083769603673326, 0.006409660294968699])","array('d', [-0.2401055534693855, -0.2718338386954871, -0.29475302305437084, -0.31025536264916925, -0.31942922140320296, -0.32364317286875804, -0.324382482736066, -0.32279220780475837, -0.3197546501435283, -0.3159324580023449, -0.311801153431432, -0.3076793305192097, -0.30375857830275604, -0.30013316377381566, -0.29682921580305943, -0.293833386736294])",-48.94844375416969,-63.16503396740578,-44.97854611743147,0.033835370436816316,0.006442223524353446,-0.32364317286875804,15.20534744058983,-1.0,"[-66.44046136394738, -47.98287939564604, 45.0507164541563]","[-51.9512080674279, -44.36282921766529, 46.44956441523038]","[-55.83487262935702, -57.89047948849263, 41.26113230903481]",10000000000.0,0.026546955108642578
19,-67.03668212890625,-47.895626068115234,45.080780029296875,0.30719724297523493,-0.005474047735333553,-0.2683186968180798,22.50338225633061,"array('d', [-46.8524284362793, -47.25021346694854, -47.68368065541844, -48.14128715474808, -48.61343476453626, -49.092324918360596, -49.5723226819625, -50.04958178525629, -50.52162838152697, -50.98703511499027, -51.44514826716181, -51.89585591475419, -52.3393945343986, -52.77619427167558, -53.206763434658036, -53.631614031680535])","array('d', [-70.0678939819336, -68.57103704195356, -67.09333522723163, -65.63014669371557, -64.17723039741982, -62.730853809020594, -61.28820189343074, -59.84740678489558, -58.407331385159786, -56.96737826816914, -55.527324845979564, -54.08718847305232, -52.64712268584376, -51.20734277912891, -49.76807703772201, -48.32953439986299])","array('d', [-45.00321578979492, -44.986881039757506, -44.98044299864404, -44.98125168413171, -44.98732845423975, -44.99716091204712, -45.00957041552148, -45.02362371135448, -45.03857454401006, -45.05382443555702, -45.068896584596196, -45.08341930138085, -45.09711671552222, -45.10980517002098, -45.12139402122412, -45.13188968995178])","array('d', [0.5039267539978026, 0.3812313706523672, 0.27021198676743463, 0.16975748514925568, 0.08228866916459913, 0.01980974637602643, -0.02280980289812825, -0.04991208226024652, -0.06522749836412071, -0.071946673387761, -0.07275201421542879, -0.069836739500324, -0.06492116494308724, -0.059267926147315846, -0.05369502273970588, -0.04858527013771176])","array('d', [-0.014271779917180398, -0.006942189219677671, -0.0015094998298152377, 0.002497627146155916, 0.005409149301192386, 0.007463316444690954, 0.008837304908774725, 0.009666510652040538, 0.010057288326997134, 0.010095891771828238, 0.009855157399589733, 0.009399753951422464, 0.008790415665710647, 0.008087344957608555, 0.007352839581659778, 0.006653124901105777])","array('d', [-0.24395649035903397, -0.2739392352061678, -0.29541334400197405, -0.3096777691216483, -0.3177709207977104, -0.32102805995916045, -0.32090832696604915, -0.31854247441274536, -0.31480353211197304, -0.3103469289617999, -0.30564183054631394, -0.3010009733250598, -0.29661055071515185, -0.2925599393759667, -0.2888709024013922, -0.2855262167947398])",-49.092324918360596,-62.730853809020594,-44.99716091204712,0.01980974637602643,0.007463316444690954,-0.32102805995916045,15.204594767757659,-1.0,"[-66.44046136394738, -47.98287939564603, 45.0507164541563]","[-51.9512080674279, -44.362829217665286, 46.44956441523038]","[-55.83487262935702, -57.89047948849262, 41.26113230903481]",10000000000.0,0.017281770706176758
20,-66.61287689208984,-48.046836853027344,45.09906768798828,0.2779592573642729,-0.00736743630841386,-0.2713013132426403,22.435860258904704,"array('d', [-47.149051666259766, -47.55465987482908, -47.99086610168912, -48.446990328238606, -48.9140297344339, -49.38462788843073, -49.85347785233584, -50.3169980040761, -50.772945453498764, -51.22010296259897, -51.65801095794484, -52.086737148586835, -52.50668350472265, -52.918431842793105, -53.32262890298205, -53.71991298975683])","array('d', [-69.18080139160156, -67.68812185532197, -66.21269388098695, -64.7500460499139, -63.296121856698214, -61.847390750116226, -60.40123505631573, -58.95596868493123, -57.51061992842958, -56.0647377830597, -54.618225552731325, -53.171206200939366, -51.72392041993928, -50.27665498959324, -48.829697070206045, -47.38330335123333])","array('d', [-45.01675033569336, -45.0090838401173, -45.00944412968315, -45.01564677788841, -45.02604519440116, -45.039370791763666, -45.05462804329081, -45.07102387434648, -45.087921014098406, -45.10480651300171, -45.12127088555687, -45.13699519081896, -45.15174433893497, -45.16536538740937, -45.177789773605475, -45.18903849047326])","array('d', [0.45106282830238326, 0.33339810839436057, 0.22693065751679148, 0.13059491586422228, 0.04726142845218986, -0.011655675748512217, -0.05113563590258783, -0.0754387476496163, -0.08824731248713302, -0.09271899301453257, -0.09150920672204839, -0.08678631707587446, -0.08024696917389855, -0.07313172871394849, -0.06623902789378054, -0.059935556400044165])","array('d', [-0.008000008761882687, -0.002012184760925277, 0.0024068071351913507, 0.0056360548262765564, 0.007943768151850574, 0.009525687195177662, 0.010528814903969595, 0.011066425825682735, 0.011228144033649249, 0.011087195071824969, 0.010705991438878803, 0.010140652301526009, 0.009444741915710436, 0.008672332609175317, 0.007880397246608623, 0.007130478712080766])","array('d', [-0.25149647792312124, -0.2776931787239472, -0.29599656154324633, -0.3075220586824559, -0.3132080839554557, -0.31432337449827247, -0.3122753627787282, -0.3081662719970345, -0.30285013160680396, -0.29696698402024624, -0.2909719961130935, -0.28516475005763303, -0.27971921102632713, -0.27471364101286666, -0.27015988722315326, -0.2660319520394317])",-49.38462788843073,-61.847390750116226,-45.039370791763666,-0.011655675748512217,0.009525687195177662,-0.31432337449827247,15.203356754895621,-1.0,"[-65.5903768130141, -48.29328611413277, 45.0889910598922]","[-51.07670513101563, -44.70688832287179, 46.31009105170036]","[-55.05330559119098, -58.486475307889634, 41.91581849501251]",10000000000.0,0.018241167068481445
21,-66.1884765625,-48.19867706298828,45.12059783935547,0.24922782182693468,-0.008919489569962165,-0.27412335475417576,22.36786612476467,"array('d', [-47.29646301269531, -47.70561226025256, -48.14278495521834, -48.597711235697766, -49.061674569848535, -49.52753286279009, -49.99014149461362, -50.44605300648243, -50.89314393648257, -51.330307204446534, -51.75718587113647, -52.173943025123464, -52.58106867411699, -52.97922535497226, -53.36913346431963, -53.75149827637802])","array('d', [-68.7486572265625, -67.25800081992573, -65.78360253747073, -64.32108553582005, -62.86649401924592, -61.41640566809235, -59.96830842297752, -58.520613830410944, -57.072438865522976, -55.623410645441496, -54.17349915729476, -52.72288280382384, -51.27184755371374, -49.820716893882405, -48.36980784814745, -46.91940164810244])","array('d', [-45.025814056396484, -45.022269215620774, -45.025860054284756, -45.03462117312402, -45.04706344639599, -45.062034687525596, -45.078627302852844, -45.09611586296598, -45.11391589099218, -45.13155598380533, -45.148659410118995, -45.16493290677459, -45.18016121479491, -45.19420628014182, -45.20701017065368, -45.21860078714209])","array('d', [0.4234590530395506, 0.30842117739831953, 0.20433059372186435, 0.1101455306566475, 0.02893830047040806, -0.028133741491535143, -0.06597877911803356, -0.08881915408893128, -0.10031499070805192, -0.10360849087587794, -0.10134192078569579, -0.09567107716011558, -0.088280337037934, -0.08039866920744576, -0.07281416225681021, -0.06588498453907195])","array('d', [-0.005011224187910478, 0.0003356980673053268, 0.004268587533146843, 0.007123802342616025, 0.009140740432272778, 0.010495164095329983, 0.011319793549334873, 0.011717356976491842, 0.011769446622624325, 0.011542992652861708, 0.01109534072533613, 0.010478432301198866, 0.009742311699157126, 0.00893802927553258, 0.008119922953162387, 0.007347210553412763])","array('d', [-0.2550397356364391, -0.27931909562927115, -0.2959982309779867, -0.3061089547683119, -0.3105429985755946, -0.3105382547092261, -0.3074788172622882, -0.30245396040117045, -0.296308800200337, -0.28967580376699664, -0.2830029744504299, -0.2765830097841124, -0.2705834050379914, -0.26507651783125075, -0.26006892685319555, -0.25552997910405606])",-49.52753286279009,-61.41640566809235,-45.062034687525596,-0.028133741491535143,0.010495164095329983,-0.3105382547092261,15.202860920068442,-1.0,"[-65.16778164330358, -48.44880401105157, 45.110118742476686]","[-50.643053889811505, -44.87744858400703, 46.24047448323108]","[-54.66272547005379, -58.765986967986066, 42.246636486550024]",10000000000.0,0.023552894592285156
