,x_pos,y_pos,z_pos,roll,pitch,yaw,vel,x_traj,y_traj,z_traj,roll_traj,pitch_traj,yaw_traj,x_cmd,y_cmd,z_cmd,roll_cmd,pitch_cmd,yaw_cmd,vel_cmd,effector_dmg,effector_x,effector_y,effector_z,cost,time_solution
0,-80.51473236083984,-44.00679397583008,44.943389892578125,0.6304420232772825,0.032401077449321664,-0.14274661143752568,23.112710265692062,"array('d', [-44.00679397583008, -44.39445353905188, -44.834835829493485, -45.31328137305712, -45.81793012317658, -46.33942457007069, -46.87098167481635, -47.40786612570931, -47.946875846301985, -48.48596002724572, -49.02391384321101, -49.560128077412976, -50.094385344040035, -50.62669959040288, -51.15719726794288, -51.58015018723923])","array('d', [-80.51473236083984, -78.0458512070984, -75.58519750656396, -73.13145303429484, -70.68293115883674, -68.23797450660082, -65.79523411420406, -63.353701742582174, -60.91266708722783, -58.47166359680022, -56.03041218838951, -53.588768923240345, -51.146680084409745, -48.70414617476891, -46.261195181515, -44.30631184528333])","array('d', [-44.943389892578125, -44.88085333201138, -44.84895149227927, -44.83832910503044, -44.84252864431806, -44.85698754948474, -44.87840599774303, -44.90434095135909, -44.93294194482985, -44.962778789456266, -44.99273134147826, -45.02192301243226, -45.04968636681941, -45.07555288689146, -45.099260873942896, -45.11647471194806])","array('d', [0.6304420232772825, 0.4957071307717048, 0.3737939476534182, 0.26348232854513776, 0.17004570548937678, 0.1017674223021788, 0.05336322751571086, 0.020490721838265512, -0.0005123172908114002, -0.01274779199766714, -0.018815202735523225, -0.02084327443975996, -0.020510458256467124, -0.019059889964968737, -0.017310304183099822, -0.015663012360653063])","array('d', [-0.032401077449321664, -0.017876137895400875, -0.007813991693702858, -0.0008009527507248654, 0.004079178686971867, 0.007432082127133815, 0.00966562948440641, 0.01105945526700645, 0.011809329575900524, 0.012056587885963319, 0.011908497280407606, 0.011452969296426923, 0.010769571441557577, 0.009937888390607628, 0.009043702828109722, 0.008183081148654705])","array('d', [-0.14274661143752568, -0.1675077121110469, -0.18570925076790523, -0.19862830610832508, -0.20724446327677512, -0.21258988439542165, -0.2156243297248547, -0.21706336057260286, -0.21744848937099678, -0.21718431409883943, -0.21656300846093307, -0.21578414282913763, -0.2149727759236119, -0.21419677919931995, -0.21348368997205405, -0.21267569628865166])",-46.33942457007069,-68.23797450660082,-44.85698754948474,0.1017674223021788,0.007432082127133815,-0.21258988439542165,25.00000024341369,-1.0,"[-79.4794338048052, -44.12002778141264, 44.89454744978963]","[-65.58727041858502, -39.29675195468253, 47.85154030568978]","[-67.65226380888329, -51.33728408026634, 39.14743848925814]",10000000000.0,0.015227556228637695
1,-80.06539916992188,-44.10210418701172,44.94354248046875,0.6305304169654846,0.03201337158679957,-0.14728920062514772,23.112900476149235,"array('d', [-44.10210418701172, -44.50098407171882, -44.95255690188353, -45.4421682578535, -45.957960749674406, -46.49056470321411, -47.03318682779951, -47.581086363409014, -48.13105906428056, -48.68105430095191, -49.22986907828834, -49.776897082229304, -50.32192442289677, -50.8649687571401, -51.406160183263985, -51.83763956147975])","array('d', [-80.06539916992188, -77.59828492789995, -75.13965254029195, -72.68810966772296, -70.24191164247206, -67.79935284162183, -65.35904897994756, -62.91996754279217, -60.481382211497476, -58.04281660208543, -55.6039863038025, -53.164745177371294, -50.72503931907704, -48.28487019273363, -45.844267262877025, -43.891248133546085])","array('d', [-44.94354248046875, -44.881827923592425, -44.85051746018039, -44.8403468526078, -44.84491274396093, -44.85968433325059, -44.881379965497295, -44.90756661345129, -44.936399037180095, -44.96644958900578, -44.996599287607104, -45.02597212934584, -45.05390115700895, -45.07991847228807, -45.103763229104345, -45.12107613692665])","array('d', [0.6305304169654846, 0.49578711269392667, 0.3738663182917324, 0.2635478121865116, 0.1698547237393115, 0.10140462386922913, 0.052893717640630104, 0.01996443671429053, -0.0010580583791892795, -0.01328637669526236, -0.01932901421146291, -0.021322039528393438, -0.0209496310597629, -0.019459076930077836, -0.017671734478830737, -0.015990048045853477])","array('d', [-0.03201337158679957, -0.017604095407613218, -0.007611727787292694, -0.0006410816484380749, 0.004212827380959129, 0.007548866398383881, 0.009770794487458224, 0.011155803745787719, 0.011898261238395966, 0.012138747219134419, 0.011984174737689007, 0.011522343565519143, 0.01083284578407039, 0.00999535362774249, 0.009095748767278767, 0.00823017426608776])","array('d', [-0.14728920062514772, -0.1720549331652019, -0.19026011020607608, -0.20318216621823826, -0.21179568893097545, -0.21712999273174524, -0.22014797531460925, -0.22156742281440844, -0.2219315094219403, -0.2216460607142291, -0.22100410977609747, -0.22020577340454545, -0.2193764016477807, -0.21858396281695874, -0.21785595759703727, -0.2170310906309773])",-46.49056470321411,-67.79935284162183,-44.85968433325059,0.10140462386922913,0.007548866398383881,-0.21712999273174524,25.0000002433566,-1.0,"[-79.03076817022796, -44.2200754573942, 44.8947967798621]","[-65.1128538886443, -39.45029646707211, 47.817273543494515]","[-67.24566870428556, -51.48431667030387, 39.12052364997735]",10000000000.0,0.014695405960083008
2,-79.61802673339844,-44.199161529541016,44.94404602050781,0.6305879354476926,0.0316336713731288,-0.1518049677226208,23.11139412437599,"array('d', [-44.199161529541016, -44.609185362622696, -45.071867922978655, -45.57256084889977, -46.09941015330813, -46.64303480811557, -47.196631888021464, -47.75545560483716, -48.3162998296058, -48.8771143036209, -49.43669798461126, -49.9944475361241, -50.55015260721791, -51.10383458768954, -51.65562723557098, -52.09555897716326])","array('d', [-79.61802673339844, -77.15271972380035, -74.6961463554444, -72.24684085679903, -69.80300100561868, -67.36287321575529, -64.92503808497422, -62.48843898411042, -60.05233370708214, -57.61623613710478, -55.179856614448475, -52.74304686202381, -50.30575283983637, -47.86797701412349, -45.42975036174975, -43.478617794408564])","array('d', [-44.94404602050781, -44.88313665922948, -44.85240587957183, -44.84267864550108, -44.84760462717878, -44.86268405991872, -44.88465299200904, -44.91108810532908, -44.94014918937772, -44.97041101078398, -45.00075567059332, -45.03030770136897, -45.058400596222846, -45.08456706077439, -45.10854709183846, -45.12595798546709])","array('d', [0.6305879354476926, 0.4958391575719997, 0.3739134104450242, 0.26359042290829177, 0.16964703682186313, 0.1010296606180035, 0.05241535575865069, 0.01943167455833658, -0.0016086142122099573, -0.013828644645481149, -0.019845759333937816, -0.021803249567774755, -0.021390925459128886, -0.019860156021183593, -0.01803487330618066, -0.016318629674532643])","array('d', [-0.0316336713731288, -0.017337545503808303, -0.007413354321873657, -0.0004840627189845408, 0.0043443075099773324, 0.007663939183561558, 0.009874558572864523, 0.011250966443794261, 0.011986160225084821, 0.012219987274382456, 0.012059021715823837, 0.0115909616882119, 0.010895430305349306, 0.01005219091000069, 0.00914722527351642, 0.008276752139251102])","array('d', [-0.1518049677226208, -0.1765737145226113, -0.19478125922853115, -0.20770526787546986, -0.21631534297811686, -0.22163795443056342, -0.22463906146428111, -0.2260386259047962, -0.22638144950027445, -0.22607456081792354, -0.2254118346101621, -0.22459392169237807, -0.2237464552034255, -0.22293749527976275, -0.22219450324618395, -0.22135268304069264])",-46.64303480811557,-67.36287321575529,-44.86268405991872,0.1010296606180035,0.007663939183561558,-0.22163795443056342,25.0000002432986,-1.0,"[-78.58240061260169, -44.3221272328845, 44.89553062494193]","[-64.63914113908831, -39.60645229140331, 47.784808233716454]","[-66.83937159781607, -51.63253517315139, 39.09387523145413]",10000000000.0,0.016474485397338867
3,-78.2772445678711,-44.50291061401367,44.94598388671875,0.6301567554473877,0.030821181833743983,-0.1657669981333873,23.10934620173419,"array('d', [-44.39955139160156, -44.832459967420306, -45.31793797580882, -45.84135336385877, -46.390862030312135, -46.95706253653721, -47.533134396794665, -48.11432307978612, -48.69741973540173, -49.28037569958688, -49.861994545408436, -50.441679490999974, -51.01922777676635, -51.5946687046, -52.16814374530156, -52.62536121135459])","array('d', [-78.72396087646484, -76.26253930778941, -73.8103581317435, -71.36580495237233, -68.92696137738992, -66.49197612578332, -64.0593580686941, -61.628001312549536, -59.1971312303709, -56.7662419060963, -54.33503308275728, -51.90335227072661, -49.47114532137048, -47.03841692154793, -44.605201304517465, -42.65804681876856])","array('d', [-44.94528579711914, -44.885580168058134, -44.855716040196725, -44.84666342200234, -44.852155101400975, -44.867737313125076, -44.890170050662555, -44.91704111889419, -44.94651429159854, -44.97716468076447, -45.007873234900536, -45.03776311669625, -45.06616695162915, -45.092617418844654, -45.116855401988964, -45.13445320129813])","array('d', [0.6305623650550841, 0.4958160205195142, 0.37389247516744606, 0.2635714798831944, 0.16913506530026998, 0.10019016502979654, 0.05137580257510854, 0.018289852961199927, -0.002779707230039549, -0.014977111086167616, -0.020937452223219702, -0.022818516306373562, -0.022321408955516927, -0.020705673953906968, -0.01880038736133714, -0.017011295498344643])","array('d', [-0.031064311042427913, -0.016940743035893296, -0.007115135052017412, -0.00024165314527541625, 0.0045549868029893595, 0.007855804611698627, 0.010053960088635986, 0.011420513079594177, 0.012146461332737862, 0.012370723008097845, 0.012199592718771171, 0.011720868514501014, 0.011014472683432369, 0.01016054162663638, 0.009245415344239635, 0.008365598182901031])","array('d', [-0.16109363635512824, -0.18586104311091564, -0.20406753523481427, -0.21699067581143922, -0.22558972635109686, -0.23088523706506675, -0.23384919582835792, -0.23520587225756753, -0.23550330221303536, -0.2351509074116218, -0.23444423438623996, -0.2335849890713816, -0.2326993560997617, -0.23185556336792537, -0.2310809772328799, -0.23020341810476466])",-46.95706253653721,-66.49197612578332,-44.867737313125076,0.10019016502979654,0.007855804611698627,-0.23088523706506675,25.00000024317177,-1.0,"[-77.24409650661548, -44.6400319822333, 44.898696824392324]","[-63.22569216900675, -40.08684588831629, 47.68308835962465]","[-65.63049807532414, -52.08948105444359, 39.013967434076015]",10000000000.0,0.02368760108947754
4,-77.83085632324219,-44.60844802856445,44.94679641723633,0.6286182999610901,0.030308591201901405,-0.1703890999171398,23.110570806898583,"array('d', [-44.50291061401367, -44.94729242087125, -45.44415266920981, -45.97887685442209, -46.53963222120857, -47.11701220704176, -47.70419125804947, -48.296413243276085, -48.89047015860207, -49.48431596851056, -50.076758113452904, -50.66720443952686, -51.25545716642496, -51.84155059966668, -52.425631001952006, -52.89129545462789])","array('d', [-78.2772445678711, -75.8178557289535, -73.36795082851411, -70.92584528101673, -68.48956357050388, -66.05720636865887, -63.62724739590629, -61.19855678269426, -58.770344295733025, -56.34209466807835, -53.91350283414052, -51.48441462917534, -49.05477622630511, -46.62459375032989, -44.193903349758706, -42.24875166142414])","array('d', [-44.94598388671875, -44.88679157052107, -44.85729758627108, -44.84853677933394, -44.85427825266965, -44.870087614298335, -44.89273429062564, -44.91980985033084, -44.9494787764633, -44.98031543354826, -45.01119953293183, -45.041253079408314, -45.06980793007854, -45.09639652027375, -45.12076002677073, -45.138448788180725])","array('d', [0.6301567554473877, 0.4954490097347202, 0.37356039004279057, 0.2632709967862182, 0.1686249868380186, 0.0995464633055278, 0.050657359571959694, 0.017541864735132525, -0.003523690254726851, -0.015693555150366096, -0.021611289894605493, -0.023441595415368194, -0.022890949581245542, -0.021222756820174042, -0.019268485749364954, -0.017434848473503628])","array('d', [-0.030821181833743983, -0.016771859634630747, -0.006987197641642457, -0.0001357715830052473, 0.004649136770398402, 0.00794348611506743, 0.010137505589709985, 0.0115006275198649, 0.012223019907257784, 0.012443257169932897, 0.012267581242406523, 0.01178390378101704, 0.011072344000173472, 0.01021326086858451, 0.009293201827720702, 0.008408837185097374])","array('d', [-0.1657669981333873, -0.19051315404448302, -0.20870295252417778, -0.22161232490267813, -0.23019465504776354, -0.2354670725784027, -0.23840412678741052, -0.23973198606653087, -0.24000014224475455, -0.23961910003918138, -0.2388851543936013, -0.2380004676340641, -0.23709144075413466, -0.23622633552086766, -0.23543242842915518, -0.2345330150572338])",-47.11701220704176,-66.05720636865887,-44.870087614298335,0.0995464633055278,0.00794348611506743,-0.2354670725784027,25.00000024310828,-1.0,"[-76.7985090788872, -44.750306356740076, 44.8997594332293]","[-62.755305375878564, -40.250553642570985, 47.645784791293686]","[-65.2292628031426, -52.248400586734505, 38.98950364102418]",10000000000.0,0.015474081039428711
5,-77.83085632324219,-44.60844802856445,44.94679641723633,0.6286182999610901,0.030308591201901405,-0.1703890999171398,23.110570806898583,"array('d', [-44.60844802856445, -45.06409397375807, -45.571997286853765, -46.117587596473264, -46.68906125637249, -47.27702028818007, -47.874643962680274, -48.47718195001691, -49.08143305276409, -49.68535889736355, -50.28777516123286, -50.88809817070716, -51.486138551721865, -52.08193868084134, -52.67565237177339, -53.148964788429595])","array('d', [-77.83085632324219, -75.37350248541635, -72.92585327187363, -70.48615000701068, -68.05236121659127, -65.62254210511485, -63.19513397181322, -60.7689854856243, -58.34329302840393, -55.91753388243276, -53.49139975877262, -51.06473611866114, -48.63749051898505, -46.20967139594134, -43.781317546409014, -41.83801273085644])","array('d', [-44.94679641723633, -44.8886971362539, -44.85999640051556, -44.85183935296291, -44.85806255567888, -44.874272778122254, -44.89726441965892, -44.92464408886528, -44.954585281235815, -44.98566779825449, -45.01677475143148, -45.04703046282595, -45.07576859370076, -45.10252318023083, -45.12703692678138, -45.14483446446131])","array('d', [0.6286182999610901, 0.4940569575175999, 0.3723008089918174, 0.2621312805978944, 0.167380509963519, 0.09825418883016424, 0.049362614626755036, 0.016279507421643795, -0.004728373712382276, -0.016823831098248476, -0.022657768378815273, -0.02440088981938995, -0.023764286194474446, -0.022014594641335226, -0.019985175705758293, -0.0180833364218944])","array('d', [-0.030308591201901405, -0.016407296680197497, -0.006715564256369241, 7.659516045967786e-05, 0.004822800567477645, 0.00809095458600848, 0.010266331764463649, 0.011615338822021327, 0.012326327302955312, 0.01253681543417268, 0.012352464436348055, 0.011860895934141804, 0.011142106258496895, 0.010276413511276047, 0.009350347197331323, 0.008460544458413183])","array('d', [-0.1703890999171398, -0.19505474750817112, -0.21318127746271723, -0.22603845405487927, -0.23457172189762732, -0.23979344486053136, -0.24267945128728124, -0.24395709068397065, -0.24417685868053024, -0.24375002356463146, -0.24297338154632142, -0.24204934918056525, -0.24110437415192762, -0.24020660836943752, -0.2393831159668395, -0.23845024146197114])",-47.27702028818007,-65.62254210511485,-44.874272778122254,0.09825418883016424,0.00809095458600848,-0.23979344486053136,25.00000024304513,-1.0,"[-76.7985090788872, -44.750306356740076, 44.8997594332293]","[-62.755305375878564, -40.250553642570985, 47.645784791293686]","[-65.2292628031426, -52.248400586734505, 38.98950364102418]",10000000000.0,0.012851953506469727
6,-77.38475036621094,-44.71620559692383,44.94765090942383,0.6252443194389341,0.029533877968787977,-0.1748687465998788,23.113927621177133,"array('d', [-44.71620559692383, -45.18263644705618, -45.700896359572475, -46.25650095510525, -46.83770366216335, -47.43513673854644, -48.041999934305665, -48.653560467310236, -49.266633448604864, -49.87919622615253, -50.49007973872487, -51.0987150054043, -51.704926597994216, -52.30876993038852, -52.910410838530105, -53.38997169194373])","array('d', [-77.38475036621094, -74.92938053434119, -72.48388855294199, -70.0464430518994, -67.6149609242285, -65.18745761241684, -62.762347343816124, -60.3384619574278, -57.914988387267435, -55.491399742602226, -53.067387188818316, -50.642797972268696, -48.21758276949241, -45.791753738434025, -43.3653534981629, -41.42358134354166])","array('d', [-44.94765090942383, -44.891209746618145, -44.86371625825455, -44.85646867354751, -44.863400554193056, -44.88018072552451, -44.903643664327504, -44.93142214434034, -44.9617069924271, -44.99308973380134, -45.0244616527414, -45.05495299672534, -45.08390191261253, -45.110845955214614, -45.135530624566286, -45.153451825845906])","array('d', [0.6252443194389341, 0.49100405341639586, 0.36953842687524785, 0.2596317736556585, 0.16494641759874704, 0.09591157956519412, 0.04713478203822982, 0.014184500238244151, -0.0066787092176363696, -0.018623819187338967, -0.024307247576298787, -0.025904214054406828, -0.025129182669744607, -0.023250998415766194, -0.02110409757698748, -0.019095778890510482])","array('d', [-0.029533877968787977, -0.015851493101433387, -0.006303111204468991, 0.0003933145877825955, 0.0050741168903999795, 0.008296373001330654, 0.01043852171267388, 0.011762632218265009, 0.012454300697968225, 0.012649298667513074, 0.012452183303239404, 0.011949876205291608, 0.011221918183026673, 0.010348307292526487, 0.009415313850245707, 0.008519328722153208])","array('d', [-0.1748687465998788, -0.1993583550385555, -0.2173464042638435, -0.23008925514089945, -0.23852113574008377, -0.2436474964738781, -0.24644337775221645, -0.24763615381260917, -0.24777659483528253, -0.24727621654404694, -0.2464319163021426, -0.24544603717462019, -0.24444479835575939, -0.2434960088294919, -0.24262632184098268, -0.24164120471229708])",-47.43513673854644,-65.18745761241684,-44.88018072552451,0.09591157956519412,0.008296373001330654,-0.2436474964738781,25.00000024298422,-1.0,"[-75.90827045602292, -44.97706012147165, 44.90335653242066]","[-61.817306729281874, -40.57749822470884, 47.56579833802336]","[-64.42585197476008, -52.59942231806997, 38.98274335767072]",10000000000.0,0.013139009475708008
7,-76.49335479736328,-44.93849182128906,44.949764251708984,0.6106051802635191,0.027049478143453504,-0.18376330932113136,23.12394099731599,"array('d', [-44.93849182128906, -45.425799378816265, -45.963200953542106, -46.53655766991515, -47.13435360900684, -47.747370476250865, -48.36891347826661, -48.99433389145861, -49.620519554630675, -50.245513696667324, -50.86820811129477, -51.4880902572704, -52.10503687440657, -52.71915130779489, -53.330643164432566, -53.81774493190641])","array('d', [-76.49335479736328, -74.04192001388085, -71.6005190726809, -69.16717948073702, -66.73973003332213, -64.31612738849681, -61.89475158435515, -59.474418571471524, -57.054311939715326, -54.63390977512108, -52.21291334133896, -49.7911827199037, -47.3686824584114, -44.94543848476141, -42.521506399244316, -40.58161284878162])","array('d', [-44.949764251708984, -44.89865619089709, -44.87505688391928, -44.87072262694572, -44.87988568273638, -44.89841301652454, -44.92327281589271, -44.95218970572332, -44.98341881038754, -45.01559757641186, -45.04765076075166, -45.07873346098975, -45.10820249126493, -45.135609400031015, -45.16070988798843, -45.1789316539541])","array('d', [0.6106051802635191, 0.477758011194192, 0.35755291091047, 0.24878682869648816, 0.154929997840682, 0.0866549610342775, 0.03859871294350479, 0.0063394405435448845, -0.013862020682553707, -0.025178218727106762, -0.030269933709550396, -0.03131596858388573, -0.03003292478592691, -0.02769016611326346, -0.025121084842844484, -0.02273049960615944])","array('d', [-0.027049478143453504, -0.014056851552395952, -0.00497445236303163, 0.001400688965923935, 0.005855463521200799, 0.00891549736695676, 0.010938918409374856, 0.012174498632831512, 0.01279901683444331, 0.012942316121212818, 0.012704894420309644, 0.012170816001702138, 0.011417520999186956, 0.010523362089921561, 0.00957321655745136, 0.00866220522448958])","array('d', [-0.18376330932113136, -0.20749726043636021, -0.2248887254781879, -0.23713779056693501, -0.2451422528896571, -0.2498845491543429, -0.25232993094387113, -0.2532012789106504, -0.2530470680934398, -0.2522772878742811, -0.2511874461547574, -0.2499784059045115, -0.24877478313825996, -0.24764270844470765, -0.24660715169622716, -0.24543446114067693])",-47.747370476250865,-64.31612738849681,-44.89841301652454,0.0866549610342775,0.00891549736695676,-0.2498845491543429,25.000000247414594,-1.0,"[-75.90827045602292, -44.97706012147165, 44.90335653242066]","[-61.817306729281874, -40.57749822470884, 47.56579833802336]","[-64.42585197476008, -52.59942231806997, 38.98274335767072]",10000000000.0,0.014008283615112305
8,-76.048095703125,-45.053062438964844,44.95124816894531,0.598992943763733,0.02530445903539642,-0.18813352187606314,23.129341554820893,"array('d', [-45.053062438964844, -45.55033971582028, -46.09638051625236, -46.677306585598856, -47.281776941850715, -47.90069382625535, -48.527448725491766, -49.15746073683545, -49.78767543781123, -50.41618752567265, -51.04193565781697, -51.6644502456722, -52.28364737562651, -52.89966632183939, -53.51274938519988, -54.00087000479233])","array('d', [-76.048095703125, -73.59858413489333, -71.15907352105137, -68.72752577983626, -66.30173538958523, -63.879641824273975, -61.459619534441536, -59.04048669189458, -56.62143406603591, -54.201949785709346, -51.78174648570621, -49.36069587913353, -46.93877372460822, -44.51601636126479, -42.09248883939464, -40.152852586337794])","array('d', [-44.95124816894531, -44.90389247391919, -44.88303828180476, -44.88075131958732, -44.891468971187535, -44.91119693638584, -44.93699910865088, -44.966667431152175, -44.99850528552211, -45.03118533712811, -45.06365844575072, -45.09509925556537, -45.124879230449906, -45.15256072802009, -45.177907069193964, -45.196306406050546])","array('d', [0.598992943763733, 0.46725082415090524, 0.3480456140548933, 0.2401842699788815, 0.1471155112567229, 0.0795310804621587, 0.032100744661685325, 0.00041792847468186844, -0.019249891287741048, -0.030072549897008995, -0.03470956067356548, -0.03533866887127765, -0.03367510555581219, -0.030986410757670925, -0.028103732200177405, -0.02542931078431117])","array('d', [-0.02530445903539642, -0.012791355402900358, -0.0040382644903112575, 0.0021061897067328806, 0.006396395130069404, 0.009337089722543235, 0.011272727303637325, 0.012442967033205049, 0.013018405630720537, 0.013124608365730376, 0.012859039150068962, 0.01230353872174952, 0.011533845024794227, 0.010626935179365467, 0.009666507600111302, 0.008746618458268109])","array('d', [-0.18813352187606314, -0.21127717500448084, -0.2282001876044301, -0.24006009105812948, -0.2477295135665062, -0.2521747769164733, -0.2543521122957167, -0.2549798659208607, -0.2546039220555787, -0.25363246562690683, -0.2523594743507392, -0.25098435965370297, -0.2496303165425831, -0.24836209554935468, -0.24720335302039947, -0.2458913652239589])",-47.90069382625535,-63.879641824273975,-44.91119693638584,0.0795310804621587,0.009337089722543235,-0.2521747769164733,25.000000247395036,-1.0,"[-75.01914980493673, -45.212487760443786, 44.90919498216458]","[-60.882180370890765, -40.89669228360467, 47.462624954367676]","[-63.62213976243799, -53.021796063265995, 39.0677169224048]",10000000000.0,0.012997627258300781
9,-75.6031494140625,-45.169918060302734,44.952980041503906,0.5845296382904053,0.023151462897658237,-0.19250754912826015,23.13459339947262,"array('d', [-45.169918060302734, -45.67699848400465, -46.231217227040034, -46.81900901816678, -47.429243980626225, -48.052972791759046, -48.68369400824357, -49.31691089928366, -49.949640607880184, -50.58004147847207, -51.207109963379324, -51.83042930391361, -52.44996387029442, -53.06589695195209, -53.67851086034768, -54.165945425900624])","array('d', [-75.6031494140625, -73.15555806766064, -70.71786284476873, -68.28796300868349, -65.86362470371311, -63.442777809739084, -61.0237985020166, -58.6055137760272, -56.18712742867079, -53.768142689006766, -51.34828783841258, -48.927449773829494, -46.505618391168795, -44.08284285778922, -41.6591996989475, -39.71939084399387])","array('d', [-44.952980041503906, -44.910258331607224, -44.89279821656567, -44.893039942914065, -44.90567125660625, -44.92686875111149, -44.953815358335675, -44.984387572708684, -45.01694994760291, -45.05022014632406, -45.0831825706582, -45.115037049536305, -45.14517390043856, -45.17316931042097, -45.19879623061606, -45.217398155339794])","array('d', [0.5845296382904053, 0.45416388311697076, 0.3362040592840893, 0.2294695877809439, 0.13742792801410963, 0.07073511006670632, 0.02410430731028129, -0.0068497664845417585, -0.02584925813404583, -0.036058720205585496, -0.04013441037749757, -0.04025133558516171, -0.03812187966503709, -0.03501046536481441, -0.03174490065652631, -0.02872397654665713])","array('d', [-0.023151462897658237, -0.011226701471862631, -0.002880771774845475, 0.002976442991301429, 0.007060527203757378, 0.009851124229143915, 0.011676136933006181, 0.012764095850725223, 0.013277968300169874, 0.013337975098652907, 0.01303773688972903, 0.01245623652716326, 0.01166699468607138, 0.01074517971749469, 0.009772935137291631, 0.008842917887495198])","array('d', [-0.19250754912826015, -0.2149267494434204, -0.23127195948513263, -0.24265014210436156, -0.2499047095479088, -0.253983156938511, -0.25583034523784404, -0.2561587827922971, -0.25551093115312346, -0.2542925531670958, -0.2527955823310781, -0.25121752583962587, -0.24967975326214742, -0.2482452753805682, -0.24693611735364085, -0.24545404984034347])",-48.052972791759046,-63.442777809739084,-44.92686875111149,0.07073511006670632,0.009851124229143915,-0.253983156938511,25.000000242767495,-1.0,"[-74.57503490284512, -45.33351114363246, 44.913295530972796]","[-60.41571063589299, -41.053039197704095, 47.40148688684175]","[-63.22019768256909, -53.263020734338056, 39.15217156494481]",10000000000.0,0.014695405960083008
10,-75.15990447998047,-45.28889083862305,44.955631256103516,0.5673210024833677,0.020798679441213525,-0.1969936331126355,23.13886911832487,"array('d', [-45.28889083862305, -45.80588560445352, -46.36812231360321, -46.962392931506805, -47.57780999558507, -48.20559685465288, -48.83937761173344, -49.47475467764656, -50.10882973730948, -50.73983642796212, -51.366839587028906, -51.98948493740143, -52.60779391287931, -53.22200178575581, -53.83243809821585, -54.317763429773436])","array('d', [-75.15990447998047, -72.71429922860474, -70.27841387707704, -67.8500905033129, -65.42707332625051, -63.00728967423895, -60.589124101109206, -58.17141849100551, -55.75339512056334, -53.334577108282026, -50.91471248984708, -48.49370680196401, -46.07156695298136, -43.64835732798397, -41.224167930832564, -39.28383110702834])","array('d', [-44.955631256103516, -44.91797622960132, -44.90422945886195, -44.90723606353713, -44.921955606308444, -44.94475112926669, -44.9729361407922, -45.004480412802124, -45.03781637047745, -45.07171186921929, -45.10518888915135, -45.13747555673097, -45.1679833905255, -45.19630409700636, -45.222221365001886, -45.24103285785376])","array('d', [0.5673210024833677, 0.43859286411848103, 0.322114817388084, 0.21672111341717204, 0.12592568673041787, 0.06031148969262714, 0.01464387106220139, -0.015436291758490504, -0.03363784929827737, -0.04311809479542177, -0.046528481784500225, -0.046039924761276635, -0.04336072130293078, -0.03975104977440153, -0.0360343902299792, -0.03260526756835223])","array('d', [-0.020798679441213525, -0.009514878214770218, -0.0016144181238641035, 0.003927259184550562, 0.007784110285696475, 0.01040878111974435, 0.012111306775053473, 0.013108151930491104, 0.01355396745796227, 0.013563109614249193, 0.013224947868138767, 0.012615274975776034, 0.011805113407691087, 0.01086757700530302, 0.009883033635461228, 0.008942539122840423])","array('d', [-0.1969936331126355, -0.21856571490805715, -0.23423127264667404, -0.24504041401593377, -0.2518039238402611, -0.2554481649636206, -0.2569047671305521, -0.2568793733562868, -0.255910357738591, -0.2544005475196163, -0.25263938264340957, -0.25082205272440716, -0.2490677204723623, -0.2474373099433823, -0.24595090403907266, -0.24426842695511392])",-48.20559685465288,-63.00728967423895,-44.94475112926669,0.06031148969262714,0.01040878111974435,-0.2554481649636206,25.00000024270942,-1.0,"[-74.1312526003355, -45.45682223796813, 44.91825594931379]","[-59.94973138763892, -41.2090662352882, 47.33507721608827]","[-62.81877316429289, -53.52421891300227, 39.266272235894114]",10000000000.0,0.0131683349609375
11,-74.27427673339844,-45.53350067138672,44.963809967041016,0.5256240367889403,0.014982089400291294,-0.2061729868266245,23.14730154046594,"array('d', [-45.53350067138672, -46.070433560756896, -46.64815077743939, -47.2542511776457, -47.878400448390785, -48.512221180495864, -49.149631552027664, -49.78646887154856, -50.42003691552308, -51.048750360249095, -51.671839010171745, -52.28909953198538, -52.90069126547091, -53.50697509355279, -54.10839465708219, -54.585619335817725])","array('d', [-74.27427673339844, -71.83279783366653, -69.40049594724687, -66.97511244907487, -64.55436470446654, -62.13619376922763, -59.71901922373267, -57.30172973552284, -54.88359997424353, -52.46420642320169, -50.04334824516993, -47.62097796384763, -45.197144505066376, -42.77194924338211, -40.34551455158368, -38.40317179390314])","array('d', [-44.963809967041016, -44.93869200365408, -44.93414367494171, -44.94399375044261, -44.96386775480367, -44.99058933995151, -45.02179718525221, -45.05569508199932, -45.09088685193666, -45.12626776927202, -45.16095555714723, -45.19425055591933, -45.22561834723319, -45.25469006494952, -45.281276454238544, -45.30057071134223])","array('d', [0.5256240367889403, 0.4008638859287504, 0.28797622309504567, 0.18583123313065525, 0.09808112591387404, 0.03510506016149559, -0.008209115430603675, -0.03615836243194632, -0.05241922468829978, -0.06013058711088284, -0.061931068229053685, -0.0599803506427539, -0.055975584239275844, -0.051165624843103316, -0.046362733649660336, -0.0419507400069939])","array('d', [-0.014982089400291294, -0.00527463859929106, 0.0015225753572338395, 0.006278179784432359, 0.009566345036408918, 0.011774497907377607, 0.013169162788777037, 0.013937174080861195, 0.014212577281176047, 0.014095061670148627, 0.013663262341518621, 0.012984841810642744, 0.012124404083830111, 0.011149754117747868, 0.010136659435349245, 0.009172029257289327])","array('d', [-0.2061729868266245, -0.2257541839149222, -0.2398055549563446, -0.24925295124240668, -0.25483541764548984, -0.2574325691890692, -0.25794620289507436, -0.25706636085834517, -0.25532196021634745, -0.25310885593821064, -0.2507104362791289, -0.24831620748811917, -0.24603991158741473, -0.24393736262989843, -0.24202391009551444, -0.23985863842250862])",-48.512221180495864,-62.13619376922763,-44.99058933995151,0.03510506016149559,0.011774497907377607,-0.2574325691890692,25.000000242608603,-1.0,"[-73.68923350127211, -45.58241033767667, 44.92443548619258]","[-59.48525172430446, -41.36509147925079, 47.26134013250069]","[-62.42044671484068, -53.80339502067664, 39.40810924458683]",10000000000.0,0.01360177993774414
12,-73.83193969726562,-45.65900802612305,44.969810485839844,0.5019397139549255,0.011721907183527872,-0.2105670412394666,23.150905002094877,"array('d', [-45.65900802612305, -46.205292940904535, -46.78990828676475, -47.40087698660708, -48.02815869616241, -48.663590637531456, -49.30125142373454, -49.93710839805684, -50.568578508491875, -51.19417861055294, -51.813232048369855, -52.42562127673007, -53.031584084584196, -53.63155282008247, -54.226036029298825, -54.69720696596952])","array('d', [-73.83193969726562, -71.39246777451368, -68.96180696710293, -66.53766192914554, -64.11774840033819, -61.70002509400382, -59.282938701851656, -56.86540973132288, -54.44674637255879, -52.02655797788686, -49.60467435461834, -47.18107559121052, -44.7558348293336, -42.32907444983424, -39.90093499116862, -37.957116300934246])","array('d', [-44.969810485839844, -44.95172407050459, -44.95233832039643, -44.96602574374644, -44.98878259604961, -45.01769069546183, -45.05057215711744, -45.085763574464565, -45.12196654190507, -45.15814932725431, -45.19348466563842, -45.227314451910935, -45.25913536721163, -45.28860116421053, -45.315538008444115, -45.33508500776009])","array('d', [0.5019397139549255, 0.37943342247021483, 0.26858513612082424, 0.16828545048628782, 0.08226577015171982, 0.02079331232120208, -0.02117806318138084, -0.04791171990500398, -0.06306659064692936, -0.06977126483639613, -0.07065688236483993, -0.06787637351369992, -0.06312012380694551, -0.057630157596030525, -0.05221206145910495, -0.047243431158561056])","array('d', [-0.011721907183527872, -0.002894654906565143, 0.0032829998660712147, 0.007595067990349595, 0.01056119094464882, 0.0125329152264852, 0.013752666088262536, 0.01439075327103043, 0.014569648467617637, 0.01438074158351791, 0.013896547746334514, 0.013180060066187908, 0.012292171955612823, 0.011297603607147098, 0.01026944136106362, 0.009292175322862216])","array('d', [-0.2105670412394666, -0.2290528840603164, -0.24220618140600977, -0.2508898227060547, -0.25580602750354187, -0.25781030664241733, -0.25778901934071263, -0.25642409668770894, -0.25423944719274316, -0.25162711518935266, -0.24886708681453074, -0.24614562177124405, -0.24357334739218303, -0.2412031415119752, -0.23904764112780374, -0.23660876463204064])",-48.663590637531456,-61.70002509400382,-45.01769069546183,0.02079331232120208,0.0125329152264852,-0.25781030664241733,25.000000242561626,-1.0,"[-72.8062092180809, -45.84053937660106, 44.94133767366234]","[-58.557178064652334, -41.68358273054255, 47.10578278301768]","[-61.627565116795715, -54.40703631683773, 39.77867884029773]",10000000000.0,0.014247655868530273
13,-72.9482421875,-45.91609573364258,44.98596954345703,0.4498343765735625,0.004913067910820101,-0.21917657454940287,23.158571508670104,"array('d', [-45.78657150268555, -46.342150421202575, -46.93348419983475, -47.549025503983266, -48.179034315118294, -48.81556822080677, -49.452872345788194, -50.087050669685745, -50.715640239604255, -51.33726709215712, -51.95135494482464, -52.55787852134321, -53.15716007708424, -53.74970893399612, -54.3361035453502, -54.800260324374236])","array('d', [-73.38992309570312, -70.95250125779471, -68.5234701954036, -66.10050650569194, -63.68133102152273, -61.26392579656791, -58.84676979399262, -56.42882010662133, -54.009422711690995, -51.588223539791564, -49.16508615780436, -46.74002075700122, -44.313126716450554, -41.88454901298979, -39.45444759882115, -37.50894373619702])","array('d', [-44.97700500488281, -44.96631758595072, -44.97236728421563, -44.9900939406983, -45.01588213998934, -45.04708510147341, -45.08171842031427, -45.11825918055555, -45.15551267523576, -45.192524751387914, -45.22852670133764, -45.26290469128506, -45.29518853862294, -45.32505607370073, -45.352349832983236, -45.37215417537373])","array('d', [0.4765575528144834, 0.3564666912424493, 0.247803976455896, 0.14948187789910747, 0.06530144973616904, 0.005433881111795526, -0.03510013685172467, -0.06053024482403865, -0.07449789384242962, -0.08012145845783476, -0.0800244931161959, -0.076352863973429, -0.07078972484932021, -0.06456971982523542, -0.05849120383136924, -0.052925034644655984])","array('d', [-0.008292817510664336, -0.0003890173781052721, 0.0051366082946623075, 0.008980716927787727, 0.011606412295481133, 0.013327890210943012, 0.014362394535612938, 0.014862905125866048, 0.014939712115971695, 0.014675438974316746, 0.014136113666378677, 0.01337976296565416, 0.012463321517883045, 0.011448209891601292, 0.010404640960632162, 0.00941450900476374])","array('d', [-0.21496848662826032, -0.232306220107606, -0.24451071193426366, -0.2523828044450483, -0.25658779642885177, -0.25795700028666635, -0.25736155573601827, -0.2554754121989718, -0.25281749150788213, -0.24977594183549856, -0.24662717766313377, -0.2435539919380097, -0.24066365750431323, -0.2380058793615767, -0.23559036194381455, -0.23285760647368303])",-48.81556822080677,-61.26392579656791,-45.04708510147341,0.005433881111795526,0.013327890210943012,-0.25795700028666635,25.000000242520986,-1.0,"[-71.92449881083571, -46.106535460839865, 44.964565921192296]","[-57.6337324398859, -42.003528752854216, 46.94934109363742]","[-60.83337202142911, -55.03760562564711, 40.250449646364416]",10000000000.0,0.01603078842163086
14,-72.9482421875,-45.91609573364258,44.98596954345703,0.4498343765735625,0.004913067910820101,-0.21917657454940287,23.158571508670104,"array('d', [-45.91609573364258, -46.480444151303566, -47.07789279952596, -47.697320525842876, -48.329287706383425, -48.96607363004702, -49.60209298489055, -50.233590788365944, -50.8582293819546, -51.4747495299345, -52.08268087701985, -52.68209574041451, -53.27340580072956, -53.857201889527595, -54.43413647585581, -54.8901505444768])","array('d', [-72.9482421875, -70.51280902213162, -68.08529078141171, -65.66334837349937, -63.24471652603443, -60.82740749211545, -58.409938266975104, -55.99130748428051, -53.570903114232486, -51.14841113059662, -48.72373161491195, -46.29690697682248, -43.86806440884647, -41.437372632323964, -39.00501184132059, -37.05758505355652])","array('d', [-44.98596954345703, -44.98257601910758, -44.99398378957598, -45.01568814487601, -45.04445530344392, -45.077906188286384, -45.11424791880256, -45.15209712246035, -45.19036241628852, -45.22816716057453, -45.264801285695604, -45.299695356320456, -45.33241243640324, -45.36265448782118, -45.39028039091739, -45.41032411797249])","array('d', [0.4498343765735625, 0.33228655926442746, 0.2259248862925591, 0.1296848566666625, 0.047426294229391396, -0.0107572776986316, -0.04977891625524107, -0.07383516452954976, -0.086550516585457, -0.09103341530752651, -0.08989982673728794, -0.08528830123757067, -0.07887434065358087, -0.0718847096243611, -0.06511003369413376, -0.058914000110364274])","array('d', [-0.004913067910820101, 0.002081557563600301, 0.006963262845631484, 0.010344049375815824, 0.012632022237301912, 0.014104915584389213, 0.01495530723899137, 0.015319142900240973, 0.015294695124145467, 0.014955904630376247, 0.014362346314151753, 0.013567083694676605, 0.012623076198027102, 0.01158841609550175, 0.010530406770667194, 0.009528306625766836])","array('d', [-0.21917657454940287, -0.23533197173915932, -0.24655149367556942, -0.25357615846574144, -0.2570350459854631, -0.2577357265409273, -0.2565347083690827, -0.2540982851921283, -0.2509405236768341, -0.24744565670597785, -0.2438864040101528, -0.24044190985370004, -0.23721588824148557, -0.2342546691898762, -0.23156483816521278, -0.2285220925155076])",-48.96607363004702,-60.82740749211545,-45.077906188286384,-0.0107572776986316,0.014104915584389213,-0.2577357265409273,25.000000242477117,-1.0,"[-71.92449881083571, -46.106535460839865, 44.964565921192296]","[-57.6337324398859, -42.003528752854216, 46.94934109363742]","[-60.83337202142911, -55.03760562564711, 40.250449646364416]",10000000000.0,0.015264034271240234
15,-71.62538146972656,-46.31473922729492,45.02510452270508,0.36405116319656355,-0.005225057248026262,-0.23169915278884368,23.158930354202838,"array('d', [-46.180362701416016, -46.76216969292695, -47.37163683661466, -47.99846512395643, -48.633801798218265, -49.27036066062645, -49.9028950261855, -50.52793825643667, -51.14341362712519, -51.7483038566953, -52.34236370065353, -52.92587374002722, -53.49943685096598, -54.063818233618406, -54.61982867003293, -55.057876898623036])","array('d', [-72.06597900390625, -69.63467155287509, -67.21021259035405, -64.790257691378, -62.37258668056022, -59.95528457076302, -57.53695545964875, -55.116691475163805, -52.693974053050276, -50.26857748673736, -47.840481706800766, -45.40979896881451, -42.976716223292364, -40.54145273633355, -38.104231387281345, -36.15268891046503])","array('d', [-45.009891510009766, -45.02128823368145, -45.04356232902865, -45.07332481977423, -45.108112693983294, -45.146090177458476, -45.18585476682862, -45.22630859331658, -45.26657235851792, -45.30592895259689, -45.34378923722289, -45.379675466367225, -45.41321939514694, -45.44417279790605, -45.47242816707587, -45.49292533039048])","array('d', [0.39344409108161915, 0.2812625143227278, 0.1797564170366658, 0.08790989438436644, 0.009615386980797775, -0.0450628300758134, -0.08091419363255756, -0.10207583127279993, -0.1121434847000183, -0.1142093114933571, -0.11087621215735798, -0.10426901046470986, -0.09604793423192015, -0.08742346904924136, -0.07916998622836875, -0.07163597241104608])","array('d', [0.0019382175523788544, 0.007093207419761087, 0.01066670094306661, 0.013103213897285892, 0.0147013266793588, 0.01566574127477734, 0.016139370651693637, 0.016223696021539922, 0.015992564322966425, 0.015502191991104246, 0.014798925788331972, 0.013925612788052951, 0.01292699529866638, 0.01185425603701105, 0.010768631888166421, 0.009743861645262688])","array('d', [-0.22759871085616562, -0.2413376876959712, -0.25051990324890283, -0.2557762928045906, -0.2576665551184952, -0.25695292716068263, -0.25446593564739295, -0.2508584986566705, -0.24663599928275018, -0.2421752116952094, -0.23774139458192275, -0.23350605953684378, -0.22956534128906933, -0.2259583245891036, -0.2226848818987296, -0.21898280636655904])",-49.27036066062645,-59.95528457076302,-45.146090177458476,-0.0450628300758134,0.01566574127477734,-0.25695292716068263,25.000000242388527,-1.0,"[-70.60466520786939, -46.51882028661176, 45.012798834518016]","[-56.25702857920469, -42.48834265233288, 46.71590576345022]","[-59.64160443116218, -55.98246214085878, 41.10757396765462]",10000000000.0,0.018004179000854492
16,-71.62538146972656,-46.31473922729492,45.02510452270508,0.36405116319656355,-0.005225057248026262,-0.23169915278884368,23.158930354202838,"array('d', [-46.31473922729492, -46.90497344006941, -47.52010910517466, -48.15023802318621, -48.786790029797004, -49.42268867641806, -50.052854171830965, -50.673965684874325, -51.28408104627988, -51.88230935811255, -52.46852385070581, -53.04311513974263, -53.606787278892966, -54.16039776556173, -54.70484114579995, -55.13298882820516])","array('d', [-71.62538146972656, -69.19614536024994, -66.77316951174835, -64.35412131399254, -61.936812670217044, -59.51937162551279, -57.10045160326556, -54.67919678631909, -52.255140050549876, -49.82810382112975, -47.398111132761095, -44.96531158162516, -42.52992374545409, -40.0921933637365, -37.65236543722049, -35.69862917085868])","array('d', [-45.02510452270508, -45.0435973405389, -45.07108288636021, -45.10470294780776, -45.14236323392947, -45.18248921446596, -45.22386698504451, -45.26553720612115, -45.306723884303835, -45.34678787722247, -45.38519931136385, -45.42152546149749, -45.455431837636716, -45.48669466587939, -45.51522285865807, -45.53591638463971])","array('d', [0.36405116319656355, 0.2546666909406434, 0.1556915187006596, 0.06613507194016606, -0.01014112648843411, -0.0630174845344911, -0.09722733629187882, -0.11688234345917033, -0.1255670194996003, -0.1263675367375564, -0.12188155324601685, -0.11422763251687097, -0.10505848187945549, -0.09557626299557676, -0.0865468861566263, -0.07831086809960965])","array('d', [0.005225057248026262, 0.009498060829981225, 0.012441720449604236, 0.014422106818050387, 0.015686176206522483, 0.01640401210388497, 0.016694863690172455, 0.016643709996246082, 0.016312645865265468, 0.01574931807381865, 0.01499364498216272, 0.01408348191654425, 0.013059533089834114, 0.011969565254481887, 0.010871798235592228, 0.009837210425035964])","array('d', [-0.23169915278884368, -0.24421548645604507, -0.25235483001389863, -0.2566983002515478, -0.25777273912898485, -0.25631906010619887, -0.253156731830143, -0.2489331324821528, -0.2441499215852378, -0.23918038760352975, -0.23428605426665897, -0.2296344679636646, -0.22531775725002176, -0.22137115023897355, -0.21779093978598585, -0.21374241071548114])",-49.42268867641806,-59.51937162551279,-45.18248921446596,-0.0630174845344911,0.01640401210388497,-0.25631906010619887,25.000000242345155,-1.0,"[-70.16548496693157, -46.659181927803516, 45.03294207291455]","[-55.80019688122333, -42.652227812438035, 46.640056546735394]","[-59.244623886309284, -56.288184256928744, 41.42501920740727]",10000000000.0,0.016995906829833984
17,-71.18122863769531,-46.45159912109375,45.04417419433594,0.33403584361076344,-0.008475981652736768,-0.23571495612594082,23.159980412052345,"array('d', [-46.45159912109375, -47.050040987902086, -47.67061397704032, -48.303785137347276, -48.94125791183056, -49.57615893164582, -50.20357241448449, -50.82032352855304, -51.42460673243187, -52.01566061394518, -52.59348040823622, -53.15857033202749, -53.71173899499845, -54.25393927767655, -54.78615225471577, -55.20384923307152])","array('d', [-71.18122863769531, -68.75406114596717, -66.33253397552802, -63.9143351358911, -61.49731450295691, -59.07964723616047, -56.66003970226137, -54.23769152130611, -51.812190017433394, -49.38340826655928, -46.95141439059388, -44.51639679357601, -42.07860669681478, -39.638316963638644, -37.19579508666143, -35.239800220999385])","array('d', [-45.04417419433594, -45.069683287559776, -45.10231539295871, -45.139735725502014, -45.18021506644207, -45.22243845646021, -45.26537996516712, -45.30821869819048, -45.35028214474953, -45.39100941498569, -45.429930206761966, -45.466657093668054, -45.50088955730267, -45.53242840490069, -45.561198986533384, -45.58206680331802])","array('d', [0.33403584361076344, 0.227507704207637, 0.13111704904523813, 0.04389917025313027, -0.03035209667520201, -0.08140795938213588, -0.1139503076526068, -0.13206879670839944, -0.13933927366661078, -0.13884369871988517, -0.13317558767705823, -0.12444781841985263, -0.11430578161195076, -0.1039432857416133, -0.09411762748769248, -0.08516115875847878])","array('d', [0.008475981652736768, 0.011874955045590743, 0.014192809798432408, 0.01571911500510985, 0.016650240748387075, 0.017122204068531318, 0.017230879126030163, 0.017044887087707468, 0.016614635470555666, 0.015979222255650172, 0.015172133481769446, 0.014226213642656199, 0.013178098791230216, 0.012072099933135136, 0.010963370284031562, 0.009920068248309327])","array('d', [-0.23571495612594082, -0.24700528242418285, -0.2540910299304682, -0.25750708447871234, -0.25774870065043665, -0.2555364394402184, -0.25168017567150974, -0.2468226306183193, -0.24146222576216844, -0.2359689693324219, -0.23060067168453938, -0.22552082937391493, -0.22081743043083107, -0.21652169856769984, -0.21262620609564117, -0.20822169991547135])",-49.57615893164582,-59.07964723616047,-45.22243845646021,-0.08140795938213588,0.017122204068531318,-0.2555364394402184,25.00000024230231,-1.0,"[-70.16548496693157, -46.659181927803516, 45.03294207291455]","[-55.80019688122333, -42.652227812438035, 46.640056546735394]","[-59.244623886309284, -56.288184256928744, 41.42501920740727]",10000000000.0,0.014815092086791992
18,-70.71920013427734,-46.59520721435547,45.066307067871094,0.30237877368926985,-0.011683021672070163,-0.23961238463851392,23.160156724822315,"array('d', [-46.59520721435547, -47.201503703683485, -47.827055561682116, -48.46270115871299, -49.10041701786042, -49.7335326455627, -50.3572988587021, -50.96869212302447, -51.5660505246122, -52.14874997225261, -52.71691570195288, -53.27117323290086, -53.81244288103684, -54.341779403118615, -54.86025622993911, -55.266255593292605])","array('d', [-70.71920013427734, -68.29406191722751, -65.8738879728181, -63.45639830199246, -61.03948954162377, -58.62139103949253, -56.20086860211727, -53.77718331920274, -51.349982305943925, -48.919193771250214, -46.484934487923475, -44.04743436100525, -41.606979195867005, -39.16387031551608, -36.71839858273114, -34.759944727397944])","array('d', [-45.066307067871094, -45.09873562789556, -45.136437283197765, -45.177591631692664, -45.220829749210736, -45.265093848082785, -45.30954489617049, -45.35350009358328, -45.39639044114919, -45.43773350868302, -45.47711883164354, -45.51420453547881, -45.548724267123475, -45.58050351759548, -45.60948406224566, -45.63050265864638])","array('d', [0.30237877368926985, 0.19886320020559822, 0.10519842766003282, 0.02044702971525343, -0.0517017347859775, -0.10085463707808533, -0.13164518921013318, -0.14814387079406652, -0.15392017535698677, -0.15205345192753478, -0.1451339499575333, -0.13526913188184517, -0.12409691221381532, -0.11280233366821348, -0.10213356232522405, -0.09241427719666986])","array('d', [0.011683021672070163, 0.014218267672857476, 0.01591588365367126, 0.01699114605728574, 0.01759106501319908, 0.01781827395840328, 0.0177456496795156, 0.017425658123606046, 0.016897120490524074, 0.01619062734294576, 0.015333238154340133, 0.014352770220314951, 0.013281760350992879, 0.012161022024253317, 0.011042591672047214, 0.009991750716548913])","array('d', [-0.23961238463851392, -0.24963147782812947, -0.2556167059616843, -0.25805875980832066, -0.2574216043744477, -0.2544058375599516, -0.24981294667112428, -0.24428175682310915, -0.23830783140136294, -0.23225797501398485, -0.2263861522577807, -0.22085155846358429, -0.2157377409341215, -0.21107161613098718, -0.20684175555475728, -0.2020598338840344])",-49.7335326455627,-58.62139103949253,-45.265093848082785,-0.10085463707808533,0.01781827395840328,-0.2544058375599516,25.000000242254636,-1.0,"[-69.72275959871573, -46.80189388427569, 45.05688801458216]","[-55.34057339891198, -42.8184056721871, 46.56835808650743]","[-58.843521030731424, -56.587714666418286, 41.758421734525776]",10000000000.0,0.012593507766723633
19,-69.83335876464844,-46.87322998046875,45.11564636230469,0.24076879024505604,-0.017050286754965928,-0.2469441135737558,23.15985856618404,"array('d', [-46.87322998046875, -47.49424688383011, -48.12903112602247, -48.76908112788903, -49.40686464229159, -50.03607402740268, -50.65226584638052, -51.25270352045197, -51.83600390488011, -52.40181318411247, -52.95051438208228, -53.4829743656553, -54.00033590629295, -54.5038565479458, -54.99479335460287, -55.37736062318539])","array('d', [-69.83335876464844, -67.41212570743566, -64.99450110610006, -62.57828672595498, -60.16148207146209, -57.742428786027304, -55.320014577364724, -52.89362636023493, -50.46303318937145, -48.02827509959262, -45.58956684815456, -43.14722121964097, -40.70159241210403, -38.25303741020674, -35.80189223023898, -33.83873131212942])","array('d', [-45.11564636230469, -45.15964884384131, -45.20581281868036, -45.253173754095926, -45.30096597995665, -45.34856484662872, -45.395447881827, -45.44116745231167, -45.48533173773461, -45.527593239024505, -45.56764481896193, -45.60522350992223, -45.64012223854445, -45.67220927822214, -45.70145467383331, -45.72266278634977])","array('d', [0.24076879024505604, 0.1431161768137595, 0.05475643038158943, -0.02519478102362716, -0.09338307125246385, -0.1389060593044949, -0.16632197622340353, -0.17967769920341575, -0.1825403608705702, -0.17799121448628116, -0.1686187203076456, -0.15652255347757604, -0.14332756653956832, -0.13020241634037807, -0.1178776954391678, -0.10666015924255999])","array('d', [0.017050286754965928, 0.018135415571134593, 0.01878699407544189, 0.019098818859478253, 0.019136659377397416, 0.01894788381404685, 0.018567095263873252, 0.01801973141089719, 0.017325122706388783, 0.016499463072046097, 0.015558863613576394, 0.014522510865520897, 0.01341584148788441, 0.012273551921881592, 0.011142172957043627, 0.010081855597386159])","array('d', [-0.2469441135737558, -0.25454297256889963, -0.258411317476092, -0.2589654954072215, -0.2566129604916267, -0.252018935778288, -0.24597385682064177, -0.23911218786317998, -0.23192576169950738, -0.22477602765896654, -0.21790973904583358, -0.21147765170328667, -0.20555444250436788, -0.2001583694117692, -0.19526995367128275, -0.1897450633356535])",-50.03607402740268,-57.742428786027304,-45.34856484662872,-0.1389060593044949,0.01894788381404685,-0.252018935778288,25.000000242174963,-1.0,"[-69.2621545195888, -46.951172074207925, 45.08383120171926]","[-54.86394505239669, -42.98917472714938, 46.49597183237907]","[-58.42359365092122, -56.887145450527925, 42.11700944076902]",10000000000.0,0.014430046081542969
20,-68.94905090332031,-47.152931213378906,45.173851013183594,0.17926879227161402,-0.021452797576785216,-0.25394634803267907,23.1559692397963,"array('d', [-47.01296615600586, -47.641039331511585, -48.28017496651766, -48.92217441341456, -49.55973337313825, -50.186711003365836, -50.798808394655815, -51.393429469360484, -51.96933082011092, -52.526295965315256, -53.06483982882687, -53.58595311835765, -54.090892807946844, -54.58102046499785, -55.05768722211829, -55.42812659136874])","array('d', [-69.39102935791016, -66.97171338136437, -64.55530862481406, -62.139666201863484, -59.72284268730976, -57.30323940841113, -54.87980843736073, -52.45200305362628, -50.01965639307335, -47.58286691892627, -45.141900201941695, -42.6971116205278, -40.24889015462427, -37.79762076050011, -35.3436618460287, -33.37817869958546])","array('d', [-45.1435546875, -45.192660458466165, -45.24254560070452, -45.29262157148852, -45.34238951009165, -45.39141752901129, -45.43932485191107, -45.485769676154526, -45.53044030965451, -45.57305054287848, -45.6133403455428, -45.651082821013254, -45.686098027117154, -45.71827378834713, -45.74759297025297, -45.76885343611979])","array('d', [0.2099137753248213, 0.11519740225142765, 0.029494476201746486, -0.04805274450937763, -0.11432400619710567, -0.15806652679920738, -0.1838100478378526, -0.19559652886180962, -0.1969970339803864, -0.19109736010590636, -0.18048741512812466, -0.16726437711092965, -0.15304730663338578, -0.13899698666355662, -0.12583529966029097, -0.11386049795168268])","array('d', [0.019418776035308966, 0.01986099023176571, 0.020046674449011304, 0.020017271610168325, 0.019803278962007106, 0.019427912472810276, 0.018908949291240432, 0.018259875894408573, 0.017491353823163053, 0.016613134634323047, 0.015636397782628177, 0.014576413463089223, 0.013455369819091867, 0.012305139190883422, 0.011169686738502483, 0.010106751098575357])","array('d', [-0.2504777153346202, -0.25688631505875587, -0.2597036936121093, -0.25931400228040835, -0.25609813502345175, -0.2507050779937701, -0.24392229097842352, -0.2363836427400411, -0.22857999584488703, -0.22087053253674838, -0.21349850162985057, -0.2066103687573019, -0.20027622876580267, -0.19450984487185075, -0.1892875590572819, -0.18338620975155043])",-50.186711003365836,-57.30323940841113,-45.39141752901129,-0.15806652679920738,0.019427912472810276,-0.2507050779937701,25.000000242135616,-1.0,"[-67.93811215666884, -47.38469625034533, 45.17268102093644]","[-53.49682962626776, -43.4858827698181, 46.290094248525875]","[-57.214130569662444, -57.68375937425904, 43.19138909615893]",10000000000.0,0.023796558380126953
21,-68.50738525390625,-47.292991638183594,45.205997467041016,0.14899104833602897,-0.023075573146343346,-0.2572683533045911,23.15096026471666,"array('d', [-47.152931213378906, -47.78792459813959, -48.43131577037564, -49.07519091596283, -49.712461465336006, -50.33714286426152, -50.94507433219519, -51.53379749563957, -52.10220813307577, -52.650227794976914, -53.17850456388827, -53.688154381032966, -54.18054972167343, -54.65715728555806, -55.119423174435774, -55.47762726378682])","array('d', [-68.94905090332031, -66.53163340901773, -64.11642550611096, -61.70133145813612, -59.28446736192222, -56.86429554309219, -54.43983389598049, -52.0106037164624, -49.576503766672914, -47.13769218003642, -44.69448619874359, -42.24728427669338, -39.796510337130535, -37.342577221146435, -34.88586546184152, -32.918117952512226])","array('d', [-45.173851013183594, -45.22733452103743, -45.28040056642568, -45.332783091237204, -45.3842133268157, -45.43442651003912, -45.48316537050049, -45.53018084250425, -45.575231815494895, -45.61808633402407, -45.658526250986945, -45.69635685267747, -45.731422450336424, -45.76362832880112, -45.79296871646068, -45.81424353677444])","array('d', [0.17926879227161402, 0.08746867239796306, 0.004404481599990108, -0.07075511252486072, -0.13517000275527655, -0.17717147802059433, -0.2012671587670317, -0.21149891232317908, -0.2114453361138915, -0.20419932450966877, -0.1923539318311053, -0.17800489453117743, -0.1627660892698982, -0.1477907434296514, -0.1337921730429714, -0.12106017537076955])","array('d', [0.021452797576785216, 0.021339168305137282, 0.021120504007668704, 0.02079402880501042, 0.020360297743873983, 0.0198219313669714, 0.01918229800378755, 0.018444603733867613, 0.017612015486574116, 0.016688682479766143, 0.015681465585778903, 0.014602176782499494, 0.013470107661798555, 0.012314585422200926, 0.01117723789585551, 0.01011358366889466])","array('d', [-0.25394634803267907, -0.2591841860402503, -0.2609618060868863, -0.259634284352859, -0.25555696275580736, -0.24936348846621834, -0.24184006590825266, -0.23362104952458745, -0.22519694897776046, -0.21692497113914336, -0.20904494600072693, -0.20169902186654026, -0.19495263497328155, -0.18881496519712865, -0.18325809368520127, -0.17697963014710075])",-50.33714286426152,-56.86429554309219,-45.43442651003912,-0.17717147802059433,0.0198219313669714,-0.24936348846621834,25.000000242095926,-1.0,"[-67.49749218133942, -47.52968303461716, 45.20602774134041]","[-53.04286579194496, -43.653075180377485, 46.22371506437655]","[-56.81038400432748, -57.92491388631049, 43.55530233932845]",10000000000.0,0.013093948364257812
