,x_pos,y_pos,z_pos,roll,pitch,yaw,vel,x_traj,y_traj,z_traj,roll_traj,pitch_traj,yaw_traj,x_cmd,y_cmd,z_cmd,roll_cmd,pitch_cmd,yaw_cmd,vel_cmd,effector_dmg,effector_x,effector_y,effector_z,cost,time_solution
0,-175.16598510742188,-73.1806411743164,44.9548454284668,0.6312291026115416,0.027364686131477255,0.8671190301564077,23.125151037410067,"array('d', [-73.5108413696289, -71.62054555592783, -69.7738495955062, -67.96841858752704, -66.20154739955751, -64.47041025201742, -62.772198191303154, -61.10419678339306, -59.46382966026486, -57.84868150278069, -56.256508152448724, -54.68523844952799, -53.132970670524585, -51.59796543255134, -50.078636326807796, -48.875880870884735])","array('d', [-175.48434448242188, -173.84924172415637, -172.16440914138673, -170.4352365368981, -168.66664178732722, -166.8630618038378, -165.02846288689724, -163.16636748726674, -161.27989036646517, -159.37177844933322, -157.44445072019766, -155.50003613914015, -153.54040860886786, -151.56721863494047, -149.5819216475927, -147.98391240246235])","array('d', [-44.953006744384766, -44.900679327914915, -44.87454906190975, -44.86521720136146, -44.86671486506119, -44.87519454286125, -44.8881279797954, -44.90381134705781, -44.921058465158076, -44.939010793971775, -44.957021664404934, -44.97458946971147, -44.99132477909804, -45.00694220040388, -45.02127080421738, -45.03167698657])","array('d', [0.6315243840217588, 0.5938816407293729, 0.5534974335390297, 0.5122385761299784, 0.4714254679683092, 0.4319579942007335, 0.39442094424711266, 0.3591668639379923, 0.3263791006273079, 0.29611905392701804, 0.26836141295149407, 0.24302046882473544, 0.2199698657862905, 0.19905754046865426, 0.1801171237780718, 0.1629767279797995])","array('d', [-0.027456035837530958, -0.014623319176880215, -0.006418210821099876, -0.0011354309770917144, 0.002276642375906113, 0.00447051598290278, 0.005853214280679828, 0.006679773408952005, 0.007110839453677569, 0.007248844699135962, 0.007161434335372323, 0.0068973312507486124, 0.006497683139675204, 0.006004561431717959, 0.0054673462385083, 0.004947059581837169])","array('d', [0.8716290156033376, 0.844058780962637, 0.8187162606582841, 0.795587202017004, 0.7745780385516333, 0.7555539082782095, 0.738362203757615, 0.7228464167666095, 0.7088539112279041, 0.6962400566760986, 0.6848702414202605, 0.6746206752269944, 0.6653785106403062, 0.657041583170613, 0.6495179365510926, 0.6410274543634203])",-64.47041025201742,-166.8630618038378,-44.87519454286125,0.4319579942007335,0.00447051598290278,0.7555539082782095,25.000000246233054,-1.0,"[-174.5193374415539, -72.36320653617894, 44.91182786475611]","[-171.90030548657856, -60.39993071202889, 53.57327711843908]","[-160.42395715207883, -68.0056428665286, 47.61957478055552]",10000000000.0,0.016123294830322266
1,-175.16598510742188,-73.1806411743164,44.9548454284668,0.6312291026115416,0.027364686131477255,0.8671190301564077,23.125151037410067,"array('d', [-73.1806411743164, -71.29770774603729, -69.45849573039867, -67.66059181698486, -65.90123665107396, -64.17756846285448, -62.486755726172724, -60.82607113513712, -59.192932341501034, -57.58492283009057, -55.99980045047255, -54.435498070766904, -52.89011913325973, -51.36192991563251, -49.849349718036066, -48.6519382928995])","array('d', [-175.16598510742188, -173.52240278852324, -171.8294009124517, -170.09240212707445, -168.31632985500772, -166.5056101628147, -164.66418937579894, -162.79556547849953, -160.9028271569515, -158.98869539750223, -157.05556440944247, -155.1055401140463, -153.1404753961785, -151.1620018621708, -149.17155813237878, -147.56954055742096])","array('d', [-44.9548454284668, -44.90271254729324, -44.87672046094039, -44.86748748939882, -44.869057025726, -44.87759015439937, -44.89056452963017, -44.906280329521024, -44.92355405729927, -44.941528942959096, -44.95955946271914, -44.9771447308785, -44.99389575481891, -45.009527400279445, -45.023868893249016, -45.03428441133227])","array('d', [0.6312291026115416, 0.5927674511654679, 0.5518289375448323, 0.5102238196296683, 0.46922339814951625, 0.42968692531150454, 0.39216644545473817, 0.35698851686285177, 0.32431607329767587, 0.2941946373472203, 0.2665867203996922, 0.24139749008662334, 0.21849403940475726, 0.19771997463074056, 0.1789065675636549, 0.16188137132118574])","array('d', [-0.027364686131477255, -0.014558560805394678, -0.00637210767894204, -0.0011022073778942806, 0.002301063752567417, 0.004488955345085542, 0.005867593720518889, 0.006691386726011825, 0.0071205461909409455, 0.007257206343094715, 0.007168809025639102, 0.006903939966156618, 0.0065036569411551105, 0.006009976497368929, 0.005472251177450877, 0.004951497754521608])","array('d', [0.8671190301564077, 0.8395902730986013, 0.8143251884494881, 0.7912934929538786, 0.7703907231939364, 0.7514749015475953, 0.7343889377628678, 0.7189736244814777, 0.7050748221617852, 0.6925471971474706, 0.6812559704708022, 0.6710775412634207, 0.6618994823029111, 0.6536201871275663, 0.6461483215573909, 0.6377160280006012])",-64.17756846285448,-166.5056101628147,-44.87759015439937,0.42968692531150454,0.004488955345085542,0.7514749015475953,25.000000246236223,-1.0,"[-174.19580965193708, -72.03736730184214, 44.91380352192522]","[-171.51021310852866, -60.08026103364975, 53.56338044205183]","[-160.07747438378604, -67.73077530342172, 47.58323691034746]",10000000000.0,0.014066934585571289
2,-174.84603881835938,-72.8517837524414,44.956695556640625,0.6309316754341123,0.027262737974524352,0.8627242008831836,23.121040660497776,"array('d', [-72.8517837524414, -70.97606050789426, -69.14417511465311, -67.35363779311633, -65.60163651352424, -63.8852746483922, -62.20169887866915, -60.54816953291998, -58.92209858812221, -57.3210684961251, -55.74283917994797, -54.185347536577396, -52.64670213503061, -51.12517485189972, -49.61919062407621, -48.427001837145816])","array('d', [-174.84603881835938, -173.19422542148388, -171.49329563223478, -169.74870293046354, -167.96537546173704, -166.14772839278922, -164.29968847501326, -162.4247298735055, -160.52591595605116, -158.605942555381, -156.66717986958201, -154.71171149683406, -152.74136995816968, -150.7577685478419, -148.7623295968375, -147.1564215948819])","array('d', [-44.956695556640625, -44.90477896431061, -44.87893928512464, -44.86981471386137, -44.87146262593368, -44.88005375382293, -44.89307232143112, -44.908822935676675, -44.926125057501075, -44.94412387016491, -44.96217511986992, -44.97977872848495, -44.99654620229101, -45.01219270720936, -45.02654765267511, -45.03697291245776])","array('d', [0.6309316754341123, 0.591675477572531, 0.5501996686675894, 0.5082592171409284, 0.4670776457355546, 0.4274747652611744, 0.38997087147620974, 0.35486733292269534, 0.32230729130982344, 0.2923208669007361, 0.2648587490567844, 0.23981724179931865, 0.2170570689608741, 0.19641762410223976, 0.17772788266310177, 0.16081485302252885])","array('d', [-0.027262737974524352, -0.01448693207826777, -0.006321453582469365, -0.0010659011691367597, 0.0023276208143954693, 0.00450890810165832, 0.005883070016973252, 0.00670381333756428, 0.0071308704301117215, 0.007266048919242708, 0.0071765688988894155, 0.006910866719092305, 0.0065099017528554666, 0.00601562935973535, 0.005477369408311461, 0.004956128921731327])","array('d', [0.8627242008831836, 0.8352362838105701, 0.8100467886700901, 0.7871098901446475, 0.7663105976361434, 0.7475000700463199, 0.7305168934853705, 0.7151992544885087, 0.7013915587255566, 0.6889477893714586, 0.6777330022110093, 0.6676237768212472, 0.6585080909812291, 0.6502848778281112, 0.6428634058420645, 0.6344877467403564])",-63.8852746483922,-166.14772839278922,-44.88005375382293,0.4274747652611744,0.00450890810165832,0.7475000700463199,25.000000246239235,-1.0,"[-173.87084553861249, -71.712781490181, 44.91580651529499]","[-171.1204353113077, -59.76187122736886, 53.55357170495768]","[-159.73041268870367, -67.45605009652986, 47.54799128455497]",10000000000.0,0.01470327377319336
3,-174.20140075683594,-72.1981201171875,44.960445404052734,0.6302849054336545,0.027421925216913105,0.8539834181454516,23.115032204338938,"array('d', [-72.1981201171875, -70.33685326965961, -68.51963852707836, -66.7438396344675, -65.00654259783799, -63.30478306785153, -61.63566543406448, -59.9964262023433, -58.38446667816239, -56.797367779082485, -55.23289400828424, -53.68899068381195, -52.16377693893121, -50.65553611725853, -49.16270466398922, -47.980928454036025])","array('d', [-174.20140075683594, -172.53332423154248, -170.81673155219445, -169.05713839062335, -167.2594818676675, -165.4281549732788, -163.5670452535124, -161.67957945346419, -159.76877070138266, -157.83726501086423, -155.88738507506832, -153.92117035371606, -151.94041311564533, -149.94669046287646, -147.9413925320643, -146.32780645294022])","array('d', [-44.960445404052734, -44.90821072523032, -44.88217776098506, -44.87293528424627, -44.874512114303556, -44.88306208448617, -44.89605911223755, -44.91180128441857, -44.92910375609732, -44.947108728621686, -44.965169784213934, -44.982785215486196, -44.99956528545353, -45.015224238941066, -45.029590877913144, -45.0400246749063])","array('d', [0.6302849054336545, 0.5894596199580164, 0.5469249830231158, 0.5043253155637778, 0.46278919895666937, 0.42305837228643894, 0.3855904043072803, 0.3506369242645475, 0.3183019847811233, 0.2885852669176377, 0.2614140765741191, 0.2366671705063598, 0.21419265372171187, 0.19382156883704002, 0.1753783391712153, 0.15868889796328317])","array('d', [-0.027421925216913105, -0.0145833214162167, -0.006380327416749652, -0.0011017368581427976, 0.0023063479212033465, 0.004497096803324926, 0.005877544346130488, 0.006702514710831972, 0.007132401739456526, 0.007269415018398637, 0.007181029456200928, 0.006915855706707837, 0.006514988293634494, 0.006020505381501287, 0.005481854861649154, 0.004960187528107344])","array('d', [0.8539834181454516, 0.8265794935213786, 0.8015421024856183, 0.7787947456840693, 0.7582017728977801, 0.7396009106542996, 0.7228222895624381, 0.7076989961612614, 0.6940725846865946, 0.6817956963276098, 0.6707330610941115, 0.6607616137092327, 0.6517701313677445, 0.6436586142693467, 0.6363375243870806, 0.6280746932558344])",-63.30478306785153,-165.4281549732788,-44.88306208448617,0.42305837228643894,0.004497096803324926,0.7396009106542996,25.000000246245,-1.0,"[-173.87084553861249, -71.712781490181, 44.91580651529499]","[-171.1204353113077, -59.76187122736886, 53.55357170495768]","[-159.73041268870367, -67.45605009652986, 47.54799128455497]",10000000000.0,0.011231422424316406
4,-173.87677001953125,-71.8733139038086,44.96232604980469,0.630049407482147,0.02756717428565017,0.8497544089939931,23.11274641628345,"array('d', [-71.8733139038086, -70.01909812497438, -68.20904127722774, -66.44043633565092, -64.7103197465884, -63.01569407554664, -61.35364292544091, -59.7213909799886, -58.11633412624689, -56.53605232640121, -54.978312124862164, -53.44106277110105, -51.92242839148946, -50.420697777546486, -48.93431285470638, -47.757641658298446])","array('d', [-173.87677001953125, -172.2008682267816, -170.4767319756038, -168.70990824233078, -166.90533937036102, -165.06740840058933, -163.19998463832627, -161.306472555811, -159.38986157593686, -157.45277413705293, -155.4975104047828, -153.52608887364994, -151.5402826687039, -149.54165166177359, -147.5315706507176, -145.91425801746217])","array('d', [-44.96232604980469, -44.909796536851644, -44.88357678810752, -44.87421483696811, -44.8757150174202, -44.884216151768996, -44.89718274140183, -44.91290681125023, -44.93019949855578, -44.94820025620918, -44.966260725958094, -44.98387779434848, -45.00066069507979, -45.01632293654006, -45.03069284114102, -45.0411290501902])","array('d', [0.630049407482147, 0.5884581090571405, 0.5454047021553649, 0.5024798467889747, 0.4607662562813187, 0.4209680056796843, 0.38351239803201437, 0.3486270353215669, 0.3163970534016869, 0.28680737027431313, 0.2597739234199877, 0.23516691644890303, 0.21282828570888818, 0.19258497628194668, 0.17425916259020066, 0.15767622502370413])","array('d', [-0.02756717428565017, -0.014674890995082828, -0.006438747498558122, -0.0011392459758613775, 0.002282312549371779, 0.0044819155796232395, 0.005868276111632912, 0.006697234271278175, 0.007129809647452335, 0.007268605391455221, 0.007181351517323209, 0.006916832450964862, 0.006516271105619228, 0.00602185193593852, 0.005483122175410106, 0.00496133424111903])","array('d', [0.8497544089939931, 0.8223867407870992, 0.7974190374107761, 0.7747599114895716, 0.7542637014732613, 0.735761613206245, 0.7190796524777192, 0.7040483966354474, 0.6905079763946503, 0.6783103417263339, 0.6673200275620734, 0.657414108535812, 0.648481722360621, 0.6404233644403883, 0.6331500575231213, 0.6249409405753052])",-63.01569407554664,-165.06740840058933,-44.884216151768996,0.4209680056796843,0.0044819155796232395,0.735761613206245,25.000000246247698,-1.0,"[-173.21629337412793, -71.06769013080358, 44.91931767109486]","[-170.33716311724018, -59.128740181422, 53.53163925531563]","[-159.03286325340105, -66.90727449818544, 47.47299184262189]",10000000000.0,0.013402700424194336
5,-173.550537109375,-71.54987335205078,44.96380615234375,0.629660069942474,0.027507768943905622,0.8455872098591665,23.113036853471307,"array('d', [-71.54987335205078, -69.70262367264868, -67.89962767500502, -66.13810751176105, -64.41505138608792, -62.72743033944183, -61.07230861771511, -59.44690028473195, -57.848596787236, -56.27497791923793, -54.723812900656036, -53.193055428005245, -51.680835046092255, -50.18544635184486, -48.70533705772961, -47.533632021140775])","array('d', [-173.550537109375, -171.8669556545911, -170.13543492851608, -168.3615466056396, -166.5502344302473, -164.70586926426088, -162.8323008867748, -160.93291078553352, -159.01066431909118, -157.06816020789435, -155.1076760775698, -153.13120951979317, -151.1405146170986, -149.13713412826965, -147.1224276311778, -145.5015134465732])","array('d', [-44.96380615234375, -44.91140501930657, -44.88527965546494, -44.87598773848442, -44.87754094341819, -44.88608339628855, -44.899083301545964, -44.91483520243363, -44.932151906239724, -44.950173940648185, -44.96825361103555, -44.98588818963172, -45.00268711620149, -45.018364001346306, -45.032747227659975, -45.043193094159776])","array('d', [0.629660069942474, 0.5873352968285058, 0.5437897249708891, 0.5005608029348413, 0.4586861392068945, 0.41883297584212964, 0.3813991300478303, 0.3465888589299133, 0.3144689564747723, 0.28501005075480634, 0.2581170931271264, 0.2336520368445683, 0.21145088263027628, 0.1913366489271623, 0.17312937553327304, 0.15665395132762652])","array('d', [-0.027507768943905622, -0.014631304457987302, -0.006406630264632671, -0.0011152007434337473, 0.0023007799775735245, 0.004496566823855471, 0.005880321201081685, 0.006707484396853409, 0.007138794292663309, 0.007276658137687689, 0.007188671900324537, 0.006923530955032294, 0.006522403013666543, 0.006027444208134904, 0.005488196097017072, 0.004965925315655661])","array('d', [0.8455872098591665, 0.8182637749761134, 0.7933715859913478, 0.7708049093591629, 0.7504085220771369, 0.7320074511626363, 0.7154238256185709, 0.7004858890125484, 0.6870324706322493, 0.674914913109031, 0.6639976130458394, 0.6541578225511837, 0.6452850639336786, 0.6372803425739816, 0.6300552506603074, 0.621900337839065])",-62.72743033944183,-164.70586926426088,-44.88608339628855,0.41883297584212964,0.004496566823855471,0.7320074511626363,25.000000246250263,-1.0,"[-172.88689481551606, -70.74706454061088, 44.92098052558951]","[-169.94557089897006, -58.814777860867814, 53.52151238184007]","[-158.6830772669929, -66.63302018935305, 47.43617557252904]",10000000000.0,0.015371322631835938
6,-173.22409057617188,-71.22901153564453,44.965431213378906,0.6289293169975276,0.027210256084799652,0.84150214592484,23.113429612786064,"array('d', [-71.22901153564453, -69.38859714712707, -67.5925027568536, -65.83788181011613, -64.12167761059649, -62.44083298887327, -60.79239572945031, -59.17357168885283, -57.58174984689481, -56.01451143648143, -54.46962966683111, -52.94506376596024, -51.43894960508152, -49.94958836015965, -48.475434202368355, -47.30843404167143])","array('d', [-173.22409057617188, -171.53301978338231, -169.79433403145833, -168.01361891584725, -166.19581279843248, -164.3452699996241, -162.46581793739034, -160.56081327086176, -158.63319610376467, -156.68554068274779, -154.720101626097, -152.73885534463128, -150.743536721597, -148.7356713205537, -146.7166034605805, -145.09229860116076])","array('d', [-44.965431213378906, -44.91365020461144, -44.887944702591106, -44.87894107850829, -44.88069562675405, -44.88938156133447, -44.90248614645503, -44.91831648911502, -44.935693730685706, -44.95376395979124, -44.97188320858736, -44.98955124980023, -45.00637919307223, -45.022081747771, -45.03648799652224, -45.04695049921356])","array('d', [0.6289293169975276, 0.5859314010074123, 0.5419442404480795, 0.49845266771402597, 0.4564502924817551, 0.4165687747808517, 0.379177658107054, 0.3444589486427602, 0.31246204862367366, 0.2831441016306779, 0.2563997425735288, 0.23208321961248018, 0.2100250292298948, 0.19004458921792322, 0.17196003151274353, 0.15559588500749727])","array('d', [-0.027210256084799652, -0.014430981069877443, -0.006269982065341905, -0.0010205126982245542, 0.002367631059729876, 0.0045448121704385796, 0.005916030011555166, 0.006734672394022083, 0.0071601352110014236, 0.007293941665872343, 0.007203099570377421, 0.0069359082504193885, 0.00653326488594833, 0.006037137872106405, 0.005496936589779351, 0.004973834041266897])","array('d', [0.84150214592484, 0.8142409992671941, 0.78943823558964, 0.7669747454816995, 0.7466865421404101, 0.7283930886303993, 0.71191309607482, 0.6970728112358752, 0.6837100072685033, 0.6716755969013903, 0.6608339658405709, 0.6510626342786663, 0.6422515727190306, 0.6343023405993723, 0.6271271300605444, 0.6190282988138447])",-62.44083298887327,-164.3452699996241,-44.88938156133447,0.4165687747808517,0.0045448121704385796,0.7283930886303993,25.00000024625267,-1.0,"[-172.22494530702988, -70.11095820656266, 44.9246208656703]","[-169.1623601009591, -58.187762592666516, 53.495383854361805]","[-157.98182681014038, -66.0914075268407, 47.369367849861234]",10000000000.0,0.012161970138549805
7,-172.5659637451172,-70.59136962890625,44.968326568603516,0.6248531937599178,0.025867057964205596,0.8338592211392262,23.117496801744007,"array('d', [-70.59136962890625, -68.76367157816804, -66.98019329668598, -65.2379814827451, -63.533919716535344, -61.864920640866856, -60.22802096606736, -58.62042798178096, -57.03954021740997, -55.482953545687856, -53.94845876449825, -52.4340341010992, -50.93783473180659, -49.4581806688757, -47.99354394284095, -46.83400257678551])","array('d', [-172.5659637451172, -170.86107095928733, -169.1094172975034, -167.31655144907432, -165.48735708742768, -163.62612532335908, -161.73661807744202, -159.82212800738847, -157.88553482339069, -155.92935704390342, -153.95579864583178, -151.96679053374532, -149.9640270521725, -147.94899790013255, -145.92301583632127, -144.29337791410867])","array('d', [-44.968326568603516, -44.91933127164987, -44.89548918615658, -44.88774975034921, -44.89037553032992, -44.89967247426582, -44.9132140406256, -44.92936387369926, -44.946980597416506, -44.96523542035294, -44.983501377061515, -45.00128982782099, -45.018219777671284, -45.034011234680264, -45.048496676814025, -45.05901631584357])","array('d', [0.6248531937599178, 0.5809484917975026, 0.5364484635297097, 0.4927375103329131, 0.45072891124925846, 0.4109916151842224, 0.37384680951007865, 0.3394394614441781, 0.30779075724269106, 0.2788365188809913, 0.2524555100410774, 0.22849049704309085, 0.20676411408441578, 0.1870909837383902, 0.16928711861885187, 0.1531773331869769])","array('d', [-0.025867057964205596, -0.013537618804716269, -0.005667674605146708, -0.0006082911723725023, 0.0026544868009389768, 0.004748160134215494, 0.006063208970652067, 0.006843726956844092, 0.007243106171219815, 0.007358949327253721, 0.0072556688441255245, 0.00697981357019946, 0.0065710684803150935, 0.006070531112701193, 0.0055269554069905325, 0.005000996192754498])","array('d', [0.8338592211392262, 0.8068610073228712, 0.7823451954756192, 0.7601729252181666, 0.7401683080886153, 0.7221440118727648, 0.7059151793746912, 0.6913065029041948, 0.6781554540067866, 0.6663134232073019, 0.655645756213833, 0.6460312234457056, 0.6373612052167283, 0.629538734460057, 0.6224774634282888, 0.614506747673805])",-61.864920640866856,-163.62612532335908,-44.89967247426582,0.4109916151842224,0.004748160134215494,0.7221440118727648,25.000000246256665,-1.0,"[-171.55826661485975, -69.48094568109649, 44.929530308454886]","[-168.38347321267247, -57.54296254072659, 53.43865749011531]","[-157.27923373457483, -65.55055201636578, 47.30886333348246]",10000000000.0,0.011475324630737305
8,-172.23426818847656,-70.27464294433594,44.96965789794922,0.6207550168037412,0.024706598371267173,0.8302774588253834,23.121025522331905,"array('d', [-70.27464294433594, -68.4528212325134, -66.67498970016457, -64.93816467461497, -63.23922198554931, -61.575078472261765, -59.942781499602674, -58.339552453092665, -56.76280564120894, -55.21015332324768, -53.67940260890546, -52.16854752170096, -50.67575823617377, -49.19936879379639, -47.737864198743075, -46.58076940278759])","array('d', [-172.23426818847656, -170.52302694986497, -168.76561919190468, -166.9675284916406, -165.13357857366236, -163.2680058369275, -161.37452292303107, -159.4563785864344, -157.5164137276627, -155.55711273944712, -153.58064969889548, -151.58892937875436, -149.58362332631683, -147.56620137837723, -145.53795900101753, -143.9066863228423])","array('d', [-44.96965789794922, -44.92306517558206, -44.90082333296426, -44.89416476454796, -44.897531701817, -44.90734521659639, -44.921253304756796, -44.93766842280925, -44.95548155139922, -44.97388561738035, -44.992268405415466, -45.01015138120768, -45.0271604805494, -45.04302039173067, -45.057566596332094, -45.068129593461165])","array('d', [0.6207550168037412, 0.5767092170930758, 0.5322205302208349, 0.48862527507505604, 0.44680088834057496, 0.4072900552796048, 0.3703949024569456, 0.33624666224542, 0.3048567120075474, 0.2761539759808103, 0.250012505915959, 0.22627202669364319, 0.20475343621159875, 0.1852706670387974, 0.16763990504449502, 0.15168687257844374])","array('d', [-0.024706598371267173, -0.012769101786172557, -0.005151723377040358, -0.00025680008319070157, 0.002897727976318345, 0.00491938008454631, 0.0061860184225559205, 0.006933697777526327, 0.0073106375159903226, 0.0074110726583543445, 0.007297189949158886, 0.007014036168117513, 0.006600251010507473, 0.006096172093426609, 0.005549969038931533, 0.0050218199991244866])","array('d', [0.8302774588253834, 0.8035196579172843, 0.7792342599228756, 0.7572773814614151, 0.7374711008879085, 0.719627736043932, 0.7035629749491775, 0.6891024987688441, 0.6760849620132602, 0.6643629983206877, 0.653803186444788, 0.6442854834139458, 0.6357023904002245, 0.6279579839764851, 0.6209668742910778, 0.6130747257614974])",-61.575078472261765,-163.2680058369275,-44.90734521659639,0.4072900552796048,0.00491938008454631,0.719627736043932,25.000000248642806,-1.0,"[-171.55826661485975, -69.48094568109649, 44.929530308454886]","[-168.38347321267247, -57.54296254072659, 53.43865749011531]","[-157.27923373457483, -65.55055201636578, 47.30886333348246]",10000000000.0,0.010920524597167969
9,-171.90081787109375,-69.95933532714844,44.97063064575195,0.6152006387710569,0.023142199963331115,0.8268509666111804,23.12511990647015,"array('d', [-69.95933532714844, -68.1430685759517, -66.37043741128345, -64.63844366076827, -62.94397067625708, -61.283952830079805, -59.6554593516084, -58.05573500242782, -56.48221751938222, -54.932541865290546, -53.40453671148773, -51.89621628485724, -50.405769507347046, -48.931547689449935, -47.4720516551901, -46.31641080653267])","array('d', [-171.90081787109375, -170.18359266578676, -168.4209109398288, -166.61815933524628, -164.78007948152694, -162.91083735675258, -161.01408503859398, -159.0930192002282, -157.15043596654374, -155.18878122566983, -153.21019591770306, -151.21655626609618, -149.20950918886462, -147.19050324379253, -145.16081548164865, -143.5284638736388])","array('d', [-44.97063064575195, -44.927275064683215, -44.90718640885446, -44.90198026499639, -44.90634168405343, -44.916847095326716, -44.93124497804891, -44.948013554973855, -44.966087398763854, -44.98468870939627, -45.00322517319991, -45.02123191234163, -45.0383442472273, -45.05429321516337, -45.06891837447147, -45.07953848089829])","array('d', [0.6152006387710569, 0.5712321755303107, 0.5269419556928685, 0.483620033211631, 0.44211113055309537, 0.40293522530843484, 0.36637891149341223, 0.33256297026287623, 0.3014919176170133, 0.2730903622271506, 0.24722985984246806, 0.2237489536699127, 0.2024683213535002, 0.1832023886234662, 0.1657683725013529, 0.1499934397470227])","array('d', [-0.023142199963331115, -0.011734496323763428, -0.004458023031738406, 0.0002151433844205435, 0.00322380444207161, 0.005148443709845921, 0.006349884301094201, 0.007053342884837305, 0.0074000738713692425, 0.007479782110480055, 0.007351661975877273, 0.007058740325550671, 0.0066382490897633414, 0.006129498796991693, 0.005579864432032429, 0.005048870248983457])","array('d', [0.8268509666111804, 0.8004091176447568, 0.7764146341021972, 0.7547219345654641, 0.735153718880443, 0.7175240124410736, 0.701650621704594, 0.6873614127871677, 0.6744971301678614, 0.6629123367793017, 0.6524753616659719, 0.6430677362845502, 0.6345833716687641, 0.6269276026341832, 0.6200161576429797, 0.6122137636546819])",-61.283952830079805,-162.91083735675258,-44.916847095326716,0.40293522530843484,0.005148443709845921,0.7175240124410736,25.00000024625945,-1.0,"[-171.4527440939635, -69.38251333676192, 44.93049339434305]","[-168.2614156279455, -57.43691380660564, 53.42272952430984]","[-157.1684302960669, -65.46507197342905, 47.29946627052162]",10000000000.0,0.012632608413696289
10,-171.5655975341797,-69.64544677734375,44.97175216674805,0.6080535054206848,0.021272093057632356,0.8234504620220997,23.130935765057227,"array('d', [-69.64544677734375, -67.83463234152944, -66.06696438885385, -64.33944700370365, -62.64898654869901, -60.99254839844986, -59.36723507273401, -57.77032431074198, -56.19928533231997, -54.65178258012383, -53.12567202314602, -51.618992990203, -50.12995738059486, -48.656937472518145, -47.198453185382476, -46.043405152093754])","array('d', [-171.5655975341797, -169.8425255399755, -168.07483588678966, -166.26778777798472, -164.4260184488587, -162.55360692717562, -160.65413234838334, -158.7307299566651, -156.78614398707438, -154.8227763645903, -152.842730664602, -150.84785124911326, -148.83975777505142, -146.81987539455622, -144.78946099242833, -143.1565602218222])","array('d', [-44.97175216674805, -44.93226494675138, -44.91474681388926, -44.9112727548915, -44.91681862397739, -44.92814676195117, -44.94312582975226, -44.960312687581556, -44.978694032168015, -44.99752707778505, -45.0162433320933, -45.03439428038854, -45.051626501923025, -45.06767865961295, -45.08239520853364, -45.093081726266])","array('d', [0.6080535054206848, 0.5643734048422702, 0.5204668080399512, 0.47757793876084625, 0.43652076070723844, 0.3977951551063615, 0.3616749746462648, 0.3282732702242062, 0.29759022208323316, 0.2695483952229405, 0.2440188433323229, 0.2208406360099149, 0.19983565175296883, 0.18081994445545266, 0.16361261154185913, 0.14804282638992186])","array('d', [-0.021272093057632356, -0.01049886925183341, -0.0036303598654732375, 0.0007775763325926216, 0.0036118427981190514, 0.005420527281210918, 0.006544056469350586, 0.007194684439296282, 0.0075053412661056805, 0.007560320425897518, 0.007415242940399817, 0.007110723183532405, 0.006682309971478799, 0.006168082777869941, 0.005614459938183437, 0.005080173560448534])","array('d', [0.8234504620220997, 0.7974063523416575, 0.7737698452545181, 0.7523966551714624, 0.7331125460466796, 0.7157351844605319, 0.7000860048981354, 0.685996230095662, 0.6733096017824032, 0.6618833137714788, 0.6515879869686595, 0.6423071442979725, 0.6339364271109797, 0.6263826749213546, 0.6195629258327329, 0.6118640814621081])",-60.99254839844986,-162.55360692717562,-44.92814676195117,0.3977951551063615,0.005420527281210918,0.7157351844605319,25.00000024626047,-1.0,"[-170.88529559818434, -68.85592710027316, 44.93592044424135]","[-167.60765586807614, -56.858458692042674, 53.32149314937769]","[-156.57357359932348, -65.00662430729993, 47.250543833765086]",10000000000.0,0.011651039123535156
11,-170.889892578125,-69.02196502685547,44.975032806396484,0.5893692374229429,0.016588963568210463,0.8167049447682241,23.14245111782129,"array('d', [-69.02196502685547, -67.22181663878575, -65.46347219041897, -63.74398645534014, -62.060353467012945, -60.409636546361114, -58.789035255677625, -57.19591894036716, -55.62784137649175, -54.08254419847989, -52.55795346158954, -51.05217197375821, -49.56346908716276, -48.09026909491988, -46.63113905193763, -45.47494299769897])","array('d', [-170.889892578125, -169.15547443101943, -167.37845056210313, -165.56374964023908, -163.71574417010413, -161.8382973018458, -159.93481046403042, -158.00827172156824, -156.06130280250906, -154.09620317211306, -152.11499029426525, -150.11943579371692, -148.11109756732958, -146.0913480497064, -144.0613988888679, -142.42878002668192])","array('d', [-44.975032806396484, -44.94522868134297, -44.93413713451175, -44.934987606129965, -44.9434857951036, -44.95686023054872, -44.97328077574633, -44.99150132712797, -45.01063919569178, -45.030039374392494, -45.04919313935146, -45.06769308127092, -45.08521410322805, -45.101514075451405, -45.11644978538257, -45.12729651212532])","array('d', [0.5893692374229429, 0.546843564007279, 0.5042097046008756, 0.4626229176109775, 0.42284157935009387, 0.3853326393329726, 0.3503520145786349, 0.3180045768050023, 0.2882885720275053, 0.261128539279732, 0.23639985719320913, 0.21394722483904427, 0.19359874194789037, 0.17517678052677912, 0.15850650088878274, 0.14342262599206956])","array('d', [-0.016588963568210463, -0.007408140037261886, -0.001562653613477987, 0.0021805865782700347, 0.00457798585752153, 0.006096286186932334, 0.007024756044811213, 0.007543166018995155, 0.0077636009571353404, 0.007756810895028514, 0.007569475975955035, 0.007236172724406057, 0.0067882321154663396, 0.006260639382647784, 0.005697395725674587, 0.0051552169679334675])","array('d', [0.8167049447682241, 0.7916722956442642, 0.7689301119338031, 0.7483442057564891, 0.7297525615151469, 0.7129849647455794, 0.697873907737084, 0.6842603025762612, 0.6719962111397729, 0.660945903710741, 0.6509859979563795, 0.6420050969119561, 0.6339031523947805, 0.6265906720044802, 0.6199878283801447, 0.6125346226555513])",-60.409636546361114,-161.8382973018458,-44.95686023054872,0.3853326393329726,0.006096286186932334,0.7129849647455794,25.000000246261962,-1.0,"[-169.86309388072115, -67.92877460156178, 44.95015050232308]","[-166.4367084419446, -55.757571487692616, 53.01995208513053]","[-155.5048041890078, -64.19362616896787, 47.16107413631167]",10000000000.0,0.01373147964477539
12,-170.5494384765625,-68.71241760253906,44.977516174316406,0.578304827213287,0.01380531862378111,0.8131966749813893,23.148898506365047,"array('d', [-68.71241760253906, -66.91779686632742, -65.16417275911263, -63.44864130748507, -61.768254497803056, -60.12013692244477, -58.50154729949349, -56.90990995351476, -55.342828862543016, -53.79809111876208, -52.27366378948407, -50.767686645445906, -49.278462369051326, -47.80444535135861, -46.34422987895047, -45.1867011925364])","array('d', [-170.5494384765625, -168.80920557383885, -167.0274993059562, -165.209059696179, -163.35810861654602, -161.478386816991, -159.57319533259357, -157.64543937419197, -155.69767193662275, -153.73213517927275, -151.7507985390761, -149.7553931702354, -147.7474426713072, -145.72829023798064, -143.69912244523533, -142.06693123049698])","array('d', [-44.977516174316406, -44.95346580660589, -44.94618923640113, -44.94960394231553, -44.95985020380686, -44.974433979726136, -44.991704321837936, -45.010532333060695, -45.030113028539475, -45.049843640165406, -45.06925103524475, -45.08795230310913, -45.10563924442433, -45.12208119722133, -45.13714230965124, -45.14808166103617])","array('d', [0.578304827213287, 0.5365531486842602, 0.49473214217225137, 0.4539526801114844, 0.41494644978151946, 0.3781655576855601, 0.34385880168516164, 0.31212886371245957, 0.28297486919077797, 0.2563240748795021, 0.2320555989485972, 0.21001835511311234, 0.19004476099786902, 0.1719613511370787, 0.15559710783228972, 0.14079009805242895])","array('d', [-0.01380531862378111, -0.005572664110126359, -0.0003359655453536105, 0.003011883565164673, 0.005149490514938519, 0.006495148897986538, 0.007307680288108549, 0.007747533428806898, 0.007914399323862937, 0.007870978044745711, 0.007658636128436466, 0.007308360918551592, 0.006848973657683414, 0.006313614302375394, 0.005744836927722589, 0.005198143540934036])","array('d', [0.8131966749813893, 0.788749508769596, 0.7665224363601931, 0.7463883369897244, 0.7281929861208853, 0.7117736109887495, 0.6969693622089405, 0.6836269162465121, 0.6716032423454723, 0.6607667550947758, 0.6509975611244223, 0.6421871998964918, 0.6342380984513877, 0.6270628573143021, 0.6205834276195756, 0.6132706126972712])",-60.12013692244477,-161.478386816991,-44.974433979726136,0.3781655576855601,0.006495148897986538,0.7117736109887495,25.000000246262598,-1.0,"[-169.86309388072115, -67.92877460156178, 44.95015050232308]","[-166.4367084419446, -55.757571487692616, 53.01995208513053]","[-155.5048041890078, -64.19362616896787, 47.16107413631167]",10000000000.0,0.014800310134887695
13,-170.20730590820312,-68.40433502197266,44.981109619140625,0.5662966966629026,0.010737962089478853,0.8096162835743763,23.153983066458114,"array('d', [-68.40433502197266, -66.61535724379299, -64.8664952975509, -63.15489590190523, -61.47767670139915, -59.832030043355964, -58.2152793435999, -56.62490868357857, -55.058576384668775, -53.514118602935866, -51.989546572843906, -50.483039803779526, -48.992936766383664, -47.51772414179201, -46.056025417394046, -44.89695494185214])","array('d', [-170.20730590820312, -168.46118977254744, -166.67479223525964, -164.85265543448384, -162.99884287990662, -161.11696648463365, -159.21022154868683, -157.28142600293398, -155.3330604404121, -153.36730666672184, -151.3860835487931, -149.39107963531555, -147.38378241987388, -145.36550431608472, -143.33740549472708, -141.7060558569631])","array('d', [-44.981109619140625, -44.96339785235059, -44.960320865872504, -44.966555732462474, -44.97872224056265, -44.99463235907896, -45.012832755135896, -45.03232378820321, -45.0523861771247, -45.07247478750963, -45.09215577218687, -45.11107327977448, -45.12893778855654, -45.14553131951358, -45.16072615862276, -45.17176295706499])","array('d', [0.5662966966629026, 0.5254271612122198, 0.48451514753977337, 0.44462783860360156, 0.40647114287031055, 0.37048333249981247, 0.33690712367557935, 0.3058440297124478, 0.2772950301317742, 0.2511910071664572, 0.22741564521981372, 0.2058228082611421, 0.18624986882454786, 0.1685280563489733, 0.1524905975875248, 0.1379792110889526])","array('d', [-0.010737962089478853, -0.003551485327805423, 0.0010137363519120304, 0.0039255883046337035, 0.005776776386836621, 0.006932131307924558, 0.007616891142815728, 0.007970199325313464, 0.008078084201593408, 0.007994373367672176, 0.007754577171064758, 0.007385726435503358, 0.006913873661753022, 0.006370119520563134, 0.0057954139110977625, 0.0052439074773176905])","array('d', [0.8096162835743763, 0.785794635087456, 0.7641172616281549, 0.7444649808322765, 0.7266920740064425, 0.7106438039588969, 0.6961664756493897, 0.6831129443917793, 0.6713454323535347, 0.6607367854783011, 0.6511708367841799, 0.6425422577225556, 0.6347561111744379, 0.6277272225618356, 0.6213794307054711, 0.6142154528485136])",-59.832030043355964,-161.11696648463365,-44.99463235907896,0.37048333249981247,0.006932131307924558,0.7106438039588969,25.000000246263184,-1.0,"[-169.51876729557188, -67.62279008656536, 44.95680885415242]","[-166.0410306185765, -55.378015940871194, 52.89222653228512]","[-155.14475545883948, -63.927351267514595, 47.132013592132225]",10000000000.0,0.014672279357910156
14,-169.864501953125,-68.09859466552734,44.98622131347656,0.5535548925399776,0.007527291774749617,0.8059150139477588,23.158222102923283,"array('d', [-68.09859466552734, -66.31547641403616, -64.57153712647528, -62.86398205178591, -61.190000050908765, -59.546855657034826, -57.93194075646864, -56.34280250333482, -54.77715651721198, -53.232890666607545, -51.70806273358051, -50.20089410967662, -48.70976098785037, -47.233184088669745, -45.76981768684991, -44.6093394433871])","array('d', [-169.864501953125, -168.11234129601885, -166.3211311666643, -164.49521309982785, -162.63848872459477, -160.75443750022058, -158.8461455771026, -156.91634050998772, -154.9674277411181, -153.00152630857124, -151.02050240115165, -149.02600012363928, -147.01946925967115, -145.00219003546772, -142.97529498216062, -141.34531416444116])","array('d', [-44.98622131347656, -44.97514250425399, -44.97645657249205, -44.98563718084405, -44.99980674456604, -45.01709790871249, -45.03626440038077, -45.05644201315292, -45.0770012779355, -45.09745747489388, -45.11741795789091, -45.13655527306387, -45.154599514735324, -45.17134603136555, -45.18667565652163, -45.1978078409484])","array('d', [0.5535548925399776, 0.5136397265413846, 0.4737025270684161, 0.43476712573763837, 0.3975139749291992, 0.36236785776330865, 0.3295657891818969, 0.2992085249431818, 0.2712993279205816, 0.2457731386868132, 0.22251863046358675, 0.20139501763169587, 0.18224499512643993, 0.16490481357074566, 0.1492122220416688, 0.13501281395610662])","array('d', [-0.007527291774749617, -0.001437390105805726, 0.0024242259071088237, 0.004879323139898548, 0.006430512626744757, 0.007386580261353685, 0.007937571692278702, 0.0082003106633196, 0.008246515606095803, 0.00812072290358842, 0.007852310698985532, 0.007464165940664096, 0.006979438951421418, 0.006427088893332131, 0.00584637561010789, 0.005290019517165105])","array('d', [0.8059150139477588, 0.782747063306339, 0.7616447297680319, 0.7424970479106539, 0.7251670427132558, 0.7095082348288629, 0.6953742952239581, 0.6826244572836943, 0.6711263800134675, 0.6607575073361079, 0.6514055472418477, 0.6429684340177833, 0.6353539805730698, 0.6284793363736194, 0.6222703140243973, 0.6152614241701116])",-59.546855657034826,-160.75443750022058,-45.01709790871249,0.36236785776330865,0.007386580261353685,0.7095082348288629,25.000000246263767,-1.0,"[-169.1727011034116, -67.31836380952905, 44.965002985536664]","[-165.64261672736063, -54.99519549080719, 52.754613173884394]","[-154.78290460292456, -63.66409726739142, 47.10511810243678]",10000000000.0,0.011415243148803711
15,-169.1739044189453,-67.4913558959961,45.00004577636719,0.5263519883155822,0.0006542931078000335,0.7980545322087148,23.166712178557113,"array('d', [-67.4913558959961, -65.7208139767791, -63.987450764969765, -62.28860700187236, -60.62162544703504, -58.9839236390768, -57.373037778617054, -55.78664785583721, -54.222590293002035, -52.67886216578594, -51.15361972624799, -49.645173105252866, -48.15197852602315, -46.672629000093906, -45.20584423587052, -44.041758472874186])","array('d', [-169.1739044189453, -167.40899191558785, -165.6075680779974, -163.7735782854939, -161.91059904851443, -160.0218406004506, -158.11016522941634, -156.17811381129582, -154.22793565210762, -152.26161874039622, -150.2809188172638, -148.2873864642945, -146.28239186044462, -144.2671470972095, -142.24272605624694, -140.6145938497802])","array('d', [-45.00004577636719, -45.00316134133049, -45.01386340086408, -45.0293347989555, -45.04777567112289, -45.068005973751944, -45.089223138308554, -45.1108531646273, -45.13245905421995, -45.15368559620741, -45.17422850946996, -45.19382128638972, -45.21223615293348, -45.22929709803848, -45.24490331453952, -45.256237899824804])","array('d', [0.5263519883155822, 0.488484701152048, 0.45062819822868594, 0.41372021894369315, 0.37839028288230164, 0.34503599233252497, 0.31388280668166596, 0.2850299559355248, 0.25848541839618916, 0.23419254049008587, 0.21205037013561345, 0.19192929240570397, 0.17368315708202053, 0.15715877893985677, 0.14220346122407193, 0.1286710243400848])","array('d', [-0.0006542931078000335, 0.0030843786318375276, 0.005438033386408441, 0.006914534123146699, 0.00782314039878191, 0.008352448457632843, 0.008617072383567992, 0.00868601431204784, 0.008600341563942767, 0.008384693372224456, 0.008055316762099569, 0.007626223333459615, 0.0071143423396298104, 0.006544033634593948, 0.005950915135596453, 0.005384610692329328])","array('d', [0.7980545322087148, 0.7762509015539582, 0.7563527873397995, 0.738265281339705, 0.7218686053403385, 0.7070326592960938, 0.6936258522190947, 0.6815202857490665, 0.6705946734958563, 0.6607358748340034, 0.6518395837275884, 0.6438104977530873, 0.6365621595685104, 0.6300165829333507, 0.62410372798363, 0.61743019461262])",-58.9839236390768,-160.0218406004506,-45.068005973751944,0.34503599233252497,0.008352448457632843,0.7070326592960938,25.00000024626504,-1.0,"[-168.82585431646874, -67.01642850268411, 44.97493048243845]","[-165.24173274143504, -54.6119547252822, 52.609267574886395]","[-154.4200711130027, -63.40475148705152, 47.07949681056586]",10000000000.0,0.014299392700195312
16,-168.8262481689453,-67.18988800048828,45.00910949707031,0.5122031569480895,-0.002835479099303621,0.794042364754949,23.16936785656877,"array('d', [-67.18988800048828, -65.42582566475875, -63.69789963083811, -62.003527892045845, -60.34013503573403, -58.705218125898185, -57.09638777512153, -55.51139230121147, -53.948130251309685, -52.404654898550554, -50.87917321250284, -49.37004107066829, -47.875755985950406, -46.394948291069745, -44.92637149283164, -43.760552030862875])","array('d', [-168.8262481689453, -167.0548810159905, -165.24827173456853, -163.41017622150096, -161.54401240742723, -159.65285753166094, -157.73946231311982, -155.80627397095262, -153.85546306581818, -151.88895120739892, -149.90843798875625, -147.91542629755503, -145.911245604893, -143.89707307465883, -141.87395245737318, -140.24700507587565])","array('d', [-45.00910949707031, -45.01942954552755, -45.03489164973071, -45.053548585886055, -45.07414868374302, -45.09586137712576, -45.118109664841846, -45.14046707575011, -45.16259446986664, -45.18420250582118, -45.205031871561374, -45.22484709954704, -45.24344189255103, -45.26065484844696, -45.27639451948632, -45.2878253942787])","array('d', [0.5122031569480895, 0.4754169063717974, 0.4386498177369333, 0.4027987395406914, 0.3684689897106182, 0.3360453345326044, 0.3057479366410557, 0.27767560651919276, 0.251838958235435, 0.22818578933916722, 0.20662056845314036, 0.1870194887657728, 0.16924218858481427, 0.15314096072285593, 0.138568061982448, 0.12538157877893175])","array('d', [0.002835479099303621, 0.005378168137575793, 0.006965121719467956, 0.00794423267932524, 0.008526321772054674, 0.008838837824452508, 0.008958038620798798, 0.008928619124307926, 0.008776071937957505, 0.008514928339515405, 0.008154765216413552, 0.007705084704912198, 0.007179652155837734, 0.006600483123175671, 0.00600133201771849, 0.0054302296996795035])","array('d', [0.794042364754949, 0.7729322239818824, 0.7536478202157748, 0.7361020298332056, 0.720183410413923, 0.7057698419614387, 0.6927369613156191, 0.680963223989119, 0.6703328374520771, 0.6607373682078649, 0.6520765239664602, 0.644258417437554, 0.6371994962806358, 0.6308242491052105, 0.6250647525772374, 0.6185640013119924])",-58.705218125898185,-159.65285753166094,-45.09586137712576,0.3360453345326044,0.008838837824452508,0.7057698419614387,25.000000246265678,-1.0,"[-168.1267531683275, -66.41735715525853, 44.99906433677551]","[-164.4281510256187, -53.846909456138945, 52.30003597304757]","[-153.68816361824298, -62.89752744519503, 47.03325474486032]",10000000000.0,0.011370182037353516
17,-168.47708129882812,-66.88983917236328,45.01933288574219,0.4979175031185148,-0.006158116739243401,0.7899697581913809,23.17146193846313,"array('d', [-66.88983917236328, -65.13240405876091, -63.41005327301636, -61.72028610091511, -60.060610098590914, -58.42860203176923, -56.8219468622668, -55.23846118697983, -53.67610571405059, -52.13299003760137, -50.60737203645633, -49.09765357144856, -47.602373705960765, -46.12020036233872, -44.649921109998516, -43.482739124746494])","array('d', [-168.47708129882812, -166.699187011326, -164.88730240895845, -163.04500340082885, -161.17555479417993, -159.28190406138867, -157.3666922604111, -155.43227404347812, -153.48074179403235, -151.51395097544844, -149.5335450507875, -147.54097909778162, -145.53754168352577, -143.52437480405777, -141.50249181811074, -139.8770998332949])","array('d', [-45.01933288574219, -45.03651052275994, -45.05650029043459, -45.0781845572269, -45.10083423409316, -45.12395182502488, -45.14717527770952, -45.170218700199996, -45.19283620773277, -45.21480124239959, -45.23589736918424, -45.25591873100229, -45.274679529604335, -45.29203231210163, -45.30789456391553, -45.31941091237535])","array('d', [0.4979175031185148, 0.46222070716289626, 0.42654966605235023, 0.39176167130974077, 0.35843842871022175, 0.3269520414908422, 0.2975173372175447, 0.2702325770553049, 0.2451108554076803, 0.22210427373218725, 0.20112259811020733, 0.18204773654540984, 0.16474505351716576, 0.149072287172299, 0.13488664267840741, 0.12205049253955313])","array('d', [0.006158116739243401, 0.007560704051168072, 0.00841699617223732, 0.008922206878748083, 0.00919326066502212, 0.009299306426451479, 0.009280044084721639, 0.009157007282483802, 0.0089408513493408, 0.00863647988653865, 0.008247117130490884, 0.007777969847585567, 0.007239787893009025, 0.0066523493003476965, 0.006047625392227386, 0.005472117473196168])","array('d', [0.7899697581913809, 0.7695496226232694, 0.7508774267829982, 0.7338733532732253, 0.7184338507923139, 0.7044444146008031, 0.6917876304596142, 0.6803481044388526, 0.670015395323276, 0.6606856806649624, 0.6522626202501813, 0.6446577051243941, 0.6377902687108932, 0.6315872672645662, 0.6259828946440993, 0.6196553118613276])",-58.42860203176923,-159.28190406138867,-45.12395182502488,0.3269520414908422,0.009299306426451479,0.7044444146008031,25.000000246266346,-1.0,"[-167.42130112145733, -65.8243613956145, 45.02857000246852]","[-163.60536546104984, -53.09049134979309, 51.97746838219481]","[-152.9505876935621, -62.397867934896325, 46.99264623606752]",10000000000.0,0.014230489730834961
18,-168.12648010253906,-66.5911865234375,45.03133010864258,0.4836231172084806,-0.009294304065406479,0.7858420769360401,23.172950810602863,"array('d', [-66.5911865234375, -64.84052064003123, -63.12388833177568, -61.438872410586306, -59.78306328584997, -58.15411663162511, -56.54979090315253, -54.96797026032113, -53.40667703839662, -51.86407678523782, -50.33847805525263, -48.82832855791597, -47.332208841017156, -45.84882439463958, -44.37699685474842, -43.20842787936428])","array('d', [-168.12648010253906, -166.3419895999727, -164.5247348744964, -162.67812232327876, -160.8052701287467, -158.9090001822292, -156.99184661901222, -155.05607331197007, -153.10369561346405, -151.1365035489157, -149.15608486080683, -147.1638470239443, -145.16103777365709, -143.14876392292842, -141.12800836876983, -139.50388053674544])","array('d', [-45.03133010864258, -45.05497799418289, -45.07923528599213, -45.10376905537092, -45.128344349330405, -45.15277854467281, -45.176912773407544, -45.200594031040374, -45.22366460019313, -45.24595730201762, -45.26729627692746, -45.28750371108502, -45.306413237624085, -45.323890634757554, -45.33986185582007, -45.351455268246646])","array('d', [0.4836231172084806, 0.44900928702236814, 0.4144275790605542, 0.38069703942753635, 0.34837627164861684, 0.3178247729726405, 0.28925186161026417, 0.26275497570394907, 0.2383493914171622, 0.21599123053296168, 0.19559530780682324, 0.17704904075549696, 0.16022336104219312, 0.14498133947120745, 0.13118506204889824, 0.11870116357684118])","array('d', [0.009294304065406479, 0.009618871956587893, 0.009784502780781346, 0.009841870565374727, 0.009819061553971843, 0.009730089979456642, 0.009580094952524593, 0.00936872047869533, 0.009092602881993848, 0.008747550998473392, 0.008330788611580155, 0.007843464297252932, 0.0072934761295462384, 0.006698481251281852, 0.0060887540753658724, 0.005509332248208982])","array('d', [0.7858420769360401, 0.7661027237205906, 0.7480362829679682, 0.7315696555851059, 0.7166066377791531, 0.7030398873162469, 0.6907585833415736, 0.6796532136707266, 0.6696184907852196, 0.6605550615298655, 0.6523704386505994, 0.6449794243234261, 0.6383041939789064, 0.6322741445946126, 0.626825571942154, 0.6206728132570042])",-58.15411663162511,-158.9090001822292,-45.15277854467281,0.3178247729726405,0.009730089979456642,0.7030398873162469,25.00000024626705,-1.0,"[-167.42130112145733, -65.8243613956145, 45.02857000246852]","[-163.60536546104984, -53.09049134979309, 51.97746838219481]","[-152.9505876935621, -62.397867934896325, 46.99264623606752]",10000000000.0,0.012696266174316406
19,-167.06712341308594,-65.70313262939453,45.078182220458984,0.44151958823204007,-0.017372291535139216,0.7738934914257861,23.172911991767034,"array('d', [-65.99789428710938, -64.26058620846707, -62.55522932632385, -60.87958019132477, -59.231395170788836, -57.60848578401472, -56.008754932470026, -54.43021941606118, -52.87102259957728, -51.32944001519663, -49.80387992519331, -48.29288033227556, -46.795103546077286, -45.30932914486848, -43.8344459792395, -42.663022498016865])","array('d', [-167.42140197753906, -165.6240905998949, -163.79636407234403, -161.94131854158593, -160.06179828349053, -158.1603877204851, -156.23941713298458, -154.30097625350936, -152.34693194159107, -150.37894756055152, -148.3985026201268, -146.4069118461746, -144.4053432021859, -142.39483459912572, -140.37630914903224, -138.7545196128271])","array('d', [-45.060760498046875, -45.09617378809012, -45.12817744260537, -45.15787131570611, -45.18592228492162, -45.21272222790733, -45.23848295515027, -45.26329391615845, -45.28715831072801, -45.31001740781757, -45.33176953287215, -45.35228821902076, -45.37144273626191, -45.389123156749505, -45.405270965490075, -45.41698979402635])","array('d', [0.45525172352790794, 0.4228134826658883, 0.39040551092933096, 0.35877738989294145, 0.3284457286736085, 0.29974722635350426, 0.27288149149156926, 0.2479449657281579, 0.2249575561739688, 0.20388347953142277, 0.18464759015384236, 0.16714821447671452, 0.15126729078686224, 0.13687842977510956, 0.12385336736220245, 0.11206717128604728])","array('d', [0.015000912360847147, 0.013358075915382541, 0.012263802724048556, 0.011504521007507906, 0.010946041878111223, 0.010501735058828418, 0.010113684828066955, 0.00974161658078666, 0.009356611608765103, 0.00893790569776007, 0.008471789651740782, 0.007952014477658066, 0.0073812704543939935, 0.00677332566410202, 0.006155320810208485, 0.005569564574239849])","array('d', [0.7777615944531299, 0.7593454968387937, 0.7424593249957224, 0.7270423911409346, 0.7130120796229528, 0.7002743673937679, 0.6887307776684253, 0.6782828863234375, 0.6688351855202751, 0.660296854406898, 0.652582801315028, 0.6456142144057072, 0.6393187731829298, 0.633630618566057, 0.6284901443671982, 0.622683902110154])",-57.60848578401472,-158.1603877204851,-45.21272222790733,0.29974722635350426,0.010501735058828418,0.7002743673937679,25.000000246268407,-1.0,"[-166.3527932515453, -64.94548319009422, 45.08326102269367]","[-162.3604257024579, -51.98562501940614, 51.49442921177147]","[-151.83631473230642, -61.65383766667406, 46.937154533288044]",10000000000.0,0.025035381317138672
20,-167.06712341308594,-65.70313262939453,45.078182220458984,0.44151958823204007,-0.017372291535139216,0.7738934914257861,23.172911991767034,"array('d', [-65.70313262939453, -63.9722628087948, -62.27234067519501, -60.60120881589797, -58.95670387462602, -57.33671211460155, -55.7392055458533, -54.16226442932329, -52.604090089484465, -51.06301079076548, -49.53748265541466, -48.0260870705072, -46.52752566311609, -45.04061366159425, -43.564272274341725, -42.39155509304408])","array('d', [-167.06712341308594, -165.2637106652344, -163.43098468501054, -161.57190187001797, -159.68918097239157, -157.78529646162733, -155.86248355351668, -153.92275032652103, -151.96789369813615, -149.99951714275593, -148.01904882362507, -146.0277593358867, -144.02677858754265, -142.01711154279684, -139.9996526665328, -138.37908059183331])","array('d', [-45.078182220458984, -45.11847981273193, -45.15369075668374, -45.18551325559954, -45.21499063845178, -45.242754532970274, -45.269171430527436, -45.29443197433507, -45.318606564024776, -45.34168180423942, -45.363587083745166, -45.3842174838387, -45.403457266892744, -45.42120674346123, -45.43741393357243, -45.449173919368505])","array('d', [0.44151958823204007, 0.4101450609734397, 0.3787937628881559, 0.34818443568113333, 0.31881502351604335, 0.29101214042205215, 0.26497121078613517, 0.24078845323443843, 0.21848612983672575, 0.19803240964603247, 0.17935700062751928, 0.16236348617080704, 0.14693910401514326, 0.13296254042408437, 0.120310181665484, 0.10886116399832722])","array('d', [0.017372291535139216, 0.014908290795704202, 0.01328842121879163, 0.012188613466615724, 0.011406880500540673, 0.01081457268244293, 0.010327464599507593, 0.009888634844744663, 0.009458513554388122, 0.009009432290883019, 0.008523128083080124, 0.007990268512349349, 0.00741136716769106, 0.006798556380465177, 0.006177644677974391, 0.0055897641151998025])","array('d', [0.7738934914257861, 0.7561053766991453, 0.7397806528202653, 0.7248642169671805, 0.7112795821191893, 0.698938768859748, 0.6877489409874706, 0.6776167767799149, 0.6684512986878797, 0.6601656623553003, 0.6526782415816851, 0.6459132312456521, 0.6398009131556537, 0.6342776792361491, 0.6292858738291244, 0.6236465775862244])",-57.33671211460155,-157.78529646162733,-45.242754532970274,0.29101214042205215,0.01081457268244293,0.698938768859748,25.000000246269046,-1.0,"[-165.99449303392578, -64.65490312405889, 45.10423934705722]","[-161.94638898836772, -51.62675231880279, 51.339633499141044]","[-151.46409393501133, -61.403725543494275, 46.92009902387713]",10000000000.0,0.010981559753417969
21,-166.71180725097656,-65.40953063964844,45.09760665893555,0.4280492961406706,-0.019380867481231825,0.7701531211521966,23.17186185377531,"array('d', [-65.40953063964844, -63.68490489194421, -61.99024685981781, -60.323483812165605, -58.68253084820238, -57.0653470928047, -55.46997188029396, -53.89454730107148, -52.33733117048827, -50.79670317107761, -49.27116611102275, -47.75934371196633, -46.25997597778609, -44.771912941899174, -43.294107409234236, -42.120021641776816])","array('d', [-166.71180725097656, -164.9025165633375, -163.06497355980784, -161.20200239923412, -159.31620230115396, -157.40994260842987, -155.48536737198856, -153.54440617279795, -151.58878854719893, -149.62006016512993, -147.63959954722517, -145.6486345575847, -143.6482582047139, -141.6394434661541, -139.62305696147484, -138.00359795953088])","array('d', [-45.09760665893555, -45.14203721733225, -45.17995463296751, -45.213566412038105, -45.244236219817026, -45.27279966424874, -45.299754841909994, -45.325378516009884, -45.3497983115106, -45.37303948267238, -45.39505794615262, -45.41576722796267, -45.43506445663146, -45.452858745125994, -45.469103722638486, -45.48089004215126])","array('d', [0.4280492961406706, 0.39772934155867273, 0.36742066282006863, 0.3378136570282938, 0.3093891792902106, 0.28246471965467723, 0.2572320787446967, 0.23378755622035366, 0.21215591159601163, 0.19230930856492065, 0.1741822902330319, 0.15768364301461624, 0.14270583100866976, 0.12913253438897987, 0.116844706534436, 0.10572547214456872])","array('d', [0.019380867481231825, 0.01621822435558066, 0.014151355867314879, 0.012762055743912856, 0.01179061230713919, 0.011072618258763779, 0.010501469685733197, 0.010006092407329453, 0.009537865609189388, 0.009063256561921453, 0.008560135044182448, 0.008016548044474856, 0.007431153811748992, 0.006814681271180158, 0.006191783478010111, 0.005602557459979712])","array('d', [0.7701531211521966, 0.7529734801242832, 0.737193357133462, 0.7227629457981246, 0.7096115579717073, 0.6976569424413981, 0.6868116252786708, 0.6769871516775625, 0.6680968794868231, 0.6600577812615055, 0.6527915660611459, 0.6462253291442435, 0.6402918674489305, 0.6349297520360794, 0.6300832181201058, 0.6246074592286835])",-57.0653470928047,-157.40994260842987,-45.27279966424874,0.28246471965467723,0.011072618258763779,0.6976569424413981,25.000000246269654,-1.0,"[-165.6353033575083, -64.36535903851943, 45.12667614024079]","[-161.5333641729896, -51.2720788354958, 51.18803807066695]","[-151.09164816169954, -61.15171906035103, 46.902798781316726]",10000000000.0,0.012008190155029297
22,-166.3566436767578,-65.11740112304688,45.11980056762695,0.4148982763290403,-0.020978871732950412,0.7665810743954519,23.170772492169906,"array('d', [-65.11740112304688, -63.39874726129963, -61.70910992070425, -60.04649864342122, -58.408904688350376, -56.794357888347534, -55.200962909070334, -53.6269218430169, -52.07054733015812, -50.53026895651183, -49.004634841725384, -47.49230979582034, -45.992071070094404, -44.50280247962553, -43.02348749831231, -41.84761665217617])","array('d', [-166.3566436767578, -164.541760332838, -162.69964288135054, -160.83298956644006, -158.94428563953898, -157.03580007559265, -155.1095897675613, -153.1675091469718, -151.21122315870394, -149.24222199318746, -147.26183647004132, -145.27125334881987, -143.2715301060547, -141.26360888685508, -139.24832944344678, -137.6294750909819])","array('d', [-45.11980056762695, -45.16751358594923, -45.20756984704777, -45.242585539747395, -45.274181300420445, -45.30335634932548, -45.330714360080485, -45.356601223140814, -45.38119055243005, -45.40453872734077, -45.42662309529825, -45.44737214552269, -45.46669349231295, -45.48450344581958, -45.50076020821189, -45.51255796897046])","array('d', [0.4148982763290403, 0.3856232745218374, 0.35634175900291326, 0.327718471383369, 0.300218945830614, 0.27415268456350317, 0.2497085756202355, 0.22698342837514154, 0.206004741820933, 0.18674879339461725, 0.16915499967875405, 0.15313733561332404, 0.13859344294007436, 0.12541192534250561, 0.11347821978341124, 0.10267934868911605])","array('d', [0.020978871732950412, 0.0172559874418652, 0.014830856288977779, 0.013209661412771611, 0.01208636005427783, 0.011267863456819039, 0.010629629176647809, 0.010089246086067587, 0.00959084880464224, 0.009096214163875878, 0.008580119502703196, 0.008028513195113975, 0.007438559792806137, 0.006819845022801732, 0.0061960625840963325, 0.005606429442885656])","array('d', [0.7665810743954519, 0.7499884979679049, 0.7347341494791473, 0.720773296512824, 0.7080407720796956, 0.6964597752158701, 0.6859479407298671, 0.6764214598786691, 0.6677978379506357, 0.6599977061225438, 0.6529459758019031, 0.6465725308558825, 0.640812588996697, 0.6356068203919469, 0.6309012829423846, 0.6255860296636038])",-56.794357888347534,-157.03580007559265,-45.30335634932548,0.27415268456350317,0.011267863456819039,0.6964597752158701,25.00000024627021,-1.0,"[-165.6353033575083, -64.36535903851943, 45.12667614024079]","[-161.5333641729896, -51.2720788354958, 51.18803807066695]","[-151.09164816169954, -61.15171906035103, 46.902798781316726]",10000000000.0,0.011173248291015625
