,current_time,x_pos,y_pos,z_pos,roll,pitch,yaw,vel,x_traj,y_traj,z_traj,roll_traj,pitch_traj,yaw_traj,x_cmd,y_cmd,z_cmd,roll_cmd,pitch_cmd,yaw_cmd,vel_cmd,effector_dmg,effector_x,effector_y,effector_z,cost,time_solution
0,6.018388986587524,-173.0979461669922,-120.842041015625,49.93385696411133,0.6301879882812499,0.03403950110077846,0.3098963061955311,23.089319459436528,"array('d', [-121.58078002929688, -120.78635916771503, -120.04286612398595, -119.33782893166634, -118.66208976939548, -118.00883360126382, -117.37294824910069, -116.75060953996531, -116.13898248590614, -115.53598992403158, -114.9401259133869, -114.35030300572936, -113.76572805932224, -113.18580390433037, -112.61005545450367, -112.15283998071796])","array('d', [-175.75241088867188, -173.38312269852588, -170.9967526787253, -168.5984689911447, -166.1916423442098, -163.7785580657929, -161.3608100122502, -158.93952561102273, -156.51550614049737, -154.089320682486, -151.661372689238, -149.23194899981357, -146.8012565998531, -144.36945005440882, -141.9366512804217, -139.98961712214117])","array('d', [-49.92477798461914, -49.854236149810774, -49.80683599220558, -49.77454399125098, -49.75225124578412, -49.73666082475987, -49.725613794414606, -49.717675414864935, -49.711877888666876, -49.707558696475644, -49.70425817116423, -49.701654353986186, -49.69952168253322, -49.6977051214763, -49.69610435728008, -49.694952431067435])","array('d', [0.6316531300544738, 0.4968029886919778, 0.38557103484338534, 0.29871535354498646, 0.23131131642264624, 0.17955706826649828, 0.14035921447527663, 0.11112680106553138, 0.08966245166603555, 0.07410199684388366, 0.0628792693576503, 0.05470441607912812, 0.048549884667323455, 0.04364120749713067, 0.03945120025228805, 0.03569692540688343])","array('d', [-0.033949624747037756, -0.022679640368913085, -0.01536486774347455, -0.010549801200814732, -0.007338214723487075, -0.005170369252561573, -0.0036919475256048926, -0.002675719702609705, -0.001974011355648658, -0.0014894279328760973, -0.0011565461998440305, -0.0009302824334208889, -0.0007783888088736924, -0.0006765588767746502, -0.0006052422580364704, -0.0005476462079969702])","array('d', [0.3365520993855336, 0.31172749277712586, 0.29321812654789153, 0.27926487399885025, 0.26863459599875106, 0.260473768626535, 0.254155251880274, 0.24920428583177454, 0.24525845429836549, 0.24204325722361314, 0.2393551364504782, 0.2370481548010259, 0.23502251695957635, 0.23321405192725755, 0.23158421161622392, 0.2297418697862254])",-118.00883360126382,-163.7785580657929,-49.73666082475987,0.17955706826649828,-0.005170369252561573,0.260473768626535,25.000000245890167,-1.0,"[-172.54740072029153, -120.60718036304067, 49.879822893358714]","[-162.56398345418526, -111.36992776734732, 56.20473745200436]","[-157.8704767608052, -122.78058191163034, 47.67432322297929]",10000000000.0,0.01136016845703125
1,6.033267021179199,-172.65476989746094,-120.72608184814453,49.935455322265625,0.6298783421516416,0.0340656489133834,0.30570454994705687,23.086905284106628,"array('d', [-121.45269012451172, -120.6691900800477, -119.93666516511463, -119.2425749711856, -118.57771075056151, -117.93522643289658, -117.30999175380747, -116.6981735994947, -116.09693469443462, -115.50420037572495, -114.91847049016079, -114.33866543561493, -113.76400098235919, -113.19388917025896, -112.6278638696576, -112.17835438508912])","array('d', [-175.3116912841797, -172.9387680164791, -170.54900823797868, -168.14753357318108, -165.73768023856707, -163.3217056936012, -160.9011815136771, -158.4772173781193, -156.05060042522857, -153.62188842798892, -151.1914757227731, -148.75964171040007, -146.326587207486, -143.89246156285674, -141.4573821928406, -139.50855435593604])","array('d', [-49.926231384277344, -49.855729541283516, -49.80833272212021, -49.77602651251855, -49.7537122178174, -49.73809815859105, -49.72702794555182, -49.71906794022818, -49.713250705733515, -49.70891372695847, -49.705597190863784, -49.70297894911652, -49.70083325681017, -49.69900492267743, -49.69739350560454, -49.69623386744584])","array('d', [0.6314727067947385, 0.4966397341976241, 0.38485355327329995, 0.29762601804705613, 0.2299861769436811, 0.17810009246759326, 0.13884976372800353, 0.10962422730641741, 0.08820940964115394, 0.0727271655643668, 0.06159978371061286, 0.05352813430900889, 0.047477543692217905, 0.042668491419736214, 0.03857074073490112, 0.03490025261834854])","array('d', [-0.033923584967851514, -0.02267334338679254, -0.015368330447684942, -0.010557633435829378, -0.007347596708892386, -0.005179895788928656, -0.0037009756425542945, -0.0026840046901524966, -0.00198150622900038, -0.0014961748258034762, -0.0011626191868300765, -0.0009357590565850382, -0.0007833376761662495, -0.0006810363365762719, -0.0006092941997523248, -0.0005513125568062031])","array('d', [0.3319412032749991, 0.30712606333387005, 0.28863783080615246, 0.2747245777796221, 0.26414520497253663, 0.25604135582259646, 0.2497825584729882, 0.24489161998497191, 0.24100434194129616, 0.23784496981916348, 0.2352091360908823, 0.23295046636981742, 0.23096902776827188, 0.22920073765035834, 0.2276072878892073, 0.22580610048834962])",-117.93522643289658,-163.3217056936012,-49.73809815859105,0.17810009246759326,-0.005179895788928656,0.25604135582259646,25.000000245879566,-1.0,"[-171.67022591123188, -120.38486617940286, 49.88280757217618]","[-161.59167998248208, -111.21128182847133, 56.14924692147373]","[-157.01993162026065, -122.6610168373541, 47.6050860417331]",10000000000.0,0.01153564453125
2,6.052983045578003,-172.65476989746094,-120.72608184814453,49.935455322265625,0.6298783421516416,0.0340656489133834,0.30570454994705687,23.086905284106628,"array('d', [-121.32660675048828, -120.55379822365506, -119.83200028010941, -119.14860800636443, -118.49436446198911, -117.86239433196175, -117.24755047587135, -116.64599166383094, -116.05487888845364, -115.47214035056844, -114.89628191175788, -114.32623194804366, -113.76121521089829, -113.20065298083452, -112.64408809548257, -112.20207444431895])","array('d', [-174.87025451660156, -172.4938280010619, -170.10080694482818, -167.6962664666773, -165.28350833987196, -162.8647623355784, -160.44157797806866, -158.01504744222783, -155.58594396650312, -153.15481424323687, -150.7220437049249, -148.28790450828265, -145.8525914769388, -143.4162489020497, -140.97898984153923, -139.02844804672753])","array('d', [-49.927734375, -49.857220860526255, -49.80979265703022, -49.777448529183076, -49.755096231218054, -49.73944692183975, -49.72834518481233, -49.72035744550212, -49.714515932682566, -49.71015766350744, -49.706822354341995, -49.70418744185164, -49.702026841988555, -49.70018510043818, -49.69856157896444, -49.69739318244516])","array('d', [0.631210923194885, 0.4964028621909417, 0.3840864445036443, 0.2965044567555728, 0.22864140387054424, 0.17663245313848094, 0.1373358588892693, 0.10812131068990617, 0.08675856595239376, 0.07135593270367013, 0.06032450472989785, 0.052356156454611356, 0.046409311836245706, 0.04169955857862631, 0.03769371277004002, 0.0341066848272239])","array('d', [-0.03392242267727849, -0.022683654613478967, -0.015383057491992473, -0.010573229054431133, -0.007362417850937692, -0.0051932989824230395, -0.003712817930363203, -0.0026943742736506206, -0.001990580959504818, -0.0015041507712028287, -0.001169677027141569, -0.0009420506013763003, -0.0007889829619856573, -0.0006861262523488609, -0.0006138959501750079, -0.0005554763931507219])","array('d', [0.3274317542698717, 0.3026303461925625, 0.2841661959519581, 0.27029472245351066, 0.2597673102118686, 0.25172102380010414, 0.24552221984938835, 0.2406913806659384, 0.23686260139396131, 0.2337589265987119, 0.23117521657792883, 0.2289646844037001, 0.2270272746115883, 0.22529900065718794, 0.22374179704055672, 0.2219816011274203])",-117.86239433196175,-162.8647623355784,-49.73944692183975,0.17663245313848094,-0.0051932989824230395,0.25172102380010414,25.00000024586905,-1.0,"[-171.22514709835548, -120.27489606805379, 49.884366731349694]","[-161.10017938026175, -111.13252262714433, 56.12151644692595]","[-156.5883215793543, -122.60142814545166, 47.571233095098975]",10000000000.0,0.015633106231689453
3,6.070100784301758,-172.65476989746094,-120.72608184814453,49.935455322265625,0.6298783421516416,0.0340656489133834,0.30570454994705687,23.086905284106628,"array('d', [-121.08038330078125, -120.32862062765314, -119.62793996599471, -118.96560971059331, -118.33227817879013, -117.72101250570113, -117.12663227189817, -116.54528016799055, -115.97411365319583, -115.41106643445977, -114.85465608336516, -114.30382655586394, -113.75782016481821, -113.21607627064961, -112.67815526089922, -112.25091487972028])","array('d', [-173.98538208007812, -171.60222048365165, -169.20293493116722, -166.79250987374743, -164.37417936712404, -161.95011870918026, -159.521834096033, -157.0903833988444, -154.65651271732446, -152.22074720732138, -149.78345508256365, -147.3448945621419, -144.90524899276107, -142.4646530154129, -140.0232113916354, -138.0693802565828])","array('d', [-49.930782318115234, -49.860054696344974, -49.81243469356899, -49.77992610741053, -49.75743599924503, -49.741672417639336, -49.73047612910573, -49.722409850612, -49.71650255130553, -49.71208853775954, -49.708705353369886, -49.70602874248473, -49.70383133906009, -49.70195674746169, -49.700303664858104, -49.69911389439542])","array('d', [0.6307510733604432, 0.4959867723873481, 0.3826236138081527, 0.2943408811919451, 0.2260353081716284, 0.17378132335721935, 0.13439053446037602, 0.10519461867771085, 0.0839315494988969, 0.06868299115355232, 0.057838008952496675, 0.050070768817788804, 0.044326101851288296, 0.039809957240591894, 0.03598333823689775, 0.03255907381065321])","array('d', [-0.034011714160442304, -0.022765837222730186, -0.015454521438162963, -0.010633529301979913, -0.007412540083367297, -0.005234741173578798, -0.003747136545916412, -0.002722982593168935, -0.0020146772463482563, -0.0015247090708797784, -0.0011874651534372752, -0.0009576575952136287, -0.0008028478895081491, -0.0006985651591484735, -0.0006251261163399401, -0.0005656378686190268])","array('d', [0.3185764114048818, 0.29379911416460747, 0.27537999967283183, 0.26158867133535263, 0.2511616516416669, 0.24322696792409865, 0.23714471854881275, 0.23243079523970236, 0.2287159196215183, 0.22572075837407118, 0.22323863895898183, 0.22112195085565273, 0.21927038706324326, 0.21762014105318006, 0.21613361674323314, 0.2144533550962261])",-117.72101250570113,-161.95011870918026,-49.741672417639336,0.17378132335721935,-0.005234741173578798,0.24322696792409865,25.000000245847886,-1.0,"[-171.22514709835548, -120.27489606805379, 49.884366731349694]","[-161.10017938026175, -111.13252262714433, 56.12151644692595]","[-156.5883215793543, -122.60142814545166, 47.571233095098975]",10000000000.0,0.012609243392944336
4,6.087409734725952,-171.7664337158203,-120.49992370605469,49.93845748901367,0.6291761994361876,0.03422802686691269,0.29741199413803604,23.085003870056052,"array('d', [-120.9602279663086, -120.2188976501397, -119.52868074449157, -118.87678374727206, -118.25380872001772, -117.65279477695843, -117.06854536701027, -116.49719547768146, -115.93590101742122, -115.38259857667695, -114.835811652505, -114.2944920204195, -113.75789077726587, -113.22545631146293, -112.69675776636444, -112.27682464853874])","array('d', [-173.54197692871094, -171.155550625875, -168.75323491364617, -166.3399678654627, -163.91894911895656, -161.4923265371774, -159.0615846358313, -156.62776421591585, -154.19159794394292, -151.75360037286663, -149.3141312854078, -146.8734421122852, -144.43171063670508, -141.98906683905383, -139.54561148370476, -137.59019657831604])","array('d', [-49.932308197021484, -49.86154095441828, -49.81387028458044, -49.78131024801191, -49.758772475869606, -49.742966626170315, -49.73173362284048, -49.72363569691084, -49.71770110700613, -49.713263430879024, -49.70985955790244, -49.707164687521626, -49.704951022597015, -49.70306184042889, -49.70139559862005, -49.70019630870464])","array('d', [0.6304990649223325, 0.49575874556159055, 0.3818822912591273, 0.2932562517419531, 0.22473426526844123, 0.17236095759103792, 0.13292503357453536, 0.10373948552040357, 0.08252664605514996, 0.06735505673003664, 0.056602927478138526, 0.048935695519808274, 0.04329149192011522, 0.03887151619786409, 0.03513390926615652, 0.03179047862437136])","array('d', [-0.03402386978268611, -0.02278526935781442, -0.015475602854074845, -0.010653628141275986, -0.007430607879763046, -0.005250526612027314, -0.0037607593223561073, -0.002734709526125522, -0.0020248094570579985, -0.0015335288489176984, -0.0011952141234040526, -0.000964530838991169, -0.0008089959482001403, -0.0007040997926121288, -0.0006301277409535988, -0.0005701635261264846])","array('d', [0.31419511238602205, 0.2894310227267097, 0.2710351270140809, 0.257284113132194, 0.2469072586174392, 0.23902818214393723, 0.23300392186705188, 0.22834811920153902, 0.22468983903437237, 0.22174857916454999, 0.2193169136616547, 0.21724682802607712, 0.21543789337072763, 0.2138263941435639, 0.21237496795507593, 0.2107344010313408])",-117.65279477695843,-161.4923265371774,-49.742966626170315,0.17236095759103792,-0.005250526612027314,0.23902818214393723,25.000000245837164,-1.0,"[-171.2012456227603, -120.26915425637765, 49.88444053349792]","[-161.07382333825055, -111.12840707938416, 56.1199885380843]","[-156.5651427084202, -122.59833558784149, 47.56940148285411]",10000000000.0,0.013060808181762695
5,6.10658073425293,-171.32127380371094,-120.38970947265625,49.93982696533203,0.6283688545227049,0.03432435542345036,0.2931985417988636,23.08470516878081,"array('d', [-120.842041015625, -120.11095630406165, -119.43100767063181, -118.78934267438407, -118.17651920367541, -117.58554971588481, -117.01122244700974, -116.44966530228182, -115.89803305160908, -115.35426543227668, -114.81689202432418, -114.28487250714211, -113.75746679791142, -113.2341323207609, -112.71444696806007, -112.30165386476061])","array('d', [-173.0979461669922, -170.7083624895841, -168.3031212974542, -165.88711413989975, -163.46350622334168, -161.0344181144698, -158.60131284360784, -156.16521435292833, -153.72684208517393, -151.28670018942813, -148.84514020217088, -146.40240693478898, -143.95867276013493, -141.51406313581907, -139.06867495257197, -137.1117402527261])","array('d', [-49.93385696411133, -49.8630429089433, -49.81531677611944, -49.78270202807426, -49.76011432625845, -49.74426459701206, -49.732993703542505, -49.72486324969122, -49.71890069085729, -49.71443881429536, -49.71101381378321, -49.708300315546204, -49.70607007197449, -49.704166020157345, -49.702486369518674, -49.701277379982336])","array('d', [0.6301879882812499, 0.49547727163829935, 0.38110609196882045, 0.2921501278425914, 0.22342133299255165, 0.17093546952991345, 0.13145902010689092, 0.10228681479036672, 0.08112596158739326, 0.06603221707216891, 0.05537321054665791, 0.04780587123031288, 0.04226180198355288, 0.03793757867058369, 0.03428856186460759, 0.031025576594953853])","array('d', [-0.03403950110077846, -0.0228070012166526, -0.015498234529090696, -0.010674793878857336, -0.007449426687740605, -0.005266853724155344, -0.003774783059036013, -0.002746741492533532, -0.002035180407151447, -0.0015425409459295626, -0.0012031224831487654, -0.0009715397769917448, -0.0008152623205078934, -0.0007097395952756029, -0.0006352240706806162, -0.000574774876371864])","array('d', [0.3098963061955311, 0.2851485142611031, 0.26677794251642095, 0.2530684574939237, 0.24274243515101598, 0.23491928091422729, 0.22895309583976117, 0.22435535396957998, 0.2207535213905074, 0.21786596782835146, 0.2154845421521566, 0.21346084439117846, 0.21169433478809455, 0.21012139414831665, 0.2087048952352877, 0.20710383004791277])",-117.58554971588481,-161.0344181144698,-49.74426459701206,0.17093546952991345,-0.005266853724155344,0.23491928091422729,25.000000245826474,-1.0,"[-169.88613311479725, -119.95644121762858, 49.888350541508764]","[-159.6237914438961, -110.90354184647347, 56.03077322359643]","[-155.2911088936194, -122.43303825003464, 47.46931455122069]",10000000000.0,0.013109683990478516
6,6.127110004425049,-170.87547302246094,-120.28141784667969,49.941131591796875,0.6264453530311582,0.0342811122536658,0.28894288937119017,23.085627214298867,"array('d', [-120.72608184814453, -120.00500033801671, -119.33507521004992, -118.70339696335412, -118.10048068383117, -117.51931301953508, -116.95466750173065, -116.40266522648697, -115.86045993087218, -115.32599448603199, -114.79780446082484, -114.27485729286164, -113.7564215459939, -113.24196349640506, -112.73106960476274, -112.32524060035267])","array('d', [-172.65476989746094, -170.2621505809869, -167.85409962443725, -165.4354629262577, -163.00937186330802, -160.5779202375496, -158.14255005610246, -155.70426880363408, -153.26378304876337, -150.82158684267344, -148.37802374447355, -145.93333218332063, -143.48767933139504, -141.04118630938748, -138.59394629944035, -136.63555536229262])","array('d', [-49.935455322265625, -49.864572645306986, -49.81677642857257, -49.784096986700874, -49.7614524082333, -49.74555386655499, -49.73424150456426, -49.726075866824544, -49.720083318346724, -49.715595662322144, -49.71214826476801, -49.70941508758916, -49.70716736978729, -49.705247665361185, -49.70355390759978, -49.7023347144929])","array('d', [0.6298783421516416, 0.4951970921148533, 0.3803444192843509, 0.2910673981477114, 0.22213741323062108, 0.1695421522514773, 0.13002647786718377, 0.10086753917981059, 0.07975761339938774, 0.06473999639821815, 0.05417200165329892, 0.046702261738037605, 0.04125601303741477, 0.03702532242808767, 0.033462839503765406, 0.030278432038306772])","array('d', [-0.0340656489133834, -0.02283572999010734, -0.015525605919095324, -0.010699230994113929, -0.007470548103980887, -0.005284835431992983, -0.0037900222628349067, -0.0027596878012959973, -0.0020462570722705954, -0.0015521129843766557, -0.0012114882187575868, -0.0009789334205560947, -0.0008218613227622352, -0.0007156737743260558, -0.0006405851527040102, -0.0005796257844229871])","array('d', [0.30570454994705687, 0.2809729746775239, 0.2626273356757983, 0.24895851619722534, 0.2386821933511325, 0.23091368228798517, 0.22500422924975708, 0.22046319875899842, 0.21691649907169175, 0.21408139993704156, 0.21174904279488255, 0.20977065160482317, 0.20804557850372507, 0.20651029844250116, 0.20512791379382572, 0.2035654313628411])",-117.51931301953508,-160.5779202375496,-49.74555386655499,0.1695421522514773,-0.005284835431992983,0.23091368228798517,25.000000245815876,-1.0,"[-169.4384993632226, -119.85426032266108, 49.889719994569575]","[-159.12973004862084, -110.82437090636124, 55.98811095839939]","[-154.85815480843468, -122.3864931979354, 47.439954836631806]",10000000000.0,0.014345645904541016
7,6.150216579437256,-170.4290008544922,-120.17507934570312,49.94234085083008,0.6225854158401488,0.03406627848744381,0.2846914092686514,23.08817226051479,"array('d', [-120.49992370605469, -119.79866452448151, -119.14858802300014, -118.53667539683288, -117.95335932713391, -117.39157689199284, -116.84607357668052, -116.31295778297333, -115.78938180968765, -115.27329521683407, -114.76324582720413, -114.25821677062088, -113.75749401272202, -113.26056159996722, -112.76702317181089, -112.37494058646689])","array('d', [-171.7664337158203, -169.36794048212414, -166.95446123770523, -164.53075139613156, -162.0998748656948, -159.6638721117559, -157.22414332474764, -154.7816633455264, -152.33711329806252, -149.89096736024052, -147.44355346433588, -144.9950975967821, -142.5457568350383, -140.09564391128598, -137.64484485097705, -135.6836571336186])","array('d', [-49.93845748901367, -49.867208214156236, -49.81911653872221, -49.786201081811555, -49.76336853261301, -49.74732000716199, -49.735887257755344, -49.72762406500437, -49.72155146202937, -49.71699711533688, -49.71349322360007, -49.71071135671007, -49.70842097915497, -49.70646336295328, -49.70473555370389, -49.70349175156035])","array('d', [0.6291761994361876, 0.49456176682801256, 0.37877082541628576, 0.2888694514159686, 0.21954980849169398, 0.16674473434969742, 0.12715678573969819, 0.09802845220883148, 0.07702289498958792, 0.062158921643196155, 0.0517735609699223, 0.044499128614631525, 0.03924834258622602, 0.035204409400321206, 0.031814659882373295, 0.02878709731017193])","array('d', [-0.03422802686691269, -0.022967266622884362, -0.015630918342680277, -0.010783104900607323, -0.007537342079065519, -0.0053382541055659, -0.003833087258595021, -0.002794799913188404, -0.00207529015753935, -0.0015765098627846085, -0.0012323457734885368, -0.000997072999914603, -0.0008378848602227543, -0.0007300078508416099, -0.0006535156889628224, -0.000591325804671841])","array('d', [0.29741199413803604, 0.27271716864852297, 0.2544243534100371, 0.2408386039122895, 0.23066267998182569, 0.22300398874014457, 0.2172082344310054, 0.2127806717177163, 0.20934416699644823, 0.20661384078580539, 0.20437945425636514, 0.20249150190645465, 0.20084913330780926, 0.1993890185912715, 0.1980747215219125, 0.196589244872139])",-117.39157689199284,-159.6638721117559,-49.74732000716199,0.16674473434969742,-0.0053382541055659,0.22300398874014457,25.000000245795274,-1.0,"[-168.99021356853274, -119.75403183626669, 49.89125131610097]","[-158.6351877128855, -110.73674915528554, 55.92963293538892]","[-154.42471261852114, -122.34818676954288, 47.418086894278254]",10000000000.0,0.01798105239868164
8,6.16715145111084,-170.4290008544922,-120.17507934570312,49.94234085083008,0.6225854158401488,0.03406627848744381,0.2846914092686514,23.08817226051479,"array('d', [-120.38970947265625, -119.69851109566049, -119.05845712237821, -118.45648489198793, -117.88299302692081, -117.33089875196214, -116.7949372241696, -116.27121343279939, -115.75688138449702, -115.24989604559956, -114.74881314891148, -114.25262523101304, -113.7606283368567, -113.27231662475175, -112.78730342248713, -112.40196346175556])","array('d', [-171.32127380371094, -168.91986813291902, -166.50371482882778, -164.07751866629982, -161.6443065393658, -159.20609024909234, -156.7642477999785, -154.3197368653448, -151.87322527198432, -149.4251768598133, -146.97591145872687, -144.5256486179254, -142.07454019946468, -139.6226946049979, -137.17019416717628, -135.20767053107448])","array('d', [-49.93982696533203, -49.86836254530606, -49.82010112890215, -49.7870523344572, -49.76411504711392, -49.74798393773067, -49.736485600202286, -49.72816977101526, -49.72205435664749, -49.71746463080402, -49.71393097743421, -49.711123604725735, -49.70881097140359, -49.70683362571, -49.70508811540935, -49.703831523409065])","array('d', [0.6283688545227049, 0.49383125082304064, 0.37762724750697535, 0.28745821684441986, 0.21798041767069307, 0.1651013759888632, 0.12550380890859048, 0.0964137529379764, 0.07548043728868264, 0.06071090111342965, 0.05043241146292895, 0.043269440290758424, 0.038128710004386286, 0.03418921577721465, 0.030895805277001163, 0.027955683206216664])","array('d', [-0.03432435542345036, -0.02304346221503516, -0.01569081336605588, -0.010830104552232914, -0.007574303989954081, -0.005367489631444104, -0.0038564212427376226, -0.0028136501119423833, -0.0020907458040601897, -0.0015894003763235135, -0.0012432969421128886, -0.0010065510729141438, -0.0008462303028153535, -0.0007374608935333738, -0.0006602357187145766, -0.0005974063395863818])","array('d', [0.2931985417988636, 0.2685459336869332, 0.2502979060574527, 0.23676834496038945, 0.22665487169221013, 0.21906163111970858, 0.21333195746062622, 0.2089693036730524, 0.20559518824348402, 0.20292378385733192, 0.20074425976624227, 0.19890682482746086, 0.1973105925812033, 0.19589238542670576, 0.19461604427412318, 0.19317349553903623])",-117.33089875196214,-159.20609024909234,-49.74798393773067,0.1651013759888632,-0.005367489631444104,0.21906163111970858,25.00000024578424,-1.0,"[-168.99021356853274, -119.75403183626669, 49.89125131610097]","[-158.6351877128855, -110.73674915528554, 55.92963293538892]","[-154.42471261852114, -122.34818676954288, 47.418086894278254]",10000000000.0,0.012708187103271484
9,6.187527418136597,-169.5340118408203,-119.96834564208984,49.94469451904297,0.6071117520332336,0.0326406359672546,0.2763151685383658,23.09553913791004,"array('d', [-120.28141784667969, -119.60031832230376, -118.97020175751027, -118.37798805582898, -117.81405957863538, -117.271325991416, -116.7445212946541, -116.22975427968132, -115.72418654477254, -115.22578338032443, -114.73311261127347, -114.24517978553254, -113.76129417068599, -113.28096280829313, -112.80381118320206, -112.42466402402196])","array('d', [-170.87547302246094, -168.47118070692557, -166.05241585478814, -163.6238189807257, -161.18837254179468, -158.7480555056523, -156.304221173432, -153.85780842551029, -151.40947066804188, -148.95966057076322, -146.5086892035586, -144.05676913071454, -141.60404652616717, -139.1506250451474, -136.6965829593708, -134.7328535194538])","array('d', [-49.941131591796875, -49.869742769277934, -49.82150852057626, -49.78846186008317, -49.76551448301483, -49.749367941932405, -49.73785242308523, -49.72951945354063, -49.723387762715056, -49.718782944086925, -49.715235453840435, -49.71241546241339, -49.7100913513524, -49.708103584553186, -49.70634862851366, -49.70508519598698])","array('d', [0.6264453530311582, 0.49209079455986915, 0.3756216606328342, 0.28530125768855236, 0.21575990686474908, 0.16288552890609775, 0.12334461690762266, 0.094349243695503, 0.0735365453083049, 0.05890322885586478, 0.04876796506073778, 0.04174834542349969, 0.036745892171684724, 0.032936032475911474, 0.029761628056048206, 0.02692943712511897])","array('d', [-0.0342811122536658, -0.023025774657974424, -0.015686538592259366, -0.010832559672969368, -0.007579869096206598, -0.005374250198541342, -0.0038634022005080795, -0.0028203856114685398, -0.0020970388902945827, -0.0015951899378972498, -0.0012485852545247999, -0.001011365644235147, -0.000850605259475664, -0.0007414295999415905, -0.0006638298514371743, -0.0006006584594939824])","array('d', [0.28894288937119017, 0.2643906984297638, 0.24623209883849131, 0.23279394080040888, 0.22277206079392312, 0.21526910288941314, 0.20962706475099913, 0.205348261379115, 0.2020533232798094, 0.1994558138183703, 0.1973445704495356, 0.1955697218088533, 0.194030510257749, 0.19266404426606062, 0.1914345520168014, 0.19004498781306267])",-117.271325991416,-158.7480555056523,-49.749367941932405,0.16288552890609775,-0.005374250198541342,0.21526910288941314,25.00000024577231,-1.0,"[-168.09167966730803, -119.55934493616836, 49.89574225855307]","[-157.6457201673429, -110.52803646252062, 55.75384753064459]","[-153.555713108128, -122.30402318470959, 47.41130721162895]",10000000000.0,0.01566600799560547
10,6.210357427597046,-169.08551025390625,-119.86797332763672,49.946044921875,0.5950645804405211,0.03147882595658296,0.27229578892258194,23.0999451947941,"array('d', [-120.17507934570312, -119.50395152942285, -118.8834311899589, -118.30046761629336, -117.74545840716858, -117.2113273330421, -116.69282332835876, -116.18607157958068, -115.68825148737538, -115.19734714705467, -114.71194564246858, -114.23107167366233, -113.75405305918837, -113.28041440419265, -112.80979750999343, -112.43574986699103])","array('d', [-170.4290008544922, -168.02189192284465, -165.60064134385473, -163.1698046921796, -160.73230885734145, -158.29009382690728, -155.84448454207333, -153.396398747311, -150.94647380015465, -148.49514996983294, -146.04272856380305, -143.58941429832444, -141.13534689209882, -138.68062456415524, -136.22532090619566, -134.2606137199756])","array('d', [-49.94234085083008, -49.87138562105592, -49.823421952433335, -49.790545608470126, -49.76770617294128, -49.75162833138336, -49.74015656485346, -49.73185135090009, -49.72573710577605, -49.721143095309735, -49.71760218816876, -49.71478616422778, -49.71246448634657, -49.71047833380964, -49.7087246143151, -49.707462041071906])","array('d', [0.6225854158401488, 0.48859817855523924, 0.3721276280467415, 0.28186241657946337, 0.21242480529377325, 0.1596933847438734, 0.12032497854380853, 0.0915222483586046, 0.07091362929940993, 0.05648816357127511, 0.04655809649387046, 0.039735932753395264, 0.03491947008981572, 0.03128175275162783, 0.028264561548113545, 0.02557483520877418])","array('d', [-0.03406627848744381, -0.02289223130423233, -0.015602746204150177, -0.010779572636157638, -0.007546177264804242, -0.005352777391681216, -0.003849742434614943, -0.0028117568506936166, -0.0020916568846814612, -0.0015918906553524367, -0.0012465961905162453, -0.0010101675232663003, -0.0008498494576517178, -0.0007408903795873209, -0.0006633783742427081, -0.0006002499321558243])","array('d', [0.2846914092686514, 0.2603400282405172, 0.24234782266371255, 0.22906156877176007, 0.21918117849296603, 0.21181087825074457, 0.2062931451781211, 0.2021303284491207, 0.19894298612558245, 0.1964446733871066, 0.19442435688157414, 0.19273244705552514, 0.19126860316539365, 0.1899704511008597, 0.1888027946058215, 0.18748316283217653])",-117.2113273330421,-158.29009382690728,-49.75162833138336,0.1596933847438734,-0.005352777391681216,0.21181087825074457,25.000000245762397,-1.0,"[-167.64149200319667, -119.46475816687408, 49.89883448077565]","[-157.15200292058125, -110.40443466532516, 55.63304382757947]","[-153.1198513129548, -122.2972803679531, 47.42926576460145]",10000000000.0,0.0176849365234375
11,6.2266526222229,-168.6363525390625,-119.76961517333984,49.947566986083984,0.5800207853317257,0.030006561428308362,0.26819570461777215,23.10489133228857,"array('d', [-119.96834564208984, -119.31637842109278, -118.71342401362456, -118.14667164070775, -117.60667255485, -117.08646403697738, -116.58088857350485, -116.0861541705691, -115.59951649989208, -115.11903109089538, -114.64335214495212, -114.17156717176618, -113.70306234837406, -113.23741607117978, -112.77431935603609, -112.40590454533934])","array('d', [-169.5340118408203, -167.12155257672512, -164.695827178598, -162.26114066896892, -159.8202662790415, -157.3750430767926, -154.9267259371967, -152.47618192977467, -150.0240105097414, -147.57062272094305, -145.11629667165164, -142.66121814530288, -140.20551101248515, -137.74925993425722, -135.29252670310728, -133.3267552889043])","array('d', [-49.94469451904297, -49.87668496921687, -49.830676096890414, -49.79911674054106, -49.777177697415354, -49.76172436340802, -49.75069210291061, -49.742701014630775, -49.736815251783284, -49.732390985660665, -49.728979569939945, -49.72626562164743, -49.72402753318535, -49.72211258634663, -49.72042162054918, -49.71920420701162])","array('d', [0.6071117520332336, 0.47459702726933095, 0.3591793474029575, 0.2698528298809193, 0.2012941222102215, 0.1494038276465652, 0.1108454677009424, 0.0828210378587892, 0.06295516045974218, 0.04923227945984419, 0.03996055738108621, 0.03374958954893878, 0.029495711003305423, 0.02637200948996695, 0.02382177289102388, 0.021554833427424883])","array('d', [-0.0326406359672546, -0.021952280171172643, -0.014973392292654134, -0.010351881768451423, -0.007251308650554751, -0.005146551007277461, -0.0037033619867696647, -0.0027061551234020893, -0.0020140059789100872, -0.0015334258008224057, -0.001201248979743785, -0.0009737059356532736, -0.0008193401860917869, -0.000714368557086746, -0.0006396506169807141, -0.0005787801676182885])","array('d', [0.2763151685383658, 0.2527596337274917, 0.2354043302410024, 0.22266188959331604, 0.21326291746491202, 0.20632672495539692, 0.20120380404684862, 0.1974011522598271, 0.19454238914716535, 0.19234343091070963, 0.1905953344725303, 0.1891505172012935, 0.1879106224383846, 0.18681523487281854, 0.18583106074178316, 0.184718934361144])",-117.08646403697738,-157.3750430767926,-49.76172436340802,0.1494038276465652,-0.005146551007277461,0.20632672495539692,25.000000245742413,-1.0,"[-167.19062775964088, -119.37230599368847, 49.90256389806738]","[-156.65682979929989, -110.27055640553, 55.48801419013631]","[-152.68373800278616, -122.30342924092069, 47.461525985211814]",10000000000.0,0.014482498168945312
12,6.24312949180603,-168.18751525878906,-119.67337799072266,49.949649810791016,0.5622218251228331,0.028079658746719225,0.2639780799534656,23.11100993161262,"array('d', [-119.86797332763672, -119.22492219771529, -118.62962677867579, -118.06949271124672, -117.53521450121944, -117.01993262765066, -116.5185712738386, -116.02740742668206, -115.54375737349213, -115.06573108554869, -114.59203215845173, -114.1217930666156, -113.65444091647274, -113.1895913065288, -112.72696900927345, -112.35867225237753])","array('d', [-169.08551025390625, -166.67058840809554, -164.24293979646382, -161.80670687033984, -159.3645663849145, -156.91829645218309, -154.46911088769187, -152.01784765025516, -149.56508460919216, -147.11121612769372, -144.6565069270188, -142.20113168626256, -139.74520481625942, -137.28880276052766, -134.8319800818111, -132.8661867649085])","array('d', [-49.946044921875, -49.88044622623985, -49.8360542211359, -49.80559594693457, -49.784417933381235, -49.76949833579352, -49.758846007454615, -49.75112969544168, -49.74544626483906, -49.74117422202139, -49.737880382835954, -49.73526017328946, -49.73309954627241, -49.731250975791454, -49.7296186658701, -49.72844348958692])","array('d', [0.5950645804405211, 0.46369629400301143, 0.34939147903464063, 0.26099624280159145, 0.1932521227971573, 0.1420927479141535, 0.10419923268928763, 0.07678327217422896, 0.057475163579185126, 0.04426308950185126, 0.035458136779492756, 0.029672578595881138, 0.02580543217921935, 0.023032550055029473, 0.020800061221534154, 0.018820675395268504])","array('d', [-0.03147882595658296, -0.0211782221667658, -0.014449562971906452, -0.009992039659225726, -0.00700048510176062, -0.004969152438152994, -0.0035759775596747546, -0.002613144011609072, -0.00194475449508412, -0.0014806240395663897, -0.001159800039649309, -0.0009400340984156563, -0.0007909546570052122, -0.0006895927669631229, -0.0006174585925568353, -0.0005586997989828137])","array('d', [0.27229578892258194, 0.2493500659022998, 0.23247852286922221, 0.22013940198084342, 0.21109025532507403, 0.20446415623299447, 0.19961933145978009, 0.19606755187646177, 0.19343570289633877, 0.19144218112154096, 0.18988009803146724, 0.1886036735321068, 0.18751618103813106, 0.18655869682663787, 0.18569929396988424, 0.18472827657727056])",-117.01993262765066,-156.91829645218309,-49.76949833579352,0.1420927479141535,-0.004969152438152994,0.20446415623299447,25.00000024845224,-1.0,"[-166.74004661627012, -119.28214795115986, 49.90753585742546]","[-156.16075065805637, -110.13026414489302, 55.322470743932705]","[-152.24845026242835, -122.32315642690715, 47.51047462171341]",10000000000.0,0.014526605606079102
13,6.257702589035034,-168.18751525878906,-119.67337799072266,49.949649810791016,0.5622218251228331,0.028079658746719225,0.2639780799534656,23.11100993161262,"array('d', [-119.76961517333984, -119.13550495060609, -118.5475872253833, -117.99354216654714, -117.46424841440009, -116.95297903805137, -116.45476260967266, -115.96596347410704, -115.48397388115811, -115.00697130948275, -114.53372001279921, -114.06340723256041, -113.59550960733463, -113.12968755206037, -112.66570639264724, -112.29600886513934])","array('d', [-168.6363525390625, -166.21898175947322, -163.7894965757068, -161.35185303408312, -158.9086182496225, -156.46150191508767, -154.01167223457176, -151.55993504063366, -149.10684442060193, -146.65277629851522, -144.19798048784045, -141.74261918241737, -139.28679605139564, -136.83057812706556, -134.37401164028458, -132.40848069622595])","array('d', [-49.947566986083984, -49.88502747191772, -49.842693690386724, -49.81364144850138, -49.793438214032776, -49.77920432460352, -49.76904156969147, -49.76168039411681, -49.75625926205018, -49.752185154226304, -49.749044642810844, -49.74654699099918, -49.74448784557664, -49.74272634698847, -49.741171025828585, -49.74005129409724])","array('d', [0.5800207853317257, 0.4500841047361357, 0.33726665050411553, 0.25010324612827955, 0.18342222874105857, 0.13320308797406438, 0.09615278448492408, 0.06949847973242561, 0.05088048625578506, 0.03829419254431833, 0.03005648967652728, 0.024784761807119544, 0.021382756642681383, 0.019030776097921108, 0.017179112469964553, 0.01554430517892375])","array('d', [-0.030006561428308362, -0.020194161589026354, -0.013781516150775304, -0.009531713058412933, -0.006678650565439879, -0.004740850544587555, -0.0034115516522139695, -0.002492725320534551, -0.0018548252073180935, -0.0014118521619837566, -0.0011056654212519463, -0.0008959547367801324, -0.0007537342935035126, -0.000657077115414849, -0.0005883267751079023, -0.0005323404308985902])","array('d', [0.26819570461777215, 0.24599998563613729, 0.22972423060745506, 0.21787975568076443, 0.2092577250318262, 0.20300861146755012, 0.19850057981354954, 0.1952516387065107, 0.19289299410592967, 0.19114633102244613, 0.18980746004403884, 0.1887329291774847, 0.1878280747444562, 0.1870358230545772, 0.18632591345756216, 0.1855239678183624])",-116.95297903805137,-156.46150191508767,-49.77920432460352,0.13320308797406438,-0.004740850544587555,0.20300861146755012,25.000000245725133,-1.0,"[-166.74004661627012, -119.28214795115986, 49.90753585742546]","[-156.16075065805637, -110.13026414489302, 55.322470743932705]","[-152.24845026242835, -122.32315642690715, 47.51047462171341]",10000000000.0,0.01328587532043457
14,6.273550510406494,-167.2877197265625,-119.48677825927734,49.95619201660156,0.5199689269065857,0.023177325725555347,0.255240158238683,23.123257765769075,"array('d', [-119.67337799072266, -119.04834543843916, -118.46767371110705, -117.91936334156077, -117.39451063085647, -116.88654618694382, -116.39062276303841, -115.90320844374187, -115.42178536081933, -114.94461051178499, -114.47051927092791, -113.9987628211313, -113.52887542772396, -113.06056951103865, -112.59365737890158, -112.22125249922179])","array('d', [-168.18751525878906, -165.76767577243453, -163.33640002314155, -160.89743713065852, -158.45323318808167, -156.00542297525064, -153.555125103548, -151.10311061819561, -148.64990785837747, -146.19587270570204, -143.7412386535581, -141.28615410717188, -138.83071076738784, -136.37496509908692, -133.91895391950675, -131.95393540264902])","array('d', [-49.949649810791016, -49.89111832579823, -49.85148744689645, -49.82428546076224, -49.80536729751828, -49.79203879473523, -49.78252330407773, -49.77563216438296, -49.77055850046, -49.766746780969555, -49.76380963273179, -49.761474593984794, -49.75955012974375, -49.75790420389195, -49.756451077832374, -49.755404946035554])","array('d', [0.5622218251228331, 0.433978937416279, 0.32297675758635874, 0.2373123796854826, 0.17191811409760877, 0.12282955328540823, 0.08678614835918154, 0.061035202920884046, 0.043230597757419206, 0.03137780238575175, 0.023801936473737677, 0.01912757523176321, 0.016264974206505998, 0.014400367846136998, 0.01298939402475046, 0.011753290815700703])","array('d', [-0.028079658746719225, -0.01890305713443687, -0.01290311260218794, -0.008925278150955049, -0.006253964106557555, -0.00443916447168436, -0.0031940183703384408, -0.002333259652667495, -0.0017356437163478318, -0.0013206558728816513, -0.0010338477729827495, -0.000837459626191018, -0.0007043327265196201, -0.0006139163627028907, -0.0005496565217690399, -0.0004973499427807013])","array('d', [0.2639780799534656, 0.24265403796048207, 0.2270736936390496, 0.21580676108417277, 0.20768298068118415, 0.2018730175251598, 0.19775670600631942, 0.1948594707661093, 0.19281770932456024, 0.19135708072098162, 0.19027665574166605, 0.18943577843620824, 0.18874224087634234, 0.18814114997417228, 0.18760419106293005, 0.18699785029564883])",-116.88654618694382,-156.00542297525064,-49.79203879473523,0.12282955328540823,-0.00443916447168436,0.2018730175251598,25.000000248446153,-1.0,"[-166.74004661627012, -119.28214795115986, 49.907535857425465]","[-156.16075065805637, -110.13026414489302, 55.32247074393271]","[-152.24845026242835, -122.32315642690715, 47.51047462171342]",10000000000.0,0.01470947265625
15,6.2965452671051025,-166.83682250976562,-119.39636993408203,49.961116790771484,0.4959882497787475,0.020594958215951847,0.2509072581913809,23.128706542722444,"array('d', [-119.48677825927734, -118.88033049719122, -118.31397818386635, -117.77644709352687, -117.25933548164062, -116.75644193568277, -116.2632116248421, -115.77635793874298, -115.29357579911341, -114.81331030474573, -114.33456473577775, -113.85674087042892, -113.37950838251152, -112.90270166070702, -112.4262430579106, -112.04535255453244])","array('d', [-167.2877197265625, -164.8629191999127, -162.42815912766648, -159.98674621012287, -157.54086746947726, -155.09199763982195, -152.64114959938163, -150.18902019054727, -147.73608257380826, -145.28264928635173, -142.82891808782887, -140.3750067772421, -137.92098013947395, -135.46687060245932, -133.01269337401442, -131.0493018748161])","array('d', [-49.95619201660156, -49.90786617974041, -49.87512938327473, -49.85265278726499, -49.83701941693482, -49.82600616200467, -49.81814579021954, -49.8124559792406, -49.80826954362208, -49.80512691808488, -49.80270752762436, -49.80078582509989, -49.79920321790424, -49.797850363801956, -49.79665626688056, -49.795796662384916])","array('d', [0.5199689269065857, 0.39574693158410507, 0.289112064299648, 0.20706224995490188, 0.14476778940369978, 0.09839528816501071, 0.06476174200667471, 0.04116382010571157, 0.025289662526634154, 0.015170875241037041, 0.009154254481197843, 0.005883378611384223, 0.004285572478484504, 0.003562393293253502, 0.0031829810204644033, 0.0028800805890434483])","array('d', [-0.023177325725555347, -0.015612048177899891, -0.010660761502373177, -0.007375569069411754, -0.005168037167572216, -0.0036676258673472312, -0.0026378606731792616, -0.0019258695218057479, -0.0014315271547820987, -0.0010882996432056023, -0.0008511688270989759, -0.000688900292701593, -0.0005790185821632582, -0.0005045077311155056, -0.0004516515779360476, -0.0004086716011461904])","array('d', [0.255240158238683, 0.2359227133062962, 0.2219590238714476, 0.21204193332880925, 0.20508562434547703, 0.20030564556749347, 0.19710816052358157, 0.19503560372211026, 0.1937364802089168, 0.19294584258793143, 0.19247052810199838, 0.19217655453990865, 0.19197756093606352, 0.1918238197527298, 0.19169159918980674, 0.19154302578487464])",-116.75644193568277,-155.09199763982195,-49.82600616200467,0.09839528816501071,-0.0036676258673472312,0.20030564556749347,25.000000245699674,-1.0,"[-165.83670551438087, -119.10816328532965, 49.921429140577416]","[-155.1636286941037, -109.84103068271723, 54.94195545900857]","[-151.37747895462672, -122.39320926592728, 47.65443990393347]",10000000000.0,0.02175116539001465
16,6.316969633102417,-166.38536071777344,-119.30778503417969,49.96764373779297,0.47056624293327315,0.01797626353800288,0.24658842484024562,23.131822034847204,"array('d', [-119.39636993408203, -118.79902163659183, -118.23939502307408, -117.70660628329169, -117.19252883558119, -116.69116584673519, -116.198126630382, -115.71026307420064, -115.22539056163343, -114.74206072396383, -114.25937184609487, -113.77681077704833, -113.29412354544607, -112.81121320784187, -112.32806400144392, -111.94134475839537])","array('d', [-166.83682250976562, -164.4096573888527, -161.97329331384583, -159.53081763352031, -157.08428787500497, -154.63509844430453, -152.18420896781848, -149.73227870214086, -147.27975258244703, -144.82692066201645, -142.373961855965, -139.9209775502593, -137.46801787524728, -135.01510200479288, -132.56223310958086, -130.59998107429945])","array('d', [-49.961116790771484, -49.91816891941433, -49.88906696708758, -49.86908197740415, -49.85517982029136, -49.845385482985236, -49.838394949161554, -49.83333489474884, -49.8296120244266, -49.826817600673024, -49.824666472490264, -49.822958002811845, -49.82155110961048, -49.820348522232266, -49.81928708373584, -49.81852298126357])","array('d', [0.4959882497787475, 0.3740483157743716, 0.2699061008137621, 0.1899273792568658, 0.12941050159653236, 0.08459386037947696, 0.052337739885457264, 0.02996698639855808, 0.01518978999378209, 0.006053405954340515, 0.000917809046358244, -0.0015618011128567682, -0.0024476847664435036, -0.0025290166779100417, -0.00232860963348935, -0.0021070133191123186])","array('d', [-0.020594958215951847, -0.013877160040426252, -0.009478327607931644, -0.0065585477272014185, -0.0045959765653721205, -0.00326177103629744, -0.002345941315423394, -0.0017126692460857176, -0.0012729632784753537, -0.0009676690916549139, -0.0007567521674902771, -0.0006124312299448701, -0.00051471350597486, -0.0004484616371034608, -0.0004014730395311377, -0.0003632681779500081])","array('d', [0.2509072581913809, 0.23269293023536994, 0.2196276957737435, 0.21046577585281828, 0.20416490694396477, 0.1999641640160238, 0.1972837319569325, 0.1956752676435145, 0.19479396396926202, 0.19438014456484162, 0.19424504937693798, 0.19425849608629514, 0.19433745226056598, 0.19443512196378995, 0.1945303631852835, 0.1946390565539911])",-116.69116584673519,-154.63509844430453,-49.845385482985236,0.08459386037947696,-0.00326177103629744,0.1999641640160238,25.00000024569193,-1.0,"[-165.38409930660748, -119.0240245470509, 49.93022653725099]","[-154.66487425574252, -109.69261353134765, 54.72845358116218]","[-150.94142038543123, -122.43550788332229, 47.746008822334744]",10000000000.0,0.019303560256958008
17,6.338417291641235,-165.93336486816406,-119.22095489501953,49.97568130493164,0.4440114200115202,0.015288931317627336,0.24242432514694714,23.13548528161292,"array('d', [-119.30778503417969, -118.71946451244092, -118.16638529304626, -117.63805923204335, -117.12664221390989, -116.6263498641319, -116.13296345776804, -115.64348085967411, -115.15584490100294, -114.66872015079572, -114.18130568966232, -113.69317862423904, -113.20416596208835, -112.71424354836202, -112.22346118670181, -111.83012994890073])","array('d', [-166.38536071777344, -163.95589572399996, -161.5179927105437, -159.0745267627319, -156.62742917372526, -154.17801564374201, -151.72719338484615, -149.2755844370211, -146.823605547959, -144.37152407169552, -141.91949966984131, -139.46761676500432, -137.01591018806585, -134.56438515953622, -132.11303209161082, -130.15208609866926])","array('d', [-49.96764373779297, -49.930149986740055, -49.90473412160984, -49.88727462193931, -49.875125474387204, -49.86656344395194, -49.86045030718494, -49.85602355428235, -49.852765072216876, -49.85031788193681, -49.84843293532075, -49.84693500465492, -49.84570088372893, -49.84464563093109, -49.84371409033349, -49.843043471496])","array('d', [0.47056624293327315, 0.3510455296804241, 0.24953185536848743, 0.17174677678955125, 0.11311733093977656, 0.06995471105189008, 0.03916345865045601, 0.01809751647545413, 0.004486042730409404, -0.0036071195159695993, -0.007807868551688565, -0.009448455595771713, -0.009579856687721228, -0.008981205450907918, -0.00816662341737956, -0.007389467116316658])","array('d', [-0.01797626353800288, -0.012117638281146701, -0.008279445150840706, -0.005730788464063837, -0.004017155740076973, -0.0028519207601327826, -0.0020519389001556103, -0.001498694501069274, -0.0011145009924466655, -0.0008477022647713084, -0.0006633308406877882, -0.0005371192139286872, -0.0004516041196417914, -0.00039356632166151137, -0.0003523536756858257, -0.0003188229288594234])","array('d', [0.24658842484024562, 0.22951804339531728, 0.21739218110645056, 0.20902441745123448, 0.20341521089070033, 0.19982695153894148, 0.1976938637736771, 0.19657695517059834, 0.19613829565429378, 0.1961236999840909, 0.1963490397633685, 0.19668815432316597, 0.19706154408368384, 0.1974255266298182, 0.19776170865926465, 0.19814291060627556])",-116.6263498641319,-154.17801564374201,-49.86656344395194,0.06995471105189008,-0.0028519207601327826,0.19982695153894148,25.000000248434677,-1.0,"[-164.93096951165015, -118.94169867926993, 49.940680794702146]","[-154.1660039707643, -109.5450528832233, 54.503417329631596]","[-150.50514042166674, -122.48046640280307, 47.84960976160245]",10000000000.0,0.019925594329833984
18,6.352445840835571,-165.93336486816406,-119.22095489501953,49.97568130493164,0.4440114200115202,0.015288931317627336,0.24242432514694714,23.13548528161292,"array('d', [-119.22095489501953, -118.6412675269149, -118.09426722925735, -117.56986082207581, -117.0604900739092, -116.56058825395897, -116.0661143688312, -115.5742180596902, -115.08297513152262, -114.59116818145752, -114.09810167017254, -113.60344703396238, -113.10711585345587, -112.60915993456733, -112.10969746003632, -111.7088969260066])","array('d', [-165.93336486816406, -163.50174040774084, -161.06242688525674, -158.61809797584172, -156.17056446777175, -153.72106662864948, -151.2704612265712, -148.81933424482148, -146.36807484114115, -143.91692785738383, -141.46603358784552, -139.01545916350196, -136.56522364282608, -134.1153177310595, -131.6657184745848, -129.70628178618776])","array('d', [-49.97568130493164, -49.943785490909, -49.92215330649113, -49.90728535018843, -49.8969336445362, -49.88963347280439, -49.884417018412535, -49.88063577280277, -49.87784903051547, -49.87575314382553, -49.874136292656345, -49.87284947012648, -49.87178792918324, -49.87087946441999, -49.87007718053378, -49.869499558801245])","array('d', [0.4440114200115202, 0.3270177332279104, 0.22823960177945996, 0.15274707907308838, 0.0960945533601659, 0.05466596307948497, 0.025410493482027556, 0.005711791103155522, -0.006679262082170051, -0.01368138068683571, -0.016905435198312162, -0.01767023518957659, -0.017014639566699057, -0.015707011340411903, -0.014252190309613144, -0.012895916248680576])","array('d', [-0.015288931317627336, -0.010311472388863676, -0.007048924457139702, -0.00488166709534003, -0.0034240379045829667, -0.002432646348939258, -0.0017518768240453828, -0.0012809763727111864, -0.0009538746155395121, -0.000726625881324308, -0.0005694766940738852, -0.00046177799419805425, -0.0003886742926353278, -0.00033892740320005986, -0.0003034908604101417, -0.0002746102343385085])","array('d', [0.24242432514694714, 0.22652319397981277, 0.21536530429159434, 0.20782047812973783, 0.20293034795255507, 0.19998002016820993, 0.19841755797607352, 0.19781331859834192, 0.19783635622815163, 0.19823813951221916, 0.19883935562935962, 0.19951804829334271, 0.2001984191450779, 0.20084004720859072, 0.20142741454263796, 0.2020927050639118])",-116.56058825395897,-153.72106662864948,-49.88963347280439,0.05466596307948497,-0.002432646348939258,0.19998002016820993,25.000000245677846,-1.0,"[-164.4773967732717, -118.86091183240461, 49.952748801397114]","[-153.66855851358213, -109.399140707402, 54.270607374108536]","[-150.06812788743287, -122.52494215753296, 47.965828583538155]",10000000000.0,0.012998819351196289
19,6.386413335800171,-165.02801513671875,-119.052001953125,49.996761322021484,0.3884200751781462,0.010123406536877067,0.23466892639664177,23.140027050211174,"array('d', [-119.052001953125, -118.4881824923531, -117.95181104578491, -117.43356516394401, -116.92645634025094, -116.42535996362943, -115.92660128226272, -115.42764574077391, -114.92684743480739, -114.4232366829858, -113.91633931401971, -113.4060248502612, -112.89238229908227, -112.37562264287293, -111.85600720380944, -111.43799120019642])","array('d', [-165.02801513671875, -162.59253625859202, -160.15080498354206, -157.7051345873842, -155.25711782519687, -152.80785736602743, -150.35811711819022, -147.90841576464518, -145.45908993622336, -143.01034058367057, -140.56226932093244, -138.11490799767316, -135.66824292576214, -133.2222342625168, -130.77683062733814, -128.82099938219088])","array('d', [-49.996761322021484, -49.975625381963276, -49.96126217359683, -49.951366511161254, -49.94445585329125, -49.93956339320954, -49.936049962350076, -49.9334871798129, -49.9315839770284, -49.93013991890927, -49.929015321027826, -49.92811204980324, -49.9273612161795, -49.926715371620965, -49.92614365669035, -49.92573181342005])","array('d', [0.3884200751781462, 0.27671659676098154, 0.18361477660133244, 0.11291249788530447, 0.06040753392072887, 0.022624615291905868, -0.0033995798872785313, -0.020222182741990568, -0.030048018687628235, -0.03475940566784499, -0.03593526663767941, -0.034865496539531776, -0.032562746154806935, -0.029772075791357332, -0.02697833074418169, -0.024411005344386363])","array('d', [-0.010123406536877067, -0.006840322796578687, -0.004686243564276025, -0.003254197046458995, -0.0022904142665877967, -0.0016344983129952294, -0.001183766401661054, -0.0008716664242973779, -0.0006545183997318111, -0.0005032515812344032, -0.00039817955639341113, -0.0003256474126299215, -0.00027585020612599736, -0.00024140013720382167, -0.00021638904185111162, -0.0001957970295430798])","array('d', [0.23466892639664177, 0.22114058854381555, 0.21197104354064478, 0.2061313192513894, 0.20273876388435738, 0.20112092917477267, 0.20075221952958908, 0.20122121786499586, 0.20221095298019728, 0.2034844658795578, 0.2048724587947928, 0.2062617998752625, 0.2075844894881103, 0.20880698137229886, 0.20991980886155154, 0.21117935721260828])",-116.42535996362943,-152.80785736602743,-49.93956339320954,0.022624615291905868,-0.0016344983129952294,0.20112092917477267,25.00000024842768,-1.0,"[-163.56920282760592, -118.70323832672717, 49.98157647158502]","[-152.67933576914368, -109.11489035389604, 53.78609728253136]","[-149.19169950516547, -122.60364315639931, 48.228225286601244]",10000000000.0,0.013077259063720703
20,6.415044784545898,-164.5747833251953,-118.96961212158203,50.00996780395508,0.35995590686798096,0.00782664492726317,0.23085709015396644,23.14289928841027,"array('d', [-118.96961212158203, -118.41359113522634, -117.8823867236455, -117.3670410466614, -116.86084076556655, -116.35887943831091, -115.85766611894859, -115.35482670453712, -114.84885785363107, -114.33891743195815, -113.82464556228987, -113.30601416425021, -112.78320398349733, -112.2565082762251, -111.72626230430379, -111.29917905958538])","array('d', [-164.5747833251953, -162.1374716662174, -159.69459216456968, -157.24829998396973, -154.8000908383957, -152.3510054074319, -149.90176522509913, -147.45285773556637, -145.0045946495575, -142.55715558708275, -140.11062293105147, -137.6650106506852, -135.22028820953784, -132.77639986357775, -130.33327929887605, -128.379408798072])","array('d', [-50.00996780395508, -49.99361411137899, -49.98247678937669, -49.97478210366087, -49.969388689984136, -49.96555197418441, -49.96277964537897, -49.96074179375191, -49.9592143619536, -49.95804319278071, -49.95712099237025, -49.95637250827631, -49.955745005276206, -49.95520219678005, -49.954720438175684, -49.95437318818708])","array('d', [0.35995590686798096, 0.2509611499274818, 0.16070376732004824, 0.09242384356514229, 0.04203013153840618, 0.006111862072008797, -0.01825406897392879, -0.03359732176740205, -0.042101800066027914, -0.04563221771128132, -0.04575169074217645, -0.04373555120772078, -0.040583086650682616, -0.03702738258682657, -0.03354296504030773, -0.03035093262922144])","array('d', [-0.00782664492726317, -0.00529857899153465, -0.0036389942015165786, -0.0025351781927306473, -0.0017919546021213453, -0.0012858618793776444, -0.0009378078431636701, -0.0006964991365731825, -0.0005282530472314773, -0.00041064426529800773, -0.0003284866257419012, -0.0002712553836205276, -0.0002314116890092455, -0.0002033039993586218, -0.0001824507565076075, -0.00016508839629196493])","array('d', [0.23085709015396644, 0.21850931414004923, 0.21034140959188338, 0.20536908603365628, 0.2027431222678721, 0.2018100547553591, 0.20205627492196954, 0.2030788724926347, 0.2045675954125737, 0.2062912013438672, 0.20808544158854178, 0.20984169324829988, 0.21149597348455584, 0.21301829173898382, 0.21440231639376917, 0.21596853946161657])",-116.35887943831091,-152.3510054074319,-49.96555197418441,0.006111862072008797,-0.0012858618793776444,0.2018100547553591,25.000000248425504,-1.0,"[-163.1146220882621, -118.62640469430573, 49.99822795642178]","[-152.18529197658904, -108.98128673228995, 53.536793034087715]","[-148.75321770382607, -122.63807298764023, 48.36832562469891]",10000000000.0,0.02312493324279785
21,6.438151597976685,-163.66831970214844,-118.8078842163086,50.043155670166016,0.30266937613487227,0.003705158829688949,0.22352452675369783,23.145692212191598,"array('d', [-118.88837432861328, -118.34011088896224, -117.81404739280744, -117.30157353084488, -116.79624196312194, -116.29336034448323, -115.7896202623093, -115.28280833971253, -114.77156487395996, -114.25517670435804, -113.73339975844814, -113.20630980209663, -112.67418063732096, -112.13738895861673, -111.59634498167205, -111.16005511609426])","array('d', [-164.12124633789062, -161.68214864853127, -159.23814319668992, -156.79124125592477, -154.34284953649941, -151.89395146140936, -149.4452290997612, -146.99714045047733, -144.54997336334358, -142.10388668374713, -139.65894377037236, -137.21514067729422, -134.77242982064163, -132.3307392467221, -129.889987330316, -127.93815551116641])","array('d', [-50.02507019042969, -50.013208981680435, -50.00509855330467, -49.99946498251388, -49.995488143550524, -49.99263291063494, -49.990545497147565, -49.988988946564334, -49.987802505727856, -49.9868757724163, -49.98613210848554, -49.985517942360595, -49.98499586274492, -49.984540177513075, -49.984134079408, -49.983841089755614])","array('d', [0.331323593854904, 0.2250535608453141, 0.13761010510720037, 0.07174202048421352, 0.02346067082259955, -0.010585097981443824, -0.03328125622999243, -0.047131989446842715, -0.05430155058471732, -0.05663781681133694, -0.05568851695606606, -0.0527146075415023, -0.04870205365643503, -0.044371922838514315, -0.04018833949025631, -0.03636391663206748])","array('d', [-0.005668324884027132, -0.003850995607165745, -0.0026572724772673476, -0.0018628407476324084, -0.0013275612987861708, -0.0009627119344502766, -0.000711411233607669, -0.0005367431148561564, -0.0004144496792984115, -0.00032837291182941406, -0.000267572507691626, -0.0002244792734849968, -0.00019369791254582718, -0.00017122516182625525, -0.00015394164441219642, -0.00013929247564805784])","array('d', [0.2270731488850454, 0.21589257500730713, 0.20872290382740577, 0.20462062944195666, 0.2027668134341052, 0.20252531041911392, 0.20339357551378784, 0.20497670017299183, 0.20697089553537604, 0.20915052908546003, 0.21135638033293683, 0.21348436019731204, 0.21547454829973786, 0.21730056165485567, 0.21895925398220623, 0.22083605136870657])",-116.29336034448323,-151.89395146140936,-49.99263291063494,-0.010585097981443824,-0.0009627119344502766,0.20252531041911392,25.000000245653947,-1.0,"[-163.1146220882621, -118.62640469430573, 49.99822795642178]","[-152.18529197658904, -108.98128673228995, 53.536793034087715]","[-148.75321770382607, -122.63807298764023, 48.36832562469891]",10000000000.0,0.015017509460449219
