,current_time,x_pos,y_pos,z_pos,roll,pitch,yaw,vel,x_traj,y_traj,z_traj,roll_traj,pitch_traj,yaw_traj,x_cmd,y_cmd,z_cmd,roll_cmd,pitch_cmd,yaw_cmd,vel_cmd,effector_dmg,effector_x,effector_y,effector_z,cost,time_solution
0,4.422473907470703,-45.20981216430664,-205.2042236328125,49.9521598815918,0.6312897205352782,0.037069048732519067,-1.376481695971217,23.1052738541821,"array('d', [-202.4445343017578, -203.9127983375941, -205.38902072477623, -206.86901510933967, -208.35030184001388, -209.83141765845394, -211.3116150423242, -212.79099198428815, -214.27024075098515, -215.7501174202353, -217.23126473858176, -218.71412134528254, -220.1989010252434, -221.68561885605436, -223.17414117018112, -225.15995001462406])","array('d', [-45.64647674560547, -45.34887427625894, -45.1039812931708, -44.89779927027873, -44.719897401086115, -44.56266738954173, -44.42053653595422, -44.289410265600786, -44.16631929112185, -44.04917465259089, -43.93654735706562, -43.827487618643495, -43.72137715182785, -43.61781147045402, -43.51651094637683, -43.38389584833499])","array('d', [-49.949859619140625, -49.87758845004156, -49.77488001919452, -49.64466689599946, -49.489604104274875, -49.312093158902336, -49.11518053892152, -48.90485973416035, -48.688833650852615, -48.473802323277205, -48.2652126168806, -48.067150504429485, -47.88234839378962, -47.71227727307708, -47.557293391316875, -47.370074881253004])","array('d', [0.6305074095726012, 0.4957662947325453, 0.3738474825434615, 0.2777429313487115, 0.2048086087546221, 0.15014113684139124, 0.1098870056440561, 0.08089849209059237, 0.06055643920848932, 0.04667261382065204, 0.037432554241772636, 0.03135989399174615, 0.027292719780718757, 0.024367242028986946, 0.022006402504460006, 0.019912218225842167])","array('d', [-0.0373422428965568, -0.05870214640180491, -0.07802938807055987, -0.09551740100943798, -0.11134121066004529, -0.12565918597987671, -0.13745572971134518, -0.14379384647603902, -0.14522222891417924, -0.1425225263295377, -0.1366005408375866, -0.12839340212574632, -0.11879807770376984, -0.10862282707080012, -0.09856054273288549, -0.08918127515128668])","array('d', [-1.3491505821559089, -1.3904247944632948, -1.4207651784491702, -1.4428201409778438, -1.458878483634415, -1.4705810065026093, -1.4791110088672907, -1.4853531735253305, -1.489975487208983, -1.4934777022028054, -1.4962245338772622, -1.4984716248983572, -1.5003878975078735, -1.5020759583591847, -1.503591360538901, -1.5046192091712658])",-209.83141765845394,-44.56266738954173,-49.312093158902336,0.15014113684139124,-0.12565918597987671,-1.4705810065026093,14.99999985172083,-1.0,"[-44.92036997705482, -206.67498291929715, 49.8965690418963]","[-35.05993067376148, -215.5794207752813, 42.93361541466423]","[-49.76752353860795, -218.23951333477874, 41.66451348935513]",10000000000.0,0.015653371810913086
1,4.44127631187439,-45.14418029785156,-205.66700744628906,49.95220184326172,0.6313875913619995,0.03703254461288445,-1.3811718662593024,23.106711387573952,"array('d', [-202.9036102294922, -204.37320937525806, -205.85053167277377, -207.3314537628665, -208.81354630315116, -210.2953818927939, -211.77622471168164, -213.2561786377252, -214.73595445875492, -216.21632500092406, -217.69794681417818, -219.18126873081187, -220.6665111079798, -222.15369249553467, -223.6426804041956, -225.62915922921803])","array('d', [-45.56843566894531, -45.2774782670548, -45.03927948939134, -44.83982780461112, -44.668716275103804, -44.51835914166361, -44.38319915663696, -44.259152544901184, -44.143256051938856, -44.03342266342111, -43.92822178854288, -43.826699165676324, -43.728229930997365, -43.632401723472114, -43.53892648202305, -43.41683133187854])","array('d', [-49.95026397705078, -49.87807281943036, -49.77543670178765, -49.64528891838141, -49.490285156708104, -49.3128275378464, -49.115861706524974, -48.905306587904924, -48.688911301030984, -48.47342132859848, -48.264324454626255, -48.065740629220926, -47.88042807174757, -47.709875157846525, -47.55444755345023, -47.366687206865926])","array('d', [0.630627691745758, 0.4958751309187068, 0.3739459650420391, 0.2782832606714043, 0.20565005725335, 0.15117428174384037, 0.11102611272351721, 0.08207736660227972, 0.061725649069207286, 0.047797206404243286, 0.03848991834544489, 0.03233764203926143, 0.02818655498418235, 0.02517880456061482, 0.0227410930641552, 0.020576993794619507])","array('d', [-0.03728612512350077, -0.05865136808107617, -0.07798344105454945, -0.09547582538096448, -0.11130359000291994, -0.1256251422911063, -0.13755908572560657, -0.1440042603277666, -0.14550802652617886, -0.1428538881829275, -0.136951721022504, -0.12874401164121058, -0.11913356127768332, -0.10893432311233005, -0.09884433872945157, -0.08943806452705176])","array('d', [-1.353669329485621, -1.394954047568507, -1.4253026838391367, -1.4473810269422989, -1.4634874200085002, -1.4752533184010248, -1.4838556345555074, -1.4901743223130637, -1.4948738058881441, -1.498451225149566, -1.5012695000403213, -1.5035831770541905, -1.5055606590587618, -1.507304480009351, -1.5088704308409184, -1.5099325804768735])",-210.2953818927939,-44.51835914166361,-49.3128275378464,0.15117428174384037,-0.1256251422911063,-1.4752533184010248,14.999999854725376,-1.0,"[-44.92036997705482, -206.67498291929715, 49.8965690418963]","[-35.05993067376148, -215.5794207752813, 42.93361541466423]","[-49.76752353860795, -218.23951333477874, 41.66451348935513]",10000000000.0,0.017957687377929688
2,4.463192462921143,-45.14418029785156,-205.66700744628906,49.95220184326172,0.6313875913619995,0.03703254461288445,-1.3811718662593024,23.106711387573952,"array('d', [-203.36282348632812, -204.83371035402703, -206.31208780602188, -207.79389474785054, -209.27675128509244, -210.75926520699048, -212.24071205752466, -213.72120137082575, -215.20146218026343, -216.68228386716896, -218.1643366671958, -219.6480795523294, -221.13373944879194, -222.62133841033088, -224.11074517762654, -226.0977813802781])","array('d', [-45.49253845214844, -45.20814542704726, -44.97655840075207, -44.78375333589005, -44.619347289407784, -44.47577707586871, -44.3475007850259, -44.23044531356207, -44.12165347710516, -44.0190402818118, -43.92117363733074, -43.827094913733255, -43.73617277423648, -43.647987079432426, -43.56224142008912, -43.45054118925847])","array('d', [-49.950706481933594, -49.878584000787086, -49.77600995083582, -49.64591824846985, -49.49096515054336, -49.313553297107504, -49.116528433498246, -48.905735602616986, -48.688969613920705, -48.47302088736395, -48.263417665839285, -48.064313492525244, -47.87849210116099, -47.707459046715094, -47.55158928747113, -47.363293681926244])","array('d', [0.6307455301284788, 0.4959817555222441, 0.3740424441200145, 0.2788180827397771, 0.20648360877522134, 0.15219800639893924, 0.11215496820411508, 0.08324570351081843, 0.06288444863904123, 0.04891181023712906, 0.039537905159915426, 0.03330672672985853, 0.029072473967419313, 0.025983180697863862, 0.023469278092750446, 0.02123588291540484])","array('d', [-0.03723795711994171, -0.05860778388426148, -0.07794400445955511, -0.09544014169914457, -0.11127130212315271, -0.12559592723530694, -0.13766547258731102, -0.14421625141142125, -0.14579430232621257, -0.14318495977732887, -0.1373021283031824, -0.12909359502488274, -0.1194679345569224, -0.1092447351620674, -0.09912713436495466, -0.0896939486222982])","array('d', [-1.3581291874262946, -1.3994241993186134, -1.4297809208788967, -1.4518823754492505, -1.4680363690606886, -1.4798650786073637, -1.4885390740633206, -1.4949336155367394, -1.4997095934254252, -1.5033615574933883, -1.5062506481542484, -1.5086303256422182, -1.5106684782410236, -1.512467568000547, -1.5140836217327966, -1.5151797952038943])",-210.75926520699048,-44.47577707586871,-49.313553297107504,0.15219800639893924,-0.12559592723530694,-1.4798650786073637,14.999999854707767,-1.0,"[-44.86163899802701, -207.13911007625313, 49.89666572216638]","[-35.054246415543275, -216.08149559533402, 42.90747464156375]","[-49.775272715183995, -218.68569438529408, 41.67884396163719]",10000000000.0,0.015339374542236328
3,4.486003398895264,-45.01948547363281,-206.5926055908203,49.952518463134766,0.6314281821250919,0.036894109100103295,-1.3903869827601574,23.110556666576596,"array('d', [-204.28173828125, -205.75515954747806, -207.2355940645585, -208.71910881422116, -210.20342447803714, -211.6872201811809, -213.1697943600599, -214.65126784573465, -216.1324067431127, -217.6140341941181, -219.09684844469353, -220.58132931316933, -222.06771732743357, -223.55604190496408, -225.04617450910305, -227.03417361393554])","array('d', [-45.34712600708008, -45.07614268956154, -44.8580485656402, -44.67879688376731, -44.52805575659318, -44.39830953136814, -44.28404824367372, -44.181220970475124, -44.08688364786148, -43.998956097770765, -43.91600379985248, -43.8370597557636, -43.76147987125499, -43.688828495103, -43.61879246667658, -43.528217096551785])","array('d', [-49.9516716003418, -49.879652346638856, -49.777171590547084, -49.64716418354244, -49.49228723824806, -49.3149441747312, -49.11777719640163, -48.90648078012595, -48.688942527728166, -48.47204413446115, -48.26139599968347, -48.06121985593311, -47.87435119878183, -47.702330400541456, -47.54555120645062, -47.3561547173941])","array('d', [0.6308959126472472, 0.49611782730010545, 0.374165572382772, 0.2798433651777753, 0.20812476672175487, 0.15423260187799503, 0.11440885020959862, 0.08558447649680324, 0.06520775193642903, 0.051148633550927504, 0.04164222775379453, 0.03525321785431889, 0.03085217465858229, 0.027599148911639653, 0.02493219043634593, 0.022559580863050224])","array('d', [-0.03716555610299103, -0.058542272766672634, -0.07788472758420263, -0.09538650581416074, -0.11122277046520516, -0.12555201437719696, -0.1378960257654575, -0.14466036403014823, -0.14638834234198725, -0.14386902415816238, -0.13802451352564893, -0.12981338159236347, -0.12015594584815768, -0.10988325296924058, -0.09970879930042133, -0.09022026086711078])","array('d', [-1.3672317703578136, -1.4085399211058738, -1.438906962195127, -1.4610504957380905, -1.4772973033914554, -1.4892503928227427, -1.4980672572145275, -1.50461350332447, -1.5095427676127693, -1.5133442879872838, -1.5163755542582305, -1.5188877933161438, -1.5210478273115582, -1.522957955632692, -1.524674670764215, -1.5258392013268438])",-211.6872201811809,-44.39830953136814,-49.3149441747312,0.15423260187799503,-0.12555201437719696,-1.4892503928227427,14.999999854672764,-1.0,"[-44.75052019851047, -208.06725688035647, 49.89718985346755]","[-35.04795614091151, -217.08505591127405, 42.858755983197064]","[-49.7944690362731, -219.57888553936266, 41.70933386186753]",10000000000.0,0.01828598976135254
4,4.513018608093262,-44.90358352661133,-207.51828002929688,49.95289993286133,0.6315104365348814,0.037010729312896694,-1.3994847973200937,23.11289778030849,"array('d', [-204.74142456054688, -206.21608752432556, -207.6975230909882, -209.1818622716033, -210.66687587340707, -212.15127858618308, -213.6343802708188, -215.11630733985456, -216.5978443855038, -218.07983147623275, -219.5629809799105, -221.04778329266622, -222.5344859099344, -224.02312209377448, -225.51356481964757, -227.50197339351928])","array('d', [-45.277626037597656, -45.01346260976715, -44.80224139495526, -44.629902275174906, -44.486138399644865, -44.36345767167749, -44.25636563119386, -44.16082196615818, -44.07388893441927, -43.993488506679505, -43.91818463967585, -43.84700578057938, -43.779301026552716, -43.71462649709512, -43.65266016204251, -43.57293909239401])","array('d', [-49.952186584472656, -49.88024572164115, -49.7778358117027, -49.64789241620139, -49.493073297359025, -49.31578246653422, -49.118560649883634, -48.90702718252977, -48.68911599855359, -48.47175447016252, -48.26059420794339, -48.05989121443456, -47.87250704655583, -47.69999964691714, -47.54277228439815, -47.3528332380476])","array('d', [0.6310808658599855, 0.4962851795173328, 0.37431699506698235, 0.2804476441953457, 0.20903683907906798, 0.1553395496003366, 0.11562220294895756, 0.08683596653579675, 0.06644644688668724, 0.05233857187647897, 0.04276020636542681, 0.03628660323955144, 0.03179669905769495, 0.02845668336620645, 0.025708491875143784, 0.023262007516739878])","array('d', [-0.03711057454347611, -0.0584925242224994, -0.0778397140987946, -0.09534577693709316, -0.11118591885781076, -0.12551867252111426, -0.1380008590275665, -0.14487300552300159, -0.14667700060138456, -0.14420368249735305, -0.13837920718305527, -0.13016752264764817, -0.12049482481723568, -0.11019790917467999, -0.09999547621359381, -0.09047965677353961])","array('d', [-1.3718504150721689, -1.413174728385656, -1.4435544625824526, -1.4657256652173587, -1.4820252659245527, -1.494046700544573, -1.5029408930157062, -1.5095685826168543, -1.514579742326443, -1.5184609280846117, -1.5215677910375878, -1.5241504407047113, -1.5263751767641809, -1.5283442368982034, -1.530114372189738, -1.5313151785978187])",-212.15127858618308,-44.36345767167749,-49.31578246653422,0.1553395496003366,-0.12551867252111426,-1.494046700544573,14.99999985168887,-1.0,"[-44.6982865059309, -208.53129713034636, 49.89734161328052]","[-35.048769061289455, -217.58526852268696, 42.83246970274751]","[-49.80754114600304, -220.02468330499318, 41.72436227503803]",10000000000.0,0.022161006927490234
5,4.537639617919922,-44.84889221191406,-207.98114013671875,49.95298385620117,0.6305187940597533,0.03699810430407525,-1.4036664207789562,23.111947324087712,"array('d', [-205.2042236328125, -206.6800993431204, -208.16250605537772, -209.64763893524957, -211.13331876711388, -212.61829566510187, -214.10189072485366, -215.5842357875652, -217.06613397915748, -218.54844240233732, -220.03188767664062, -221.51697090407245, -223.00394666014122, -224.49285214337988, -225.98356191441556, -227.9723215447649])","array('d', [-45.20981216430664, -44.952494738259134, -44.74817429043727, -44.582777128567955, -44.446021613633214, -44.33043936835664, -44.230551382489296, -44.14232784587189, -44.062837353782136, -43.99000403226262, -43.92239030048207, -43.85902000648926, -43.79923536253948, -43.742584155766494, -43.688735365570565, -43.61993381894296])","array('d', [-49.9521598815918, -49.8802782260692, -49.7779218272384, -49.64802678294273, -49.49325134648527, -49.315999977764456, -49.118711016433785, -48.90692792712016, -48.6886312046172, -48.47079417274357, -48.259109889110995, -48.05786880851522, -47.86995867178053, -47.69695505490241, -47.53927075900367, -47.34877857881476])","array('d', [0.6312897205352782, 0.49647415948602724, 0.3744882728454129, 0.2810734620348512, 0.2099712824636533, 0.15646899513592308, 0.11685762385573792, 0.08810867589742363, 0.06770521494051496, 0.053547245892906235, 0.04389548300276254, 0.037335824543961664, 0.03275563311954227, 0.02932728106102046, 0.02649661663566948, 0.023975132354124285])","array('d', [-0.037069048732519067, -0.05845494931385022, -0.07780571408725866, -0.09531501148992659, -0.111158079812738, -0.12549348019319342, -0.1381140917372392, -0.14509418355254325, -0.14697413206352358, -0.14454656798137633, -0.13874173291616163, -0.13052899361387021, -0.12084046831363153, -0.11051874242065081, -0.10028775589137286, -0.09074412250024272])","array('d', [-1.376481695971217, -1.4178242649318147, -1.4482183462608111, -1.4704187366716228, -1.4867726769315797, -1.4988639997721596, -1.5078370293750902, -1.5145476128505124, -1.5196420415056198, -1.5236041771503046, -1.5267878254122662, -1.5294419761537812, -1.5317324081050137, -1.5337613017471923, -1.5355856733074345, -1.536823309610388])",-212.61829566510187,-44.33043936835664,-49.315999977764456,0.15646899513592308,-0.12549348019319342,-1.4988639997721596,14.999999854638151,-1.0,"[-44.64804640318419, -208.99531088505307, 49.89739651229347]","[-35.04987571942425, -218.0850573273368, 42.80855816314195]","[-49.82018427698611, -220.47188078124478, 41.74035457098839]",10000000000.0,0.01940464973449707
6,4.558838605880737,-44.84889221191406,-207.98114013671875,49.95298385620117,0.6305187940597533,0.03699810430407525,-1.4036664207789562,23.111947324087712,"array('d', [-205.66700744628906, -207.14407730951214, -208.6274327926697, -210.11333828364147, -211.59966390842612, -213.08519409505226, -214.56926015921894, -216.05199863876308, -217.5342312363136, -219.0168323525621, -220.50054318924293, -221.98587585876388, -223.47309224682547, -224.9622336326894, -226.45317623277558, -228.44224023526513])","array('d', [-45.14418029785156, -44.893793985137435, -44.69645583274409, -44.538116569287986, -44.40852427990843, -44.300230350774875, -44.20776799656222, -44.12711519609546, -44.05534466770036, -43.99038069704844, -43.93078229846655, -43.87556692874393, -43.824068177077436, -43.77582381679172, -43.7304922283587, -43.67315999966118])","array('d', [-49.95220184326172, -49.880372234699536, -49.778062874443386, -49.64821033175798, -49.49347329139565, -49.31625660655099, -49.11889282234926, -48.9068467600691, -48.68814669548196, -48.46981337502959, -48.25758271316142, -48.05578084330664, -47.867322655571336, -47.6938020271428, -47.53564165874224, -47.34457318294738])","array('d', [0.6313875913619995, 0.4965627167034353, 0.37505998937317064, 0.28207207721494765, 0.21125358910907396, 0.15792260246291967, 0.11839412201528973, 0.08965982385630203, 0.06922029208676701, 0.05499078665796557, 0.045245091027512944, 0.03857996387177442, 0.03389137298386288, 0.030357994983828924, 0.02742963824937434, 0.024819365298481333])","array('d', [-0.03703254461288445, -0.05842191903491574, -0.07777582707099635, -0.0952879686218953, -0.11113361045681339, -0.12547133955993842, -0.1382345330665326, -0.1453260853046606, -0.14728451233945633, -0.14490422123793006, -0.1391196283705689, -0.1309056803755044, -0.12120061782585385, -0.11085302669977408, -0.10059228697680758, -0.09101967364560345])","array('d', [-1.3811718662593024, -1.4225229915418311, -1.4529433246692518, -1.4752011377041556, -1.4916344917873516, -1.5038184607907115, -1.5128911822796507, -1.5197038257716782, -1.5248991248931258, -1.5289583343637652, -1.5322334911629563, -1.5349725446472946, -1.5373408385109824, -1.5394405886315046, -1.5413291728907068, -1.5426104119555137])",-213.08519409505226,-44.300230350774875,-49.31625660655099,0.15792260246291967,-0.12547133955993842,-1.5038184607907115,14.999999854620997,-1.0,"[-44.59953357496858, -209.45922732659702, 49.8974993601822]","[-35.04958848309883, -218.5894822692705, 42.7955986692362]","[-49.83046038188144, -220.92754413565976, 41.76637924621947]",10000000000.0,0.019742488861083984
7,4.577910900115967,-44.74650192260742,-208.90673828125,49.95284652709961,0.6221384406089782,0.037203229963779456,-1.41058890422317,23.10143832876563,"array('d', [-206.5926055908203, -208.07192976346536, -209.5570565517616, -211.0443876024254, -212.53188848389183, -214.01840959783746, -215.50330808465483, -216.9867304530779, -218.4695280440855, -219.95260759731167, -221.43673777879496, -222.9224516600943, -224.41002529002412, -225.89950814555067, -227.3907801397177, -229.38026598175864])","array('d', [-45.01948547363281, -44.78272224071365, -44.599091847256055, -44.454614953597066, -44.33910244769267, -44.245144032260676, -44.167295640777624, -44.101549611442685, -44.04498667342346, -43.99553112522016, -43.95173498798673, -43.91260281378249, -43.877450840637415, -43.84579670216352, -43.81727745427175, -43.78258926886993])","array('d', [-49.952518463134766, -49.88088623383231, -49.778755258475094, -49.6490638940165, -49.49447246115157, -49.317387303849536, -49.11998364747231, -48.90757781422034, -48.6882478722896, -48.46910226873461, -48.25595669085025, -48.053204039061235, -47.86381028971493, -47.68940402345027, -47.530427025891726, -47.338369690658716])","array('d', [0.6314281821250919, 0.4965994443330944, 0.3763005330266777, 0.28414607991383556, 0.21387942016158257, 0.16087905104088757, 0.12150715595870545, 0.09279515654213097, 0.07227818753198013, 0.05790160730113377, 0.047964995667313035, 0.041086555642851436, 0.03617925081109638, 0.03243420909682708, 0.02930905416598169, 0.026519931298528848])","array('d', [-0.036894109100103295, -0.05829665819550051, -0.07766248719809946, -0.09518541542541459, -0.11104081780976277, -0.12538737986270806, -0.138368548409186, -0.14567312323152926, -0.1477838756096806, -0.14549802421559543, -0.13975742628178534, -0.13154721867484254, -0.12181693962980449, -0.11142631012680045, -0.10111483873035866, -0.09149249795392489])","array('d', [-1.3903869827601574, -1.4317416569624561, -1.462212774369372, -1.4845918769937914, -1.501188993993097, -1.5135621334198388, -1.52283733674862, -1.529856612844994, -1.535255725411436, -1.5395108249450171, -1.5429704928711752, -1.5458806564516994, -1.5484058302416392, -1.550648328350342, -1.5526662699824516, -1.554035345284381])",-214.01840959783746,-44.245144032260676,-49.317387303849536,0.16087905104088757,-0.12538737986270806,-1.5135621334198388,14.999999851664423,-1.0,"[-44.59953357496858, -209.45922732659702, 49.8974993601822]","[-35.04958848309883, -218.5894822692705, 42.7955986692362]","[-49.83046038188144, -220.92754413565976, 41.76637924621947]",10000000000.0,0.017701387405395508
8,4.594282150268555,-44.69859313964844,-209.36935424804688,49.952491760253906,0.6138920187950134,0.03760787099599832,-1.4130846699092052,23.091722065328064,"array('d', [-207.055419921875, -208.53582101682895, -210.02177978795336, -211.50976656027132, -212.99779478178345, -214.48474808974387, -215.97000749917646, -217.45372523289652, -218.9367564439391, -220.42002364876143, -221.9043089958408, -223.390155935713, -224.8778476306175, -226.36743779123987, -227.8588083839725, -229.8484141811996])","array('d', [-44.960418701171875, -44.73051727880137, -44.553799889922765, -44.41632118003421, -44.30792301275747, -44.22121391444583, -44.15076019312317, -44.092560965437855, -44.04370116987816, -44.002104857711714, -43.96632028842599, -43.93534526421811, -43.908487011298206, -43.88525272537592, -43.86526841537429, -43.842078114876436])","array('d', [-49.95277786254883, -49.881043249593176, -49.778819743721925, -49.64904477460294, -49.49437781443627, -49.31722443419792, -49.119759225886796, -48.90721589397563, -48.687614983588766, -48.468107274426735, -48.25454713015929, -48.05135993317739, -47.86153659588261, -47.68672271319363, -47.5273695137624, -47.33485656231207])","array('d', [0.6315372586250304, 0.49669814133573714, 0.3770009119393461, 0.28526208498631916, 0.21526924796550834, 0.16243121274312106, 0.12313393544617099, 0.0944289017809258, 0.07386869884975275, 0.059413900438802354, 0.04937713508476321, 0.042387458120191006, 0.037366436469681255, 0.0335115002267257, 0.030284224205012082, 0.0274023017180128])","array('d', [-0.03696591779589639, -0.058361632639596796, -0.07772127773009371, -0.09523861039877043, -0.11108894940147816, -0.12543092893779745, -0.1384078588896581, -0.14581728143252776, -0.1480036809980561, -0.14576547423946026, -0.14004802049616225, -0.13184133837139086, -0.12210041745589233, -0.11169037118650003, -0.10135562262568915, -0.09171036836413665])","array('d', [-1.3950182636592048, -1.4363824755225494, -1.4668853955298418, -1.4893310144149285, -1.5060155174343048, -1.5184884286062081, -1.5278697490240782, -1.534996902565047, -1.5405021619465364, -1.5448591227947595, -1.548414641358416, -1.5514136424266467, -1.5540202402283805, -1.5563368169243728, -1.5584218844867788, -1.5598365387709228])",-214.48474808974387,-44.22121391444583,-49.31722443419792,0.16243121274312106,-0.12543092893779745,-1.5184884286062081,14.999999854571719,-1.0,"[-44.50738303335651, -210.3865049562963, 49.89705455432771]","[-35.037719331964865, -219.63008717471587, 42.8343598027571]","[-49.83538608242803, -221.89557186883147, 41.887450175091914]",10000000000.0,0.01520681381225586
9,4.613414287567139,-44.65240478515625,-209.8341827392578,49.95160675048828,0.6026591658592222,0.038395836949348484,-1.4150063236567636,23.081093730890114,"array('d', [-207.51828002929688, -208.99968993954474, -210.48642002227186, -211.97500729831657, -213.46351138031434, -214.9508478328474, -216.4364205272154, -217.92038736129047, -219.40360725901803, -220.88701764985464, -222.3714134603062, -223.85734802516987, -225.34511133920148, -226.83476124867, -228.32618180805534, -230.31584181058597])","array('d', [-44.90358352661133, -44.680295269756975, -44.51022419788018, -44.37946117587228, -44.277880142861534, -44.19810925302297, -44.13472590353715, -44.08373646118281, -44.04223049632634, -44.00813245689157, -43.979987549490026, -43.95678758859479, -43.937831582035564, -43.922617086038215, -43.91075984079441, -43.89851547714764])","array('d', [-49.95289993286133, -49.881101428189325, -49.77882017868272, -49.64899303532113, -49.494278940650084, -49.31708298267834, -49.11957920259322, -48.906924312369014, -48.68708541360086, -48.467252956238745, -48.253317604977916, -48.04973526653515, -47.85952031602269, -47.6843343871005, -47.52463764736292, -47.331708591744395])","array('d', [0.6315104365348814, 0.4966738717331289, 0.37757048002401705, 0.2862430906028346, 0.21652313289524178, 0.1638492979491042, 0.12463083455477994, 0.0959387849673007, 0.0753426792319184, 0.06081782107230921, 0.050689448954367514, 0.04359709542891222, 0.038470631090263524, 0.034513571905985786, 0.031191316596170474, 0.028223072929464868])","array('d', [-0.037010729312896694, -0.0584021797957749, -0.07775796633329878, -0.09527180764293286, -0.11111898754691069, -0.12545810868028284, -0.1384326001285965, -0.1459411656632485, -0.14819938063709148, -0.14600672906829623, -0.14031182110679324, -0.13210923628624505, -0.12235906956167593, -0.11193148994615224, -0.10157553002801675, -0.09190934882780688])","array('d', [-1.3994847973200937, -1.440846663744791, -1.471371278633696, -1.4938737251618752, -1.510636223203631, -1.5231998048651805, -1.5326784787508112, -1.5399051517936804, -1.5455086717965183, -1.5499601308341429, -1.553604690613227, -1.5566862822994831, -1.5593686089102408, -1.561754093992931, -1.563901604897566, -1.5653586585231252])",-214.9508478328474,-44.19810925302297,-49.31708298267834,0.1638492979491042,-0.12545810868028284,-1.5231998048651805,14.999999854556268,-1.0,"[-44.46317170715788, -210.84969068184256, 49.89609325051108]","[-35.022680126858084, -220.1689242970171, 42.894021874975856]","[-49.826044464814785, -222.4155028397269, 41.99219643225011]",10000000000.0,0.015192508697509766
10,4.630375623703003,-44.608089447021484,-210.298583984375,49.950321197509766,0.588531196117401,0.039571210741996765,-1.4164849956843515,23.065079834628786,"array('d', [-207.98114013671875, -209.46346226510056, -210.9508730315516, -212.43997823074346, -213.9288833102048, -215.41653473458413, -216.90235804792866, -218.38651757845886, -219.86987639702164, -221.3533848806144, -222.83784896535107, -224.32383051166593, -225.81162546956716, -227.30129538463225, -228.7927262987792, -230.7823885173395])","array('d', [-44.84889221191406, -44.6317332628988, -44.467710072214246, -44.34296791593229, -44.247423479170365, -44.173732083843305, -44.116488312216205, -44.07171074755822, -44.0364978864094, -44.008778805095254, -43.98709979768979, -43.97045080127707, -43.95812668032471, -43.949619342329434, -43.94453809769578, -43.94139808740959])","array('d', [-49.95298385620117, -49.88120335208809, -49.778938370980136, -49.64912592689384, -49.49442511158617, -49.317241149074434, -49.119748170278505, -48.90704024365502, -48.68704103929203, -48.46697390516732, -48.25275961056002, -48.048879376826676, -47.85836705135689, -47.68289761387554, -47.522938734682036, -47.32969207043424])","array('d', [0.6305187940597533, 0.4957765964661127, 0.37730189924689267, 0.2864191649648282, 0.21700745513830885, 0.16453659876102042, 0.1254391189457431, 0.09680491740728482, 0.07621943112661547, 0.06167153514161726, 0.051497943256970526, 0.0443476541160503, 0.039158022138761885, 0.03513806815869387, 0.03175670805028892, 0.028734660319310375])","array('d', [-0.03699810430407525, -0.05839075622619562, -0.07774762987159395, -0.09526245484071694, -0.11111052480759205, -0.12545045135552452, -0.13842571646775872, -0.14601810326731945, -0.14833750160955428, -0.14618426992861197, -0.14050970954568187, -0.13231217262052836, -0.12255596885622981, -0.11211543163409526, -0.10174338177659961, -0.09206122738399503])","array('d', [-1.4036664207789562, -1.444941627393892, -1.4754197093459294, -1.4979188700669392, -1.514704508467773, -1.5273079215456082, -1.5368366000227482, -1.544118733947821, -1.549779676641562, -1.5542879760704662, -1.557987037408255, -1.5611196939595913, -1.5638490877558804, -1.5662774954641132, -1.568463926247016, -1.5699474088065537])",-215.41653473458413,-44.173732083843305,-49.317241149074434,0.16453659876102042,-0.12545045135552452,-1.5273079215456082,14.999999854542356,-1.0,"[-44.419835447201194, -211.31492447639405, 49.89402714519368]","[-35.00201721341592, -220.7234310510827, 42.98137904555618]","[-49.80943458477837, -222.96325177963388, 42.130735821739115]",10000000000.0,0.015599966049194336
11,4.6476030349731445,-44.608089447021484,-210.298583984375,49.950321197509766,0.588531196117401,0.039571210741996765,-1.4164849956843515,23.065079834628786,"array('d', [-208.90673828125, -210.39043922273902, -211.8787772364161, -213.3685198292344, -214.85787029547276, -216.345836257384, -217.83188319363242, -219.31619094101342, -220.7996325706729, -222.28317783694715, -223.7676481484221, -225.25361684514877, -226.7413876552189, -228.231026828705, -229.72242283102347, -231.71203095354954])","array('d', [-44.74650192260742, -44.539046347238006, -44.38381559269107, -44.267182273201925, -44.17921921515531, -44.11268638956362, -44.06225349961212, -44.02399759657091, -43.99506437912871, -43.97341994008677, -43.9576396732806, -43.94673632588169, -43.94002271740611, -43.93700511368724, -43.93730463203376, -43.941220469419484])","array('d', [-49.95284652709961, -49.88077355829452, -49.778244254731874, -49.64819298129363, -49.49327640495893, -49.31589753833567, -49.118228480669636, -48.90528155671995, -48.68492495958081, -48.464424359570394, -48.249737557765854, -48.045375750502764, -47.85439501278, -47.67848492064502, -47.51812077216301, -47.324383813604484])","array('d', [0.6221384406089782, 0.4881937378980156, 0.37124860453100456, 0.28150523718767234, 0.2129650682907081, 0.1611701046100283, 0.1226006831838617, 0.09438110041122443, 0.07412295738250557, 0.05983570917844264, 0.049872482751425834, 0.04289533007942354, 0.03785178868147077, 0.033958508972130416, 0.030689699933461417, 0.027769191363142726])","array('d', [-0.037203229963779456, -0.058576362368069165, -0.07791557404596872, -0.09541441792582765, -0.11124802790904746, -0.12557487147600974, -0.13853832710586803, -0.14622584386844367, -0.14861041946325473, -0.1464950087875196, -0.14083527093834386, -0.1326347899503299, -0.12286327434625462, -0.1124001226091701, -0.10200258940683853, -0.09229576805594594])","array('d', [-1.41058890422317, -1.451135884069026, -1.4810720709285334, -1.5031708675468136, -1.5196448927681188, -1.531997462335876, -1.5413192595362717, -1.54842743752167, -1.553939656402341, -1.5583189136946716, -1.5619045527161022, -1.5649364357463542, -1.5675755520337344, -1.569922634848008, -1.5720355847641965, -1.5734691977741588])",-216.345836257384,-44.11268638956362,-49.31589753833567,0.1611701046100283,-0.12557487147600974,-1.531997462335876,14.999999851640675,-1.0,"[-44.37772045505814, -211.7796000999273, 49.890979871132956]","[-34.97758588445191, -221.29064124394583, 43.09557212683383]","[-49.78774703997494, -223.53376558192483, 42.303410683816686]",10000000000.0,0.0161893367767334
12,4.663352727890015,-44.608089447021484,-210.298583984375,49.950321197509766,0.588531196117401,0.039571210741996765,-1.4164849956843515,23.065079834628786,"array('d', [-209.36935424804688, -210.85346882339869, -212.34200437084948, -213.8318234844204, -215.32118211363274, -216.80911811076868, -218.29511485909964, -219.77936061634557, -221.26273405258354, -222.74621160839123, -224.23061918288383, -225.71653291115294, -227.2042580533514, -228.6938614911003, -230.18523170637542, -232.17481471399606])","array('d', [-44.69859313964844, -44.494294641754045, -44.34129845090111, -44.22616163551538, -44.13907749152083, -44.072888967260695, -44.02232850226875, -43.98352374238258, -43.95366250255165, -43.9307468398314, -43.913383715788015, -43.90061414497826, -43.89177663842442, -43.88640102336945, -43.884130098779075, -43.884394336556696])","array('d', [-49.952491760253906, -49.87984187023131, -49.776791163697744, -49.6462687787582, -49.49092659896775, -49.31316327584773, -49.11514694353707, -48.90186591583381, -48.681173208058006, -48.460344978240876, -48.24534625838684, -48.04069269893468, -47.849442615022745, -47.67328615655655, -47.51269800875667, -47.31869071096641])","array('d', [0.6138920187950134, 0.48073206620854475, 0.3647131831467578, 0.27569151648989854, 0.20774509215398876, 0.15645735440499506, 0.11833277699163867, 0.09051035219721573, 0.07061089236941588, 0.05664976297882458, 0.04698398365097226, 0.040278275249769985, 0.03548213509575235, 0.031813816034157796, 0.028749027903546703, 0.026013198535300153])","array('d', [-0.03760787099599832, -0.05894249675207538, -0.07824686617014699, -0.09571418346693246, -0.11151926701693933, -0.12582029880429976, -0.13876039971335455, -0.14645371371934252, -0.1488356639269536, -0.14671155473192857, -0.1410391618079808, -0.1328238204651153, -0.12303658992979681, -0.11255784600762024, -0.10214550692897412, -0.09242508518926561])","array('d', [-1.4130846699092052, -1.4529221378442565, -1.4823056796968208, -1.5039553231893552, -1.5200462490479107, -1.5320628973539372, -1.5410854334976862, -1.547924639186254, -1.5531939817117297, -1.5573534521009538, -1.560740051611881, -1.563591685405604, -1.5660676211817066, -1.5682670288115939, -1.5702463675483123, -1.571589280472593])",-216.80911811076868,-44.072888967260695,-49.31316327584773,0.15645735440499506,-0.12582029880429976,-1.5320628973539372,14.99999985163889,-1.0,"[-44.37772045505814, -211.7796000999273, 49.890979871132956]","[-34.97758588445191, -221.29064124394583, 43.09557212683383]","[-49.78774703997494, -223.53376558192483, 42.303410683816686]",10000000000.0,0.014595508575439453
13,4.680312395095825,-44.524322509765625,-211.22581481933594,49.94611740112305,0.5524229407310485,0.042894348502159146,-1.4184486111018322,23.025882323632327,"array('d', [-209.8341827392578, -211.31853707568993, -212.80709340305387, -214.29682133424575, -215.78603375847075, -217.27379975797277, -218.75962008431492, -220.24369121042452, -221.72689760196698, -223.2102219162262, -224.69449361713157, -226.18029053610758, -227.66791838924527, -229.15744372797465, -230.64875421435, -232.63827478730573])","array('d', [-44.65240478515625, -44.45022528081956, -44.29809218982842, -44.18279556723599, -44.09467893541556, -44.0266900884841, -43.973642352230264, -43.93172956213813, -43.89819522446854, -43.87109007398721, -43.84906500772461, -43.83120152019521, -43.81687587645071, -43.805653253801154, -43.79720946342998, -43.788900237408114])","array('d', [-49.95160675048828, -49.877833441024606, -49.77376743296238, -49.6423276825284, -49.48615675632658, -49.30764481284589, -49.10895227700007, -48.8950426661528, -48.67375400071704, -48.45237051076103, -48.23686068320957, -48.03174036529494, -47.84006601514852, -47.663524827655735, -47.502588123849705, -47.30816048628368])","array('d', [0.6026591658592222, 0.47056816023564896, 0.35560762153919645, 0.26742987845961247, 0.20020090473729274, 0.14954983140169012, 0.11200583041848489, 0.08472115622959157, 0.06532338234613545, 0.05183093789226919, 0.04260190225379311, 0.036301123133193634, 0.031877996833746716, 0.02855093476890698, 0.025796423915415864, 0.02334157172363703])","array('d', [-0.038395836949348484, -0.05965547718520278, -0.07889199686448141, -0.09629792105636595, -0.11204745353754299, -0.12629821977684563, -0.13919282360241078, -0.14686832520882703, -0.14922485198928145, -0.1470713815504442, -0.14136845350269445, -0.1331232667633255, -0.12330797348636664, -0.11280345431120678, -0.10236772863599668, -0.09262615983399235])","array('d', [-1.4150063236567636, -1.45388827961323, -1.482516723706054, -1.5035377723137753, -1.5190816687367694, -1.5306106136597182, -1.5391927771815024, -1.5456319547648294, -1.5505371514605315, -1.554365158660694, -1.5574503857516102, -1.5600284202831776, -1.5622563295739404, -1.5642311424471533, -1.5660072360726351, -1.5672121718491847])",-217.27379975797277,-44.0266900884841,-49.30764481284589,0.14954983140169012,-0.12629821977684563,-1.5306106136597182,14.999999854515837,-1.0,"[-44.37772045505814, -211.7796000999273, 49.890979871132956]","[-34.97758588445191, -221.29064124394583, 43.09557212683383]","[-49.78774703997494, -223.53376558192483, 42.303410683816686]",10000000000.0,0.01566910743713379
14,4.708637714385986,-44.445823669433594,-212.1504364013672,49.93891906738281,0.5076576471328735,0.04778239503502838,-1.4192647178980966,22.969497886489457,"array('d', [-210.298583984375, -211.7830351800668, -213.27145997511917, -214.7609464397538, -216.24986890683815, -217.73732904101564, -219.22284477994728, -220.70662058847242, -222.18954696786437, -223.67261279410658, -225.15665062317015, -226.64223928883624, -228.12968423346265, -229.61905100954667, -231.1102258742612, -233.09958504060918])","array('d', [-44.608089447021484, -44.407198739196204, -44.254786872534275, -44.13791975632829, -44.047118072741576, -43.97545464740736, -43.917840689657865, -43.87055102015967, -43.830897825063246, -43.79699269008987, -43.76754228659551, -43.74168025532466, -43.7188321083396, -43.69860957888046, -43.680732242770986, -43.65938919867696])","array('d', [-49.950321197509766, -49.87487220917482, -49.76929180741327, -49.6364837516516, -49.47907670495036, -49.29944815275165, -49.09974699957034, -48.88490878046139, -48.66275507108077, -48.44057698762925, -48.224343805104844, -48.01856823043355, -47.82630146456955, -47.6492246861129, -47.487803353187964, -47.29279157561131])","array('d', [0.588531196117401, 0.4577846434289603, 0.3440196737305369, 0.25681192362636934, 0.1904259715569185, 0.14054084156227287, 0.10371117156857283, 0.07710135592605155, 0.058343632615006115, 0.04545700805078162, 0.03679813186895239, 0.03102974465323793, 0.0270993387965291, 0.02422423590796876, 0.021881099239715155, 0.01979883913252871])","array('d', [-0.039571210741996765, -0.06071899948992383, -0.0798543117447568, -0.09716865966334617, -0.11283533050228478, -0.1270111204414306, -0.1398378851559658, -0.14747488787550114, -0.14978525936872533, -0.14758302225946723, -0.14183223811757867, -0.13354222870405824, -0.12368614099697814, -0.11314504262520499, -0.10267662995241775, -0.09290566532819271])","array('d', [-1.4164849956843515, -1.4541824418742197, -1.4818649998390137, -1.5020874054659192, -1.5169285199667348, -1.5278253884996236, -1.535832907887253, -1.5417473581078163, -1.546173044557907, -1.5495633751965694, -1.5522499213617356, -1.5544655995760568, -1.5563648126485938, -1.5580418938080927, -1.5595485272323888, -1.5605705263449743])",-217.73732904101564,-43.97545464740736,-49.29944815275165,0.14054084156227287,-0.1270111204414306,-1.5278253884996236,14.999999854516728,-1.0,"[-44.25789670399772, -213.16973414715167, 49.875428280189844]","[-34.889235301082785, -223.05056842942938, 43.58278993020518]","[-49.701658559708775, -225.34503595692004, 43.01048234454284]",10000000000.0,0.02433943748474121
15,4.725471258163452,-44.408119201660156,-212.61154174804688,49.93398666381836,0.4827081263065338,0.05089667811989784,-1.419400616488185,22.934701103266548,"array('d', [-211.22581481933594, -212.71012276948673, -214.1979091258449, -215.6865234235476, -217.1744723513494, -218.6609250138724, -220.14543249311077, -221.6282147786792, -223.1101753151782, -224.59231516314924, -226.07547179831388, -227.5602245246262, -229.04687693685202, -230.53549174408494, -232.0259519964192, -234.0143143617437])","array('d', [-44.524322509765625, -44.324102341576484, -44.16843236084479, -44.045024878521986, -43.944816858759765, -43.86117977634465, -43.7892630792581, -43.725541583708996, -43.6674988775909, -43.61340052518095, -43.56209636268364, -43.5128555697224, -43.46523294739522, -43.41896334676744, -43.37388264223929, -43.31505654739019])","array('d', [-49.94611740112305, -49.86593127499333, -49.756069810113836, -49.61939374317688, -49.45849239232735, -49.27570739131669, -49.07315505565501, -48.85571138601738, -48.63116471082611, -48.40681494024397, -48.18862418400986, -47.98108860735337, -47.787238793967504, -47.60873504991509, -47.44602413410912, -47.24946526756396])","array('d', [0.5524229407310485, 0.4251125393033439, 0.3141151039757614, 0.22919780606808743, 0.16484707598188864, 0.11685162443192812, 0.08181860366909126, 0.05693357629482943, 0.03983257613170713, 0.028529304597259976, 0.02137115988655626, 0.01701100026233585, 0.014387998818236153, 0.012714236953247771, 0.011465337061086146, 0.010374266922860979])","array('d', [-0.042894348502159146, -0.06372589987416169, -0.08257506871849966, -0.0996305034654291, -0.11506290024437085, -0.12902671109576458, -0.14166168402218363, -0.14916389229460542, -0.15132532270328314, -0.14897366158894074, -0.14308187755548313, -0.13466401642395534, -0.12469470807920673, -0.11405429068171381, -0.10349843442768986, -0.09364926472377076])","array('d', [-1.4184486111018322, -1.4532004065659583, -1.4784980895705924, -1.4966767007656936, -1.509699530465801, -1.5189475962832844, -1.525446941418542, -1.5299780273507535, -1.53313547917223, -1.5353656344639546, -1.5369938181431237, -1.5382466915477468, -1.539272092580019, -1.5401574769511341, -1.5409475062804947, -1.5414829844793954])",-218.6609250138724,-43.86117977634465,-49.27570739131669,0.11685162443192812,-0.12902671109576458,-1.5189475962832844,14.99999985164144,-1.0,"[-44.21965355547827, -213.63155553367878, 49.86727274539765]","[-34.85536725129896, -223.64653147565696, 43.7836554912504]","[-49.666558574414836, -225.96956229697298, 43.30184703006202]",10000000000.0,0.015702486038208008
16,4.7457568645477295,-44.408119201660156,-212.61154174804688,49.93398666381836,0.4827081263065338,0.05089667811989784,-1.419400616488185,22.934701103266548,"array('d', [-211.68849182128906, -213.17257007453856, -214.65985797031794, -216.14784207015413, -217.6350972332698, -219.12082609151713, -220.6045950728476, -222.0866307699119, -223.5678431082341, -225.04923985253612, -226.53166110642945, -228.0156864096945, -229.50161847801536, -230.9895187941349, -232.479269164795, -234.46668517840345])","array('d', [-44.484500885009766, -44.283798644747044, -44.12536713665839, -43.997270162282625, -43.8906726692736, -43.799112524688574, -43.7178743616883, -43.64354813722903, -43.57371710242003, -43.50673731113519, -43.44154364433692, -43.37748649675836, -43.314198638143026, -43.251489493105105, -43.18926557542219, -43.10684426412479])","array('d', [-49.94304275512695, -49.85972488545073, -49.74703328783797, -49.60780020763865, -49.44458892073333, -49.25971734039882, -49.05528023361646, -48.83611631396237, -48.609993114834744, -48.38421496413626, -48.16473821917387, -47.95604741921246, -47.761159083933904, -47.58171947741752, -47.41816289026756, -47.22058451913129])","array('d', [0.5309829711914061, 0.4057128508646515, 0.29624831658685746, 0.21262118107234237, 0.14943613632709685, 0.1025394364475969, 0.06856427817205943, 0.04470488998988602, 0.02859643169843487, 0.01824691859581865, 0.011996225460360185, 0.00848976443797897, 0.006660598021313189, 0.005716893460713454, 0.005133187720502558, 0.004644700743983283])","array('d', [-0.045091595500707564, -0.06571405136618219, -0.08437402275321355, -0.10125826454556197, -0.11653575952118442, -0.13035940942131416, -0.142867559998839, -0.1502778881011233, -0.1523391523990128, -0.14988781494865291, -0.14390249613259562, -0.13540016862038115, -0.12535629157156594, -0.11465061054872142, -0.10403737807899406, -0.09413692114940553])","array('d', [-1.418990774950709, -1.4520448753930348, -1.475950018440275, -1.4929206123493917, -1.5048594486754063, -1.5131184811176852, -1.5187091392034782, -1.522404126252057, -1.5247934064728623, -1.5263198291736537, -1.5273054480740131, -1.527973451089603, -1.5284678796924112, -1.5288721140536716, -1.5292265967808494, -1.5294663308746914])",-219.12082609151713,-43.799112524688574,-49.25971734039882,0.1025394364475969,-0.13035940942131416,-1.5131184811176852,14.999999851643771,-1.0,"[-44.18218511911047, -214.09246384588474, 49.85767460397237]","[-34.82092807923358, -224.2437205882538, 43.999445077582884]","[-49.6301490576122, -226.59767967276247, 43.617541107965124]",10000000000.0,0.01585674285888672
17,4.765913963317871,-44.408119201660156,-212.61154174804688,49.93398666381836,0.4827081263065338,0.05089667811989784,-1.419400616488185,22.934701103266548,"array('d', [-212.1504364013672, -213.63417287968036, -215.12083366380887, -216.6080433574192, -218.0944449182849, -219.5792737551924, -221.0621105906628, -222.54318664957637, -224.02341781286145, -225.5038202177949, -226.98523784850104, -228.46825139099005, -229.95316336419594, -231.4400345804781, -232.9287461014364, -234.91476239795995])","array('d', [-44.445823669433594, -44.244165400360274, -44.08234069961961, -43.9487721036734, -43.8348588070426, -43.73431185750558, -43.64255847281452, -43.55631140582912, -43.47326091748889, -43.39186077520244, -43.31113830139333, -43.230532612466746, -43.14976195230141, -43.06871768409069, -42.98738404487501, -42.87867133526582])","array('d', [-49.93891906738281, -49.851766487003395, -49.735609592032475, -49.5932456895827, -49.42720613473038, -49.239779775681576, -49.03303498248821, -48.81175787287109, -48.583685320322026, -48.35613019855794, -48.13504508399824, -47.924903280303255, -47.72870655391748, -47.54808576085347, -47.383460982996176, -47.18459438531881])","array('d', [0.5076576471328735, 0.384607222954354, 0.2767467690800026, 0.19448419539584916, 0.13254421344865208, 0.08683093206932145, 0.054002736932872095, 0.031260941136643704, 0.016237918119597558, 0.006934051601015374, 0.001679914860415226, -0.0008880130611938835, -0.001843905937460218, -0.001984236524547218, -0.0018358557754169459, -0.0016611511501648869])","array('d', [-0.04778239503502838, -0.0681487877025309, -0.0865770635036701, -0.10325165844117402, -0.11833945708316228, -0.13199146263913725, -0.14434430359953773, -0.15165130813055294, -0.15359710148911448, -0.15102864588889184, -0.14493154800954514, -0.13632666089596188, -0.12619089673318953, -0.11540377220526302, -0.10471829624775543, -0.09475304144235382])","array('d', [-1.4192647178980966, -1.4505115281846561, -1.4729208538220342, -1.4885836853956902, -1.4993427044542278, -1.5065212163642068, -1.511116525538736, -1.5138940309014148, -1.515439365358463, -1.5161920522199617, -1.5164708651275849, -1.5164953595244923, -1.5164055042683668, -1.5162802473048151, -1.516155411075497, -1.5160696718464397])",-219.5792737551924,-43.73431185750558,-49.239779775681576,0.08683093206932145,-0.13199146263913725,-1.5065212163642068,14.999999851646601,-1.0,"[-44.18218511911047, -214.09246384588474, 49.85767460397237]","[-34.82092807923358, -224.2437205882538, 43.999445077582884]","[-49.6301490576122, -226.59767967276247, 43.617541107965124]",10000000000.0,0.01590585708618164
18,4.781510829925537,-44.33489227294922,-213.53091430664062,49.92132568359375,0.4292108714580534,0.05839370563626287,-1.4193424423548835,22.85393657125487,"array('d', [-212.61154174804688, -214.0948531781986, -215.58078419887627, -217.06709679037638, -218.55250115527355, -220.03626433891583, -221.51798013377774, -222.99788248506493, -224.47689270577007, -225.95603679362327, -227.43616379986102, -228.917856519895, -230.40141811863447, -231.88690954228815, -233.3742119191194, -235.35829710955704])","array('d', [-44.408119201660156, -44.20524475625746, -44.039643890175604, -43.90009877834519, -43.77824537836752, -43.667972150292385, -43.56485436563588, -43.465733758150165, -43.36841377472851, -43.271452024143294, -43.17397460489187, -43.075515795502405, -42.975885739993736, -42.87506402375346, -42.773118630214796, -42.636050489829906])","array('d', [-49.93398666381836, -49.8423965700374, -49.72222978071133, -49.57624310349523, -49.40693091101139, -49.216548391310646, -49.00713337618751, -48.78340654544811, -48.5530658825837, -48.32343626664743, -48.10046806320401, -47.888623536346245, -47.69088897324916, -47.50887853778193, -47.34299653441255, -47.14261515326807])","array('d', [0.4827081263065338, 0.36203196149379574, 0.2558380304558235, 0.17500636349077484, 0.11438220626461791, 0.06992738148532099, 0.03832454471428689, 0.01678065780412755, 0.00292365646444679, -0.0052553335782561834, -0.009436482742352039, -0.010993412215388696, -0.01100838116086238, -0.010283017879244431, -0.009345738808680327, -0.008456374938963267])","array('d', [-0.05089667811989784, -0.07096670723234268, -0.08912682212750121, -0.1055587749023881, -0.12042702155263385, -0.13388036748533416, -0.1460534240025766, -0.15324690206083394, -0.15506373663288261, -0.15236291068119057, -0.14613818646401777, -0.13741512189240773, -0.12717260799886257, -0.11629022328449838, -0.10551985320062568, -0.09547832033741298])","array('d', [-1.419400616488185, -1.4487566365462747, -1.4695872056734716, -1.4838598798321534, -1.4933587068735428, -1.499379300976026, -1.5029056069029632, -1.5046963120734842, -1.5053331146113702, -1.5052524066517987, -1.5047696939639246, -1.5041007636244383, -1.5033812677836031, -1.5026854084270194, -1.5020440387582332, -1.5016075523811583])",-220.03626433891583,-43.667972150292385,-49.216548391310646,0.06992738148532099,-0.13388036748533416,-1.499379300976026,14.99999985454744,-1.0,"[-44.18218511911047, -214.09246384588474, 49.85767460397237]","[-34.82092807923358, -224.2437205882538, 43.999445077582884]","[-49.6301490576122, -226.59767967276247, 43.617541107965124]",10000000000.0,0.014389753341674805
19,4.796118497848511,-44.299034118652344,-213.98902893066406,49.913448333740234,0.4013086855411529,0.0627952590584755,-1.4191674431178234,22.80774859908853,"array('d', [-213.53091430664062, -215.01312983017087, -216.49730470396875, -217.98146385787481, -219.46444388233766, -220.94556840847076, -222.4244517489903, -223.90132563708403, -225.37711963698192, -226.85288428593776, -228.32948285501732, -229.80750584756046, -231.28726087108342, -232.7688121800179, -234.25204410409168, -236.23057185511996])","array('d', [-44.33489227294922, -44.12901890658308, -43.9550770045799, -43.802544889101874, -43.66352280520794, -43.53225495672918, -43.40462020566128, -43.27772997042628, -43.149626979826955, -43.01908968353713, -42.88545593993526, -42.74846513223134, -42.60812611307958, -42.46460954881907, -42.31816495217572, -42.119872931177866])","array('d', [-49.92132568359375, -49.81905650194607, -49.68924026187716, -49.53453601637748, -49.357348953403175, -49.15985314332137, -48.944012790202834, -48.71437566539329, -48.47853487873914, -48.2438514413637, -48.01627772075239, -47.80025600437569, -47.598740648965574, -47.41330943081563, -47.24433088549258, -47.040211808978476])","array('d', [0.4292108714580534, 0.3136256391224954, 0.2108546539550404, 0.13300393212998707, 0.07515340378530662, 0.03337576847711415, 0.004397308682710264, -0.01456905024916653, -0.025909537360234693, -0.031656328773239845, -0.033515069911790527, -0.03288263921972507, -0.0308595763849431, -0.02825902863596529, -0.025612911467208344, -0.02317552277878867])","array('d', [-0.05839370563626287, -0.07775029894858455, -0.09526487036868796, -0.11111271120137964, -0.12545243148196142, -0.1384275470276359, -0.15016790750554837, -0.15710856141354637, -0.15863066335839496, -0.1556217667176102, -0.14909555490249407, -0.1400896636908142, -0.12958876145721698, -0.11847367394039672, -0.1074946333451606, -0.09726517546162226])","array('d', [-1.4193424423548835, -1.4447757323392811, -1.4622870738984726, -1.4736055584929, -1.480407021376318, -1.4839370763497823, -1.4851566762559723, -1.48481370096416, -1.4834836673280791, -1.4815976007953033, -1.4794647257889375, -1.4772930679529914, -1.4752090954414203, -1.4732767725503584, -1.4715161774028727, -1.4703197414100921])",-220.94556840847076,-43.53225495672918,-49.15985314332137,0.03337576847711415,-0.1384275470276359,-1.4839370763497823,14.999999854566093,-1.0,"[-44.10896470831145, -215.01121608189527, 49.83378489473058]","[-34.75086572812362, -225.43148694014855, 44.46312956063539]","[-49.55388348067009, -227.84947484976354, 44.308210592300995]",10000000000.0,0.013700008392333984
20,4.816359519958496,-44.26347351074219,-214.4459991455078,49.90418243408203,0.3731081485748291,0.06761822849512093,-1.4190861423823498,22.75916729086622,"array('d', [-213.98902893066406, -215.47056676803962, -216.9537138562179, -218.43661668167354, -219.9181685713387, -221.39771663409854, -222.8748817436942, -224.34988961141914, -225.82367201019278, -227.29729444778832, -228.77162965921667, -230.24727402674716, -231.7245391851102, -233.20349274723918, -234.68402233115953, -236.6588061747688])","array('d', [-44.299034118652344, -44.091446646622025, -43.91307504001263, -43.75372405402917, -43.605714538409, -43.46346396540493, -43.323002765749266, -43.181579982294934, -43.037361833284095, -42.8892412398492, -42.736666697796146, -42.57948530265674, -42.417810570824095, -42.25191396387365, -42.08214080695903, -41.851753393277185])","array('d', [-49.913448333740234, -49.80491177121219, -49.669432764281225, -49.50961281378943, -49.327804652481376, -49.12613467580445, -48.906523849229444, -48.67340971040183, -48.43431737638856, -48.19663317727512, -47.96631480411718, -47.74779655118332, -47.5440170484807, -47.3565348608884, -47.18569878117055, -46.979340754071984])","array('d', [0.4013086855411529, 0.28837869494836293, 0.18731417371881529, 0.11097169525531098, 0.05454203062122364, 0.014149200152108474, -0.013462172364592757, -0.031079366906136635, -0.041098545164930306, -0.045565932324193426, -0.046201792557439725, -0.04441599545150121, -0.04131910852475965, -0.037730515819694575, -0.034184014865173126, -0.030930978549335596])","array('d', [-0.0627952590584755, -0.08173298958500766, -0.09886855824553484, -0.1143734631707119, -0.1284028821938076, -0.14109722557678683, -0.1525835343945291, -0.15938737859762023, -0.16074534646389027, -0.15756157246044264, -0.1508616077228808, -0.14169060811011927, -0.13103720814175818, -0.11978358679901456, -0.10867959996186653, -0.09833737768967057])","array('d', [-1.4191674431178234, -1.4426176914903939, -1.4584289687327272, -1.4682182076910504, -1.4736133581304083, -1.4758386918414277, -1.4758460969931686, -1.474379694947497, -1.47201295954044, -1.4691748097341553, -1.466171549738125, -1.4632072940251124, -1.4604037277582003, -1.4578194159641211, -1.45546873143013, -1.4538716479847242])",-221.39771663409854,-43.46346396540493,-49.12613467580445,0.014149200152108474,-0.14109722557678683,-1.4758386918414277,14.999999854575819,-1.0,"[-44.07290789796763, -215.4688959138122, 49.81931733721441]","[-34.71526246647979, -226.01729611725474, 44.70407295140371]","[-49.51393229796094, -228.46649209943052, 44.675607890299936]",10000000000.0,0.01888108253479004
21,4.83351469039917,-44.22707748413086,-214.89785766601562,49.89377212524414,0.3448702096939087,0.07285982370376581,-1.4191586216303966,22.706587236809213,"array('d', [-214.4459991455078, -215.92680691379385, -217.40886101788894, -218.8904225794534, -220.37043741595443, -221.84827309034586, -223.32355479698003, -224.79649840881723, -226.26803627513286, -227.7392512160947, -229.21102745709405, -230.683968925562, -232.15839264807877, -233.63437075645103, -235.1117952073471, -237.08226690453782])","array('d', [-44.26347351074219, -44.05433747895059, -43.87171640574752, -43.705723009675424, -43.54888836082951, -43.39579791041664, -43.24263149132498, -43.08677596042231, -42.92652208000819, -42.76087823733913, -42.589404969133795, -42.41205869415215, -42.22905926761552, -42.04078058933788, -41.847665349786965, -41.58515392971262])","array('d', [-49.90418243408203, -49.78878061793141, -49.64709890745751, -49.48167561624627, -49.294805927362006, -49.08856395955762, -48.86482328261529, -48.62789186780331, -48.38521398818953, -48.14420799134347, -47.910841585146876, -47.68954399880142, -47.48323957728553, -47.29346791589185, -47.120557380735875, -46.911698801763066])","array('d', [0.3731081485748291, 0.26286179101655677, 0.16348598324226382, 0.08864825655708133, 0.03364509802999243, -0.00535108403802579, -0.03157946766048739, -0.047829270059358574, -0.05650797004405542, -0.05967687643374214, -0.05907157243647348, -0.05611532875368362, -0.05192892375067037, -0.04733800330137176, -0.04287817758743934, -0.0387977830122143])","array('d', [-0.06761822849512093, -0.08609699373440134, -0.10281727344482407, -0.1179464094720127, -0.13163581895627116, -0.14402250964855137, -0.15523044905318997, -0.16189610585357544, -0.16308305941322565, -0.15971352475137784, -0.15282629676995055, -0.14347523462027786, -0.13265390104225416, -0.12124657043015154, -0.11000326439206011, -0.09953507880084914])","array('d', [-1.4190861423823498, -1.4405705213904536, -1.4546827063281058, -1.4629339243257837, -1.4669088095384186, -1.4678129264867166, -1.4665907780458414, -1.4639838111419723, -1.4605641160750362, -1.4567588542763505, -1.4528715417590883, -1.4491023751241683, -1.445568172243089, -1.4423219803456222, -1.4393723415721211, -1.4373686239171177])",-221.84827309034586,-43.39579791041664,-49.08856395955762,-0.00535108403802579,-0.14402250964855137,-1.4678129264867166,14.999999851663366,-1.0,"[-44.03729821876941, -215.92538175349665, 49.802832365107314]","[-34.681649693257334, -226.5966395775692, 44.9452509587638]","[-49.47547577314569, -229.07279482139103, 45.05185830611286]",10000000000.0,0.016213178634643555
