,x_pos,y_pos,z_pos,roll,pitch,yaw,vel,x_traj,y_traj,z_traj,roll_traj,pitch_traj,yaw_traj,x_cmd,y_cmd,z_cmd,roll_cmd,pitch_cmd,yaw_cmd,vel_cmd,effector_dmg,effector_x,effector_y,effector_z,cost,time_solution
0,-203.74073791503906,-140.86058044433594,44.90165710449219,0.6322017312049862,0.031777385622262996,1.6069608191635947,23.11275033445066,"array('d', [-140.86058044433594, -139.3322690907004, -137.80314483212507, -136.27766393511536, -134.76034383568526, -133.25549376282987, -131.76688332338028, -130.29742979536886, -128.84909185701744, -127.4229512889747, -126.01937770748881, -124.63820812720971, -123.27890808141242, -121.94070262023925, -120.62267600271119, -119.32383883069501])","array('d', [-203.74073791503906, -203.75972099749572, -203.70465921025095, -203.5735848468242, -203.36531482420276, -203.0809352269943, -202.72418013377967, -202.30055135422674, -201.81637154717703, -201.27811692290402, -200.69201022824652, -200.06380529967822, -199.39869558552363, -198.70129672347772, -197.97567101575981, -197.22537239632288])","array('d', [-44.90165710449219, -44.86103714104284, -44.8339555185041, -44.81682421457127, -44.80694516447623, -44.802295209840246, -44.801358027314535, -44.80299439612718, -44.80634519905952, -44.81075990527309, -44.81574490721143, -44.820927607399504, -44.82603301059928, -44.830870124543864, -44.83532583159229, -44.83936410361941])","array('d', [0.6322017312049862, 0.6467802875458551, 0.6599715119406061, 0.671907425909241, 0.6692930675824611, 0.649553168468391, 0.6181347356055107, 0.5795515216820818, 0.5372937851277503, 0.4939231358667284, 0.4512369433230893, 0.4104340957066379, 0.3722541999689364, 0.33708453944983163, 0.3050383026722475, 0.27601009518977915])","array('d', [-0.031777385622262996, -0.02152859766115399, -0.013988093942596553, -0.008478273270203916, -0.0044874806261841265, -0.0016319913243652213, 0.0003741733289732643, 0.0017428474483376579, 0.002630422725227772, 0.0031528318423481648, 0.003397525797031331, 0.003432975423237419, 0.003316137754578188, 0.0030982295771385068, 0.0028290305360218486, 0.0025598128072225547])","array('d', [1.6069608191635947, 1.5592322678433659, 1.5101514275508068, 1.4598098524389644, 1.4090098664624664, 1.359374909747157, 1.312294971312337, 1.2685442618753338, 1.228437017367717, 1.191988929609701, 1.1590420112401494, 1.12934813848705, 1.1026207357033644, 1.0785656314252121, 1.056899546923733, 1.037361818792227])",-133.25549376282987,-203.0809352269943,-44.802295209840246,0.649553168468391,-0.0016319913243652213,1.359374909747157,15.30905129028689,-1.0,"[-203.80469549631567, -139.57986463310388, 44.85366643408988]","[-211.79250933780565, -129.49058416113698, 52.56088704801343]","[-196.81112165695671, -128.74498802943964, 52.51495705230842]",10000000000.0,0.016684770584106445
1,-203.7064971923828,-139.9300079345703,44.90254211425781,0.631820499897003,0.03136865049600596,1.5977994306620698,23.11765123527642,"array('d', [-139.9300079345703, -138.4009868981686, -136.87189976285342, -135.3472092588625, -133.83142412910271, -132.3288144054845, -130.84308313809137, -129.37706251752255, -127.9326245731212, -126.51077204079975, -125.11180653303644, -123.73550835286697, -122.38129645294916, -121.04835783229815, -119.73574564253713, -118.44244495042518])","array('d', [-203.7064971923828, -203.7115220753821, -203.64255178080873, -203.4976583923291, -203.2757207338713, -202.9779643577054, -202.60823366286021, -202.17208515323125, -201.67585503436075, -201.126007075076, -200.52873738214316, -199.88976682954353, -199.21425436555774, -198.5067822763322, -197.77138201293673, -197.011579642016])","array('d', [-44.90254211425781, -44.862472721481495, -44.83584061443723, -44.819071449221155, -44.809481866306065, -44.80506270309413, -44.804309924236925, -44.80609460160623, -44.80956598421006, -44.81408016327754, -44.819148650761335, -44.82440271986524, -44.82957023248396, -44.83446224264191, -44.838967035492985, -44.84304947767337])","array('d', [0.631820499897003, 0.6464353351598484, 0.6596593860789765, 0.6716250026122799, 0.6681790140113741, 0.6478985151652296, 0.6161765383728217, 0.577467014320901, 0.535206125549095, 0.4919117887533704, 0.4493483674378716, 0.4086909475058815, 0.37066271265010475, 0.33564032976403657, 0.30373100675091347, 0.2748272048165822])","array('d', [-0.03136865049600596, -0.021195649480063312, -0.013720668647336143, -0.008265309514594673, -0.004318498827628156, -0.0014977448465883906, 0.00048146487369847834, 0.0018294997221764994, 0.002701421381563203, 0.0032120253063776466, 0.003447826402797498, 0.0034765425158618055, 0.0033545325320355024, 0.0031325407360474895, 0.002859974212061589, 0.002587811805680371])","array('d', [1.5977994306620698, 1.550125257820765, 1.5010943840847135, 1.4507984772855793, 1.4000851441526703, 1.3506032900027538, 1.3037101075901754, 1.2601555624441125, 1.2202388919439797, 1.1839679384786967, 1.1511815111309138, 1.1216309833429405, 1.095030706477332, 1.0710881011032378, 1.0495216961805862, 1.0300725770350343])",-132.3288144054845,-202.9779643577054,-44.80506270309413,0.6478985151652296,-0.0014977448465883906,1.3506032900027538,15.311857713219021,-1.0,"[-203.77578146716905, -138.9903376020873, 44.854596825933065]","[-211.6900317921051, -128.85951535374517, 52.58318546595951]","[-196.70544655082182, -128.18623598237966, 52.488845470148945]",10000000000.0,0.01704692840576172
2,-203.6859893798828,-139.46505737304688,44.90304946899414,0.6316118240356444,0.03116615675389764,1.593273888402853,23.120776567149466,"array('d', [-139.46505737304688, -137.93573362684333, -136.40671229354442, -134.8824588388987, -133.36747722919736, -131.86601716877567, -130.38174809287432, -128.9174598987381, -127.47498186089567, -126.05527787822547, -124.65861624453143, -123.28474953324518, -121.93307395715472, -120.60275796344231, -119.29283955377295, -118.00228965080915])","array('d', [-203.6859893798828, -203.68411637878637, -203.60827832867423, -203.45656671394195, -203.22789055816227, -202.92354356891752, -202.54742372589496, -202.10511369081684, -201.60295567877898, -201.04740681339075, -200.44464968721425, -199.80038864009202, -199.1197653971877, -198.40734563660527, -197.66714546907798, -196.90267612180085])","array('d', [-44.90304946899414, -44.86325276014617, -44.83684281507423, -44.82025232332647, -44.81080536402924, -44.80649978965338, -44.80583768966449, -44.807695247193145, -44.811225853884174, -44.8157888726216, -44.82089834029638, -44.82618743659363, -44.83138542924476, -44.836304378361, -44.84083325838603, -44.844937380834665])","array('d', [0.6316118240356444, 0.6462465174139266, 0.6594885366980883, 0.6714704116155261, 0.6676159643807491, 0.6470706926578605, 0.6152006801428821, 0.5764302455454619, 0.5341689138761367, 0.49091310667555804, 0.4484109654398432, 0.40782588208160087, 0.3698729729324474, 0.3349236909944543, 0.3030823088619762, 0.27424023864051233])","array('d', [-0.03116615675389764, -0.02103106388458482, -0.013588705534671954, -0.00816036999871225, -0.004235326331618708, -0.0014317280497791532, 0.000534190128016412, 0.0018720606207037966, 0.00273628093509722, 0.00324108141732006, 0.003472513422547887, 0.0034979228621989877, 0.003373373733836716, 0.003149377709124008, 0.0028751586511351684, 0.0026015512555652995])","array('d', [1.593273888402853, 1.545628458611865, 1.4966239980822829, 1.446352241782524, 1.3956830698482152, 1.3462778491074276, 1.299477617356635, 1.2560204597021511, 1.2161982895243586, 1.1800151278506956, 1.1473082325831108, 1.1178287441993664, 1.0912914786470296, 1.0674046453225778, 1.0458876667437398, 1.0264825178569492])",-131.86601716877567,-202.92354356891752,-44.80649978965338,0.6470706926578605,-0.0014317280497791532,1.3462778491074276,15.313232011768568,-1.0,"[-203.74320026132906, -138.36692063007123, 44.85560899879109]","[-211.5793463094809, -128.19242215486952, 52.60637643757754]","[-196.59192764703937, -127.59567850622757, 52.46084687183924]",10000000000.0,0.01491856575012207
3,-203.66294860839844,-138.99742126464844,44.903831481933594,0.6314302086830138,0.030880155041813795,1.5888292687621455,23.12375619615311,"array('d', [-138.99742126464844, -137.467829367178, -135.938902991799, -134.41510984295493, -132.90094901034126, -131.40064983162324, -129.91784843620138, -128.4552931149631, -127.01477119459244, -125.59720851097866, -124.20284071402033, -122.83139320739846, -121.48223991673066, -120.15453109878862, -118.84728989233297, -117.55947502549257])","array('d', [-203.66294860839844, -203.6542967417313, -203.57170785683687, -203.41329281511344, -203.17799050243062, -202.86716152076016, -202.4847564208572, -202.0363835817933, -201.52839122186703, -200.9672300779047, -200.35906961599088, -199.70959807127767, -199.02394036783187, -198.30664596620468, -197.56171598637485, -196.79264811263354])","array('d', [-44.903831481933594, -44.8644194413457, -44.8383162048112, -44.82196855837351, -44.812713272966995, -44.8085591096739, -44.808017164958315, -44.80997086985791, -44.81357934429487, -44.818206400614656, -44.823369475433, -44.82870430267601, -44.833942031083225, -44.838896067940254, -44.84345631094044, -44.8475886568135])","array('d', [0.6314302086830138, 0.6460821850310656, 0.659339842591823, 0.671335867530833, 0.6670800811710241, 0.6462741716925008, 0.6142578309322878, 0.5754264302635917, 0.5331634432175832, 0.48994427342097935, 0.44750118400326583, 0.40698610538981234, 0.3691062350513936, 0.3342278994172381, 0.3024524784927356, 0.27367034450379574])","array('d', [-0.030880155041813795, -0.020803608534397375, -0.013409167597956725, -0.00801919217237793, -0.004124322341211177, -0.0013441189708439233, 0.0006038721806004419, 0.0019281302578596127, 0.002782081616284774, 0.0032791647417705957, 0.0035047988787157984, 0.0035258311219242776, 0.003397933136817391, 0.003171307048611062, 0.002894930720648042, 0.0026194417655062037])","array('d', [1.5888292687621455, 1.5412097871210553, 1.492229167045751, 1.441979197448317, 1.391351539247171, 1.3420197467713446, 1.2953090780743208, 1.251946010941453, 1.2122152883759219, 1.1761171724241646, 1.1434873769035745, 1.1140767884430678, 1.0876006554013393, 1.0637679414999315, 1.042298930362012, 1.0229364324122028])",-131.40064983162324,-202.86716152076016,-44.8085591096739,0.6462741716925008,-0.0013441189708439233,1.3420197467713446,15.314574241381228,-1.0,"[-203.70911244842998, -137.7996312333378, 44.856738707076474]","[-211.47514448401392, -127.58614143412021, 52.62676911522559]","[-196.485654290976, -127.05818682485786, 52.43585635143627]",10000000000.0,0.016645193099975586
4,-203.63760375976562,-138.5302276611328,44.9045295715332,0.6313607096672056,0.030381677672267012,1.5848123338681197,23.124450557531553,"array('d', [-138.5302276611328, -137.00041749818195, -135.4716046615077, -133.94825830766416, -132.4348733152946, -130.93566081952196, -129.4542270673369, -127.9932829895164, -126.55457814364699, -125.13900397750974, -123.74676653900833, -122.37756649871612, -121.03075741432122, -119.70547285322185, -118.40072226423955, -117.11545310193368])","array('d', [-203.63760375976562, -203.62281615224893, -203.5341050062718, -203.3695999501837, -203.12826787024042, -202.81153033883376, -202.42338620929164, -201.96946819899566, -201.45613113296193, -200.88982108994577, -200.27669664442257, -199.6224322856938, -198.93213840966504, -198.21035034519733, -197.4610560828676, -196.6877414027309])","array('d', [-44.9045295715332, -44.8657874938656, -44.84020649378033, -44.82426560535534, -44.8153276941206, -44.8114223047594, -44.81107681663419, -44.81318728250113, -44.816922527238155, -44.82165376058416, -44.82690400563092, -44.83231316896948, -44.83761546813021, -44.84262651204854, -44.84723771116936, -44.85141592021134])","array('d', [0.6313607096672056, 0.6460192997142417, 0.659282941595473, 0.6712843812897947, 0.6666652009733134, 0.6456209624901393, 0.6134682766874457, 0.5745770235128789, 0.5323076169357802, 0.489116768027319, 0.4467225518596698, 0.40626660862564234, 0.36844899078931276, 0.33363137328860304, 0.30191249093597716, 0.27318174351291685])","array('d', [-0.030381677672267012, -0.020416126113043293, -0.013108325376628585, -0.007785337256207352, -0.003941840486078339, -0.0012007613771846005, 0.0007176057064483572, 0.0020195320053854834, 0.0028566988626924678, 0.003341183380301354, 0.003557350531852572, 0.0035712316258797085, 0.003437863278478567, 0.0032069472050447094, 0.0029270604190197677, 0.002648513921445426])","array('d', [1.5848123338681197, 1.537207141083717, 1.4882396315659308, 1.4380015941251816, 1.3874040759562087, 1.3381315649910022, 1.291495354127489, 1.2482115610675926, 1.2085584546722876, 1.1725328377977962, 1.1399689410669718, 1.110617332529068, 1.0841935717355207, 1.0604072374876912, 1.0389793376463485, 1.0196533945305961])",-130.93566081952196,-202.81153033883376,-44.8114223047594,0.6456209624901393,-0.0012007613771846005,1.3381315649910022,15.315771429846802,-1.0,"[-203.67924038723157, -137.33831716240596, 44.858013647676216]","[-211.39093403202338, -127.09463112597038, 52.64240042608161]","[-196.4000864134954, -126.62112955249597, 52.41815962249923]",10000000000.0,0.016499996185302734
5,-203.54698181152344,-137.13145446777344,44.90553283691406,0.6326913833618164,0.026087395846843813,1.5754271774229152,23.119445023521124,"array('d', [-137.5972137451172, -136.06707366241162, -134.53851010300647, -133.01599346246945, -131.50401465434604, -130.00675795822224, -128.52778236680334, -127.069737804678, -125.63431076461814, -124.22233420042328, -122.83396296712424, -121.46885430334541, -120.12632547969109, -118.80547991547088, -117.50530199627784, -116.22471826505247])","array('d', [-203.57969665527344, -203.55459501644808, -203.45549830364513, -203.2805765841696, -203.02885202830623, -202.70185632047173, -202.30367892804927, -201.84000374939023, -201.3172063910186, -200.74173346601228, -200.11973210904597, -199.45685918088182, -198.75820496224486, -198.02828439910536, -197.2710660620335, -196.4900178165787])","array('d', [-44.9054069519043, -44.869789390538294, -44.846605049672576, -44.83250819991166, -44.82499631070757, -44.82220166896641, -44.8227295814031, -44.825535026798704, -44.829831277274835, -44.83502296083199, -44.84065811942291, -44.846395264201234, -44.85198228080828, -44.85724459486589, -44.86208037119203, -44.86646073242107])","array('d', [0.6319370269775388, 0.646540773226751, 0.6597547903790437, 0.6717113275886212, 0.6664520902243838, 0.6449703865915449, 0.6125488117445232, 0.5735177853933296, 0.5312009256950574, 0.488024397345907, 0.44568259782654873, 0.40529965110583155, 0.36756320431431394, 0.33282667869619337, 0.3011839715593057, 0.2725225518614407])","array('d', [-0.028055632486939392, -0.01863706594570286, -0.011743849067116837, -0.006734077649704575, -0.0031265681631707375, -0.0005628791956438412, 0.0012223788962786475, 0.002424534757736628, 0.003186952631700172, 0.003615410632620653, 0.003789500157553493, 0.003771612029257522, 0.003613970568222597, 0.0033640627059513, 0.0030686792935514947, 0.0027766559897804957])","array('d', [1.5780965048496167, 1.5304488311656854, 1.4814421357052086, 1.4311678449785696, 1.3805688312016406, 1.3313482772331442, 1.2847951479521136, 1.2416082375797861, 1.202054421052671, 1.1661239463876871, 1.133647802135648, 1.1043753620785761, 1.0780221687967388, 1.054298408594941, 1.0329259758699796, 1.0136493327820681])",-130.00675795822224,-202.70185632047173,-44.82220166896641,0.6449703865915449,-0.0005628791956438412,1.3313482772331442,15.317765567898904,-1.0,"[-203.60066598995374, -136.23544798092155, 44.86268573831444]","[-211.2050366419617, -125.93116529432739, 52.672634861172796]","[-196.21160002832443, -125.57926215759481, 52.40240774336353]",10000000000.0,0.019718647003173828
6,-203.51170349121094,-136.66629028320312,44.905799865722656,0.6338105201721191,0.023573586717248036,1.5731230520785344,23.11289221436583,"array('d', [-137.13145446777344, -135.60119208949854, -134.07275267992722, -132.5506076989543, -131.03924963909404, -129.54285546513833, -128.06496777908097, -126.6082133914306, -125.17425367321378, -123.76389740772277, -122.37727765504663, -121.01403267982019, -119.67346352968589, -118.35465985721066, -117.05659437553491, -115.77818370439556])","array('d', [-203.54698181152344, -203.51774009211906, -203.4144023363006, -203.23516146338585, -202.97906819755025, -202.6477048492921, -202.24520500018022, -201.77728123909137, -201.2503250028129, -200.6707894753557, -200.04482234725052, -199.37807746455283, -198.67564019957277, -197.94201977927787, -197.18117890474988, -196.39657976737863])","array('d', [-44.90553283691406, -44.8725586995581, -44.85139170904943, -44.838840888815334, -44.83252097784007, -44.8306527314761, -44.8319079313672, -44.835291449318255, -44.840053967623675, -44.845628118715325, -44.85158285013411, -44.85759219478822, -44.86341543592204, -44.86888618648849, -44.873908245740346, -44.87845629270706])","array('d', [0.6326913833618164, 0.6472233431709753, 0.6603724052587688, 0.6722701686114833, 0.6667283682349459, 0.6450408086406128, 0.6124799182809181, 0.5733626051781497, 0.5309989597128366, 0.4878033422697597, 0.44546062369050665, 0.40508762571218576, 0.3673666480044272, 0.33264742766473626, 0.3010216020631133, 0.2723756338524325])","array('d', [-0.026087395846843813, -0.017139319147492785, -0.01059967829876859, -0.0058551818368698435, -0.002446439424558316, -3.153758324066579e-05, 0.0016424087121224762, 0.0027612980241830893, 0.0034614072535106783, 0.003843194742817563, 0.003982247667546011, 0.003937917438034476, 0.00376008645726045, 0.0034943978764398476, 0.0031861525384133927, 0.0028829501869376516])","array('d', [1.5754271774229152, 1.5277122935580545, 1.4786436956650697, 1.4283123888531737, 1.377673668980343, 1.328438602644663, 1.2818878919205265, 1.2387133074359185, 1.1991766765941532, 1.163265013489684, 1.1308074245335005, 1.1015523070642108, 1.075214796650427, 1.0515050116294475, 1.0301449627287804, 1.0108793047294031])",-129.54285546513833,-202.6477048492921,-44.8306527314761,0.6450408086406128,-3.153758324066579e-05,1.328438602644663,15.318566352664687,-1.0,"[-203.53613661296987, -135.4182859115509, 44.868260584485]","[-211.08015689741651, -125.07927199093808, 52.690827241103015]","[-196.08491459619046, -124.81479231484836, 52.4210887965755]",10000000000.0,0.014528751373291016
7,-203.47381591796875,-136.2017364501953,44.9058952331543,0.6352077126502989,0.020673697814345384,1.571212603858674,23.102852267019628,"array('d', [-136.66629028320312, -135.1359281035413, -133.60761286144373, -132.0858192018229, -130.5750447364489, -129.07946363828327, -127.6026067170212, -126.1470818504364, -124.71452859506128, -123.30573395112832, -121.92081078969449, -120.55937940808376, -119.22072520327168, -117.90392432881356, -116.60793788432315, -115.33167248032547])","array('d', [-203.51170349121094, -203.4788526085064, -203.37175346053306, -203.18862462779921, -202.9285474716026, -202.59315467193073, -202.1866255896286, -201.71470528223765, -201.18380568869514, -200.60039131340335, -199.9706147987278, -199.30013084760813, -198.59402324448934, -197.85679830796445, -197.09241523661086, -196.30433253910394])","array('d', [-44.905799865722656, -44.87620154549788, -44.85760640764705, -44.847023754173385, -44.84221949920258, -44.84152805497477, -44.84370636800909, -44.847823088716645, -44.853176634739256, -44.85923532386274, -44.865594718811025, -44.871948602998614, -44.87807075892695, -44.88380521371783, -44.88906293152993, -44.89382310866694])","array('d', [0.6338105201721191, 0.6482359801240848, 0.6612886771460742, 0.6730992457007882, 0.6672849100607369, 0.645388797710533, 0.612677372429991, 0.5734575790189064, 0.5310285811758515, 0.4877946623261143, 0.44543222498561114, 0.4050513830172213, 0.36732937959317036, 0.3326123678382519, 0.3009897092121323, 0.2723467760048836])","array('d', [-0.023573586717248036, -0.015229656203830957, -0.009142883524497018, -0.004737436867384467, -0.0015822995918197964, 0.0006430274167485248, 0.002175297435441731, 0.0031882905563358323, 0.0038092058450763786, 0.0041317060585654986, 0.004226273835655084, 0.0041483915126669145, 0.00394496252017381, 0.0036592846147549545, 0.003334761644096009, 0.0030174172785493968])","array('d', [1.5731230520785344, 1.5253052659582587, 1.4761419243713252, 1.4257234171694375, 1.375015764347416, 1.3257373606039162, 1.2791621722424378, 1.2359756664320702, 1.196434776248539, 1.1605231244125003, 1.1280676473129436, 1.0988154491953146, 1.0724809613868223, 1.048773974643935, 1.027416397500464, 1.0081528972045206])",-129.07946363828327,-202.59315467193073,-44.84152805497477,0.645388797710533,0.0006430274167485248,1.3257373606039162,15.31927687846646,-1.0,"[-203.50283923050358, -135.02584992481206, 44.87179038720375]","[-211.02359770781857, -124.67348907949739, 52.69910262412712]","[-196.0274831550031, -124.45067065642502, 52.44045176065379]",10000000000.0,0.019071578979492188
8,-203.47381591796875,-136.2017364501953,44.9058952331543,0.6352077126502989,0.020673697814345384,1.571212603858674,23.102852267019628,"array('d', [-136.2017364501953, -134.67130121780212, -133.14310788977554, -131.62163697815046, -130.1113946789669, -128.6165567727807, -127.14064690182252, -125.6862584196062, -124.25501274940974, -122.84767794626363, -121.46434876969015, -120.10462901488648, -118.76778942840484, -117.45289332334164, -116.15889059797948, -114.8846780984617])","array('d', [-203.47381591796875, -203.4379370967122, -203.32761826209057, -203.1411051810374, -202.8775105959959, -202.53851545802848, -202.12834469395497, -201.65277799483883, -201.1182512001924, -200.53124393585455, -199.89791751313686, -199.22393089027722, -198.51436925993266, -197.77373862186093, -197.00599688783018, -196.2146007786841])","array('d', [-44.9058952331543, -44.88019109209709, -44.864559768275036, -44.85624342487781, -44.8531833312179, -44.853845461226264, -44.857085174071955, -44.86204471683168, -44.86807752690521, -44.874693016014824, -44.88151737630898, -44.88826711135741, -44.89473267945431, -44.90077008422369, -44.90629852919679, -44.91130240418687])","array('d', [0.6352077126502989, 0.6495002122727357, 0.6624326018015978, 0.6741343115635856, 0.6680674630176983, 0.6459688959365258, 0.613103106579601, 0.5737706380330627, 0.531262479177904, 0.487974776725799, 0.44557674678414205, 0.40517259513932974, 0.3674349727086335, 0.3327066840588221, 0.3010748938693065, 0.27242385427711796])","array('d', [-0.020673697814345384, -0.013028865943344415, -0.007465336279789, -0.0034511201301175576, -0.0005883060701490768, 0.0014186891964766389, 0.002787896882737885, 0.0036790651703660572, 0.0042089031134473496, 0.004463233906059984, 0.004506659323026805, 0.004390208615695276, 0.004157358753574036, 0.003848710446266581, 0.0035054857930611034, 0.0031718948906296566])","array('d', [1.571212603858674, 1.523264283506437, 1.4739807877464108, 1.4234517403527207, 1.372651946759838, 1.3233063445613202, 1.2766837862855174, 1.2334643210870382, 1.1939003151156637, 1.157971993547254, 1.1255039535163505, 1.0962417770707176, 1.069898956082195, 1.0461847367855095, 1.0248207359043109, 1.0055514727086248])",-128.6165567727807,-202.53851545802848,-44.853845461226264,0.6459688959365258,0.0014186891964766389,1.3233063445613202,15.319878402135043,-1.0,"[-203.47444020011298, -134.70205712005162, 44.87488689537939]","[-210.9782432927917, -124.34004328781928, 52.70569837867608]","[-195.98144999135474, -124.15103074359122, 52.45980219712733]",10000000000.0,0.0153045654296875
9,-203.34478759765625,-134.81277465820312,44.90603256225586,0.6394627690315242,0.009244923479855102,1.56656438490865,23.044505251322548,"array('d', [-135.27490234375, -133.74436530995374, -132.2164126242158, -130.6955348690557, -129.18625592925417, -127.69275802570414, -126.21855552324313, -124.76621883224261, -123.3373391138714, -121.93265186595, -120.55222010713888, -119.1956182842767, -117.86209078091359, -116.55067757756704, -115.26030804922434, -113.98986269992795])","array('d', [-203.3903350830078, -203.34935057304284, -203.2335326095525, -203.04117926247014, -202.77146232251678, -202.4261499006428, -202.00955093384735, -201.5275113095108, -200.98651446056454, -200.39307177585263, -199.75336430830438, -199.07306226773835, -198.35725642002433, -197.61045472712195, -196.83661489004524, -196.03919318850038])","array('d', [-44.905914306640625, -44.89004062191613, -44.88188371159631, -44.87927783178956, -44.88060931098803, -44.88467745840875, -44.89058660419616, -44.89766494197906, -44.90540476022457, -44.91341908023817, -44.92141126534105, -44.92915503581477, -44.936482833574864, -44.94328081025056, -44.949488906313675, -44.95510456781055])","array('d', [0.6380646824836729, 0.6520853057139104, 0.6647716912863075, 0.6762508073385339, 0.6697401274820521, 0.6472754477692926, 0.6141217865619707, 0.5745715750979261, 0.5319035903697746, 0.4885010055900798, 0.44602113822764394, 0.40555815332068396, 0.3677767369614298, 0.3330137807486693, 0.30135249306144685, 0.27267503643613134])","array('d', [-0.01335240527987473, -0.007478041760900804, -0.0032378782663796753, -0.00021195927424678038, 0.0019131937082163622, 0.003369739189215521, 0.0043281432906821255, 0.004912575669391831, 0.005213197835907889, 0.005296026737472679, 0.005210827834345156, 0.004997408685395495, 0.004690617953957509, 0.0043242665437051575, 0.003934082468673117, 0.0035597052349508516])","array('d', [1.5680165221591036, 1.5197989849632279, 1.4702677366983135, 1.4195108290505094, 1.3685172669790153, 1.3190232297941675, 1.2722897949688914, 1.2289879230380727, 1.189361894332717, 1.1533856656220418, 1.1208793504289414, 1.0915854916091057, 1.0652156089445883, 1.0414777224913239, 1.0200927160473074, 1.0008046455531336])",-127.69275802570414,-202.4261499006428,-44.88467745840875,0.6472754477692926,0.003369739189215521,1.3190232297941675,15.320870662617635,-1.0,"[-203.45206937930186, -134.46708888897004, 44.87767593739555]","[-210.9456515683683, -124.09746352028816, 52.7081992716878]","[-195.94830829325883, -123.93456200263259, 52.47763955258247]",10000000000.0,0.01788616180419922
10,-203.2960968017578,-134.3496856689453,44.90665054321289,0.6408567428588865,0.004926656838506486,1.565071422201816,23.018028017234098,"array('d', [-134.81277465820312, -133.28221613860305, -131.7543948777733, -130.23380860277274, -128.7249913700113, -127.23212989251022, -125.75873530863106, -124.30736813066778, -122.879605935535, -121.47616934796208, -120.09710673435406, -118.74197889524434, -117.41001788837362, -116.10025273709783, -114.81160314338486, -113.54294089025367])","array('d', [-203.34478759765625, -203.30147565198087, -203.1831377173853, -202.9880967269185, -202.71555251392454, -202.36731396710277, -201.9477296677372, -201.4626771764133, -200.9186630365081, -200.32221433980956, -199.6795221443123, -198.99626259190188, -198.2775296203345, -197.52783257932046, -196.75112945930337, -195.95087605194385])","array('d', [-44.90603256225586, -44.89567360413522, -44.8917071437612, -44.892300968154636, -44.896091881452584, -44.90206662596671, -44.90946941618678, -44.91773284594572, -44.92642711122088, -44.93522333442435, -44.94386813424625, -44.952167290397554, -44.9599767628255, -44.96719958765794, -44.97378731609276, -44.979744704861346])","array('d', [0.6394627690315242, 0.6533503468504813, 0.6659163479449324, 0.6772865355571731, 0.6705712551816749, 0.6479357328288594, 0.6146460350479657, 0.5749914830041318, 0.5322456546835321, 0.48878600828123697, 0.44626452373706144, 0.40577080780059815, 0.3679658979427338, 0.3331839559173147, 0.3015063482329801, 0.27281425036490087])","array('d', [-0.009244923479855102, -0.004365711751609014, -0.0008688832051482436, 0.0016022756032989158, 0.003313614277244747, 0.0044615415805994004, 0.005189736877326759, 0.005602352822728815, 0.005774629561151508, 0.005761462033919308, 0.005604291389102802, 0.005336633230092648, 0.004988500704954575, 0.004589900432305016, 0.004173481950464202, 0.003776322863473394])","array('d', [1.56656438490865, 1.518214431337342, 1.4685613546605603, 1.4176924292638553, 1.3666029684453807, 1.3170342863911455, 1.270244103497713, 1.2268992634439406, 1.1872402977989853, 1.1512382085649995, 1.118710964600682, 1.0893996329558007, 1.0630147588028012, 1.0392637421704845, 1.0178670842418207, 0.9985686058571325])",-127.23212989251022,-202.36731396710277,-44.90206662596671,0.6479357328288594,0.0044615415805994004,1.3170342863911455,15.321313642202648,-1.0,"[-203.37026079488655, -133.621001386421, 44.887979274286515]","[-210.82729608470572, -123.22374518231082, 52.71675236542179]","[-195.8284529136052, -123.15591834625593, 52.543250062723196]",10000000000.0,0.01839613914489746
11,-203.2449493408203,-133.8877716064453,44.9075927734375,0.6421934366226194,0.0004740607982966431,1.5634422503088157,22.985544422393247,"array('d', [-134.3496856689453, -132.81912731312056, -131.29145543849242, -129.77117808978005, -128.26284122680522, -126.77063675527329, -125.29807269774088, -123.84769947411561, -122.4210807780016, -121.01892205728319, -119.6412567581321, -118.28763181303853, -116.95726677594021, -115.64917957184758, -114.36228011780771, -113.09543157582317])","array('d', [-203.2960968017578, -203.25039538975187, -203.1294764272504, -202.93168760822772, -202.65625707218248, -202.30503531106538, -201.88241119075656, -201.39429422528335, -200.8472140931072, -200.2477134614882, -199.6019931900525, -198.91573512143873, -198.19403613351122, -197.44140674566881, -196.66180503969053, -195.85868625860462])","array('d', [-44.90665054321289, -44.90208876746234, -44.90252560484829, -44.906480271083495, -44.91285339052451, -44.92082905160619, -44.92979870005479, -44.93930477794599, -44.9489994286142, -44.95861487063609, -44.96794319621432, -44.97682388106851, -44.985137598740856, -44.99280512413379, -44.99979020216379, -45.00610526032177])","array('d', [0.6408567428588865, 0.6546116666433088, 0.6670576373921234, 0.6783192169899628, 0.6713945232322757, 0.648585106518442, 0.6151577321148357, 0.5753982356578506, 0.5325746663854662, 0.4890585075504537, 0.4464962092072636, 0.4059726834554737, 0.368145226459198, 0.3333452110940392, 0.30165212937147123, 0.27294615860579774])","array('d', [-0.004926656838506486, -0.0010949376633406184, 0.0016197094503348634, 0.003507312149341393, 0.004783506191966519, 0.005607019336085825, 0.0060933058631646555, 0.006325434861048676, 0.006362936879251551, 0.006249002434823229, 0.006016315977244139, 0.005691776542646067, 0.005300313429486926, 0.004867933868921569, 0.004424050635593061, 0.004003046806017155])","array('d', [1.565071422201816, 1.5165892743591363, 1.4668145948871538, 1.4158338749520214, 1.3646490205006205, 1.3150066304617378, 1.2681608497708596, 1.2247742487363389, 1.1850835164264117, 1.1490566526560688, 1.116509463163208, 1.087181537015932, 1.0607824509445047, 1.0370189948460031, 1.015611298281117, 0.9963029546670569])",-126.77063675527329,-202.30503531106538,-44.92082905160619,0.648585106518442,0.005607019336085825,1.3150066304617378,15.321770864647112,-1.0,"[-203.3179216852238, -133.12626026471585, 44.895024319616134]","[-210.75484598059228, -122.71129704822815, 52.71938999513041]","[-195.75544356219586, -122.70221145078172, 52.585806527131965]",10000000000.0,0.017696619033813477
12,-203.2449493408203,-133.8877716064453,44.9075927734375,0.6421934366226194,0.0004740607982966431,1.5634422503088157,22.985544422393247,"array('d', [-133.8877716064453, -132.357234965968, -130.8297364987119, -129.30979776679342, -127.80197795006112, -126.31047397960708, -124.8387898260895, -123.38946456551669, -121.96404679620059, -120.56322576277849, -119.1870191802901, -117.83495949709955, -116.50625330589149, -115.19990709831693, -113.91482076323743, -112.64984866826948])","array('d', [-203.2449493408203, -203.1966545173785, -203.07295942785308, -202.87223618835566, -202.59374152909913, -202.23936918907032, -201.81354930627887, -201.32222333706574, -200.77194346968562, -200.1692670226933, -199.52040364002943, -198.83103986989718, -198.10627461306564, -197.3506187407072, -196.5680297099938, -195.7619615953434])","array('d', [-44.9075927734375, -44.90900793624188, -44.913982870270736, -44.921399903930485, -44.930432172348866, -44.94046754371716, -44.951049444547245, -44.96183367322368, -44.97255691008839, -44.983014380642324, -44.99304505888506, -45.00252315068131, -45.01135479515033, -45.0194790408017, -45.026872189382736, -45.033554562301006])","array('d', [0.6421934366226194, 0.6558211572865029, 0.6681520298809347, 0.6793094642809118, 0.672164021975623, 0.649174746136943, 0.6156077936908075, 0.5757442592318116, 0.5328456352622069, 0.4892766636739555, 0.44667772603723993, 0.40612867778027706, 0.36828284195341304, 0.3334686657130461, 0.30176370012003395, 0.2730471120029984])","array('d', [-0.0004740607982966431, 0.0022763141301733306, 0.004183748960981796, 0.0054693198636978115, 0.006296747789157653, 0.00678580979286038, 0.007022791341988184, 0.00706898060753692, 0.0069676855661247395, 0.006750015278946577, 0.006439619159222249, 0.006056571902683964, 0.00562056088967065, 0.00515347042284022, 0.004681376742624872, 0.00423588511729966])","array('d', [1.5634422503088157, 1.5148334915218455, 1.4649423631011484, 1.4138545958547504, 1.3625794928394925, 1.3128693156520612, 1.2659739940711399, 1.2225514221680067, 1.1828342446095483, 1.1467873895619667, 1.1142245041242902, 1.0848837394155035, 1.0584737573893876, 1.0347007936600319, 1.0132846585584334, 0.9939687642496261])",-126.31047397960708,-202.23936918907032,-44.94046754371716,0.649174746136943,0.00678580979286038,1.3128693156520612,15.322270774807567,-1.0,"[-203.2708190898252, -132.70585724189263, 44.901634581189086]","[-210.689675510272, -122.27466532828105, 52.721532577595404]","[-195.69006072904182, -122.31780871807588, 52.62306906852636]",10000000000.0,0.016167879104614258
13,-203.13551330566406,-132.9678497314453,44.910884857177734,0.6445595622062681,-0.008551449514925383,1.5597258192163446,22.90696035138139,"array('d', [-132.9678497314453, -131.43742703143764, -129.91035376719776, -128.3911875557607, -126.8845168159452, -125.39454666844652, -123.92476904718652, -122.47769584883875, -121.0548414844816, -119.65685963688128, -118.28373423641129, -116.93496713480735, -115.60973790693107, -114.30702947393678, -113.02572124450796, -111.76464973199528])","array('d', [-203.13551330566406, -203.0813547596111, -202.9514767259752, -202.74429764561526, -202.45913081419025, -202.0979599185809, -201.66529866384155, -201.16715021182833, -200.61010787591556, -200.00075376420185, -199.3453106065319, -198.64947022893938, -197.91833191469703, -197.15640406068727, -196.36764014833838, -195.55548955978102])","array('d', [-44.910884857177734, -44.92441318073023, -44.9385789504092, -44.953003285181396, -44.967413465168015, -44.981611482652035, -44.99544943125272, -45.00881319971195, -45.02161096141412, -45.033765686909014, -45.045211352644216, -45.05589250939036, -45.06576685330158, -45.07481041192574, -45.083024881397456, -45.09044652903772])","array('d', [0.6445595622062681, 0.6579621164435887, 0.6700892500094244, 0.6810623334869848, 0.6734469173034942, 0.6500872262984886, 0.6162432146241877, 0.5761820128244107, 0.5331485215669779, 0.48949153500585657, 0.4468376553852032, 0.40625558596376576, 0.36839008700202364, 0.3335634285679407, 0.30184915611656615, 0.2731244357932591])","array('d', [0.008551449514925383, 0.009105237385786053, 0.009373918113710125, 0.009438034999714467, 0.009355541060924791, 0.009166895143752813, 0.00889901764779277, 0.008568898628801176, 0.00818687786421196, 0.007759530974973518, 0.0072921736295565405, 0.0067910416427325905, 0.006265197942644622, 0.005728173155205548, 0.00519928389601503, 0.004704506931026235])","array('d', [1.5597258192163446, 1.5108939523482734, 1.4607976623952394, 1.409521307347256, 1.3580915480730362, 1.3082730231569557, 1.2613050876671628, 1.2178350795809316, 1.1780870717991803, 1.1420198004218236, 1.1094427627423815, 1.0800914858594013, 1.053673069403258, 1.0298928910347984, 1.008470343955911, 0.9891486667641076])",-125.39454666844652,-202.0979599185809,-44.981611482652035,0.6500872262984886,0.009166895143752813,1.3082730231569557,15.323400152032976,-1.0,"[-203.15666063223608, -131.76988468817385, 44.918189349391874]","[-210.52825039408685, -121.2964413265389, 52.726303624529095]","[-195.52921216139993, -121.46492096989687, 52.704700287529334]",10000000000.0,0.015875816345214844
14,-203.07728576660156,-132.510009765625,44.91341781616211,0.6455605626106261,-0.012852931395173121,1.5575482957672815,22.860952208644076,"array('d', [-132.510009765625, -130.9796765939759, -129.4528604632981, -127.93414107809689, -126.42812225521945, -124.93901130811109, -123.47029108780475, -122.02445657021711, -120.60300212932286, -119.20656132313815, -117.83509943257013, -116.48810174398682, -115.16473343580273, -113.86396503835712, -112.58466531912629, -111.32566163223534])","array('d', [-203.07728576660156, -203.0197209654296, -202.88630464585887, -202.6754773106144, -202.38658057682744, -202.02164593364907, -201.58523004730307, -201.08336588634737, -200.52266504270722, -199.909719237719, -199.2507549139412, -198.55146388729574, -197.81694325988923, -197.05169811780098, -196.25967816558216, -195.44432891787756])","array('d', [-44.91341781616211, -44.932717804255425, -44.951258914349474, -44.969016067767384, -44.98598173441584, -45.00215592914922, -45.017538224559964, -45.032124365057015, -45.04590434201824, -45.058862028345935, -45.07097666227977, -45.08222628783228, -45.092593134138774, -45.102070813509556, -45.1106730875995, -45.1184437883641])","array('d', [0.6455605626106261, 0.6588678591464651, 0.670908799970434, 0.6818038928609798, 0.6739315584354653, 0.6503770145467813, 0.6163938120631705, 0.5762390841769058, 0.5331470590609381, 0.4894568437136789, 0.4467869860692444, 0.40619985825131727, 0.36833547617584783, 0.33351276425971355, 0.3018031549589809, 0.27308281222083336])","array('d', [0.012852931395173121, 0.01235692047932633, 0.011843024359711027, 0.011324314282969115, 0.010807997713529697, 0.010296505412277753, 0.009788318057745753, 0.009279223219398034, 0.00876379626411776, 0.008236892873832478, 0.007695078336393943, 0.007137988713978011, 0.006569623498301104, 0.005999533965295228, 0.005443817459867181, 0.004925770069523598])","array('d', [1.5575482957672815, 1.5086230015000606, 1.458440811445484, 1.4070854887106983, 1.355594157044244, 1.3057384104781964, 1.2587508569916175, 1.215272710108223, 1.175523389874783, 1.1394584649971218, 1.1068854391428906, 1.0775386730652223, 1.0511246478355198, 1.0273484687530339, 1.0059294611532679, 0.9866108975282636])",-124.93901130811109,-202.02164593364907,-45.00215592914922,0.6503770145467813,0.010296505412277753,1.3057384104781964,15.324057470008462,-1.0,"[-203.10723236336017, -131.38107700810238, 44.925418238245186]","[-210.45724156381013, -120.88897001815802, 52.728818501262694]","[-195.45888881458106, -121.11109081682967, 52.73760260568795]",10000000000.0,0.016933441162109375
15,-203.0167999267578,-132.0537109375,44.916446685791016,0.646410822868347,-0.017017880454659472,1.5551701514658072,22.808461905125284,"array('d', [-132.0537109375, -130.52348840728365, -128.99695847736876, -127.47872462280407, -125.97340586427798, -124.4852099910543, -123.01760853447871, -121.57307734150994, -120.15308891971515, -118.75825532893722, -117.38852223444766, -116.04335771253406, -114.72191213848458, -113.42314341496751, -112.14590954966194, -110.88902870327561])","array('d', [-203.0167999267578, -202.95553363517203, -202.81830643797977, -202.6035798001526, -202.31072319030372, -201.94181701202956, -201.50146088617515, -200.9957162308534, -200.43121089524612, -199.81454400651884, -199.1519435942677, -198.44909954223215, -197.71110509077457, -196.9424605716888, -196.14711068337454, -195.32849603049823])","array('d', [-44.916446685791016, -44.94133420977399, -44.96410820932117, -44.985087493840574, -45.004522127262604, -45.02260433945829, -45.03947675979148, -45.05524162935209, -45.069968207846266, -45.08369933885342, -45.09645806380082, -45.108254825158, -45.119095572598845, -45.128990913077, -45.137966262139436, -45.14607275105984])","array('d', [0.646410822868347, 0.6596372065118083, 0.6716049343148733, 0.6824337810980686, 0.6742937304047096, 0.650541199975838, 0.6164210616412257, 0.5761784665530978, 0.5330354662798868, 0.4893204373394927, 0.4466431933167918, 0.4060593559089787, 0.36820395622845475, 0.3333924531856075, 0.301694127996401, 0.27298416053658187])","array('d', [0.017017880454659472, 0.015503216925516096, 0.014230475030790071, 0.013146986306361404, 0.012210553454975268, 0.011386611343210926, 0.010645993514061482, 0.009963892620392052, 0.009319583935633806, 0.008696557349089962, 0.008082898323974243, 0.0074718513123828, 0.0068625146498592846, 0.00626058929126064, 0.005679058371837225, 0.005138624868126716])","array('d', [1.5551701514658072, 1.506166411634345, 1.4559120984252498, 1.4044904604401631, 1.3529501633949799, 1.3030701692562592, 1.2560754216771999, 1.2126005256341699, 1.1728600800082305, 1.1368064997956486, 1.1042453941713088, 1.0749100859425524, 1.0485065670406775, 1.024739788544993, 1.0033291105457007, 0.9840179258378411])",-124.4852099910543,-201.94181701202956,-45.02260433945829,0.650541199975838,0.011386611343210926,1.3030701692562592,15.324768525852445,-1.0,"[-203.02690410416355, -130.79295953386912, 44.93711579064406]","[-210.33852246431994, -120.2695287180073, 52.73439998574646]","[-195.34172430442328, -120.5757238731143, 52.7822484790225]",10000000000.0,0.01692342758178711
16,-202.95408630371094,-131.59901428222656,44.92021942138672,0.6470711231231687,-0.02112033404409889,1.5525284493949751,22.75376181393514,"array('d', [-131.59901428222656, -130.06892426392395, -128.54271550491822, -127.02501623668194, -125.5204598095235, -124.0332519484638, -122.56684981327358, -121.12370718436763, -119.70527228814997, -118.3121338739641, -116.94421671086019, -115.60097080267835, -114.28153116893715, -112.9848427534879, -111.70975262796792, -110.45506967919547])","array('d', [-202.95408630371094, -202.88872996848065, -202.74733198275595, -202.52837350151384, -202.231251304051, -201.8580961951368, -201.41355079828824, -200.90370328979785, -200.33519522442697, -199.7146303349342, -199.04823553304195, -198.34169631861295, -197.6000999223795, -196.82794007402043, -196.02915489019057, -195.2071787183345])","array('d', [-44.92021942138672, -44.95060957772486, -44.97754870210055, -45.001695922732736, -45.023556016792426, -45.043511113276224, -45.06184505819413, -45.078765142707596, -45.09441876251056, -45.108906851087674, -45.122295573204696, -45.134627250053285, -45.145931159842654, -45.156234614647005, -45.16557447739591, -45.17400904018814])","array('d', [0.6470711231231687, 0.6602346709428962, 0.6721455425343273, 0.6829229433641568, 0.6745006742944011, 0.6505456218748584, 0.6162910459077263, 0.5759675535032692, 0.5327830716650832, 0.4890538888530832, 0.44638019389733463, 0.40581030453005, 0.36797394590140164, 0.3331829481322656, 0.3015043857807379, 0.27281247466452024])","array('d', [0.02112033404409889, 0.01859969953708924, 0.016578181130254943, 0.014937854120916645, 0.013587531333804276, 0.0124559985768378, 0.011486727842167772, 0.010634550187777645, 0.009863629241787956, 0.009146239609848979, 0.008462106277066714, 0.007798176589560705, 0.0071487229248846295, 0.006515656378868189, 0.005908895159006739, 0.00534658981195738])","array('d', [1.5525284493949751, 1.5034652605694332, 1.4531562844335455, 1.4016843593601664, 1.3501110921178137, 1.3002233548927458, 1.253237246822423, 1.2097801375542174, 1.1700615820028164, 1.1340308525153928, 1.1014917856902913, 1.0721768272860617, 1.0457916435774894, 1.0220411814363437, 1.0006449665078052, 0.9813466225501323])",-124.0332519484638,-201.8580961951368,-45.043511113276224,0.6505456218748584,0.0124559985768378,1.3002233548927458,15.325550542965987,-1.0,"[-202.9690817132394, -130.38856423939367, 44.945587631801814]","[-210.25132729513902, -119.84175788383891, 52.73877536105184]","[-195.25596081857194, -120.20761036157887, 52.810442633774315]",10000000000.0,0.019335269927978516
17,-202.82220458984375,-130.69471740722656,44.930198669433594,0.647656917572021,-0.02885687723755835,1.5466892729189732,22.635425414658215,"array('d', [-130.69471740722656, -129.16495315822533, -127.63947029847303, -126.12294463667277, -124.62003234897595, -123.13492636093066, -121.67104668962062, -120.23079620257619, -118.81556987247527, -117.42590698869242, -116.0616890905693, -114.72232957147718, -113.40693290990468, -112.1144186998207, -110.84361294411501, -109.59330695237047])","array('d', [-202.82220458984375, -202.7478744938848, -202.59744995862266, -202.3694446677228, -202.06330422154338, -201.68125727681803, -201.2280258796968, -200.70974195887217, -200.13306392426517, -199.50459475343928, -198.83055034213353, -198.1165999639881, -197.36781260840993, -196.58866364732776, -195.78307376730294, -194.9544612802646])","array('d', [-44.930198669433594, -44.970962809797776, -45.00574345412048, -45.03584670524728, -45.0622608315804, -45.085727853211296, -45.10679885614136, -45.12587967788704, -45.143265215295635, -45.15916594220656, -45.17372926425528, -45.187057510300065, -45.19922383892638, -45.21028695958232, -45.22030522746637, -45.22935035083033])","array('d', [0.647656917572021, 0.660764719725701, 0.672625150543217, 0.6833569094444366, 0.6743672462358122, 0.6500244918119676, 0.615530780658914, 0.5750814738786316, 0.5318520692438669, 0.4881321248077862, 0.4455011723530241, 0.4049922539764972, 0.3672242631274456, 0.33250180701756554, 0.30088771242435775, 0.2722544854864274])","array('d', [0.02885687723755835, 0.02443091810876587, 0.020993286094053383, 0.018301297785787114, 0.016170304164467512, 0.014459307721752126, 0.013059776606755717, 0.011887913295409952, 0.010879262978181876, 0.009984894746842735, 0.009168748032302589, 0.008405894380374758, 0.007681512777411536, 0.006990376829998851, 0.006336632921571154, 0.005733622979542717])","array('d', [1.5466892729189732, 1.4975798602085633, 1.4472283394226952, 1.3957171461347289, 1.3441362971424764, 1.2942889976034737, 1.2473712030948614, 1.2039949269091845, 1.164359722834488, 1.128409123585257, 1.095944108102332, 1.0666960390311104, 1.0403705223053945, 1.0166729917509463, 0.9953237093358533, 0.9760670882310494])",-123.13492636093066,-201.68125727681803,-45.085727853211296,0.6500244918119676,0.014459307721752126,1.2942889976034737,15.327225558168697,-1.0,"[-202.88207614356264, -129.81283687018922, 44.95874497186385]","[-210.11720074288442, -119.22869615057252, 52.745203554534186]","[-195.12440408058407, -119.68261028296725, 52.84525455816519]",10000000000.0,0.016893863677978516
18,-202.6820068359375,-129.79747009277344,44.943885803222656,0.6479997038841246,-0.03550752252340312,1.5402403930809836,22.507818760164845,"array('d', [-130.2451934814453, -128.7156227035508, -127.19054649003353, -125.67466621665267, -124.17264943625464, -122.6886807615406, -121.2261590441402, -119.78745906891791, -118.37394691019195, -116.98613531951686, -115.62388284963808, -114.28658357743328, -112.97332597888376, -111.6830164495548, -110.41447008678384, -109.1664691494768])","array('d', [-202.75311279296875, -202.67394672221423, -202.51867452021105, -202.2858261996391, -201.97487246564722, -201.58809354578972, -201.13025261363586, -200.60750323466237, -200.02651104785826, -199.39387701787092, -198.7158097842213, -197.99796882152074, -197.24541245695173, -196.46260551555565, -195.65345877545064, -194.82138149749375])","array('d', [-44.936466217041016, -44.98190168338552, -45.020206964237225, -45.0529825469842, -45.081436301448306, -45.10647340238316, -45.12876587696463, -45.14880927970336, -45.166965061643936, -45.18349305633817, -45.198577233277085, -45.21234689971848, -45.22489492193994, -45.23629409488548, -45.24661240049408, -45.25592753834441])","array('d', [0.6478598713874815, 0.6609483599476584, 0.6727913150986919, 0.6835072600274941, 0.6742145027862202, 0.6496675991341152, 0.615050826345154, 0.5745398039785361, 0.5312921126169614, 0.48758268248931014, 0.44497982636265904, 0.4045083442012927, 0.3667813212451572, 0.3320995173965691, 0.3005235177541714, 0.2719249484915491])","array('d', [0.03234196081757544, 0.02705293860942554, 0.022974987852334122, 0.019808279808279948, 0.017325462367462907, 0.015353725743141691, 0.01376088131444261, 0.012445596827648817, 0.011330453372898355, 0.010356932121064186, 0.009481847093262531, 0.008674916763559967, 0.007917225619999108, 0.007200335551338452, 0.006525796123608828, 0.0059047849383002645])","array('d', [1.543536651008997, 1.4944134036516066, 1.4440491346393651, 1.3925261256934296, 1.3409499198687602, 1.2911324919518803, 1.2442586857995233, 1.200932205133543, 1.1613472943694516, 1.1254445125929435, 1.0930234187840955, 1.0638148971056036, 1.0375246076319562, 1.0138583159032466, 0.9925367354576622, 0.9733047482520204])",-122.6886807615406,-201.58809354578972,-45.10647340238316,0.6496675991341152,0.015353725743141691,1.2911324919518803,15.328132477215782,-1.0,"[-202.6668350907455, -128.47931457331342, 44.99223637887116]","[-209.77983009008952, -117.8043726675043, 52.767255185723485]","[-194.79502123401033, -118.46361197692914, 52.91184799218236]",10000000000.0,0.020371437072753906
19,-202.6820068359375,-129.79747009277344,44.943885803222656,0.6479997038841246,-0.03550752252340312,1.5402403930809836,22.507818760164845,"array('d', [-129.79747009277344, -128.2681087107028, -126.74346561041706, -125.22826764344303, -123.7271929784997, -122.24441623856802, -120.78331321158188, -119.34622883229474, -117.93449881896656, -116.54860826416277, -115.18839190769283, -113.85322391773282, -112.542176351975, -111.2541421206653, -109.98792522094485, -108.74229892308962])","array('d', [-202.6820068359375, -202.5977899888492, -202.43746555085485, -202.19957993272843, -201.88362929846136, -201.49194690541142, -201.0293377215725, -200.50197661211035, -199.91653555311476, -199.2796123723876, -198.59740729066448, -197.87556888281702, -197.11914381906936, -196.33258550187122, -195.51979404129506, -194.68416911818562])","array('d', [-44.943885803222656, -44.99356289448878, -45.03506356590838, -45.070257991322855, -45.100554918937604, -45.127008537345034, -45.15040117597068, -45.17131011299162, -45.190157352450335, -45.20724758831392, -45.22279798893988, -45.23696233586057, -45.24985135875559, -45.261550607566576, -45.272136768983415, -45.28169294266481])","array('d', [0.6479997038841246, 0.6610748856332092, 0.6729058002794391, 0.683610847518808, 0.6740037254370812, 0.6492469858659498, 0.6145055843287432, 0.5739340773098667, 0.5306710830336481, 0.4869761383002889, 0.4444058024967249, 0.4039762743918455, 0.36629460041124534, 0.33165755653103096, 0.3001234198410698, 0.27156292489611006])","array('d', [0.03550752252340312, 0.029430821478182705, 0.024769340417504976, 0.021170622015245114, 0.018368066333246207, 0.016159679102938144, 0.014391606542321255, 0.01294648578050928, 0.0117350656485575, 0.010690089876425293, 0.009761887850396113, 0.008915311750076704, 0.00812772684756799, 0.007387778809626279, 0.006694659040924031, 0.006057578438187044])","array('d', [1.5402403930809836, 1.4911097836778633, 1.4407387117101025, 1.3892093397898406, 1.3376435348021327, 1.2878623921203494, 1.2410390098728579, 1.1977684098742996, 1.1582393539234004, 1.1223893772515923, 1.09001663439415, 1.0608515769518805, 1.0345999759767537, 1.0109679864818566, 0.9896768273562314, 0.9704718937949411])",-122.24441623856802,-201.49194690541142,-45.127008537345034,0.6492469858659498,0.016159679102938144,1.2878623921203494,15.329080764217291,-1.0,"[-202.6668350907455, -128.47931457331342, 44.99223637887116]","[-209.77983009008952, -117.8043726675043, 52.767255185723485]","[-194.79502123401033, -118.46361197692914, 52.91184799218236]",10000000000.0,0.01526188850402832
20,-202.60995483398438,-129.35585021972656,44.95331954956055,0.6481196880340574,-0.038362447172403336,1.5368953729656079,22.438926046536192,"array('d', [-129.35585021972656, -127.82671206443285, -126.30252019844265, -124.78802681892157, -123.28792028771613, -121.80636434221353, -120.34671077856076, -118.91127391051046, -117.50135851931303, -116.11742162692894, -114.75927388143663, -113.42626936100436, -112.11746359243791, -110.83173593502137, -109.56787925125933, -108.32465762307582])","array('d', [-202.60995483398438, -202.52061434157557, -202.35516842906134, -202.1121801024708, -201.79117122982424, -201.3945287079836, -200.92709954580502, -200.39507974486173, -199.80514724437222, -199.16389628133945, -198.47751819709873, -197.75165023569042, -196.9913270237942, -196.20099020290806, -195.38452892297778, -194.54533291321385])","array('d', [-44.95331954956055, -45.00682026276108, -45.051195894542744, -45.08856221200114, -45.120510615543495, -45.14823057275433, -45.17260440387015, -45.19428337830861, -45.213744259413716, -45.231332266775446, -45.24729453234341, -45.26180690899436, -45.274996222694014, -45.28695950396265, -45.29778125884645, -45.30754941639689])","array('d', [0.6481196880340574, 0.6611834517902897, 0.6730040350050726, 0.6836997223696849, 0.6737733746657807, 0.6488041998021661, 0.6139372260957356, 0.5733054213625385, 0.5300280332757038, 0.4863489063902481, 0.44381263539458304, 0.4034266725222568, 0.36579192907928904, 0.3312011377004981, 0.2997102366641354, 0.27118906126325787])","array('d', [0.038362447172403336, 0.03157130469446993, 0.026381376878047723, 0.022392020226188813, 0.019300774768869388, 0.016879031564284462, 0.014953215000906473, 0.013391396078329081, 0.012093591124923793, 0.010984631139661841, 0.010008980877735161, 0.009127095924329597, 0.008312983033069498, 0.007552654016258572, 0.006843168273633603, 0.006191955160986151])","array('d', [1.5368953729656079, 1.4877594560358698, 1.4373834679183204, 1.3858494630702076, 1.3342959491890007, 1.284553276633734, 1.237782547689274, 1.1945699588763297, 1.1550987213496642, 1.1193033233036094, 1.0869805156277519, 1.0578603298368507, 1.0316486653580421, 1.008052085400468, 0.9867923323180507, 0.9676153337657402])",-121.80636434221353,-201.3945287079836,-45.14823057275433,0.6488041998021661,0.016879031564284462,1.284553276633734,15.330043939949347,-1.0,"[-202.63620895308262, -128.29911533452767, 44.99713589588281]","[-209.7313614443927, -117.61199867652182, 52.77173226246227]","[-194.74781386193513, -118.29863587051574, 52.9194861390768]",10000000000.0,0.016912460327148438
21,-202.38255310058594,-128.04090881347656,44.98571014404297,0.6480990052223202,-0.04501571878790854,1.5265827673163754,22.228380112073282,"array('d', [-128.47755432128906, -126.94889458509947, -125.42565727376135, -123.91263258703955, -122.41451418980355, -120.93543527230896, -119.47869032023067, -118.04652682584228, -116.64018516150267, -115.26006578641977, -113.90593205733, -112.57709950508728, -111.27259259627307, -109.99126573285864, -108.73189166574915, -107.49321822059616])","array('d', [-202.4601593017578, -202.3603197863978, -202.18440772962074, -201.93103284661123, -201.59982444955048, -201.19328259486656, -200.7163243461604, -200.1751730072521, -199.57650464138416, -198.92689454134396, -198.2325066832775, -197.49894796931312, -196.731222846996, -195.93374459925397, -195.11037659000667, -194.2644855408988])","array('d', [-44.97428512573242, -45.034126560471464, -45.083255574683214, -45.124202220310984, -45.158864907045974, -45.18865976660924, -45.21463628865416, -45.237569129768055, -45.258026154763236, -45.27641986431695, -45.293047047206684, -45.308120077190814, -45.32179237595861, -45.33417991226183, -45.34538005839698, -45.3554886470498])","array('d', [0.6481782793998716, 0.6612364674526936, 0.6730520055543892, 0.6831946475846737, 0.6726688164772738, 0.6473243945523522, 0.6122594679907477, 0.5715592039829404, 0.5283016190102732, 0.48469815682471634, 0.4422693483500608, 0.4020054809544746, 0.36449571997456187, 0.3300252707801381, 0.29864589282161713, 0.2702260030416719])","array('d', [0.04309951514005662, 0.03511241247974396, 0.02904035655830128, 0.02440068584980768, 0.020830103736387374, 0.0180549856532261, 0.015868521362218977, 0.014114325902658096, 0.012674457820084093, 0.011460548822489322, 0.010407306404379807, 0.009467886642003721, 0.008610728250136786, 0.007817478958052734, 0.007081664031370126, 0.006407755066091427])","array('d', [1.5300319502737862, 1.480903380807198, 1.4305340459737266, 1.379035535481246, 1.327576833947065, 1.2779746026819134, 1.231364692200951, 1.1883158403090528, 1.1490010465890341, 1.113349786839916, 1.081157024983162, 1.0521528174775567, 1.0260440160519435, 1.002538544649091, 0.981359614188702, 0.9622545451516925])",-120.93543527230896,-201.19328259486656,-45.18865976660924,0.6473243945523522,0.0180549856532261,1.2779746026819134,15.33198295547107,-1.0,"[-202.3730301365785, -126.84283354265702, 45.04341521477893]","[-209.31633545322072, -116.06250495281883, 52.8264112172837]","[-194.34377900858175, -116.95809177011907, 52.969511758084856]",10000000000.0,0.024402856826782227
22,-202.30325317382812,-127.60594177246094,44.9975471496582,0.6479766964912413,-0.04664040729403495,1.523169939466987,22.157405043488964,"array('d', [-128.04090881347656, -126.51249904189005, -124.9897553301722, -123.47748116938789, -121.98036692592831, -120.50252708849796, -119.04722466032318, -117.61667236251189, -116.21207806066697, -114.83381429146326, -113.48162148889502, -112.15479680369938, -110.85235012138267, -109.57312430626608, -108.31588295399992, -107.07936443416098])","array('d', [-202.38255310058594, -202.2774452364857, -202.09629778455258, -201.83774660551478, -201.50148841050185, -201.09007956379278, -200.60846665278513, -200.06288126235793, -199.4599938535623, -198.80636644993203, -198.10814635991903, -197.3709230065178, -196.5996839709333, -195.79882698364, -194.97220144352644, -194.12316025974144])","array('d', [-44.98571014404297, -45.04811473063163, -45.09915810096855, -45.14154127359126, -45.177288823427936, -45.207909683311534, -45.23452159962235, -45.25794945857934, -45.2787981095184, -45.29750730101681, -45.31439389024032, -45.32968498384894, -45.343544714111665, -45.35609666108731, -45.36744335107869, -45.37768377768406])","array('d', [0.6480990052223202, 0.6611647370076141, 0.6729871007206119, 0.6827162696870078, 0.6719096192219902, 0.6463979253331932, 0.6112538477187952, 0.5705375674867488, 0.5273060588335186, 0.48375454325650796, 0.4413917075797744, 0.4011995293179172, 0.3637615853659976, 0.32935957326527054, 0.2980433674463297, 0.2696808154798721])","array('d', [0.04501571878790854, 0.036539582955777215, 0.030108030030894236, 0.02520419442024612, 0.021439511004287735, 0.01852172705336545, 0.016230338337316803, 0.014398926198663184, 0.01290221083799243, 0.011646449282782788, 0.010562387952437309, 0.009600226674457873, 0.00872615264256993, 0.007920049698955503, 0.007174013405064374, 0.006491316045878509])","array('d', [1.5265827673163754, 1.4774684525040926, 1.427112160496332, 1.3756481490460966, 1.3242595858371438, 1.2747475555780172, 1.2282351346489258, 1.1852825869779708, 1.146058213522641, 1.1104893966901712, 1.078370564052506, 1.0494320711080374, 1.023381466843184, 0.9999275228287324, 0.9787943101474273, 0.9597299748871863])",-120.50252708849796,-201.09007956379278,-45.207909683311534,0.6463979253331932,0.01852172705336545,1.2747475555780172,15.332938129236489,-1.0,"[-202.3730301365785, -126.84283354265702, 45.04341521477893]","[-209.31633545322072, -116.06250495281883, 52.8264112172837]","[-194.34377900858175, -116.95809177011907, 52.969511758084856]",10000000000.0,0.01712512969970703
