,current_time,x_pos,y_pos,z_pos,roll,pitch,yaw,vel,x_traj,y_traj,z_traj,roll_traj,pitch_traj,yaw_traj,x_cmd,y_cmd,z_cmd,roll_cmd,pitch_cmd,yaw_cmd,vel_cmd,effector_dmg,effector_x,effector_y,effector_z,cost,time_solution
0,0.6277270317077637,-181.84971618652344,-123.33673858642578,49.77354431152344,0.6244048476219176,0.03034193068742744,0.39908070961502556,23.15168861117781,"array('d', [-123.33673858642578, -122.39536378108134, -121.50353539697555, -120.64992854462666, -119.82617751299202, -119.02596256626742, -118.24447259152419, -117.4780474949301, -116.72391694254068, -115.97999681514091, -115.24472466197125, -114.51692486248879, -113.79569879951427, -113.08033762451628, -112.3702563535901, -111.80647221336682])","array('d', [-181.84971618652344, -179.53465703368926, -177.19955556087106, -174.84999106700042, -172.48969374603303, -170.12126714727313, -167.7465741958782, -165.3669656412409, -162.98342691048308, -160.59667900523274, -158.20725139327462, -155.81553642030943, -153.42183049722854, -151.0263650574176, -148.62932904421217, -146.71043898796276])","array('d', [-49.77354431152344, -49.71077310809752, -49.66908777466973, -49.64109423966601, -49.62211124090554, -49.60913173345835, -49.6001953844333, -49.59400460232255, -49.589686791822494, -49.5866456427088, -49.58446743879027, -49.58286191631044, -49.581625189117, -49.58061699126216, -49.57974728047966, -49.57912454587699])","array('d', [0.6244048476219176, 0.494111137405363, 0.3913244682730335, 0.3102232511087047, 0.24656855159417906, 0.19703380718348765, 0.15888811738847633, 0.1298330525759471, 0.10791365740730043, 0.09146767660767312, 0.07909528590792682, 0.06964023985462009, 0.062177728302474415, 0.05600652291443893, 0.050644189966618805, 0.04582476223711332])","array('d', [-0.03034193068742744, -0.020052186034110367, -0.01340851723408555, -0.009059349112540986, -0.006175312454983984, -0.004240616264028896, -0.002930336697100805, -0.002037193575927849, -0.0014272319361334175, -0.001012604755492076, -0.0007345963225534196, -0.0005528535696680617, -0.0004384369136767268, -0.0003692751398932117, -0.00032719546483909393, -0.0002960590429779279])","array('d', [0.39908070961502556, 0.37453032304363704, 0.3559474552586053, 0.34161043994267865, 0.3304133456389435, 0.3215794038596018, 0.3145335517997252, 0.308838459971514, 0.3041588584902466, 0.3002393329298668, 0.29688878693755894, 0.29396829409910197, 0.2913807151591108, 0.28906125691920337, 0.2869685393377807, 0.284602771687579])",-119.02596256626742,-170.12126714727313,-49.60913173345835,0.19703380718348765,-0.004240616264028896,0.3215794038596018,25.000000246018303,-1.0,"[-180.82831030283597, -122.87587973440763, 49.725584238352845]","[-171.8189737638082, -112.9913096856208, 56.51727990859348]","[-165.9448165599856, -124.08179843129174, 48.301725360851414]",10000000000.0,0.011893749237060547
1,0.6713645458221436,-180.98211669921875,-123.03630065917969,49.77960968017578,0.6236085891723633,0.03079874999821179,0.3906738320973255,23.148493296170955,"array('d', [-123.03630065917969, -122.11435232833084, -121.24188166306334, -120.40744996834334, -119.60262402772047, -118.82104481725102, -118.05788131632782, -117.30946761634483, -116.57303791811452, -115.84652003228199, -115.12836838745737, -114.41742715966086, -113.71281879738659, -113.01385551345777, -112.31997247582562, -111.76898465937933])","array('d', [-180.98211669921875, -178.65927912225078, -176.3168881437332, -173.96045110844992, -171.59363635002867, -169.2189960200932, -166.8383507229552, -164.4530163451963, -162.0639494482945, -159.67184694668578, -157.27721801702674, -154.88043773267918, -152.48178764331612, -150.08148626169717, -147.67971119054147, -145.7571078029547])","array('d', [-49.77960968017578, -49.71586872959683, -49.67349623068868, -49.6450080181119, -49.62566305931503, -49.612414087657655, -49.60327336227455, -49.59692440331143, -49.59248146585329, -49.58933900580588, -49.58707678256041, -49.58539991346509, -49.58410126002404, -49.58303830666242, -49.58211951560319, -49.581461324644884])","array('d', [0.6236085891723633, 0.4921066644234017, 0.3885208265471338, 0.30691520137170863, 0.24297830706466444, 0.19333104034522047, 0.15520117021720592, 0.12625626102823895, 0.1045128842865675, 0.08828498469442662, 0.07615316199701952, 0.06694554484174084, 0.059725449139885346, 0.05378336684682906, 0.04863205311960381, 0.044004105363973624])","array('d', [-0.03079874999821179, -0.020373679842151736, -0.0136383651041932, -0.009226318329916832, -0.006298647934237559, -0.004333365443313676, -0.0030014506191238023, -0.0020928789216050096, -0.0014718332171535543, -0.0010491860726993105, -0.0007653280755194698, -0.0005792710910393734, -0.0004616144460498156, -0.0003899438687307314, -0.0003458249792347114, -0.00031291551946474415])","array('d', [0.3906738320973255, 0.36619963132659744, 0.3477322554774706, 0.3335311684324558, 0.3224804128465138, 0.3137967517584595, 0.3069004760022974, 0.30135080138058623, 0.2968099397538488, 0.2930207613162465, 0.28979115296125163, 0.28698176462476227, 0.2844955130065177, 0.2822680203408962, 0.2802585575936607, 0.2779869212820134])",-118.82104481725102,-169.2189960200932,-49.612414087657655,0.19333104034522047,-0.004333365443313676,0.3137967517584595,25.00000024855027,-1.0,"[-180.40743059404295, -122.73402512563541, 49.7284129829174]","[-171.34931456069648, -112.87513311607124, 56.49249328035499]","[-165.5315245944062, -123.98837618577664, 48.267583044870555]",10000000000.0,0.011991739273071289
2,0.6854431629180908,-180.547119140625,-122.88874816894531,49.782440185546875,0.6230984330177306,0.030925700441002648,0.38632555405167146,23.146398339065346,"array('d', [-122.88874816894531, -121.97686501706059, -121.11441400164901, -120.28989954575684, -119.49485496906169, -118.72290200949358, -117.96920017567932, -117.23008119713586, -116.50278213650033, -115.78523739588286, -115.07591048335225, -114.37365610781805, -113.6776078640703, -112.98708907556029, -112.30154552455255, -111.75714395828363])","array('d', [-180.547119140625, -178.22031922040242, -175.87422404972554, -173.51430033251413, -171.14418274417602, -168.76639601735863, -166.38273845330932, -163.99450772255915, -161.60264540379612, -159.20783597685443, -156.81057819094084, -154.41123827614044, -152.01009019501754, -149.6073458771945, -147.2031771549201, -145.27869846794707])","array('d', [-49.782440185546875, -49.71842443259115, -49.67584846986682, -49.64720787752812, -49.627747341926806, -49.61440944164574, -49.605199173673014, -49.59879484192389, -49.59430694208436, -49.591127215010225, -49.58883345966784, -49.58712938356146, -49.58580684448074, -49.58472262582399, -49.583784715761304, -49.58311270310459])","array('d', [0.6230984330177306, 0.49099146545321304, 0.3870069091921692, 0.3051514919382077, 0.24107723386501767, 0.19137852059095647, 0.1532621980841824, 0.12437856621658698, 0.10272971024743069, 0.08661744996093752, 0.07461240587754667, 0.06553474109270369, 0.058441722496242944, 0.052619630716912634, 0.04757878356890471, 0.04305106757581414])","array('d', [-0.030925700441002648, -0.020467203233656934, -0.013708034957426122, -0.00927884644805814, -0.00633879073721571, -0.004364516571736786, -0.003026043353922436, -0.0021126647520115695, -0.001488076448222275, -0.0010628003436991568, -0.0007769723561445634, -0.0005894174133372206, -0.000470596067806929, -0.00039799008925314137, -0.00035308704437846995, -0.0003194867012200066])","array('d', [0.38632555405167146, 0.36189553321485846, 0.34349119889793905, 0.3293628818623818, 0.3183897516292876, 0.3097853979054228, 0.30296781054481514, 0.29749448289993813, 0.29302636715546937, 0.28930547611795226, 0.2861391923508298, 0.28338796256848386, 0.28095474422227407, 0.2787753831948435, 0.276809493744368, 0.27458712455389334])",-118.72290200949358,-168.76639601735863,-49.61440944164574,0.19137852059095647,-0.004364516571736786,0.3097853979054228,25.000000245995825,-1.0,"[-179.34823115223557, -122.38526803343676, 49.734912531910666]","[-170.16789389114643, -112.59075049800624, 56.42735857359097]","[-164.49257244904493, -123.76133124110088, 48.18061058478796]",10000000000.0,0.011417150497436523
3,0.7129042148590088,-180.11135864257812,-122.74300384521484,49.78500747680664,0.6225397586822508,0.03106266632676114,0.38196285168198113,23.144222082968593,"array('d', [-122.74300384521484, -121.84123375650081, -120.98884428266642, -120.17428419018856, -119.38905411361094, -118.62675709396044, -117.88254357617068, -117.15274325509642, -116.43459633173204, -115.7260440411753, -115.02555918587683, -114.3320072006154, -113.64453300035298, -112.96247117595495, -112.28527826524767, -111.74747080810349])","array('d', [-180.11135864257812, -177.78062865556643, -175.43086292801937, -173.0674866135333, -170.69410019575685, -168.3132006702883, -165.9265638535875, -163.53546910882565, -161.1408430011925, -158.74335758507965, -156.34350121632215, -153.9416313298346, -151.5380143553522, -149.13285569429524, -146.7263214600733, -144.79998962383166])","array('d', [-49.78500747680664, -49.72069611192039, -49.67790275369979, -49.64910043853961, -49.629518079337146, -49.61608711309223, -49.606804612426544, -49.60034321364754, -49.59580934024089, -49.592591797496915, -49.59026626598071, -49.58853492891204, -49.58718855758704, -49.58608317621254, -49.585126261608785, -49.58444051395617])","array('d', [0.6225397586822508, 0.4898350123049286, 0.3854571856561915, 0.30335625520426557, 0.23914812595839272, 0.18940090921033736, 0.15130067585875628, 0.12248055429004745, 0.10092820291351878, 0.08493335612815903, 0.07305668344126903, 0.06411040427000575, 0.05714575465381084, 0.05144481957016043, 0.0465154930986302, 0.042088962484955625])","array('d', [-0.03106266632676114, -0.020567420604402267, -0.013782194867759267, -0.009334384252632557, -0.006380938247896308, -0.00439698440419332, -0.003051479385168331, -0.002132968122008986, -0.0015046148007324919, -0.0010765608913302434, -0.0007886672181043262, -0.0005995572668492615, -0.00047954193042611305, -0.0004059901796709127, -0.0003603036577416167, -0.000326016563607805])","array('d', [0.38196285168198113, 0.3575794143767655, 0.3392398884290751, 0.3251857466931707, 0.31429142079238315, 0.3057673984517185, 0.29902940795000177, 0.2936332429413195, 0.2892386099533149, 0.28558667390163556, 0.28248432018926845, 0.27979179823468164, 0.27741211141787264, 0.2752813339104323, 0.273359427463077, 0.2711867895790814])",-118.62675709396044,-168.3132006702883,-49.61608711309223,0.18940090921033736,-0.00439698440419332,0.3057673984517185,25.00000024598768,-1.0,"[-179.15833382981108, -122.32383742486995, 49.73605902885862]","[-169.9556539545128, -112.54123619078214, 56.41523534092012]","[-164.30654651375917, -123.7226184781955, 48.165127749770726]",10000000000.0,0.012601613998413086
4,0.7312808036804199,-179.67478942871094,-122.59910583496094,49.787437438964844,0.6217834949493409,0.03113884851336468,0.37774224678543594,23.143929498451858,"array('d', [-122.59910583496094, -121.70712114188647, -120.86444483395051, -120.0594765044862, -119.28368825649729, -118.53066725956599, -117.79555687580567, -117.07468616973541, -116.36529947432993, -115.66534555305675, -114.97330698180551, -114.28806024646713, -113.60876180223029, -112.93475765971617, -112.26551522461045, -111.73398103359632])","array('d', [-179.67478942871094, -177.34030141520094, -174.98703701324013, -172.6203775819351, -170.24388864505758, -167.8600393086827, -165.47058301509773, -163.07678103850532, -160.67954518519588, -158.2795353413249, -155.8772297136956, -153.47297716705168, -151.06703680206363, -148.65960767491438, -146.25085034389264, -144.32277810488213])","array('d', [-49.787437438964844, -49.72295686529774, -49.6800313419887, -49.651125695712636, -49.631462162925644, -49.617966897141294, -49.6086328741329, -49.602129599897445, -49.59756113214488, -49.59431450436832, -49.5919640823305, -49.59021108459941, -49.58884558569864, -49.58772311738809, -49.586750818320695, -49.586053945474916])","array('d', [0.6217834949493409, 0.48853536521015556, 0.38380355397061783, 0.3014860710961987, 0.2371654993868921, 0.187385519405405, 0.1493127557366813, 0.12056418328122273, 0.09911384455460563, 0.08324004788018227, 0.07149404999019066, 0.06268056108723946, 0.055845127050296595, 0.05026589000468429, 0.04544848866425634, 0.04112349686010649])","array('d', [-0.03113884851336468, -0.02062692989186418, -0.013828651396736603, -0.009370766339257597, -0.006409625448565225, -0.00441983496620881, -0.0030699205470454873, -0.0021480829303061957, -0.0015172174239513666, -0.0010872580998648376, -0.0007979067524238421, -0.0006076651448408087, -0.00048675110730280705, -0.00041246283945047023, -0.00036614903402223736, -0.000331305679263242])","array('d', [0.37774224678543594, 0.35341463594793177, 0.3351457424844287, 0.3211696400768863, 0.3103567452797903, 0.3019148565510099, 0.2952577012738173, 0.28993954976816494, 0.28561898710184874, 0.2820364190071023, 0.27899829648190677, 0.2763647146007882, 0.27403875035223524, 0.2719567223723122, 0.27007894799035265, 0.26795621063579517])",-118.53066725956599,-167.8600393086827,-49.617966897141294,0.187385519405405,-0.00441983496620881,0.3019148565510099,25.000000245979674,-1.0,"[-178.28121575347097, -122.0461397835839, 49.74073671410282]","[-168.9773439623255, -112.31637496836511, 56.35659994836471]","[-163.44768344855515, -123.54907653257054, 48.0952882987569]",10000000000.0,0.012545108795166016
5,0.7717230319976807,-178.7992706298828,-122.31692504882812,49.79191970825195,0.6163863539695739,0.03069588355720027,0.3695784370091298,23.14801577886487,"array('d', [-122.31692504882812, -121.44366392642037, -120.61920153783154, -119.83192750321687, -119.07331008726602, -118.3369423415435, -117.61798161609146, -116.91277760749621, -116.2186003950388, -115.53342803177571, -114.85577441156637, -114.18454800309185, -113.5189367655287, -112.85831685052246, -112.2021838344822, -111.68091393785626])","array('d', [-178.7992706298828, -176.45768774606458, -174.09796895149398, -171.72535956247717, -169.34333129805543, -166.95428401284818, -164.55991823973957, -162.16145378892372, -159.759769290963, -157.3554975959616, -154.9490945005637, -152.5408899963847, -150.13112705571163, -147.71999077158247, -145.3076294806464, -143.37675686486017])","array('d', [-49.79191970825195, -49.728337950100425, -49.68598090518269, -49.65743791331357, -49.63800722647473, -49.62466195085264, -49.61542444320368, -49.60898286241117, -49.60445330076298, -49.60123069598075, -49.598894702920546, -49.59715013795408, -49.59578954061146, -49.594670103776146, -49.59370000641872, -49.593004640081105])","array('d', [0.6163863539695739, 0.48298910060519984, 0.3780239195374345, 0.2956458114222964, 0.2313995961489459, 0.18179791504016748, 0.1439805970641266, 0.11554115464937026, 0.09443323800441339, 0.07891779764979617, 0.06753177014238526, 0.059068555851318406, 0.052565334061329114, 0.047294731994902715, 0.04275962976646832, 0.0386905164972765])","array('d', [-0.03069588355720027, -0.020347861714105, -0.01365117314324208, -0.009257037665346477, -0.006336395842580023, -0.004372636399062304, -0.003039624310293972, -0.0021288398529321715, -0.0015052147798710642, -0.0010799637876438024, -0.0007936079070683818, -0.0006051873973225406, -0.00048529063752723503, -0.00041148999426453633, -0.00036535748671162767, -0.00033058945757590236])","array('d', [0.3695784370091298, 0.3455476265958388, 0.32754870850038187, 0.3138291547645941, 0.30326094912326773, 0.29505184644684274, 0.28861485384236146, 0.2835033790341745, 0.2793753076965751, 0.27597066487039873, 0.27309589315431304, 0.2706114380439621, 0.26842103107059545, 0.26646187163039364, 0.2646952943280677, 0.26269828748336965])",-118.3369423415435,-166.95428401284818,-49.62466195085264,0.18179791504016748,-0.004372636399062304,0.29505184644684274,25.000000245964333,-1.0,"[-178.03201724703425, -121.96945665291712, 49.74218730474977]","[-168.70095402928519, -112.24729182607165, 56.33087232575503]","[-163.20350671695522, -123.50395698956002, 48.08068672509954]",10000000000.0,0.0129547119140625
6,0.7895398139953613,-178.36024475097656,-122.17870330810547,49.79402160644531,0.6103898286819457,0.03014368191361421,0.36563749710587046,23.152414855931582,"array('d', [-122.17870330810547, -121.3142894634377, -120.49809772149892, -119.71858648722437, -118.96726845873926, -118.23777243199866, -117.52528741262105, -116.82619272879472, -116.13778689147205, -115.45807538383696, -114.78559843162564, -114.11928953160213, -113.45836015627741, -112.80220829336699, -112.15034958893794, -111.63234180334092])","array('d', [-178.36024475097656, -176.0153487577937, -173.6527420585283, -171.27756423804286, -168.8932203929493, -166.5020642616848, -164.10576270786157, -161.70550995354535, -159.30216454642309, -156.89634314151272, -154.4884881676912, -152.07891836052383, -149.66786705575132, -147.25551098617456, -144.84199116245912, -142.91024076852085])","array('d', [-49.79402160644531, -49.73157706994325, -49.68996807832824, -49.66192408246713, -49.642830742390935, -49.62971647368142, -49.62063915193428, -49.61431009898909, -49.60986075595757, -49.606696398669875, -49.60440375400358, -49.6026925343311, -49.60135867808223, -49.60026169673993, -49.59931125598015, -49.59863001304383])","array('d', [0.6103898286819457, 0.4775632348912081, 0.372891722748271, 0.2908074669882977, 0.22686085255660465, 0.1775639683667978, 0.1400533318262092, 0.11191805921086387, 0.09110726123735279, 0.07587775327794428, 0.06476304594009782, 0.05655397111066259, 0.05028604784010375, 0.045231147282339526, 0.040892268299847566, 0.03700085781629056])","array('d', [-0.03014368191361421, -0.01998679607230478, -0.013411680289069312, -0.009095998419852036, -0.006226692989328766, -0.0042969633629851, -0.002986767124708784, -0.0020914169837230254, -0.0014782875615485945, -0.0010601739067859768, -0.0007786386404996177, -0.0005934268939249035, -0.00047562334407788326, -0.00040317040922972666, -0.00035793679723494207, -0.00032387493946951573])","array('d', [0.36563749710587046, 0.3419145631929286, 0.3241660480291877, 0.3106657426760246, 0.30029461662685786, 0.29226495925558255, 0.28599221907991434, 0.2810312391160119, 0.2770408788080916, 0.27376195400763526, 0.27100165139123283, 0.2686211711631116, 0.26652502419978175, 0.26465120495125083, 0.2629618384269259, 0.261052133514827])",-118.23777243199866,-166.5020642616848,-49.62971647368142,0.1775639683667978,-0.0042969633629851,0.29226495925558255,25.00000024595724,-1.0,"[-177.40120998133048, -121.77534674895584, 49.74588311327687]","[-168.00154110391532, -112.07302782414723, 56.265946953167806]","[-162.58575810519244, -123.39006566349583, 48.04439302136779]",10000000000.0,0.012856245040893555
7,0.809516191482544,-177.92039489746094,-122.04240417480469,49.79642105102539,0.6015555858612058,0.02919091656804073,0.3619139949467518,23.15705006066218,"array('d', [-122.04240417480469, -121.18615898134142, -120.37725928658975, -119.60429478508253, -118.85886685876348, -118.13467155481224, -117.42695330282501, -116.73213970192474, -116.04757270107707, -115.37129752301084, -114.70189097401095, -114.03832023075294, -113.37982768890649, -112.72583961666457, -112.07589742150579, -111.5592220547585])","array('d', [-177.92039489746094, -175.5724491196555, -173.20731149901562, -170.82998380833862, -168.44378654241257, -166.05101698286572, -163.65330190023408, -161.25180562642947, -158.84736352279089, -156.44057364992887, -154.03186310388963, -151.6215376860955, -149.20981962564917, -146.7968759917792, -144.382839310933, -142.45073198969735])","array('d', [-49.79642105102539, -49.73594664526882, -49.69564687473888, -49.66848560124423, -49.649995810877876, -49.63729988204964, -49.62851652325862, -49.62239704914823, -49.61809960871977, -49.61504759606557, -49.61284020964705, -49.61119583949086, -49.609916471447924, -49.608865756127585, -49.607956026854374, -49.60730407076857])","array('d', [0.6015555858612058, 0.46956963884631164, 0.3655930645037262, 0.2841197879908632, 0.22072928212253726, 0.17194759895790648, 0.13491780180634447, 0.10723183335072033, 0.08683987184123206, 0.07199912473170553, 0.06124340984355767, 0.05336408111161456, 0.047397523448204436, 0.04261685182179199, 0.03852667395811592, 0.03486037934618943])","array('d', [-0.02919091656804073, -0.019357563188093705, -0.012989928999046418, -0.008809274647562312, -0.00602907639245934, -0.004158909819701902, -0.002888977081957538, -0.0020210853638339583, -0.0014267828388915315, -0.001021587351544203, -0.0007488714454857258, -0.0005696151159577422, -0.00045577837738032247, -0.0003859586284773698, -0.0003425489597427723, -0.00030995144707853445])","array('d', [0.3619139949467518, 0.3386407463138391, 0.3212527864320306, 0.308058735861562, 0.2979562094728227, 0.2901663224306628, 0.28410962504543047, 0.27934418221048135, 0.2755311025434969, 0.2724129428761554, 0.2697983604121072, 0.2675498726291151, 0.2655732075375059, 0.263807496561179, 0.2622159251801018, 0.2604167980347529])",-118.13467155481224,-166.05101698286572,-49.63729988204964,0.17194759895790648,-0.004158909819701902,0.2901663224306628,25.000000245950908,-1.0,"[-176.9600371095031, -121.64262986500466, 49.74881293071434]","[-167.51425044411596, -111.93401168134545, 56.192402554201855]","[-162.1535160131079, -123.32022208825173, 48.030494754559435]",10000000000.0,0.012398481369018555
8,0.8299310207366943,-177.4809112548828,-121.9085464477539,49.7989387512207,0.5898024439811704,0.028041433542966742,0.3582903901722766,23.161785327065196,"array('d', [-121.9085464477539, -121.06006970213576, -120.2577594216206, -119.49039703986355, -118.74971549064942, -118.02950889461752, -117.32510062370851, -116.632985224361, -115.95056331702177, -115.27593252139204, -114.60771689084916, -113.94492638379813, -113.28684218358946, -112.63292572362269, -111.98275027817688, -111.46564079672055])","array('d', [-177.4809112548828, -175.1300831393263, -172.7626735049372, -170.38351834484743, -167.99583712931835, -165.6018607784502, -163.203169533264, -160.8008933457883, -158.39584103886423, -155.98858941755873, -153.57954802468595, -151.1690078080195, -148.75717819464705, -146.3442150776931, -143.9302411467975, -141.99824981403026])","array('d', [-49.7989387512207, -49.74084409971691, -49.702130445485246, -49.67604192627733, -49.65828802410436, -49.646103933503156, -49.63768157440158, -49.631820508695355, -49.62771118269871, -49.624798949972984, -49.62269815510274, -49.6211377444642, -49.61992707042469, -49.61893483136239, -49.618076618934765, -49.6174617332306])","array('d', [0.5898024439811704, 0.45893493405621627, 0.35604550408599267, 0.27549642609719266, 0.21291803533413617, 0.16486380303947754, 0.12849246247081486, 0.10140545696082122, 0.08155921433078574, 0.06721552918496429, 0.056912003076269535, 0.04944341007669019, 0.0438493906248443, 0.0394062167269447, 0.03562155343095616, 0.03223171735211757])","array('d', [-0.028041433542966742, -0.01859621012974156, -0.012478062404014771, -0.008460172113931979, -0.005787656013238234, -0.003989650590316933, -0.002768619028812821, -0.0019341583869569902, -0.0013628347195658646, -0.0009734477300330456, -0.0007115572075837687, -0.0005396393064700625, -0.00043071699502421346, -0.0003641841681232244, -0.00032307162018010397, -0.0002923274269516158])","array('d', [0.3582903901722766, 0.3356084326951824, 0.31869257309885335, 0.3058942318381025, 0.2961347364261404, 0.28864802613168233, 0.28286224952853944, 0.27834038209105066, 0.2747469980467381, 0.2718273117948764, 0.26939216147537365, 0.2673059407201492, 0.26547603735536224, 0.26384307223647435, 0.26237157517846005, 0.26070822057170484])",-118.02950889461752,-165.6018607784502,-49.646103933503156,0.16486380303947754,-0.003989650590316933,0.28864802613168233,25.00000024852898,-1.0,"[-176.51816124995742, -121.51153310223387, 49.75264089437353]","[-167.02881700501786, -111.77982507588003, 56.096630545281904]","[-161.72010627930962, -123.25783131303207, 48.02984907739466]",10000000000.0,0.014045000076293945
9,0.8705101013183594,-176.59930419921875,-121.64641571044922,49.80473327636719,0.557728588581085,0.024887476116418672,0.3515497008946279,23.17280659612789,"array('d', [-121.64641571044922, -120.81183467854603, -120.02027150753678, -119.26105096766727, -118.5262761830203, -117.81001636346443, -117.1078140342746, -116.41634683253149, -115.73317311121207, -115.0565289483048, -114.38516128066819, -113.71818983504836, -113.05499425220309, -112.3951245469127, -111.7382338929905, -111.2151336779723])","array('d', [-176.59930419921875, -174.24334515262214, -171.87224780018266, -169.49044815868857, -167.10092633616543, -164.70575807164252, -162.30641594066242, -159.90395085566936, -157.49911074525272, -155.09242353850198, -152.68425821127425, -150.27487115745996, -147.86444182085924, -145.45309976184717, -143.04094438467595, -141.11056607005267])","array('d', [-49.80473327636719, -49.753177563047416, -49.7188369340844, -49.695716055198986, -49.6800047747324, -49.66924628306688, -49.66183297951514, -49.656696929438866, -49.6531175194782, -49.65060072252662, -49.64880278109761, -49.64748189163914, -49.64646784391104, -49.64564335544199, -49.64493308024101, -49.64442467101912])","array('d', [0.557728588581085, 0.430584148458682, 0.33091694770931557, 0.2530592257066842, 0.19279654692834203, 0.14677123319498853, 0.11219696450208212, 0.08671181020654659, 0.0682986235000463, 0.055239807008570334, 0.04609010388779338, 0.03965916455242865, 0.034999791173133614, 0.03139989788858182, 0.028377285802617037, 0.025676832342055072])","array('d', [-0.024887476116418672, -0.016500058663429903, -0.011064026150085185, -0.00749253002468062, -0.005116221495844872, -0.0035172728860496257, -0.00243149187060613, -0.0016897252785949878, -0.001182269051173598, -0.000836929786922935, -0.0006052877202236543, -0.0004539485254475778, -0.0003588756760677083, -0.00030166941908588374, -0.00026712698065338474, -0.00024170661920435829])","array('d', [0.3515497008946279, 0.3304262366384701, 0.3147417885027182, 0.30296831433070204, 0.2940906667736412, 0.2873778615836261, 0.2822793059702711, 0.2783720070505719, 0.27533057393560556, 0.2729079183297997, 0.2709211110721028, 0.26923978168802687, 0.267775816689388, 0.26647375407593016, 0.26530156566739826, 0.263976669554302])",-117.81001636346443,-164.70575807164252,-49.66924628306688,0.14677123319498853,-0.0035172728860496257,0.2873778615836261,25.000000248525538,-1.0,"[-175.9072737589766, -121.33438556915446, 49.75887121301369]","[-166.36044206744882, -111.53804534490483, 55.914334060305464]","[-161.12054976748738, -123.18634734238964, 48.04918375912265]",10000000000.0,0.014854192733764648
10,0.8891909122467041,-176.1572265625,-121.51803588867188,49.808311462402344,0.5378491282463074,0.022913280874490575,0.3481862107899526,23.178618110186317,"array('d', [-121.51803588867188, -120.69020346845302, -119.90348496097546, -119.14753482689976, -118.41468110352191, -117.69916134582951, -116.99665253732908, -116.30394453914265, -115.61869206230902, -114.93921537452566, -114.26433575115828, -113.59323900022208, -112.92536378852778, -112.26031307030546, -111.59778767577188, -111.06981135569995])","array('d', [-176.1572265625, -173.7987962562569, -171.4260459510937, -169.04318718572628, -166.65306629180546, -164.25767227812622, -161.85841752470094, -159.456308666154, -157.05205938057875, -154.64616994564895, -152.23898622730567, -149.83074479323537, -147.42160776692998, -145.0116894070148, -142.60107552039153, -140.67202492937878])","array('d', [-49.808311462402344, -49.76085145845112, -49.72925378031485, -49.70799664694953, -49.69356954949036, -49.6837081302541, -49.676930259429255, -49.672251051796586, -49.669005712587435, -49.666738303044674, -49.6651314168775, -49.663961661837114, -49.663071699997445, -49.662353082882184, -49.66173617702537, -49.66129496965511])","array('d', [0.5378491282463074, 0.41325608871746455, 0.31562199141006053, 0.23945814876407032, 0.18064546896161296, 0.13588227436878095, 0.10241787824934079, 0.07791483646247184, 0.06037416799991089, 0.04809272044955979, 0.03963734551609709, 0.03382816445623365, 0.02972712606135644, 0.026630071701058924, 0.024061509689873674, 0.021771756273145496])","array('d', [-0.022913280874490575, -0.015186004325998394, -0.010176407656071265, -0.006884428290787577, -0.004693859005606289, -0.0032198862834655418, -0.0022191120997069247, -0.0015356576105071535, -0.0010684091196353487, -0.0007508168251421497, -0.0005382384182139924, -0.0003998738367334865, -0.00031353593167680183, -0.0002622139166060901, -0.00023181783681626718, -0.00020975777474950983])","array('d', [0.3481862107899526, 0.3279970069278238, 0.3130506584538529, 0.3018925401430103, 0.2935442963680435, 0.2872955936571748, 0.28260855618488046, 0.2790687144548955, 0.2763568502701625, 0.27423064562664323, 0.272511039369585, 0.27107089727745104, 0.2698248644582696, 0.26871985707833485, 0.2677259159144916, 0.26660259445554624])",-117.69916134582951,-164.25767227812622,-49.6837081302541,0.13588227436878095,-0.0032198862834655418,0.2872955936571748,25.000000245931375,-1.0,"[-174.74760701410258, -121.0063801020304, 49.77394454848541]","[-165.09822256147686, -111.03205255015784, 55.46623491119365]","[-159.98166469506216, -123.0811506675257, 48.14229675213795]",10000000000.0,0.014115095138549805
11,0.9136850833892822,-175.71438598632812,-121.3913803100586,49.8129997253418,0.5158391594886779,0.020663933828473,0.34473057190445444,23.183516436909944,"array('d', [-121.3913803100586, -120.5704241912508, -119.78850037195645, -119.03561617374669, -118.30434328634237, -117.58910318752085, -116.8857205996501, -116.19110911691872, -115.5030298700104, -114.81989614908551, -114.14061133964722, -113.46443418509878, -112.79086844470147, -112.11957540829917, -111.4503083910872, -110.91653348747103])","array('d', [-175.71438598632812, -173.35345837465016, -170.9790810317572, -168.5952319534027, -166.20461740646002, -163.80913517097972, -161.41013403874118, -159.00857365423155, -156.60513115716896, -154.20027716040028, -151.79433259623858, -149.3875125267017, -146.9799601971732, -144.57177311816915, -142.16302215916545, -140.23556775282037])","array('d', [-49.8129997253418, -49.77020715393021, -49.74173610516569, -49.7226033686418, -49.70963956647697, -49.70079964161335, -49.69474455617433, -49.69058420617563, -49.68771754178577, -49.68573214719953, -49.68434074438285, -49.68334100294186, -49.6825903176537, -49.68199035384692, -49.68147801637608, -49.681112059681745])","array('d', [0.5158391594886779, 0.394065265147607, 0.2986885502880599, 0.22440943807497113, 0.16721098896803638, 0.12385223033006047, 0.09162154512377081, 0.06820865874626512, 0.05163498199149085, 0.04021373516123326, 0.03252558348635586, 0.02740262888366671, 0.023917283601057857, 0.02137443029016651, 0.019306181450473373, 0.017468956957940804])","array('d', [-0.020663933828473, -0.013688233368914872, -0.009164580873214976, -0.006191362489783502, -0.0042127347717196085, -0.0028814291404460767, -0.0019777197370603903, -0.0013608523938329557, -0.0009395084706019961, -0.0006535772570752128, -0.000462728777107337, -0.0003391263246694016, -0.00026269690406317207, -0.00021801945023878152, -0.00019227991218260997, -0.0001739821849144017])","array('d', [0.34473057190445444, 0.3255550197428748, 0.31141527827506327, 0.3009323329747419, 0.29316625136818203, 0.2874285019343629, 0.2831947724728957, 0.2800597782407839, 0.27771101751793315, 0.27591140409835485, 0.2744861416903328, 0.27331167382194205, 0.27230569658185344, 0.27141775345040337, 0.27062016669798744, 0.26971890603439225])",-117.58910318752085,-163.80913517097972,-49.70079964161335,0.12385223033006047,-0.0028814291404460767,0.2874285019343629,25.000000248522458,-1.0,"[-174.71953613102073, -120.99869296980086, 49.774450040831276]","[-165.06760030032063, -111.01894671372985, 55.45290047950594]","[-159.95412172108365, -123.07957790603179, 48.14581405173201]",10000000000.0,0.014266490936279297
12,0.931603193283081,-175.2707977294922,-121.2663803100586,49.818603515625,0.49201256036758406,0.018312089145183445,0.341056660809789,23.18780607235847,"array('d', [-121.2663803100586, -120.45275209564106, -119.67593048161915, -118.92628863230743, -118.19665419131822, -117.48164382644423, -116.77724029510803, -116.08049032836719, -115.38927003848504, -114.70209349639813, -114.01795319449704, -113.33618709953498, -112.6563697053305, -111.97822570210126, -111.30156544576256, -110.76143581979888])","array('d', [-175.2707977294922, -172.90724579999284, -170.53115425722655, -168.14626497100073, -165.7551409269788, -163.35958570842388, -160.96088191875427, -158.5599399233196, -156.15739826762803, -153.753696016373, -151.34912741855203, -148.94388439275693, -146.5380897700138, -144.13182287404194, -141.72513829540833, -139.79945476605997])","array('d', [-49.818603515625, -49.78069134191131, -49.75548938115544, -49.738577142939754, -49.72714190882515, -49.71936803710895, -49.71406625615686, -49.71044570714153, -49.70797211354399, -49.70627866746933, -49.70510967479168, -49.7042848936599, -49.70367717575766, -49.70319879975211, -49.70279352923788, -49.702504606058085])","array('d', [0.49201256036758406, 0.37324799047805574, 0.28029734434667014, 0.20805272138142733, 0.15260194527341972, 0.11076678945343367, 0.07987628982356684, 0.0576486478480952, 0.04212682525977331, 0.03164149611575823, 0.02478816680062772, 0.020411891394762217, 0.017596444300077126, 0.015656553500841035, 0.014132623067935519, 0.012787727324724914])","array('d', [-0.018312089145183445, -0.012122121887306091, -0.008106785454544007, -0.005467146569501323, -0.003710380079976333, -0.0025284446550234117, -0.0017263636667091055, -0.0011792042742055353, -0.0008058984041984874, -0.0005530761285662883, -0.00038492316592861835, -0.00027670700646715754, -0.00021057060249469656, -0.0001727609412105293, -0.0001518050547520152, -0.000137359209139824])","array('d', [0.341056660809789, 0.32295642905194727, 0.3096802747712594, 0.29992434728843415, 0.29278744159925035, 0.28760322818010126, 0.28386134146313097, 0.2811660388265346, 0.27921187179694085, 0.2777673038371758, 0.27666210050496143, 0.2757765560227647, 0.27503166403139195, 0.27437981499268116, 0.27379580690917027, 0.27313609544916767])",-117.48164382644423,-163.35958570842388,-49.71936803710895,0.11076678945343367,-0.0025284446550234117,0.28760322818010126,25.000000245922724,-1.0,"[-174.24736664617166, -120.86963072805749, 49.78313774164704]","[-164.55256048503588, -110.80080969364735, 55.22644339860069]","[-159.49097763037898, -123.05339586142101, 48.208287571980364]",10000000000.0,0.013656139373779297
13,0.9738695621490479,-173.9361114501953,-120.90077209472656,49.842960357666016,0.4131254255771635,0.010803183540701745,0.3299151221897939,23.19929055668106,"array('d', [-121.02117156982422, -120.22233771471562, -119.45557424808752, -118.7119977083258, -117.9849668875732, -117.26951008074097, -116.56194734551906, -115.85961197829393, -115.16062893514984, -114.46373109377473, -113.7681047117182, -113.07326011687013, -112.3789256798027, -111.68496395968312, -110.99130929739856, -110.43662924804401])","array('d', [-174.381591796875, -172.01284306092194, -169.6334165911235, -167.2465966865395, -164.85466414927453, -162.45923460356676, -160.06145699228392, -157.6621409758958, -155.26184527411985, -152.86094292273688, -150.4596717034079, -148.0581740746439, -145.6565288687611, -143.2547759286011, -140.85293428625695, -138.9313909357718])","array('d', [-49.83338928222656, -49.806006281551994, -49.787856941072484, -49.775732730352026, -49.76759010919452, -49.762108767360075, -49.75842311118057, -49.75595695242481, -49.75432055441397, -49.75324590230268, -49.75254576477882, -49.7520878145056, -49.75177845482951, -49.75155301100635, -49.7513701304112, -49.751241159066545])","array('d', [0.44034141302108765, 0.3279930370642081, 0.24026605983329685, 0.1724284773513026, 0.12077754085632543, 0.08226223194687397, 0.054295105633980746, 0.03465373827319573, 0.02142675858842769, 0.012982401003822497, 0.007948515145792423, 0.005198631887173575, 0.0038416353310986285, 0.003214052203729135, 0.0028746232519229076, 0.0026010669166468678])","array('d', [-0.013238724321126934, -0.00874312812449014, -0.005825154454558323, -0.003906264451454235, -0.0026291491988263897, -0.0017702559246478382, -0.0011879835624007166, -0.0007915569411926991, -0.0005220573419950691, -0.00034068993566384705, -0.0002214099137103032, -0.0001462048729784106, -0.00010201995803062479, -7.872372570295367e-05, -6.776358415533051e-05, -6.131534889771381e-05])","array('d', [0.3336096564915516, 0.3177700112844747, 0.30633386797511036, 0.2981397588584913, 0.29236143775029316, 0.2883762906610094, 0.2857018843804483, 0.2839619414023665, 0.28286567008031877, 0.28219325638976034, 0.281784223729173, 0.2815271729056458, 0.28135024578415874, 0.28121201802811396, 0.28109266894290486, 0.2809584892052786])",-117.26951008074097,-162.45923460356676,-49.762108767360075,0.08226223194687397,-0.0017702559246478382,0.2883762906610094,25.000000245913487,-1.0,"[-173.77639827182992, -120.74345803165149, 49.79314487738347]","[-164.0365866996544, -110.58338784894978, 54.9805377120444]","[-159.02984405406335, -123.03498065258395, 48.28051049319628]",10000000000.0,0.014090776443481445
14,0.9898929595947266,-173.9361114501953,-120.90077209472656,49.842960357666016,0.4131254255771635,0.010803183540701745,0.3299151221897939,23.19929055668106,"array('d', [-120.90077209472656, -120.10925759366386, -119.34736202254021, -118.60656844048673, -117.8805031664216, -117.16440530761523, -116.45476985842132, -115.74908007287026, -115.0455918921757, -114.34315377334805, -113.64105451168716, -112.93889570882462, -112.23648722103863, -111.5337645911841, -110.83072776410721, -110.26803793517838])","array('d', [-173.9361114501953, -171.56484928400505, -169.18383363626552, -166.79613644439488, -164.40390489103993, -162.00866411821633, -159.61149775537842, -157.21316553268565, -154.81418602276074, -152.41489860054438, -150.01551190711257, -147.61614260547702, -145.2168463762115, -142.81764213332713, -140.41852994113802, -138.4993166552169])","array('d', [-49.842960357666016, -49.82063128578297, -49.805864642037086, -49.79603367246108, -49.78946449065536, -49.785075073945194, -49.78215567722217, -49.78023355846329, -49.77898868855833, -49.77820073981073, -49.77771556147504, -49.77742400497674, -49.777248723114305, -49.77713621029685, -49.77705231861302, -49.7769944930946])","array('d', [0.4131254255771635, 0.3040908265509074, 0.2190891357490987, 0.1535658617717976, 0.10391894647293042, 0.06715932810021112, 0.04074075735611393, 0.022470537644497437, 0.01046055191537621, 0.0030984794608845444, -0.0009708543971386428, -0.0028588229442107907, -0.003443147075075181, -0.003375634470043945, -0.0030877281067340197, -0.002793892180637645])","array('d', [-0.010803183540701745, -0.007121735345192848, -0.004731524534664606, -0.0031594966884714594, -0.0021133075120067825, -0.0014099609202679107, -0.0009335052180567293, -0.0006095934258513565, -0.0003899663484231616, -0.00024284689973782506, -0.00014689641260477794, -8.734226579147786e-05, -5.3448635665809114e-05, -3.683870333045843e-05, -3.0382345965318735e-05, -2.749140282421685e-05])","array('d', [0.3299151221897939, 0.31523136918771016, 0.3047488481252039, 0.297371005688553, 0.2923065126330845, 0.28895348284851774, 0.28684297477300313, 0.2856083072008396, 0.284966064975389, 0.28470244122224353, 0.2846620290426032, 0.28473778536122546, 0.28486162167617046, 0.2849953845901173, 0.28512210197225674, 0.2852662289189472])",-117.16440530761523,-162.00866411821633,-49.785075073945194,0.06715932810021112,-0.0014099609202679107,0.28895348284851774,25.000000245909124,-1.0,"[-172.73378927308613, -120.47066317812174, 49.8203306387626]","[-162.89456371702747, -110.11367530342484, 54.3944363022102]","[-158.01020030237598, -123.00246704190134, 48.476493960839015]",10000000000.0,0.013497591018676758
15,1.0121879577636719,-173.49009704589844,-120.78167724609375,49.854148864746094,0.38531550765037514,0.008442070335149677,0.3263296643879751,23.202292119022193,"array('d', [-120.78167724609375, -119.9972332194039, -119.23993065978932, -118.50161122019972, -117.77616682519023, -117.05904828277485, -116.34692775179785, -115.63744123778588, -114.92897859418234, -114.22050667831711, -113.51141941813835, -112.80141201260564, -112.09037785565299, -111.37832727792315, -110.6653274180195, -110.09415198769075])","array('d', [-173.49009704589844, -171.11644125813785, -168.7339403517462, -166.3454674690429, -163.95304307010636, -161.558105535578, -159.16167521047484, -156.7644629346013, -154.36694755541447, -151.9694348081159, -149.57210395179035, -147.17504544312246, -144.77829129507793, -142.3818389167658, -139.98566879944389, -138.06896364551633])","array('d', [-49.854148864746094, -49.83671851133719, -49.82522855785569, -49.81761632441731, -49.812566636709, -49.80922887573674, -49.80704473892609, -49.80564206433133, -49.804768638460395, -49.80425055635885, -49.80396589515734, -49.803828107346064, -49.80377570403628, -49.80376608536278, -49.80377213162705, -49.80377890433945])","array('d', [0.38531550765037514, 0.2796264617406549, 0.19739414247083567, 0.13423249014395458, 0.08663608408449135, 0.051675850141665335, 0.026845799319821447, 0.009982620258182525, -0.00077852186854569, -0.007030243818613573, -0.010110352929768408, -0.01111467645030571, -0.01090708752179832, -0.010127314835782796, -0.00919664211482054, -0.008321466659213668])","array('d', [-0.008442070335149677, -0.005550566168693102, -0.003672755861267461, -0.002437644742094688, -0.001615817953436088, -0.0010636036595116027, -0.000689939467103757, -0.00043642931369128763, -0.00026516836484981283, -0.00015119855870316998, -7.775557582685735e-05, -3.321765311772987e-05, -9.107204097144361e-06, 1.2396599761280714e-06, 3.5586678158820766e-06, 3.219699198590755e-06])","array('d', [0.3263296643879751, 0.31280506910996725, 0.3032871001878968, 0.2967392888788582, 0.29240307916025826, 0.2896962826688583, 0.28816295565121924, 0.287445804386145, 0.2872687391577336, 0.28742399464311036, 0.28776130984495324, 0.28817808933977723, 0.2886101058561905, 0.2890225608162475, 0.28940140403605275, 0.2898306885801698])",-117.05904828277485,-161.558105535578,-49.80922887573674,0.051675850141665335,-0.0010636036595116027,0.2896962826688583,25.000000245905106,-1.0,"[-172.4731038649947, -120.40366098758483, 49.82819610818278]","[-162.60955503221035, -109.99996246280227, 54.241070616790054]","[-157.7554247822266, -122.99374062235606, 48.53150420098441]",10000000000.0,0.014035224914550781
16,1.0283806324005127,-173.0448760986328,-120.66373443603516,49.8681526184082,0.35706314444541914,0.006232469808310166,0.3228411237385608,23.20375641506971,"array('d', [-120.66373443603516, -119.88614632063047, -119.13320822395845, -118.39711046864056, -117.6720071134061, -116.95356036731444, -116.23862085520913, -115.52497938757624, -114.81116205040978, -114.09625641381801, -113.37976369882334, -112.66147464784073, -111.94136791146165, -111.21953011436332, -110.49609690888643, -109.91605078338515])","array('d', [-173.0448760986328, -170.6689326061446, -168.2850339093413, -165.8958684932647, -163.50333746746534, -161.10879652260923, -158.7132049995727, -156.31722606837207, -153.92129940570302, -151.5256972285705, -149.1305692518743, -146.73597937998372, -144.34193549694746, -141.9484129774574, -139.55537217421474, -137.64133276379744])","array('d', [-49.8681526184082, -49.855304302107264, -49.84687418400713, -49.84132848164117, -49.83768864960499, -49.83532139020359, -49.833810726796834, -49.83287909093913, -49.83233810176442, -49.83205759687793, -49.83194606209382, -49.83193831041186, -49.83198786612024, -49.832062464072386, -49.83214163320789, -49.83220084439094])","array('d', [0.35706314444541914, 0.25472749346551365, 0.1752894365522164, 0.1145212216732288, 0.06900917854350375, 0.035881627796776734, 0.012671438092612794, -0.0027560151136767712, -0.012242534897364562, -0.017360997167943606, -0.01943163032725493, -0.01953441213547306, -0.018519033925596316, -0.017012825604779618, -0.015426638691002723, -0.013958601185992021])","array('d', [-0.006232469808310166, -0.004082102777239975, -0.0026853063155502636, -0.0017665854229785604, -0.0011554757773699648, -0.0007451766282773821, -0.00046797838137889924, -0.0002804585204386129, -0.00015443513960436978, -7.135471471496232e-05, -1.8750652050540137e-05, 1.2035728722196758e-05, 2.7353310346236943e-05, 3.2243474060432825e-05, 3.111073227604924e-05, 2.8149840295503312e-05])","array('d', [0.3228411237385608, 0.31047370243184524, 0.30192680468481725, 0.2962190891680618, 0.29262247197067276, 0.2905733083102997, 0.2896280681992405, 0.28943857167820103, 0.2897359560802794, 0.29031849671275534, 0.29104112770940554, 0.2918057718573113, 0.2925521381799501, 0.2932488536057508, 0.29388485254659874, 0.29460497675586494])",-116.95356036731444,-161.10879652260923,-49.83532139020359,0.035881627796776734,-0.0007451766282773821,0.2905733083102997,25.000000245901337,-1.0,"[-171.9771098864335, -120.27753871888372, 49.84504639595289]","[-162.06870858234117, -109.78806268894867, 53.94315281410257]","[-157.27063241088064, -122.97461080945357, 48.64283077497404]",10000000000.0,0.01330423355102539
17,1.070955753326416,-172.1531524658203,-120.4306640625,49.90126037597656,0.30072256922721846,0.0021725082769988844,0.31618888775375864,23.204852511552893,"array('d', [-120.4306640625, -119.666122786771, -118.9213279578914, -118.18912070120163, -117.46415567304767, -116.74250620977273, -116.02137476606624, -115.29886023586567, -114.57376148002737, -113.84540862683401, -113.1135188691466, -112.37807537912562, -111.63922848973078, -110.89721837214502, -110.15231846558181, -109.55404961757459])","array('d', [-172.1531524658203, -169.77294203131422, -167.38646999147326, -164.99610172588083, -162.60352528223228, -160.20994608342482, -157.81621063765377, -155.42289234447523, -153.0303558042472, -150.63880794850027, -148.24834014771116, -145.85896327558143, -143.47063658927715, -141.08329073567108, -138.69684494408878, -136.7884228582126])","array('d', [-49.90126037597656, -49.896826612211754, -49.89400550907119, -49.892236746594904, -49.89116217892692, -49.8905494694348, -49.89024548674297, -49.8901475140896, -49.890185276324, -49.890309639272054, -49.89048549970665, -49.89068736593375, -49.890896711892886, -49.89110053184743, -49.89129071997385, -49.89142934649759])","array('d', [0.30072256922721846, 0.2049214905222228, 0.1309834537236642, 0.07495997536364624, 0.03360108843428224, 0.004138380181096, -0.01582458798377909, -0.028369370841324605, -0.03529426762896904, -0.03813409204151122, -0.03817459919791933, -0.03646429879327465, -0.03382449181462626, -0.030857561953899264, -0.02795331913661452, -0.025293211403911556])","array('d', [-0.0021725082769988844, -0.0013875985085742822, -0.0008777891207754161, -0.0005428091046107512, -0.00032055272841084124, -0.00017209149478778654, -7.27518402161914e-05, -6.727695935634095e-06, 3.6221013160749635e-05, 6.282552805530387e-05, 7.7616082448992e-05, 8.377416867567396e-05, 8.370377154497039e-05, 7.94235925917405e-05, 7.283678826789039e-05, 6.590534742570859e-05])","array('d', [0.31618888775375864, 0.30607635784380466, 0.2994449891914081, 0.2954074926175955, 0.29328870081781117, 0.2925577573615226, 0.2927935851432562, 0.2936649311138712, 0.29491670758489297, 0.2963589513466465, 0.2978568680617344, 0.2993214032516968, 0.30070017309219754, 0.3019687064568199, 0.3031219580564076, 0.30442704934891535])",-116.74250620977273,-160.20994608342482,-49.8905494694348,0.004138380181096,-0.00017209149478778654,0.2925577573615226,25.000000248510855,-1.0,"[-171.52476156810937, -120.1634707374349, 49.86305274402495]","[-161.57685208205555, -109.60120913674305, 53.66801355010838]","[-156.82848042751505, -122.95318770470188, 48.750937696399745]",10000000000.0,0.013743877410888672
18,1.095118522644043,-171.7068634033203,-120.3152084350586,49.9203987121582,0.2732287645339964,0.00023845702526152876,0.3129711906102039,23.20467350779906,"array('d', [-120.3152084350586, -119.55700718073777, -118.81618451738622, -118.08587845203677, -117.3609774507412, -116.63775055133799, -115.91357009660796, -115.18668525182821, -114.4560288156037, -113.72105050449211, -112.98157423151585, -112.23767834986566, -111.48959812444967, -110.73764965898883, -109.98217448779177, -109.37492929008687])","array('d', [-171.7068634033203, -169.3246193669261, -166.936908321325, -164.54595719516954, -162.15336082476773, -159.76025764715408, -157.36744291647162, -154.97544846857508, -152.5846035012716, -150.19508365461382, -147.80695195179885, -145.4201932198221, -143.03474262778366, -140.65050851604317, -138.2673894923973, -136.36180464561681])","array('d', [-49.9203987121582, -49.919971310855544, -49.919816164549296, -49.91983738490465, -49.91997322438809, -49.92018312435481, -49.92043979098033, -49.920724290307554, -49.921022989761504, -49.92132565644046, -49.921624305325054, -49.92191255746789, -49.92218536590988, -49.92243902140369, -49.92267137538155, -49.922840052888475])","array('d', [0.2732287645339964, 0.18052921657551443, 0.10922922413783165, 0.055499569138797514, 0.016160627652778297, -0.011511486879335866, -0.029882495996138087, -0.04101052021650501, -0.04667420963211513, -0.048390779887862355, -0.047429728282220925, -0.04482450001504981, -0.041382658742259625, -0.037694426286415984, -0.034139299390940424, -0.030890518311363926])","array('d', [-0.00023845702526152876, -0.00010567901698182331, -1.9869500505256434e-05, 3.5915185001896314e-05, 7.215190018473966e-05, 9.538057128348624e-05, 0.00010971362367274786, 0.0001177517445746487, 0.00012115110876037411, 0.00012098500375813361, 0.00011798416242340037, 0.00011270560733552496, 0.00010565870167902749, 9.74034077414416e-05, 8.862619734559553e-05, 8.019198361404372e-05])","array('d', [0.3129711906102039, 0.3039375793518735, 0.2982337492622103, 0.29501135940402723, 0.2936174942090835, 0.29353532924038456, 0.29435363354855454, 0.2957487985826417, 0.2974721380161599, 0.2993392826172894, 0.3012204056057946, 0.3030308649010371, 0.3047221706723794, 0.30627326477307715, 0.3076820852098407, 0.30927617436628785])",-116.63775055133799,-159.76025764715408,-49.92018312435481,-0.011511486879335866,9.538057128348624e-05,0.29353532924038456,25.000000245891435,-1.0,"[-170.7275147751255, -119.96424519993693, 49.89800161612451]","[-160.71322452059815, -109.29144826011441, 53.185157861177814]","[-156.04903589496737, -122.90506818069137, 48.95258215333676]",10000000000.0,0.013038873672485352
19,1.1290678977966309,-170.8136749267578,-120.08574676513672,49.9641227722168,0.219770774245262,-0.0031793215312064995,0.3068042556431634,23.203502583479708,"array('d', [-120.20027923583984, -119.44812255784794, -118.71102975823693, -117.98241966388755, -117.25740519765652, -116.5324454645158, -115.80507919341589, -115.07370354442891, -114.33738366859798, -113.5956876641218, -112.84854515926249, -112.0961287903334, -111.33875791685178, -110.5768237787003, -109.81073524399854, -109.19449082901609])","array('d', [-171.26036071777344, -168.87620162639033, -166.48733661955643, -164.09586822185491, -161.70330639330734, -159.3107278024271, -156.9188798152956, -154.52825490273798, -152.139148294596, -149.75170526374473, -147.3659610663796, -144.98187482990977, -142.59935782341535, -140.21829615891127, -137.83856782314635, -135.93587414450872])","array('d', [-49.94145202636719, -49.94477927533792, -49.947117996076564, -49.948808756396396, -49.95006861665888, -49.95103755735139, -49.95180683032824, -49.95243648367301, -49.952966323350275, -49.95342285343076, -49.953823731177984, -49.954180678426695, -49.95450143408877, -49.95479111537404, -49.95505321973107, -49.95524297317407])","array('d', [0.24620196223258953, 0.156507284718681, 0.08777879512282394, 0.036295105323476504, -0.0010596056025880896, -0.026968732962033875, -0.04376987006007118, -0.053499388557227835, -0.05791738730700904, -0.05852419583485037, -0.056573514055144686, -0.053084022120965635, -0.048849745017319084, -0.044448879896359254, -0.04025071137527626, -0.036420353052549925])","array('d', [0.0015751450555399993, 0.0010946701839169445, 0.0007815304631969515, 0.0005745310473212272, 0.00043567361470424923, 0.00034105733927557115, 0.0002754554167204741, 0.00022904153554908165, 0.00019539155409869672, 0.00017025188857972456, 0.00015077521732719795, 0.0001350449916568879, 0.00012178080972419567, 0.0001101581075495336, 9.969984336030764e-05, 9.021184001530621e-05])","array('d', [0.30989666382339986, 0.30191192241889103, 0.29711595120494966, 0.2946948663635671, 0.2940156236358477, 0.2945740883144979, 0.29596809749113306, 0.2978812336260309, 0.3000709490140008, 0.30235831703325816, 0.30461839050448003, 0.3067708865101517, 0.3087711740245712, 0.3106015814491485, 0.31226300754148184, 0.31414271959753143])",-116.5324454645158,-159.3107278024271,-49.95103755735139,-0.026968732962033875,0.00034105733927557115,0.2945740883144979,25.000000245887836,-1.0,"[-169.3837267618191, -119.63272855085287, 49.9688917464794]","[-159.2651034639198, -108.83302740141701, 52.41427875840261]","[-154.73492132108132, -122.79178047972557, 49.31094792661578]",10000000000.0,0.019838809967041016
20,1.1467006206512451,-170.8136749267578,-120.08574676513672,49.9641227722168,0.219770774245262,-0.0031793215312064995,0.3068042556431634,23.203502583479708,"array('d', [-120.08574676513672, -119.33972503319553, -118.60651215784584, -117.87978989335605, -117.15488465894613, -116.42843869220515, -115.69815261323045, -114.96256858414334, -114.22088204180486, -113.47277796713198, -112.71829055029073, -111.95768576678122, -111.19136625378026, -110.4197976484416, -109.64345546404465, -109.0185067015284])","array('d', [-170.8136749267578, -168.42759438504038, -166.03753800431537, -163.6454963975226, -161.25290213881104, -158.86077486121505, -156.46981712953672, -154.08048409564506, -151.69303838513164, -149.30759581046655, -146.9241644577911, -144.54267813961755, -142.16302446228224, -139.78506744226644, -137.40866450212397, -135.50881216881817])","array('d', [-49.9641227722168, -49.97076805356151, -49.97530443473788, -49.97845999433657, -49.980699588039094, -49.9823237953274, -49.98352940750161, -49.98444685068882, -49.98516359882251, -49.985738972238174, -49.986213576770055, -49.986615370765655, -49.98696358912812, -49.987271295950144, -49.98754705952342, -49.98774627122438])","array('d', [0.219770774245262, 0.13295010663300758, 0.06669903976849684, 0.017391862320361464, -0.018030828739162768, -0.04221679695920908, -0.05747886659827269, -0.06583405013886658, -0.06902562462906316, -0.06853829969564214, -0.06561091271417946, -0.06124807175972462, -0.05623077461224179, -0.051125563814639605, -0.0462917666708201, -0.0418865264232923])","array('d', [0.0031793215312064995, 0.0021540141554776955, 0.001486232733041839, 0.001045566797193756, 0.0007510219872927905, 0.0005516695202791186, 0.00041509852395723554, 0.0003204352080394953, 0.00025407039854886065, 0.00020701333921360505, 0.0001732337952039269, 0.00014861213822740262, 0.00013026855807592521, 0.00011613271308072125, 0.0001046693781085718, 9.470845516526571e-05])","array('d', [0.3068042556431634, 0.29983598163193015, 0.29592624462014994, 0.2942912385835417, 0.29431537036366584, 0.2955057676947467, 0.2974684643126913, 0.29989369347124145, 0.302544709391253, 0.3052478177174752, 0.3078828189319772, 0.31037370579183415, 0.3126796523555099, 0.3147863379031713, 0.31669759679573545, 0.3188597690901032])",-116.42843869220515,-158.86077486121505,-49.9823237953274,-0.04221679695920908,0.0005516695202791186,0.2955057676947467,25.000000245884806,-1.0,"[-169.3837267618191, -119.63272855085287, 49.9688917464794]","[-159.2651034639198, -108.83302740141701, 52.41427875840261]","[-154.73492132108132, -122.79178047972557, 49.31094792661578]",10000000000.0,0.01453542709350586
21,1.1728084087371826,-169.92010498046875,-119.85729217529297,50.01401138305664,0.16963027417659748,-0.005378089845180622,0.30064459244278463,23.19860785922358,"array('d', [-119.85729217529297, -119.1236534091719, -118.3985602957655, -117.67616299620154, -116.95217746142954, -116.22358656773373, -115.48839643670654, -114.74542564571597, -113.99411967580328, -113.23438878737733, -112.4664692055736, -111.69080748035843, -110.90796741683633, -110.11855859782467, -109.32318539828645, -108.68204795463284])","array('d', [-169.92010498046875, -167.5302026361797, -165.13767680853317, -162.74432861328486, -160.3514576443602, -157.95998397232822, -155.57053053878153, -153.18348488947652, -150.79904949980005, -148.41728497421715, -146.0381478405999, -143.66152340798547, -141.2872536104965, -138.9151595741025, -136.54505862057715, -134.65060838316322])","array('d', [-50.01401138305664, -50.02518946578083, -50.0326980984946, -50.037804432740614, -50.04131873315187, -50.0437658669964, -50.04549031381574, -50.0467212240236, -50.04761315867805, -50.048271835373384, -50.04877050674238, -50.04916040442998, -50.04947736864034, -50.049745994247026, -50.04998215174572, -50.050152000543314])","array('d', [0.16963027417659748, 0.08807853172635934, 0.026418420408576632, -0.018819523510857722, -0.05060373361876207, -0.07152537985334514, -0.08385808484099934, -0.08958767227943572, -0.09042939830710488, -0.08784101721174392, -0.08303495854764226, -0.0769902790776566, -0.07046394705741754, -0.06400075107765252, -0.05794124936370376, -0.05242741521901336])","array('d', [0.005378089845180622, 0.0035941666275443067, 0.0024321338757352607, 0.0016657217030394914, 0.0011542518899960712, 0.0008092114503947866, 0.000574265470929698, 0.0004131504460537811, 0.0003022473702592511, 0.00022596650397600448, 0.00017384016141786256, 0.0001386647826040982, 0.00011529641533094824, 9.98615535285602e-05, 8.924160792331268e-05, 8.074883640219075e-05])","array('d', [0.30064459244278463, 0.29558443469997653, 0.29335507673681965, 0.2932207668852723, 0.29459392946762647, 0.29700004696287985, 0.30005891928651773, 0.3034723808429146, 0.30701416273037513, 0.31052026890244233, 0.313879458953488, 0.31702388995377756, 0.3199200578366898, 0.3225601217206198, 0.3249536095623242, 0.3276608957907032])",-116.22358656773373,-157.95998397232822,-50.0437658669964,-0.07152537985334514,0.0008092114503947866,0.29700004696287985,25.000000245877533,-1.0,"[-169.1582381283805, -119.57749030644598, 49.98222771856772]","[-159.02237401776227, -108.764364050938, 52.29319273637428]","[-154.5145095151623, -122.76852190638107, 49.36698010123803]",10000000000.0,0.014026165008544922
