,x_pos,y_pos,z_pos,roll,pitch,yaw,vel,x_traj,y_traj,z_traj,roll_traj,pitch_traj,yaw_traj,x_cmd,y_cmd,z_cmd,roll_cmd,pitch_cmd,yaw_cmd,vel_cmd,effector_dmg,effector_x,effector_y,effector_z,cost,time_solution
0,-127.83917999267578,-45.31288528442383,44.910301208496094,0.6315896511077881,0.031026912853121678,0.31171794334915653,23.08869722174694,"array('d', [-48.21380615234375, -47.252700351490645, -46.34306352323382, -45.474242021781045, -44.638196364779944, -43.82874667520754, -43.0411034672423, -42.27154599353736, -41.51718458808748, -40.77577533152031, -40.045570647872935, -39.325197191876136, -38.61355642534952, -37.90974542023985, -37.21299658148837, -36.66129065810981])","array('d', [-137.03518676757812, -134.7285443395577, -132.40027422992122, -130.05619010611682, -127.70014883432943, -125.33484077114973, -122.96220327751337, -120.58365936082488, -118.20026758401673, -115.81282308543022, -113.42192942097226, -111.02805154315098, -108.6315555665596, -106.23273852857619, -103.83185002491165, -101.90935650007677])","array('d', [-44.88731002807617, -44.815244211864524, -44.77708536001436, -44.76076278316556, -44.75862350905096, -44.76572650231517, -44.77881187833467, -44.795671281208136, -44.814759905425845, -44.8349568355966, -44.85541886681653, -44.87549546931425, -44.89468568070939, -44.912625149557115, -44.92909539185705, -44.94105883679444])","array('d', [0.6340234875679015, 0.5132455185561351, 0.41666720647267746, 0.33938966932270803, 0.2777690483953595, 0.22891152325318997, 0.19042551669490385, 0.16028990787863023, 0.13678012110309803, 0.11842499355312221, 0.10398073785020379, 0.09241477229791957, 0.08289553090422264, 0.07478615812634681, 0.06764096849407569, 0.06120408482731594])","array('d', [-0.03726530820131284, -0.020672794838731533, -0.010033108282228927, -0.003140061745648421, 0.0013536762592125026, 0.00427991251203479, 0.00615712194700371, 0.007311250048558771, 0.007949156276168668, 0.00820430708641334, 0.00816613725616812, 0.007899760962528877, 0.007459896712081037, 0.006901123046875341, 0.00628543707617851, 0.005687298849305324])","array('d', [0.4080264131214958, 0.38268511450075726, 0.3630211695637827, 0.3474581043305467, 0.3349677270030115, 0.3248232680717624, 0.31648524047840176, 0.3095424219811172, 0.30367825155919953, 0.2986497352944356, 0.2942727676862319, 0.2904108329715659, 0.2869655217833739, 0.2838680346432214, 0.2810712194963858, 0.2779097497217295])",-43.82874667520754,-125.33484077114973,-44.76572650231517,0.22891152325318997,0.00427991251203479,0.3248232680717624,25.00000024612404,-1.0,"[-126.41215500784013, -44.85306533961708, 44.863768306021285]","[-116.3528558448461, -35.691760580594114, 51.17890848353839]","[-111.75465639677861, -47.1304195446935, 42.634106382914865]",10000000000.0,0.013404607772827148
1,-127.39444732666016,-45.19696807861328,44.91242599487305,0.6314147114753721,0.03141062334179866,0.3073007623341421,23.087560676359136,"array('d', [-46.71894073486328, -45.8651137869241, -45.062953922166486, -44.300977802294234, -43.57066858931195, -42.86556924864386, -42.18074219286274, -41.51240816768753, -40.857682925006074, -40.21437301666668, -39.58081150684974, -38.95572383394554, -38.33811877003175, -37.72720182770325, -37.122309716558824, -36.64325077413222])","array('d', [-132.69024658203125, -130.34147373254103, -127.97391659066375, -125.59292466755932, -123.2019907162005, -120.80351368091806, -118.39919366424776, -115.99025803149001, -113.57760237483984, -111.16188484314304, -108.74359283311887, -106.32309194397264, -103.90066257960468, -101.47652722116293, -99.05087011415169, -97.10900255743849])","array('d', [-44.89188003540039, -44.83027711436797, -44.79912621888019, -44.787633498534625, -44.78893177442718, -44.79856788643614, -44.8135878137033, -44.831976905676214, -44.852314323006965, -44.873559375676244, -44.89492143351973, -44.91578493580741, -44.935672584371524, -44.95423632456605, -44.97126901975282, -44.98363926233064])","array('d', [0.6346656680107114, 0.5061457979693854, 0.4043734250439515, 0.32372654876771967, 0.26010257521144176, 0.2102791994764589, 0.17161044863967892, 0.1418690254553914, 0.11915978069433274, 0.1018701187938329, 0.08864041853064406, 0.0783457215763062, 0.07008410048511843, 0.06316930749835244, 0.0571264647312284, 0.05169016752920302])","array('d', [-0.03221065923571576, -0.017325439756773503, -0.0077556602964273455, -0.00154221589953017, 0.0025131851553827976, 0.005151709850293653, 0.006836204825897165, 0.007858153769589456, 0.008402872599259191, 0.008590248169856053, 0.008501093198161978, 0.008195008387656601, 0.007723149813107225, 0.007137744622221337, 0.006499169764815589, 0.005880692200817985])","array('d', [0.3618469993260245, 0.3366829656221283, 0.3174932908789531, 0.30256242352536045, 0.2907891872225478, 0.2814014580070511, 0.2738285187262764, 0.267636691571114, 0.2624933623412237, 0.2581446322577786, 0.2543997834538627, 0.25111924479770614, 0.24820439548987147, 0.24558835094539497, 0.24322727531770913, 0.24055830268537157])",-42.86556924864386,-120.80351368091806,-44.79856788643614,0.2102791994764589,0.005151709850293653,0.2814014580070511,25.00000024605432,-1.0,"[-126.41215500784013, -44.85306533961708, 44.863768306021285]","[-116.3528558448461, -35.691760580594114, 51.17890848353839]","[-111.75465639677861, -47.1304195446935, 42.634106382914865]",10000000000.0,0.014982223510742188
2,-126.95021057128906,-45.08306121826172,44.914588928222656,0.6312956809997557,0.031736917793750756,0.30295164982346084,23.08566330693199,"array('d', [-45.795997619628906, -45.018196447101516, -44.291807850324204, -43.604872203583454, -42.94860133379054, -42.316385271928986, -41.70321163628478, -41.1052817841093, -40.51973216795151, -39.944418425315675, -39.37774156652145, -38.81850598090796, -38.2658040423102, -37.7189246089973, -37.17728399433497, -36.74819239891034])","array('d', [-129.61195373535156, -127.2368261156085, -124.84490108058257, -122.44117577751099, -120.02886824248169, -117.61016074190941, -115.18658052320531, -112.75921573669372, -110.32884885891752, -107.89604527765876, -105.46121553746656, -103.02466083482891, -100.58660693226868, -98.14722935700594, -95.70667151117829, -93.75316418515888])","array('d', [-44.90287399291992, -44.84491651068871, -44.81621427696829, -44.806438272488734, -44.8089993346941, -44.81961117773703, -44.83542029736125, -44.854472754412456, -44.87538444996374, -44.897136985883286, -44.91895336127641, -44.94022653423937, -44.96048480830463, -44.97938415657869, -44.99672068933797, -45.0093108686506])","array('d', [0.6323006153106688, 0.49890829864956276, 0.39390754828778307, 0.31121147432807694, 0.24642442315187782, 0.19611328352759352, 0.15746722831062365, 0.12812392846652443, 0.10607550933153777, 0.0896153049696196, 0.077306361893106, 0.06796197393346824, 0.0606332402410478, 0.054601089057629754, 0.04937148238572331, 0.044673168691412295])","array('d', [-0.030447956174611927, -0.016160917438443043, -0.006955028232329705, -0.0009657206556572451, 0.002949262319725151, 0.005497726364381997, 0.007122549609320384, 0.008103204758137575, 0.008617762941367674, 0.008781749605233124, 0.008673379895308487, 0.00835074594743592, 0.007864167773585711, 0.007265442871978022, 0.006614749486183411, 0.005985273080926615])","array('d', [0.32953639427689113, 0.30463641776310674, 0.285875768376881, 0.27145946201148907, 0.2602447021924607, 0.25143291641444876, 0.2444346257122884, 0.23880231681456998, 0.23419333124009548, 0.23034692892966918, 0.22706831536901023, 0.22421618146134936, 0.2216920579626636, 0.21943062923355414, 0.21739055931412649, 0.2150844707360323])",-42.316385271928986,-117.61016074190941,-44.81961117773703,0.19611328352759352,0.005497726364381997,0.25143291641444876,25.00000024599767,-1.0,"[-125.51924144776433, -44.635778470534966, 44.86699154273898]","[-115.36309905636243, -35.538148788524566, 51.1188637338968]","[-110.89027157909491, -47.01185208614008, 42.5545221365008]",10000000000.0,0.03859400749206543
3,-126.05988311767578,-44.86092758178711,44.91856002807617,0.6309595108032227,0.03192432597279539,0.29414422909286997,23.081955012337076,"array('d', [-45.67225646972656, -44.90520848860415, -44.18954459264069, -43.51323755840915, -42.86746037716742, -42.245580894322, -41.64257558001997, -41.05464250689798, -40.47892055835157, -39.91327186789119, -39.35610665792702, -38.80624012977891, -38.26277616453528, -37.72501512343316, -37.192384320743194, -36.77041273975556])","array('d', [-129.1697235107422, -126.7910954297684, -124.39593755719314, -121.98919950897185, -119.57406155197404, -117.15267597698816, -114.72654614688896, -112.29674108684134, -109.86402786815663, -107.42895937554971, -104.9919359073634, -102.55325016296138, -100.11312076028082, -97.67171712866613, -95.22917738771828, -93.27411972321806])","array('d', [-44.90461730957031, -44.846892909538724, -44.81834817530864, -44.80868719511691, -44.81133937476972, -44.82202865196039, -44.83790699070437, -44.85702323373726, -44.87799456978908, -44.89980308403706, -44.921671857508166, -44.94299376734278, -44.963297015820224, -44.9822375386546, -44.99961151874491, -45.0122288391241])","array('d', [0.6320989727973938, 0.49800581074781786, 0.3925382121222796, 0.3095426922990725, 0.2445820442840197, 0.19419339826046644, 0.15554267153471532, 0.12624846277540958, 0.10428694492902657, 0.08793811366617199, 0.07575403109823901, 0.06653920585297375, 0.05933804177293988, 0.053426776185872014, 0.04830861739254367, 0.04371144858929409])","array('d', [-0.03033491224050514, -0.016086792681962652, -0.006902779368968101, -0.0009257444746438924, 0.0029822959923787324, 0.005526708173347963, 0.007148986659780173, 0.008127828231509985, 0.008640878691033374, 0.008803441959592066, 0.008693631632304572, 0.008369509937694112, 0.00788140988098529, 0.007281166678628742, 0.006629008687018969, 0.0059981755363609866])","array('d', [0.3249992887165882, 0.3001295206441315, 0.281423663142006, 0.26707505975439055, 0.25593484549467743, 0.2472006029100068, 0.24028012412635874, 0.23472387761328933, 0.2301877321334594, 0.22640993565951378, 0.22319507961549293, 0.22040157759944198, 0.2179309553155525, 0.21571809661300514, 0.21372199994666294, 0.21146562778474254])",-42.245580894322,-117.15267597698816,-44.82202865196039,0.19419339826046644,0.005526708173347963,0.2472006029100068,25.000000248544886,-1.0,"[-124.62503870020933, -44.42626775991034, 44.87068167272217]","[-114.37222064955084, -35.39619965392791, 51.06241745692762]","[-110.02562243078313, -46.90604089551847, 42.48158774657988]",10000000000.0,0.012672901153564453
4,-125.61381530761719,-44.75273132324219,44.92042541503906,0.6304364800453185,0.0318593196570872,0.2894957820561272,23.081500036461065,"array('d', [-45.430728912353516, -44.684691387511904, -43.99004087306822, -43.33461970513911, -42.709515248608255, -42.108044641687016, -41.52515679512424, -40.95703870007055, -40.40083014618845, -39.85440274154706, -39.316181977850725, -38.78500183727918, -38.259986647127434, -37.74045745189626, -37.22586146627968, -36.81815843135953])","array('d', [-128.28330993652344, -125.89802762900383, -123.49669722687541, -121.08418878594259, -118.6636173124125, -116.23708090775501, -113.80603878822424, -111.37152426838466, -108.93427555849632, -106.4948221354486, -104.05354517277338, -101.61072157495585, -99.16655673539888, -96.72120883665767, -94.27480627972527, -92.31672329279439])","array('d', [-44.90837478637695, -44.849879317083264, -44.82082006536628, -44.81082501441305, -44.81327042770433, -44.82384261703181, -44.83966658271474, -44.858771627165034, -44.87976063360016, -44.901605132031, -44.923520395883536, -44.94489357226789, -44.96524877017459, -44.984239182464684, -45.001659413086486, -45.01431039348243])","array('d', [0.6317824721336364, 0.49692004294941966, 0.39044537883615166, 0.3067884152253336, 0.24142543500616262, 0.19083230915917956, 0.15212746765926358, 0.12289076264988026, 0.1010660474878097, 0.08490631997525139, 0.0729413992660597, 0.06395797370215556, 0.056986820972298624, 0.05129457207454161, 0.04637871447612368, 0.04196520005811834])","array('d', [-0.03070497512817372, -0.016335783700209335, -0.007066849300297247, -0.001029932804244765, 0.0029203661136777714, 0.005494471600849326, 0.007137379796918613, 0.00813024209209795, 0.008652448897739027, 0.008820567525747159, 0.008713651516875288, 0.008390488794060957, 0.007901998458217293, 0.007300511570057687, 0.0066466928361028224, 0.006014176621777254])","array('d', [0.3161648074772693, 0.29133341256258527, 0.27270411466342104, 0.25846339827980597, 0.2474485356171181, 0.23884849344392228, 0.2320650528980916, 0.22664428287625796, 0.22223884731238783, 0.21858477110738234, 0.21548525570557514, 0.2127980230961948, 0.21042446979842852, 0.20829977344420247, 0.20638350753262727, 0.20421739637741068])",-42.108044641687016,-116.23708090775501,-44.82384261703181,0.19083230915917956,0.005494471600849326,0.23884849344392228,25.0000002459715,-1.0,"[-124.62503870020933, -44.42626775991034, 44.87068167272217]","[-114.37222064955084, -35.39619965392791, 51.06241745692762]","[-110.02562243078313, -46.90604089551847, 42.48158774657988]",10000000000.0,0.016663074493408203
5,-125.16712188720703,-44.64649200439453,44.92196273803711,0.6287046074867249,0.03171617910265911,0.28487570683029695,23.08242794165263,"array('d', [-45.31288528442383, -44.5774542438276, -43.89344478923672, -43.248634613130484, -42.63406204442977, -42.04301443192459, -41.470423553416225, -40.912468224954445, -40.36628656538008, -39.82975317538746, -39.30129972636488, -38.779768360178174, -38.26429257079012, -37.754202823565514, -37.248955468752264, -36.84865795191479])","array('d', [-127.83917999267578, -125.45062296167367, -123.04624538582756, -120.63088040891239, -118.20761324337332, -115.77851638735531, -113.3450278692947, -110.90816375393791, -108.46864829452116, -106.02699967255019, -103.58358987134108, -101.1386882440403, -98.69249389355316, -96.2451596748567, -93.7968093971286, -91.83719901880339])","array('d', [-44.910301208496094, -44.85113565669948, -44.82162776226481, -44.81133529545779, -44.813587438094494, -44.824038413508816, -44.8397910164918, -44.85885895815323, -44.87983402442673, -44.90167975480903, -44.92360562873278, -44.944994600590775, -44.96536780212712, -44.98437641708993, -45.00181385056027, -45.01447740190769])","array('d', [0.6315896511077881, 0.49674555881260146, 0.38971162857441966, 0.3056797318522625, 0.24007957822547354, 0.18935444404131468, 0.15059770837721573, 0.12136889685547916, 0.09959495975743927, 0.08351479137516782, 0.07164658745559684, 0.06276770847498842, 0.05590177607226372, 0.0503103450971372, 0.04548783740060728, 0.04115910107233301])","array('d', [-0.031026912853121678, -0.016551837539252264, -0.007210937412914408, -0.0011246042715821962, 0.00285985111121797, 0.005457619881467166, 0.007116867663478247, 0.008120885053428901, 0.00865052934766602, 0.008823393510835425, 0.008719267373940728, 0.008397486721702848, 0.00790939722510626, 0.007307679217717452, 0.006653297199041584, 0.006020152497021791])","array('d', [0.31171794334915653, 0.28689666743686487, 0.26828922128237287, 0.25408948186298114, 0.24312662695679066, 0.23458467764792787, 0.22786201739119055, 0.2225022520648872, 0.21815625484297307, 0.21455879846110718, 0.2115122816912506, 0.2088739971843779, 0.2065452116498874, 0.2044611983907449, 0.20258177767330302, 0.2004573275862604])",-42.04301443192459,-115.77851638735531,-44.824038413508816,0.18935444404131468,0.005457619881467166,0.23458467764792787,25.000000245962422,-1.0,"[-124.17696292649399, -44.32474508410683, 44.87264451957493]","[-113.87338748676225, -35.329492519938135, 51.03070951310769]","[-109.59352509540865, -46.86144466935854, 42.446022125988975]",10000000000.0,0.017910242080688477
6,-124.71979522705078,-44.54224395751953,44.92352294921875,0.6251042485237119,0.03133089840412134,0.2802160541203358,23.084374912892326,"array('d', [-45.19696807861328, -44.47208904840061, -43.79866614248612, -43.1644130566643, -42.56031946227052, -41.979643113068626, -41.417298738643744, -40.8694569961363, -40.33325430595421, -39.80656820602886, -39.28783647527142, -38.77590933418758, -38.26992935926235, -37.76923635368154, -37.27329572411064, -36.880370873438274])","array('d', [-127.39444732666016, -125.00268708173999, -122.59532967313726, -120.17717254693552, -117.75127157143683, -115.3196738753727, -112.88379645986755, -110.44463828125085, -108.00290977635353, -105.55911797488022, -103.11362581465796, -100.66669523984724, -98.21851919927622, -95.76924534789413, -93.31899301936228, -91.35789107513769])","array('d', [-44.91242599487305, -44.85246166455227, -44.82241798602608, -44.81176821254982, -44.81378530441413, -44.82408547410886, -44.839745418403716, -44.85876066200776, -44.879710138823825, -44.901548195197066, -44.92347768264889, -44.944876780315326, -44.96526323636651, -44.98428594738334, -45.001736939496524, -45.01441043458708])","array('d', [0.6314147114753721, 0.49658725786685476, 0.38899621011760005, 0.30459051211692656, 0.2387535213845897, 0.18789612405506542, 0.14908681756832773, 0.11986493645086052, 0.09814063492775378, 0.08213878784666884, 0.07036603300623116, 0.061590452949862255, 0.05482854969232272, 0.049336826109483256, 0.044606651121954166, 0.040361770683978185])","array('d', [-0.03141062334179866, -0.016809447934143212, -0.007383408174658926, -0.0012389516632578207, 0.0027854906519325334, 0.005410874074362673, 0.007089167364240117, 0.008106208436468167, 0.008644587962182797, 0.008823101215434772, 0.00872239357187448, 0.008402431130825458, 0.007915045040355761, 0.007313308867755462, 0.0066585214768293335, 0.00602487981530085])","array('d', [0.3073007623341421, 0.2824886649148943, 0.26390223033520926, 0.24974260177979618, 0.23883088878010772, 0.23034618855758507, 0.22368350199987086, 0.2183839815202875, 0.21409671494367202, 0.21055522523957243, 0.20756110870110625, 0.2049712271972284, 0.20268671497715407, 0.20064293752810647, 0.19879995791666522, 0.19671671258711318])",-41.979643113068626,-115.3196738753727,-44.82408547410886,0.18789612405506542,0.005410874074362673,0.23034618855758507,25.00000024853192,-1.0,"[-124.17696292649399, -44.32474508410683, 44.87264451957493]","[-113.87338748676225, -35.329492519938135, 51.03070951310769]","[-109.59352509540865, -46.86144466935854, 42.446022125988975]",10000000000.0,0.020302772521972656
7,-124.71979522705078,-44.54224395751953,44.92352294921875,0.6251042485237119,0.03133089840412134,0.2802160541203358,23.084374912892326,"array('d', [-45.08306121826172, -44.36858803546407, -43.705610461806984, -43.081777711346746, -42.488030694692974, -41.917597488160915, -41.36537565067317, -40.82752750923818, -40.301187573620965, -39.78423607809486, -39.27511665201484, -38.77268733238948, -38.27609952021738, -37.78470210969098, -37.297969333294915, -36.91233989353745])","array('d', [-126.95021057128906, -124.55533869951272, -122.1450895805486, -119.7242246060453, -117.29577031200897, -114.86174867730868, -112.42355596007536, -109.98217430296992, -107.53830061152236, -105.09243103191449, -102.64491970542386, -100.19602139596599, -97.74592310664941, -95.29476748070174, -92.84266954606254, -90.88012004967663])","array('d', [-44.914588928222656, -44.8539447233603, -44.82344453859414, -44.81249104759831, -44.81430980157532, -44.82448465038116, -44.84006986399823, -44.85904520177684, -44.87997836622087, -44.90181561188583, -44.92375392155002, -44.945167227977905, -44.96557026483789, -44.98460989454869, -45.00207692762725, -45.01476215147036])","array('d', [0.6312956809997557, 0.4964795668576605, 0.38833310318547865, 0.30355384161991494, 0.2374790802400725, 0.18648759923285385, 0.14762326465463338, 0.11840543289028026, 0.09672763988832522, 0.08080088682347258, 0.06912037027344706, 0.060444984971540716, 0.05378417872795662, 0.04838944460793907, 0.04374911859060116, 0.039585843091181926])","array('d', [-0.031736917793750756, -0.017029003287244594, -0.007530299541644601, -0.0013358708272524597, 0.0027231623256025617, 0.005372544517459633, 0.007067434371920359, 0.008095826504177143, 0.008641792981703134, 0.00882516652943075, 0.008727338268744556, 0.008408829611597762, 0.007921903972324975, 0.007319988286398058, 0.006664683786260637, 0.006030455494021151])","array('d', [0.30295164982346084, 0.2781457959132953, 0.25957788916260144, 0.2454560199848786, 0.23459321370475528, 0.22616364671629216, 0.2195589443902833, 0.21431781184443854, 0.21008755514482363, 0.20660044803864402, 0.2036572819137521, 0.20111448280896874, 0.19887304534733824, 0.19686841851933376, 0.19506089866454, 0.19301774921164241])",-41.917597488160915,-114.86174867730868,-44.82448465038116,0.18648759923285385,0.005372544517459633,0.22616364671629216,25.00000024594358,-1.0,"[-123.27900911022088, -44.12760262882887, 44.87653429003501]","[-112.874641967728, -35.17893519479462, 50.9321511470752]","[-108.72822868082137, -46.79199069063122, 42.391413538133946]",10000000000.0,0.014592170715332031
8,-123.82321166992188,-44.33991241455078,44.92694854736328,0.6100464463233946,0.029780562967061896,0.27094991604355356,23.089595409638196,"array('d', [-44.86092758178711, -44.16755506006107, -43.5257493565699, -42.92302914451128, -42.35023772793014, -41.80054426027029, -41.26881252949658, -40.75118880116535, -40.24480436091689, -39.74754542135669, -39.25786788020768, -38.774645950039556, -38.29704919212435, -37.82444515757549, -37.35632616593611, -36.98544261861246])","array('d', [-126.05988311767578, -123.65882723604554, -121.24285754273657, -118.8166506020081, -116.38316809388101, -113.94437861469966, -111.50163533597406, -109.0558859334919, -106.6077998307294, -104.157851232108, -101.70637665670235, -99.25361656329729, -96.79974616333834, -94.3448981940203, -91.88917918890832, -89.9237894595468])","array('d', [-44.91856002807617, -44.85752154821785, -44.82675603259225, -44.815636282173585, -44.81736350855888, -44.8275020807232, -44.84309087172485, -44.862097567438354, -44.8830804514275, -44.9049784696737, -44.92698298998428, -44.9484637199708, -44.96893234452884, -44.98803370535285, -45.005557513275335, -45.01828398683369])","array('d', [0.6309595108032227, 0.49617537924183935, 0.3869215180837572, 0.30139888198738507, 0.23485261353840658, 0.18359728935736108, 0.14462748138724846, 0.11542251453577242, 0.09384258590835985, 0.07807083902462486, 0.06657948480451573, 0.058108956007228686, 0.0516545277201604, 0.04645763315740656, 0.04200052657719071, 0.0380036514653034])","array('d', [-0.03192432597279539, -0.01715808789541741, -0.007614250173797978, -0.0013855019210636814, 0.002699144016863992, 0.005367229294015341, 0.007075390194985099, 0.00811280721253344, 0.008664493887445968, 0.008851032745492609, 0.008754422299317215, 0.008435690141183288, 0.007947535851518483, 0.007343773541827876, 0.006686354790334004, 0.006050064231141401])","array('d', [0.29414422909286997, 0.2693560046098674, 0.25082931550436427, 0.23678659400307214, 0.22602486682534242, 0.21770856355005963, 0.21122260591495143, 0.20610082556888373, 0.20198697373127922, 0.1986108301990004, 0.19577158125351574, 0.1933247880379486, 0.19117117509685969, 0.18924636957343605, 0.18751114668575142, 0.18554974860072557])",-41.80054426027029,-113.94437861469966,-44.8275020807232,0.18359728935736108,0.005367229294015341,0.21770856355005963,25.000000245924323,-1.0,"[-123.27900911022088, -44.12760262882887, 44.87653429003501]","[-112.874641967728, -35.17893519479462, 50.9321511470752]","[-108.72822868082137, -46.79199069063122, 42.391413538133946]",10000000000.0,0.012375831604003906
9,-123.37394714355469,-44.241851806640625,44.92900848388672,0.5983446836471558,0.028555488213896685,0.26636047760513815,23.09431590412877,"array('d', [-44.75273132324219, -44.07049203440756, -43.43981859026967, -42.84816887753897, -42.286340569911275, -41.747475908828456, -41.226423984282874, -40.719325003738824, -40.22331047424723, -39.736271324725244, -39.256671217065715, -38.78339398247197, -38.315619688602304, -37.85272653197446, -37.394217081483205, -37.03093926080938])","array('d', [-125.61381530761719, -123.20956874111255, -120.7906678911582, -118.36173712297526, -115.92570006082619, -113.4844951623631, -111.03945180869725, -108.59149891425254, -106.14129109277907, -103.68929081465659, -101.23582523231839, -98.78112723835615, -96.32536583132476, -93.86866854347774, -91.4111374530602, -89.4443276929791])","array('d', [-44.92042541503906, -44.859519082330614, -44.82884174461916, -44.81778948975932, -44.819575456975805, -44.82976967642931, -44.84541330792908, -44.864474570538405, -44.88551142774764, -44.907462149948245, -44.929517349389485, -44.951046051720255, -44.97155941898141, -44.990701974255465, -45.0082633324502, -45.02101703454779])","array('d', [0.6304364800453185, 0.4957021191163172, 0.385915558121389, 0.3000408514693028, 0.23327781029174152, 0.18190918514946797, 0.14290492502714797, 0.11372423328874427, 0.0922104766552836, 0.07653270067857995, 0.06515147445511431, 0.05679788635338306, 0.05046005425973487, 0.045374355113709464, 0.04102001981992653, 0.03711645218235757])","array('d', [-0.0318593196570872, -0.01711694454468796, -0.007584652760930793, -0.001361016959113167, 0.0027216842055953856, 0.0053892165407217, 0.0070972778685421956, 0.008134576300547553, 0.008685910775610203, 0.008871791618779991, 0.008774224267606844, 0.00845428756281581, 0.007964756758752961, 0.007359533531070734, 0.006700660028123289, 0.006063008146723387])","array('d', [0.2894957820561272, 0.2647349717240547, 0.24624379652339384, 0.23225346053434628, 0.22155365177024816, 0.21330426480904052, 0.20688705230638005, 0.20183351455308737, 0.1977856933762082, 0.19447217321505336, 0.19169138356295856, 0.18929849777592728, 0.18719415046395127, 0.18531410327331782, 0.18361941568271842, 0.1817038540229761])",-41.747475908828456,-113.4844951623631,-44.82976967642931,0.18190918514946797,0.0053892165407217,0.21330426480904052,25.00000024591398,-1.0,"[-122.37857688331657, -43.93862020326848, 44.88228430558069]","[-111.87413369581908, -34.98676421313527, 50.75773727982478]","[-107.86121158299602, -46.76406621670992, 42.379693735356184]",10000000000.0,0.014149665832519531
10,-122.92403411865234,-44.145870208740234,44.93153762817383,0.583752453327179,0.02690056338906279,0.26174636284378533,23.1000136422434,"array('d', [-44.64649200439453, -43.97525158620527, -43.355440288004125, -42.77448511597357, -42.223158466425176, -41.694589780474324, -41.183623918532106, -40.68640316674499, -40.20006578655811, -39.72251279118189, -39.25222009606024, -38.7880849628097, -38.3293012487932, -37.87526066477339, -37.42547857027252, -37.06908131334422])","array('d', [-125.16712188720703, -122.75977329157486, -120.3380635064631, -117.90655169143258, -115.46811629077735, -113.02466165943646, -110.57749103629345, -108.12751309355714, -105.675366642378, -103.22150170663568, -100.76623552508535, -98.30979297897355, -95.85233647655727, -93.39398801807312, -90.93484494128852, -88.96677674409514])","array('d', [-44.92196273803711, -44.86135129710059, -44.83087229036481, -44.81996321743396, -44.821860644562605, -44.8321476951766, -44.84787270850878, -44.867007717431804, -44.888112605213855, -44.910126522105344, -44.932240420214775, -44.95382342061715, -44.9743867118348, -44.99357487659458, -45.01117767730161, -45.023961409575385])","array('d', [0.6287046074867249, 0.49413505502344396, 0.3839844795534198, 0.29789025372482236, 0.23101753675890252, 0.17962364659084018, 0.14065813123544074, 0.11156308699008012, 0.09016733943540146, 0.07462765426490645, 0.06339444231974155, 0.05519066968209301, 0.0489982957308206, 0.04404943516139109, 0.039820893115540656, 0.036031437373019296])","array('d', [-0.03171617910265911, -0.017023271640920584, -0.0075191774682336196, -0.0013116761888898399, 0.0027616675465910985, 0.005423592307846918, 0.0071280686541728335, 0.008162826665428927, 0.008712120837071059, 0.008896169822643093, 0.008796836293851426, 0.008475144881270387, 0.007983869064851648, 0.007376938371293046, 0.006716437172538128, 0.006077283898615562])","array('d', [0.28487570683029695, 0.2602055465995599, 0.24179827430170306, 0.22789822904452517, 0.21729140213439038, 0.20913512972271686, 0.20280918670510745, 0.19784352231237595, 0.19387901492626158, 0.19064345486609413, 0.1879348196110537, 0.18560813077365665, 0.18356411778008638, 0.18173882254917473, 0.1800937054261997, 0.1782341955985736])",-41.694589780474324,-113.02466165943646,-44.8321476951766,0.17962364659084018,0.005423592307846918,0.20913512972271686,25.00000024590379,-1.0,"[-121.92743416960923, -43.84717975412165, 44.88618107247838]","[-111.3736246087987, -34.873590306866895, 50.63872800286172]","[-107.42690408360895, -46.767056607653934, 42.39440532309664]",10000000000.0,0.03269529342651367
11,-122.47409057617188,-44.052024841308594,44.93488693237305,0.5663663744926452,0.02489745989441858,0.257167295613561,23.105437414447845,"array('d', [-44.54224395751953, -43.88198610127581, -43.27281407473154, -42.70216789080889, -42.160824682580646, -41.641922057639306, -41.14031633787629, -40.65216420637004, -40.17462067590264, -39.70560514856237, -39.2436128122449, -38.78756037543045, -38.33666070866223, -37.890323627885145, -37.448081364932875, -37.09758339776374])","array('d', [-124.71979522705078, -122.30938997258035, -119.88497457024593, -117.45102057374785, -115.01034927096867, -112.56482429314607, -110.11571880699542, -107.66391874580329, -105.2100454162497, -102.75453514865886, -100.29769429024951, -97.83973890088141, -95.38082410226127, -92.92106575270981, -90.46055591269001, -88.49142856396311])","array('d', [-44.92352294921875, -44.863709628918066, -44.8337674616574, -44.82323234962866, -44.82540049909704, -44.83589151379861, -44.85177626735498, -44.87104085806638, -44.8922540499189, -44.91436067788469, -44.93655539875788, -44.95820980734479, -44.97883679684372, -44.99808216663794, -45.01573657227339, -45.02855763920004])","array('d', [0.6251042485237119, 0.49087731419495, 0.38061240705283367, 0.2944960076757811, 0.22767431334904184, 0.17638846932425747, 0.13757365290276888, 0.10865910724379531, 0.08746231982999879, 0.07213030983061507, 0.0611053973385344, 0.05310413586395556, 0.04710373346947265, 0.04233317362697222, 0.03826770135630909, 0.03462605122461139])","array('d', [-0.03133089840412134, -0.016767693447977672, -0.007343909824301387, -0.001186928876716432, 0.0028540384114702426, 0.005494748040055835, 0.007184945838209007, 0.008209783451698495, 0.008751929647602406, 0.00893062211442236, 0.008827114385747563, 0.008502051713248976, 0.008007969406325581, 0.007398643369612216, 0.006736052010978161, 0.006095032154083674])","array('d', [0.2802160541203358, 0.2557337384407577, 0.23748511567014466, 0.22373441279514278, 0.2132693504029699, 0.20524763291843434, 0.19904881188296053, 0.1942024306254216, 0.19034900524070877, 0.18721612310332986, 0.18460176239925624, 0.1823611478097496, 0.1803953854906916, 0.17864102395314843, 0.1770601087209798, 0.17527319384232676])",-41.641922057639306,-112.56482429314607,-44.83589151379861,0.17638846932425747,0.005494748040055835,0.20524763291843434,25.00000024589446,-1.0,"[-121.02386867695091, -43.67063004153795, 44.89754460079303]","[-110.3715526173054, -34.619402254417246, 50.3384487638042]","[-106.55760461959892, -46.8100222585346, 42.474443131430554]",10000000000.0,0.012689590454101562
12,-122.47409057617188,-44.052024841308594,44.93488693237305,0.5663663744926452,0.02489745989441858,0.257167295613561,23.105437414447845,"array('d', [-44.33991241455078, -43.70101667981026, -43.111658145200295, -42.559486512148766, -42.035414288090216, -41.53268335765777, -41.04623877587814, -40.57231765355773, -40.1081503534026, -39.65172774605917, -39.20161280898243, -38.75678614394571, -38.31652029802627, -37.88028028849329, -37.44764895518993, -37.10444549642959])","array('d', [-123.82321166992188, -121.40697321938855, -118.9776364478685, -116.53941704009362, -114.0949790092197, -111.64608105622577, -109.19392244390677, -106.73933496990954, -104.28289903136621, -101.82501919092651, -99.36597649279783, -96.90596635107273, -94.44512666036091, -91.98355861793475, -89.5213416042294, -87.55092995520013])","array('d', [-44.92694854736328, -44.87035321372418, -44.84257710346819, -44.83353494002125, -44.83675814234807, -44.848014395479815, -44.86446916504776, -44.884169901591335, -44.905725807852974, -44.92810882937459, -44.9505321165139, -44.972380083472785, -44.993174605318075, -45.012567758760426, -45.03035445289902, -45.043271061808916])","array('d', [0.6100464463233946, 0.4772524499432166, 0.3678232558943009, 0.28250303201593124, 0.2164665831135705, 0.16596214851576893, 0.1279219857977193, 0.09976796104608532, 0.0793087736531586, 0.06468299223773645, 0.054325799377533984, 0.04694841354332132, 0.041524701220734025, 0.037282320893574666, 0.033697152971369555, 0.030490447650518674])","array('d', [-0.029780562967061896, -0.015734267268715477, -0.0066388843736388346, -0.0006940446769124126, 0.0032075229128764584, 0.005755015119740592, 0.007381759570134388, 0.008362630389182536, 0.008873781308553574, 0.009030264538816299, 0.00891060175463221, 0.008573615812009211, 0.008070585068065121, 0.007454373035050032, 0.006786248122984262, 0.00614045147852622])","array('d', [0.27094991604355356, 0.24724454915402092, 0.22962320802282937, 0.21641636046395069, 0.20643740306776356, 0.19885681346828132, 0.1930609497747522, 0.1885833065646351, 0.18506702737284694, 0.18224177856068333, 0.17990744722179242, 0.17792115888274757, 0.1761859576041262, 0.1746403514795536, 0.17324832264864296, 0.17167498707999582])",-41.53268335765777,-111.64608105622577,-44.848014395479815,0.16596214851576893,0.005755015119740592,0.19885681346828132,25.000000245875423,-1.0,"[-121.02386867695091, -43.67063004153795, 44.89754460079303]","[-110.3715526173054, -34.619402254417246, 50.3384487638042]","[-106.55760461959892, -46.8100222585346, 42.474443131430554]",10000000000.0,0.014028549194335938
13,-121.57222747802734,-43.870601654052734,44.944156646728516,0.5242423415184021,0.01993445493280872,0.24767406384018487,23.115253418407416,"array('d', [-44.241851806640625, -43.61328647830459, -43.03303716432967, -42.488950303934, -41.97206996701857, -41.47573530945459, -40.99496985438433, -40.526077901733544, -40.06634949943736, -39.61382959674867, -39.167130593860286, -38.72527835295405, -38.287586813239884, -37.85355874079415, -37.42281129754132, -37.08084878127027])","array('d', [-123.37394714355469, -120.95493829706732, -118.5233884261213, -116.08334676676373, -113.63737829419362, -111.18717819825707, -108.73390238699214, -106.27835158881952, -103.82108301091404, -101.36248326983838, -98.90281905930803, -96.44227397992194, -93.98097596099944, -91.51901763237119, -89.05647090948588, -87.08584382866893])","array('d', [-44.92900848388672, -44.87495815637819, -44.84889585642138, -44.84103041550254, -44.84507766374195, -44.85692267946309, -44.87380683905481, -44.89382748223225, -44.91562715462941, -44.93820047032801, -44.960776245201906, -44.98274986247116, -45.0036509162103, -45.02313684895229, -45.041006125951995, -45.05398230142993])","array('d', [0.5983446836471558, 0.4666642568883903, 0.35820982584981675, 0.27372976705944596, 0.20844674898541382, 0.1586325884740869, 0.12123125908781957, 0.09367033233019081, 0.0737612667451723, 0.05964412448488797, 0.04975522923490778, 0.042807052839108635, 0.03777503100320779, 0.03388876677372314, 0.030626448784271856, 0.027711959350758243])","array('d', [-0.028555488213896685, -0.014916014418197406, -0.006081646369708448, -0.0003070572304826687, 0.0034816558337536917, 0.005953164823364093, 0.007527995488867501, 0.008472927349085215, 0.00895892419114546, 0.00909765922206633, 0.00896541213263234, 0.008619478807776979, 0.008110057168989049, 0.007489204045828798, 0.006817544059156292, 0.006168769201018425])","array('d', [0.26636047760513815, 0.24324954754586242, 0.22610291048920875, 0.21329658259993545, 0.20366763345602962, 0.19639886075372354, 0.19088363426822846, 0.18665981627220563, 0.18337356473708263, 0.1807568594736025, 0.17861152958621326, 0.17679643153773755, 0.1752162012885306, 0.1738108273593866, 0.17254566735954288, 0.17111578992138346])",-41.47573530945459,-111.18717819825707,-44.85692267946309,0.1586325884740869,0.005953164823364093,0.19639886075372354,25.000000245865802,-1.0,"[-121.02386867695091, -43.67063004153795, 44.89754460079303]","[-110.3715526173054, -34.619402254417246, 50.3384487638042]","[-106.55760461959892, -46.8100222585346, 42.474443131430554]",10000000000.0,0.013762950897216797
14,-121.12036895751953,-43.78296661376953,44.95053482055664,0.500342547893524,0.016895581036806013,0.24297352234390743,23.120478448318874,"array('d', [-44.145870208740234, -43.527532132467336, -42.95599152139903, -42.41934814481774, -41.908818037573944, -41.41786687384894, -40.941619193190256, -40.47646463085272, -40.01976794575038, -39.569640844998204, -39.1247559941305, -38.68419388782472, -38.24731804026748, -37.813676183689545, -37.382926231621866, -37.04064617125808])","array('d', [-122.92403411865234, -120.50231131430857, -118.06867323511233, -115.6269775168088, -113.17967682616555, -110.72839565480861, -108.27424238225842, -105.81798403767945, -103.3601528093991, -100.90111595503963, -98.44112462290002, -95.98034952664031, -93.51890763753772, -91.05688209438541, -88.5943364948848, -86.62376464325564])","array('d', [-44.93153762817383, -44.8809265403764, -44.8571804797326, -44.850902594223705, -44.85605710703915, -44.868687997252295, -44.88613991587001, -44.906578427922305, -44.928691912502906, -44.95150629821261, -44.97427213580515, -44.996400076059395, -45.01743046979854, -45.03702822102593, -45.054996699637, -45.068044377299785])","array('d', [0.583752453327179, 0.45346065918223966, 0.3463502939234688, 0.2630070484928143, 0.19872207181925713, 0.1498031900053115, 0.11321431188200713, 0.08639459850553519, 0.06716277299718346, 0.053664020658708324, 0.04433882333523694, 0.03790344336965083, 0.033337004441363956, 0.029872778397035126, 0.026992596557420336, 0.024423913586553655])","array('d', [-0.02690056338906279, -0.013809745195174238, -0.005328923328824494, 0.00021413389557419543, 0.003848847227887993, 0.006216414456716773, 0.007720149715550826, 0.008615899568694673, 0.009067583780374684, 0.009182264849492777, 0.009033144415371458, 0.008675406642589294, 0.008157742480146382, 0.007531073283978285, 0.006855109939125133, 0.006202760232010596])","array('d', [0.26174636284378533, 0.23936576240985272, 0.22280223427284332, 0.21048451104834262, 0.20127976738928752, 0.19438671273990188, 0.18920794644871547, 0.18528719141400912, 0.18227469955143352, 0.1799055875699478, 0.1779842767712547, 0.17637187766201026, 0.17497504269194486, 0.17373558740401768, 0.17262053068186864, 0.17136038941191734])",-41.41786687384894,-110.72839565480861,-44.868687997252295,0.1498031900053115,0.006216414456716773,0.19438671273990188,25.000000245858033,-1.0,"[-121.02386867695091, -43.67063004153795, 44.89754460079303]","[-110.3715526173054, -34.619402254417246, 50.3384487638042]","[-106.55760461959892, -46.8100222585346, 42.474443131430554]",10000000000.0,0.013818740844726562
15,-120.6679458618164,-43.69731903076172,44.95800018310547,0.47500175237655623,0.013702924363315022,0.2384447614338736,23.123417445342298,"array('d', [-44.052024841308594, -43.44368207068707, -42.880340106145304, -42.350402300945674, -41.84529340679048, -41.35863273377976, -40.88566704510781, -40.42288855634903, -39.967751118029376, -39.518445382924014, -39.07371472819565, -38.63270331840889, -38.19483213349199, -37.75970082908669, -37.327014265818434, -36.982821907938515])","array('d', [-122.47409057617188, -120.04974836336855, -117.61417050086736, -115.17100467123612, -112.72258140782928, -110.2704491802515, -107.81566575412597, -105.35896250177395, -102.90084519465887, -100.4416606000659, -97.98164331068224, -95.52095019998256, -93.05968636477229, -90.59792457530476, -88.13571928378427, -86.16548088610165])","array('d', [-44.93488693237305, -44.888439527733574, -44.86749751035921, -44.86313920319661, -44.869628991729975, -44.883203442268986, -44.90133275974629, -44.92226571447395, -44.94474676041472, -44.967840257025706, -44.99082350513529, -45.01312598818063, -45.03430134041856, -45.054023672018694, -45.07210237603623, -45.08522945141441])","array('d', [0.5663663744926452, 0.4377290843553832, 0.33231632760704394, 0.25039601311836024, 0.18734603617083054, 0.13952149799777752, 0.10391382794268242, 0.07797929779217384, 0.05954818832696695, 0.04677431312039499, 0.03810525675523683, 0.03226356705456352, 0.02823414906336448, 0.025255650508918242, 0.022814865427665063, 0.020643745795610305])","array('d', [-0.02489745989441858, -0.012470154928094092, -0.004418026059735298, 0.000843600064553368, 0.004290734035976127, 0.006531501460243808, 0.00794844330321037, 0.00878417482539003, 0.009194066464194392, 0.009279567080882978, 0.009110117021082283, 0.008738308518317328, 0.008210972882594708, 0.007577621737211919, 0.006896824745006577, 0.006240505338527152])","array('d', [0.257167295613561, 0.23564175116896727, 0.2197627138329991, 0.20801702902665578, 0.19930731524236273, 0.1928512638099594, 0.1880626471049803, 0.18449238784369204, 0.18179582154788718, 0.17971197086651386, 0.1780484651729231, 0.1766691692725358, 0.17548316036295541, 0.1744344149906799, 0.1734918886796884, 0.1724268506962416])",-41.35863273377976,-110.2704491802515,-44.883203442268986,0.13952149799777752,0.006531501460243808,0.1928512638099594,25.000000245849265,-1.0,"[-119.79283386926014, -43.444982215818776, 44.922085084662676]","[-109.00390220377167, -34.24374774633805, 49.814552535250385]","[-105.3763971033934, -46.935500447502704, 42.68990376361193]",10000000000.0,0.014929771423339844
16,-120.21504211425781,-43.613563537597656,44.96714401245117,0.44868025183677657,0.01056765671819438,0.2341084043171743,23.12571169123242,"array('d', [-43.870601654052734, -43.282721573275346, -42.73556739232254, -42.21825107305929, -41.72269344815875, -41.24288264030396, -40.77436037404874, -40.313866808376, -39.85907088989376, -39.40835333947499, -38.960627172265504, -38.515188742580904, -38.071595949635224, -37.62957185829985, -37.1889327348521, -36.837517919721115])","array('d', [-121.57222747802734, -119.14265372660299, -116.7033314979847, -114.25745425863985, -111.80708855792868, -109.35361929552283, -106.89799579712049, -104.44087316356209, -101.98270051457096, -99.52378036212376, -97.06431115550694, -94.60441916747531, -92.14418290220446, -89.68365163954519, -87.22285891044258, -85.25389685814497])","array('d', [-44.944156646728516, -44.90802814270211, -44.894035848226636, -44.89443034623716, -44.90421858486879, -44.920114906380725, -44.93990186091378, -44.9620357773963, -44.9854013625527, -45.009159341649266, -45.03265424595811, -45.055362978376955, -45.076872654526674, -45.0968805780381, -45.115211262229685, -45.12851972771594])","array('d', [0.5242423415184021, 0.3996136829690878, 0.29842901422653617, 0.2200488049699679, 0.1600586972249517, 0.11493002968053337, 0.08172403044221643, 0.05794203437149549, 0.04144600135171613, 0.030414160189080393, 0.023314489669360637, 0.018887515418520538, 0.016134385275601213, 0.014308441474958043, 0.012909570530330294, 0.011681063524310446])","array('d', [-0.01993445493280872, -0.00914941154371646, -0.002161084661763146, 0.002400585537936112, 0.005380320277769966, 0.0073047216200077866, 0.008504985290485944, 0.009190936379005685, 0.009496702988896023, 0.009509748568621367, 0.009290115346190043, 0.008883896907548912, 0.008333242393774889, 0.007684096471995211, 0.006992125903391398, 0.006326737400321388])","array('d', [0.24767406384018487, 0.22815743979517553, 0.21390084507721505, 0.20351585709766248, 0.1959850417960558, 0.19056961522222937, 0.18670939324442093, 0.18397237334414399, 0.18202614131012274, 0.18061923893859624, 0.179567150126835, 0.1787404721210074, 0.17805417313663155, 0.1774574363525933, 0.17692384384033996, 0.17632126701461096])",-41.24288264030396,-109.35361929552283,-44.920114906380725,0.11493002968053337,0.0073047216200077866,0.19056961522222937,25.00000024583348,-1.0,"[-119.21052297635676, -43.34306477662382, 44.937446439804454]","[-108.36014181839755, -34.065538718049176, 49.54143807310183]","[-104.81759927701856, -47.005297463440684, 42.83226256834836]",10000000000.0,0.01961541175842285
17,-120.21504211425781,-43.613563537597656,44.96714401245117,0.44868025183677657,0.01056765671819438,0.2341084043171743,23.12571169123242,"array('d', [-43.78296661376953, -43.20510064421409, -42.66558421320569, -42.15391083157166, -41.66227369039641, -41.18486612184919, -40.717395403032086, -40.25674153070483, -39.80069498840922, -39.347743869463024, -38.89689688257066, -38.447536063330695, -37.9992962409059, -37.551969703501854, -37.105435135985324, -36.7488225076463])","array('d', [-121.12036895751953, -118.68830149953149, -116.24725432291189, -113.80019052944265, -111.34904289585198, -108.89511371114439, -106.43929767643631, -103.982211446479, -101.52427542735002, -99.06576946651745, -96.60687324466275, -94.14769690017938, -91.6883047087987, -89.22873321811738, -86.76900449600741, -84.80097787964334])","array('d', [-44.95053482055664, -44.92072609429971, -44.91099023049863, -44.914292928925256, -44.92609534351591, -44.94340480411362, -44.96419585170189, -44.98705266890814, -45.01094652126374, -45.03509770593676, -45.05889237152855, -45.08183680303402, -45.10353886939786, -45.123710240919365, -45.142184769679446, -45.15559672215271])","array('d', [0.500342547893524, 0.3779882478496644, 0.2792312658501301, 0.20288813390795699, 0.14465752410573038, 0.10107534438968398, 0.06924247212848465, 0.04668651737611696, 0.03128842912890864, 0.02124141549489314, 0.015026139459097466, 0.011394341009578686, 0.00935724049946082, 0.008177176722455215, 0.007361898960681814, 0.0066613222507399105])","array('d', [-0.016895581036806013, -0.0071152167809964955, -0.0007792044152944594, 0.0033524416545678082, 0.0060446170002771945, 0.007774210644522434, 0.008841023228271324, 0.009434780328532228, 0.009676559090027747, 0.009645211923962041, 0.0093949821606516, 0.008967944536329276, 0.00840334531554281, 0.007744911127530572, 0.007046497493647432, 0.006375935064259051])","array('d', [0.24297352234390743, 0.22456068752199704, 0.21120480421771587, 0.20157953900615255, 0.1947088478538618, 0.1898768604378587, 0.18653733217839638, 0.18426756477044778, 0.18274193777278944, 0.18171434712202203, 0.18100473232620012, 0.18048752067392393, 0.1800810267120848, 0.17973737886013383, 0.17943276290336369, 0.17908914506761012])",-41.18486612184919,-108.89511371114439,-44.94340480411362,0.10107534438968398,0.007774210644522434,0.1898768604378587,25.000000248485925,-1.0,"[-119.21052297635676, -43.34306477662382, 44.937446439804454]","[-108.36014181839755, -34.065538718049176, 49.54143807310183]","[-104.81759927701856, -47.005297463440684, 42.83226256834836]",10000000000.0,0.014136552810668945
18,-119.28902435302734,-43.44791793823242,44.99155807495117,0.39281624555587763,0.004354503471404198,0.22541232506302378,23.129267741498907,"array('d', [-43.69731903076172, -43.12901317274009, -42.5965722128036, -42.089879112459165, -41.60140868284976, -41.12556853016145, -40.65823996822066, -40.19645060191298, -39.73811945691658, -39.281848235572355, -38.826746842776984, -38.37228782792461, -37.91818719425484, -37.46431019696368, -37.010601266363516, -36.64774260236053])","array('d', [-120.6679458618164, -118.23354794907668, -115.79093047941357, -113.34283467639932, -110.89106395420431, -108.43684056626361, -105.98100618736136, -103.52414000018337, -101.06663422051163, -98.60874621203362, -96.15063680705588, -93.69239973822658, -91.23408464872227, -88.77571486635466, -86.31730046511777, -84.35041664643747])","array('d', [-44.95800018310547, -44.93483194119239, -44.92956860960466, -44.935925673709704, -44.94984117414319, -44.96863047100595, -44.990470209061826, -45.01407931968934, -45.03852039770293, -45.06307666129234, -45.08717825778956, -45.110362559665134, -45.13225940378911, -45.15259566562249, -45.17121506641594, -45.18473120397729])","array('d', [0.47500175237655623, 0.35505894894907253, 0.25888732238450185, 0.18471869615565895, 0.12836704792557097, 0.08643503072257332, 0.056065083194955616, 0.034812809496450235, 0.020579743872189624, 0.011575577098888089, 0.006295063293802105, 0.0035024445856094433, 0.002220152574977502, 0.0017204824328122584, 0.0015198005778127024, 0.0013751725552719626])","array('d', [-0.013702924363315022, -0.004977550353526832, 0.0006726201788512506, 0.004351665577859842, 0.0067409369885567125, 0.008265215328289933, 0.009191348069174436, 0.009687937095325267, 0.009862327456582215, 0.009784300779590766, 0.009501984577572377, 0.009053209230014658, 0.008474149994474723, 0.007806182086430418, 0.007101236341131766, 0.0064254646299913365])","array('d', [0.2384447614338736, 0.22117658280344202, 0.2087617926283446, 0.19993387337585677, 0.19375767260138171, 0.18954023029718886, 0.18674941078624144, 0.18497206108152578, 0.1838896248443738, 0.1832616266378666, 0.18291272298074615, 0.18272140826276115, 0.1826095502841457, 0.18253239846734703, 0.18246888974285555, 0.18239795391496175])",-41.12556853016145,-108.43684056626361,-44.96863047100595,0.08643503072257332,0.008265215328289933,0.18954023029718886,25.000000245819407,-1.0,"[-118.7560412504396, -43.26561926166837, 44.95129282240897]","[-107.8604445079859, -33.927173974043406, 49.31929136131299]","[-104.38100174869304, -47.057852549498385, 42.95699946036314]",10000000000.0,0.023429393768310547
19,-118.83497619628906,-43.3691291809082,45.00651168823242,0.36507883667945856,0.00133374449796964,0.22147913376358544,23.13153443419084,"array('d', [-43.613563537597656, -43.05434136005608, -42.52843898051541, -42.02612742238056, -41.54016567936293, -41.06517989363241, -40.59723026619642, -40.13349691100013, -39.67203205924797, -39.21155529945486, -38.7512815645192, -38.2907773038353, -37.82984267082128, -37.368418506869766, -36.906517307159035, -36.53658110790843])","array('d', [-120.21504211425781, -117.77848217940296, -115.33443983167824, -112.8854490393536, -110.4331914132534, -107.97881342227159, -105.52310626180235, -103.0666131894088, -100.60969912559844, -98.15259939190585, -95.6954560906996, -93.23834643850026, -90.78130517858567, -88.32434204986268, -85.86745470275109, -83.90189058646924])","array('d', [-44.96714401245117, -44.95049671562229, -44.9496237439455, -44.95897615194813, -44.97496035302072, -44.99519457751761, -45.01805440943694, -45.042391568605424, -45.06735875634861, -45.092301346857184, -45.11669300783774, -45.140101900250095, -45.16217963974498, -45.18266818068237, -45.20142101680604, -45.21503305480738])","array('d', [0.44868025183677657, 0.33124226954846336, 0.23775336718590576, 0.16584881804127735, 0.11145654934352323, 0.0712459083991808, 0.04240133670300659, 0.02250711625075972, 0.009486192343684864, 0.0015656418123143557, -0.002744765983803976, -0.004667394331144042, -0.005167785540114817, -0.004962988903167245, -0.004527467723755059, -0.004096622576330447])","array('d', [-0.01056765671819438, -0.002878581350013759, 0.0020971973009333246, 0.005330806684222807, 0.00742176220210616, 0.008743741902062915, 0.009531241718020276, 0.009932105873742708, 0.010040173391220916, 0.009916296405801077, 0.009602575361862441, 0.009132651491313313, 0.008539662023927726, 0.007862648312670816, 0.007151622790541932, 0.006471056178845608])","array('d', [0.2341084043171743, 0.2180034957502551, 0.20655261687473445, 0.19854556641530632, 0.19308646617594544, 0.1895046201259822, 0.18728177364834747, 0.18601429852494544, 0.18539079020893656, 0.18517654236051923, 0.18520108761516, 0.18534714419614803, 0.18554027576526813, 0.1857389762269163, 0.1859250378353332, 0.1861363559978899])",-41.06517989363241,-107.97881342227159,-44.99519457751761,0.0712459083991808,0.008743741902062915,0.1895046201259822,25.00000024581285,-1.0,"[-117.82698516671634, -43.112658704005206, 44.98502634038624]","[-106.8416505711158, -33.658555962225925, 48.85056190102766]","[-103.48905822884363, -47.15992083356171, 43.240457517186144]",10000000000.0,0.015889883041381836
20,-118.3759994506836,-43.2906494140625,45.02490234375,0.3375923633575437,-0.0015192575519905344,0.21774907509354108,23.135103786281224,"array('d', [-43.44791793823242, -42.90687993861655, -42.393872049742825, -41.899930088652816, -41.41838402102183, -40.94430741443047, -40.47413217723635, -40.005358763662464, -39.53632124426474, -39.06598975482736, -38.59380299348874, -38.11952767909651, -37.64314347780396, -37.16475243460122, -36.68451214504544, -36.29879090594797])","array('d', [-119.28902435302734, -116.84829764582776, -114.4015228273293, -111.95085680783404, -109.49775645890041, -107.04322677116947, -104.58796363763642, -102.13244156468727, -99.67697233186263, -97.22174748421277, -94.76687116029457, -92.31238646819129, -89.85829688654778, -87.40458326534613, -84.95121655913783, -82.98869101378787])","array('d', [-44.99155807495117, -44.987831555948404, -44.995651135425994, -45.010924254776135, -45.03098617205729, -45.05405665929871, -45.07890699048973, -45.10465337758706, -45.130628264131595, -45.156301209734124, -45.181232985632484, -45.20505348538469, -45.22745806187762, -45.2482189736, -45.267209318141234, -45.280991857608775])","array('d', [0.39281624555587763, 0.2806944281751963, 0.19281021994594819, 0.12567247267117504, 0.07542721346461688, 0.03887265032397385, 0.013275087669956649, -0.003724584549490359, -0.014160383989769584, -0.019769560907287695, -0.02201096070256341, -0.02207855562960515, -0.020912165814257186, -0.019205938980467168, -0.017414603953202795, -0.01575738670387986])","array('d', [-0.004354503471404198, 0.0012793000586717531, 0.004915714455872058, 0.0072636907971398755, 0.008761037902239723, 0.009680279546083928, 0.010191779979788736, 0.010402183687715675, 0.010378494416680734, 0.010163804361740995, 0.00978821252758119, 0.009277003637529, 0.008657236553890406, 0.007963260805128549, 0.00724120644134399, 0.00655211482535792])","array('d', [0.22541232506302378, 0.21169971000602394, 0.20225594481149523, 0.19597405662079495, 0.19203089733298506, 0.18979764094357954, 0.18878259806551814, 0.18860077537759906, 0.18895510692906387, 0.18962271448438084, 0.19044330185281916, 0.19130850044475395, 0.19215172648479756, 0.19293839079817124, 0.1936563798421689, 0.1944692709707448])",-40.94430741443047,-107.04322677116947,-45.05405665929871,0.03887265032397385,0.009680279546083928,0.18979764094357954,25.000000245799843,-1.0,"[-117.416375065294, -43.04680465339973, 45.002588572157464]","[-106.39475851327651, -33.54615819639094, 48.644248287070475]","[-103.09406719746076, -47.19793163675811, 43.3778910289096]",10000000000.0,0.015198945999145508
21,-118.3759994506836,-43.2906494140625,45.02490234375,0.3375923633575437,-0.0015192575519905344,0.21774907509354108,23.135103786281224,"array('d', [-43.3691291809082, -42.83624347798191, -42.32881073277403, -41.8382208657435, -41.35807371704493, -40.883658341327596, -40.4115882105362, -39.939521777649844, -39.46593296012788, -38.989916613972134, -38.51102296865248, -38.02911856996055, -37.54427251100448, -37.05666707369709, -36.56653201371133, -36.1723428678263])","array('d', [-118.83497619628906, -116.39245075153183, -113.94452840586678, -111.4932074319453, -109.0398491259012, -106.58539777889666, -104.13050796750649, -101.67562392767603, -99.22103353603653, -96.7669081489153, -94.31333395606724, -91.86033758241513, -89.40790712556297, -86.9560090223046, -84.50460075989294, -82.54375961369746])","array('d', [-45.00651168823242, -45.0090657451517, -45.021106575803394, -45.03924919721005, -45.061280992830696, -45.085715038950894, -45.111515838107486, -45.13792894482007, -45.16437481999067, -45.190383918321565, -45.21555978277233, -45.23956266219128, -45.262109440005155, -45.282987295917145, -45.3020789575141, -45.31593411803535])","array('d', [0.36507883667945856, 0.25559657688094806, 0.1704660159139714, 0.10568600455167391, 0.05750057617856832, 0.02276646954927184, -0.0012123821680899336, -0.01676861095374853, -0.02591564265444047, -0.030373262284310247, -0.031584663499264407, -0.030729487534650563, -0.02873448754023364, -0.026282156587079636, -0.023817203522108286, -0.021550698891624837])","array('d', [-0.00133374449796964, 0.003299697104721142, 0.006283236748325008, 0.008199030599025721, 0.009406492085137204, 0.010129003333868654, 0.01050571797813668, 0.01062320048464698, 0.010535359410371025, 0.010276610913344305, 0.009871184342156749, 0.00934027095301398, 0.008707944416279527, 0.008006240461036703, 0.00727936322685031, 0.00658664071201483])","array('d', [0.22147913376358544, 0.2089204353968516, 0.20045606468324484, 0.19502292418588252, 0.19182932815304504, 0.19026487014238833, 0.18984979144891237, 0.19020768716446226, 0.19104828044986683, 0.1921544224223891, 0.19337082295978378, 0.1945935422676746, 0.195759916194698, 0.1968388123812259, 0.19782116067778235, 0.1989330059811114])",-40.883658341327596,-106.58539777889666,-45.085715038950894,0.02276646954927184,0.010129003333868654,0.19026487014238833,25.00000024847421,-1.0,"[-116.9114218482043, -42.96660118771789, 45.02718122920132]","[-105.84804888431954, -33.41467512218048, 48.39801007393531]","[-102.60756662087346, -47.23541466347059, 43.55172972379963]",10000000000.0,0.01871323585510254
22,-117.91705322265625,-43.213409423828125,45.045265197753906,0.310420513153076,-0.004277762491256148,0.21422930161026527,23.13770499885202,"array('d', [-43.2906494140625, -42.76546791619299, -42.263213566119184, -41.77561130952794, -41.296519681507455, -40.82143694608182, -40.3471545831061, -39.871487022052655, -39.39304685116933, -38.91105291437053, -38.42516645421069, -37.93535341560476, -37.44177192143852, -36.944684100718746, -36.44439148254045, -36.04152856103516])","array('d', [-118.3759994506836, -115.9318155270769, -113.48284623471824, -111.0309496147556, -108.57740169723996, -106.12309218613142, -103.66863815869338, -101.21445602554665, -98.76081132854404, -96.30785621845114, -93.85565952049345, -91.40423168647004, -88.95354555431277, -86.50355313948658, -84.05419836546311, -82.09512210032773])","array('d', [-45.02490234375, -45.03338508068811, -45.049403919200245, -45.07024316004023, -45.09411834195711, -45.119820596564956, -45.14649780206217, -45.17351839531577, -45.20038656203203, -45.226690767093935, -45.25207536950916, -45.27622964111958, -45.298891087719625, -45.319861192978756, -45.33903189567778, -45.352943558790464])","array('d', [0.3375923633575437, 0.2307258786492875, 0.1482954927900908, 0.0858389691786057, 0.03969052290704328, 0.006760953081804284, -0.01561088318712102, -0.029732804487141235, -0.037598654324483324, -0.040911339499057675, -0.041098719771715836, -0.039326258628387234, -0.03650770255925794, -0.03331390590235873, -0.030179561648141045, -0.02730759911240582])","array('d', [0.0015192575519905344, 0.005205455650918976, 0.0075702561301891885, 0.009076208737736442, 0.010008672297167712, 0.010544554093147201, 0.010793462897069263, 0.010822940632236988, 0.010674482922229523, 0.010374277315169034, 0.009940981779526948, 0.009391896053621661, 0.008748246988502881, 0.008039851585587558, 0.007309052268118199, 0.006613504469875551])","array('d', [0.21774907509354108, 0.2063145803494387, 0.1988113886308412, 0.1942157661944871, 0.19176436109832734, 0.19086352018542163, 0.19104448669852048, 0.1919389216589489, 0.193263048446588, 0.19480529354403328, 0.19641529475409966, 0.1979935032461605, 0.1994811561406475, 0.20085056744978566, 0.20209570206734165, 0.20350470484503505])",-40.82143694608182,-106.12309218613142,-45.119820596564956,0.006760953081804284,0.010544554093147201,0.19086352018542163,25.000000248472272,-1.0,"[-116.53804239553166, -42.90811084878652, 45.04705421007034]","[-105.44578723787187, -33.32201532891063, 48.220167539465486]","[-102.24725743384167, -47.257213979789896, 43.68368810566849]",10000000000.0,0.020218849182128906
