,x_pos,y_pos,z_pos,roll,pitch,yaw,vel,x_traj,y_traj,z_traj,roll_traj,pitch_traj,yaw_traj,x_cmd,y_cmd,z_cmd,roll_cmd,pitch_cmd,yaw_cmd,vel_cmd,effector_dmg,effector_x,effector_y,effector_z,cost,time_solution
0,-199.53668212890625,-114.59101867675781,44.9454460144043,0.6312423944473265,0.03889163956046108,1.3270428339627127,23.05248651951576,"array('d', [-117.23666381835938, -114.8042563424902, -112.38902842586984, -109.99416886560053, -107.62246616459872, -105.27580733820231, -102.95508868079698, -100.66036391921162, -98.3910408920984, -96.14607667645784, -93.9241442093405, -91.72376264967264, -89.54339367025497, -87.3815091798956, -85.2366360200828, -83.53468619162992])","array('d', [-200.29124450683594, -199.71957694841234, -199.0760603617335, -198.35941418994568, -197.56919794083583, -196.70738301835166, -195.77797357170482, -194.78612663273628, -193.73746505756162, -192.6376163072354, -191.49193872874363, -190.30537929198033, -189.08241482151013, -187.8270431814978, -186.54280345348442, -185.49229471121208])","array('d', [-44.94385528564453, -44.86625898431973, -44.82113900313692, -44.797707711723994, -44.78876529886027, -44.789469224141875, -44.796529169210324, -44.80767846161751, -44.82132639661673, -44.8363305329616, -44.851849881570175, -44.86725385908439, -44.882070807005704, -44.89596542304775, -44.908737589203085, -44.91801707259977])","array('d', [0.6310291290283201, 0.6457192728711946, 0.6590114654822722, 0.6695554653364711, 0.6607085072390476, 0.637584228186987, 0.6047588858355596, 0.5660173372572807, 0.5243107380188397, 0.48183788115734033, 0.44017172109060876, 0.4003852568606617, 0.36315750610699793, 0.32885523183949283, 0.29759259879912736, 0.2692729431040808])","array('d', [-0.0389944836497307, -0.02335407943127073, -0.01291812273914653, -0.005943572400427895, -0.0012880431248478356, 0.001799674282176484, 0.00381467593753457, 0.005083619560371205, 0.0058224575259439, 0.006175041749178753, 0.0062394424297904545, 0.006086370988189938, 0.005772492795501202, 0.005350300257722151, 0.004875399415907084, 0.004411443913340926])","array('d', [1.3544533709671833, 1.3253282424588135, 1.2953435092841024, 1.2646128985555944, 1.2338389226220055, 1.2040711490785105, 1.1760003151500449, 1.1500017939584857, 1.1262178008756643, 1.1046378497885387, 1.0851607786729172, 1.0676369978575908, 1.0518954139148624, 1.037760141101485, 1.025061014753029, 1.0107861584339781])",-105.27580733820231,-196.70738301835166,-44.789469224141875,0.637584228186987,0.001799674282176484,1.2040711490785105,25.000000245338704,-1.0,"[-199.31237471823687, -113.57418414216112, 44.886809185541644]","[-203.51922084364, -102.04868674408503, 53.51614029543204]","[-188.9570308931808, -104.58155149633232, 50.96129783579422]",10000000000.0,0.014210939407348633
1,-199.4039764404297,-114.15213775634766,44.94553756713867,0.6311601400375364,0.03889042884111406,1.3224603692677355,23.049856180178953,"array('d', [-116.79376983642578, -114.36392698406239, -111.9515778717544, -109.55991068313506, -107.19168903161714, -104.84876241272609, -102.53198782349936, -100.24138290295821, -97.97632467828066, -95.73574491324831, -93.51829610946558, -91.32248100736886, -89.14674805218358, -86.98955841840399, -84.84943015122926, -83.15131454535656])","array('d', [-200.1702117919922, -199.58772673849444, -198.9334945139482, -198.20626234244406, -197.40567214636627, -196.5337605238568, -195.59456161155813, -194.5932359874586, -193.53539341694156, -192.42663951021865, -191.27230729229893, -190.07731809000282, -188.84612445698122, -187.5827021540451, -186.29057059509756, -185.23387496578877])","array('d', [-44.94428634643555, -44.866786099636705, -44.82175705537003, -44.798401840612975, -44.78951892364562, -44.790267520631716, -44.79736022597876, -44.808533325492725, -44.82219866020408, -44.83721579188683, -44.852745209599156, -44.86815735790083, -44.88298124575512, -44.896881966851325, -44.90965961166719, -44.918943056777906])","array('d', [0.6308470964431759, 0.6455545629549146, 0.6588624297436916, 0.6688038015053468, 0.6595454753491986, 0.6361740714444032, 0.6032304590376002, 0.5644642358090097, 0.5227962425280485, 0.48040141472909337, 0.43883497062321475, 0.39915727802693496, 0.36203875532906904, 0.32784071039819757, 0.2966743434929517, 0.2684420712685232])","array('d', [-0.03895658254623406, -0.023315116924402867, -0.012884238675655439, -0.005916478995006437, -0.0012674313237621814, 0.0018148898787905391, 0.003825737958942693, 0.0050916539198560895, 0.005828378399760682, 0.006179541047228366, 0.0062430140454936235, 0.0060893460778711625, 0.00577507628255654, 0.005352605530716184, 0.004877480862502364, 0.004413327284272084])","array('d', [1.3499987433340888, 1.3208841540021494, 1.2909091601379783, 1.2602074189395973, 1.2294942558478004, 1.1998060325846585, 1.1718223095554907, 1.1459107208385917, 1.1222089564891318, 1.1007043500827034, 1.081295036488801, 1.0638315587076355, 1.048143380282434, 1.0340553515783206, 1.0213980808978613, 1.0071697127132773])",-104.84876241272609,-196.5337605238568,-44.790267520631716,0.6361740714444032,0.0018148898787905391,1.1998060325846585,25.000000245353668,-1.0,"[-199.2484412927387, -113.37056486179803, 44.88695524152597]","[-203.42419054336386, -101.83676491244987, 53.520296247435546]","[-188.8696896643764, -104.39554167002194, 50.94752232257113]",10000000000.0,0.014173507690429688
2,-199.2692413330078,-113.71378326416016,44.94563293457031,0.6311156153678891,0.038866933435201666,1.317822323241506,23.04933282318425,"array('d', [-116.35135650634766, -113.92417932972273, -111.51481898945376, -109.12646596270008, -106.76185976555182, -104.42281216577655, -102.11014019202746, -99.82382450307688, -97.56321035263487, -95.32720324932153, -93.114434383162, -90.92338928316732, -88.75250245832038, -86.60022371742318, -84.46506174540747, -82.77096186149188])","array('d', [-200.0471954345703, -199.45371361814472, -198.78856180291532, -198.05051827418646, -197.23931079969458, -196.35704464021794, -195.40778714579415, -194.3967052096942, -193.32939773077047, -192.21145016658184, -191.0481714706762, -189.8444582263487, -188.6047393560874, -187.33296897290344, -186.032647152209, -184.96952520363726])","array('d', [-44.94447708129883, -44.866880828010835, -44.82181102991944, -44.798440793137566, -44.78955373745388, -44.7903020771536, -44.79739543829978, -44.80856908554859, -44.82223468871406, -44.83725193859402, -44.85278149647766, -44.8681939176359, -44.88301823419421, -44.89691949123918, -44.909697698237636, -44.918981565483826])","array('d', [0.6308639645576474, 0.6455698258501033, 0.6588762401512586, 0.6681932167453988, 0.6585035846495616, 0.6348674275644551, 0.6017904659722288, 0.562987016037466, 0.521347379140575, 0.4790222930583001, 0.4375488603215047, 0.39797445192982195, 0.36096056709505364, 0.3268628014059494, 0.29578920488674904, 0.2676411646649758])","array('d', [-0.03901031240820891, -0.023338734808530912, -0.01289346975058488, -0.005919371892120482, -0.0012678900374413341, 0.0018151310872808269, 0.0038260206991595474, 0.005091811460371425, 0.005828437271666751, 0.006179577115200639, 0.0062430894603450774, 0.006089487845511543, 0.005775276508919224, 0.005352833605411072, 0.0048777026447079565, 0.004413527961128311])","array('d', [1.3454707572844364, 1.316355191450146, 1.2863792951889739, 1.2556968052281148, 1.2250360862192884, 1.1954203455463348, 1.167517884373947, 1.1416884329423154, 1.1180649638751308, 1.0966324490205992, 1.077288167567563, 1.0598826757394073, 1.04424590485746, 1.0302033768643795, 1.0175864270784134, 1.003402847996123])",-104.42281216577655,-196.35704464021794,-44.7903020771536,0.6348674275644551,0.0018151310872808269,1.1954203455463348,25.00000024536887,-1.0,"[-199.03556825937326, -112.69925301206344, 44.88721662787253]","[-203.1094835432255, -101.1385396879256, 53.53320539128745]","[-188.58063610038334, -103.7815258519028, 50.901244882532794]",10000000000.0,0.014670610427856445
3,-199.2692413330078,-113.71378326416016,44.94563293457031,0.6311156153678891,0.038866933435201666,1.317822323241506,23.04933282318425,"array('d', [-115.91060638427734, -113.48613827299643, -111.07981358195877, -108.69482592825358, -106.33389097371885, -103.99878282738894, -101.69027853170248, -99.40832165299979, -97.15222548196341, -94.92086903361353, -92.71286192543897, -90.52667221001744, -88.36072020160121, -86.21344409615652, -84.08334298371126, -82.39333682317756])","array('d', [-199.92259216308594, -199.31815576610853, -198.64210877984846, -197.89326219701263, -197.07143050373085, -196.17878878456943, -195.21943919412897, -194.19855669254426, -193.1217310001489, -191.99452891805217, -190.82223658833163, -189.6097268815743, -188.36140592132656, -187.08120684328784, -185.77261092748486, -184.70299311520247])","array('d', [-44.944766998291016, -44.86704269933229, -44.8219098578855, -44.798508937695935, -44.78960660387819, -44.79034664520565, -44.79743475456843, -44.80860451947556, -44.82226699060647, -44.83728168030334, -44.85280920979585, -44.868220097869816, -44.883043297865086, -44.89694373663962, -44.9097212970599, -44.91900471426211])","array('d', [0.6310216188430785, 0.6457124775838757, 0.659005317300823, 0.6676927871374966, 0.6575649551929467, 0.6336560454303138, 0.6004373319398685, 0.5615884090719063, 0.5199693951739865, 0.4777070033805842, 0.43632026241058225, 0.39684350926461553, 0.35992924823487177, 0.325927276099888, 0.29494241317744696, 0.26687495577920456])","array('d', [-0.039079237729310996, -0.02337287959571971, -0.012910061461518862, -0.005927469816089041, -0.001272079913303799, 0.0018126536949977447, 0.003824284286171252, 0.0050904359474815974, 0.0058273030921236445, 0.006178659496767851, 0.006242380845601777, 0.006088966836925229, 0.005774901806927806, 0.0053525521206635365, 0.0048774661010008765, 0.004413314122279872])","array('d', [1.340959162512098, 1.3118344688721781, 1.2818501375380915, 1.2511797652777108, 1.220564688483886, 1.191015200381439, 1.1631884741247327, 1.1374363588541174, 1.113887058881416, 1.0925230987657095, 1.0732408093506123, 1.0558906750230002, 1.0403030231129984, 1.0263039893465864, 1.0137255906161249, 0.9995848396997034])",-103.99878282738894,-196.17878878456943,-44.79034664520565,0.6336560454303138,0.0018126536949977447,1.191015200381439,25.00000024832538,-1.0,"[-198.89409824943502, -112.262621508405, 44.88734721178051]","[-202.9010726239302, -100.68478933283583, 53.54170787427281]","[-188.38945506637867, -103.38290368330325, 50.87091495546306]",10000000000.0,0.013027191162109375
4,-198.9936981201172,-112.8386459350586,44.94586181640625,0.6309323310852047,0.038944877684116364,1.3086822191861012,23.047692691096806,"array('d', [-115.03040313720703, -112.61163857132394, -110.21169593331602, -107.83376834652907, -105.48051727782263, -103.15363645824267, -100.85381956916329, -98.58093381208657, -96.33422720086708, -94.11252495964082, -91.91439310932192, -89.73826452032529, -87.5825310246652, -85.44560758025501, -83.32597412010028, -81.64443083867654])","array('d', [-199.6673583984375, -199.04045165048205, -198.3420707373065, -197.57109204189734, -196.72750655991635, -195.81363072404554, -194.83363614850745, -193.7927127375582, -192.69643017859644, -191.5503161212944, -190.35960925959324, -189.12913331815878, -187.86324725062045, -186.56584083108055, -185.24035650787943, -184.15748249201954])","array('d', [-44.945228576660156, -44.86779687176135, -44.82291682258443, -44.79971828606937, -44.7909706937682, -44.79182568814614, -44.79899782652331, -44.8102287451783, -44.82393608634817, -44.83898442569677, -44.85453808566868, -44.86997016290087, -44.8848113060685, -44.89872747504692, -44.91151912098624, -44.92081271725802])","array('d', [0.6312909126281736, 0.6459561444512335, 0.6592257955798008, 0.6666188872758517, 0.6555925004139951, 0.6311261534549342, 0.5976194524295554, 0.5586802729148171, 0.5171066098386293, 0.47497580674080486, 0.4337697702849532, 0.39449606536973936, 0.35778871568448345, 0.32398560172525565, 0.29318490890612275, 0.2652847000006036])","array('d', [-0.038956113159656566, -0.02326161490838811, -0.012818725550889304, -0.005856550613687688, -0.0012189088965510635, 0.001851681100646843, 0.00385265809013597, 0.005111114009939514, 0.005842611179128254, 0.006190332262928624, 0.006251652917537542, 0.006096672547526714, 0.005781568228780306, 0.005358482344328449, 0.004882814163383974, 0.004418153040895979])","array('d', [1.3316889713194706, 1.3025486815228684, 1.2725499380282679, 1.241907298257773, 1.21138865477669, 1.1819775535764394, 1.1543083128038172, 1.1287166764824925, 1.1053211358578583, 1.0840992441279333, 1.0649454167704064, 1.0477100091359908, 1.0322241735111175, 1.0183153150174045, 1.005816858194302, 0.9917649333735438])",-103.15363645824267,-195.81363072404554,-44.79182568814614,0.6311261534549342,0.001851681100646843,1.1819775535764394,25.000000245413823,-1.0,"[-198.89409824943502, -112.262621508405, 44.88734721178051]","[-202.9010726239302, -100.68478933283583, 53.54170787427281]","[-188.38945506637867, -103.38290368330325, 50.87091495546306]",10000000000.0,0.012025117874145508
5,-198.9936981201172,-112.8386459350586,44.94586181640625,0.6309323310852047,0.038944877684116364,1.3086822191861012,23.047692691096806,"array('d', [-114.59101867675781, -112.17518739708133, -109.7785102201404, -107.40417870759448, -105.05482525411696, -102.73210216049071, -100.43666113524189, -98.16833153933642, -95.92632943918441, -93.70945400570706, -91.51625033749544, -89.34513456129899, -87.1944850577118, -85.0627058868129, -82.94826805455662, -81.27092066791371])","array('d', [-199.53668212890625, -198.89854650793444, -198.1890319294891, -197.40704521303465, -196.55266320411693, -195.62826984781418, -194.63806813676297, -193.58725243758778, -192.48137994105952, -191.3259567615299, -190.12619634577067, -188.88689666321943, -187.6123921577522, -186.30655018963486, -184.9727932006283, -183.8834309384172])","array('d', [-44.9454460144043, -44.868166518193966, -44.82341662335237, -44.80032173293442, -44.791653201263955, -44.79256692479922, -44.79978208232436, -44.81104443853118, -44.82477498522327, -44.83984085532884, -44.85540823267462, -44.87085150659168, -44.88570217460611, -44.89962671405354, -44.91242586203612, -44.921724880812896])","array('d', [0.6312423944473265, 0.6459122433724075, 0.6591860721844174, 0.6659412989381965, 0.6544773434919389, 0.6297446564307917, 0.5961058977741979, 0.5571325304830078, 0.515591306621356, 0.47353490633807716, 0.4324267885009413, 0.3932612753561158, 0.3566632924273729, 0.32296488761425884, 0.29226103033863565, 0.2644487400273531])","array('d', [-0.03889163956046108, -0.02320414456867132, -0.012771877676510448, -0.0058203009743021065, -0.0011917577850125874, 0.0018716334248629586, 0.0038672112950896755, 0.0051217760117050785, 0.005850559148546589, 0.006196439853910599, 0.006256539801855217, 0.0061007565751737694, 0.005785113205496243, 0.005361640302990509, 0.0048856630735976915, 0.004420730841688509])","array('d', [1.3270428339627127, 1.2979053545374857, 1.2679092080415992, 1.2372895910742474, 1.2068275481932522, 1.177492969885967, 1.1499087310425051, 1.124402642491818, 1.101088496196951, 1.0799415072226475, 1.060855255713093, 1.0436801287678328, 1.028247765336268, 1.014386262147301, 1.0019297914942489, 0.9879245262122538])",-102.73210216049071,-195.62826984781418,-44.79256692479922,0.6297446564307917,0.0018716334248629586,1.177492969885967,25.000000245428613,-1.0,"[-198.60530830005854, -111.3909779863397, 44.88745926571831]","[-202.48009353623254, -99.77959830654538, 53.55705564070529]","[-188.00341404904364, -102.58539177152926, 50.80873359679243]",10000000000.0,0.01147150993347168
6,-198.8528289794922,-112.40190124511719,44.94593811035156,0.630859792232513,0.038897696882486316,1.304227815070424,23.047371459042793,"array('d', [-114.15213775634766, -111.73925393722074, -109.34584751918914, -106.97510955803888, -104.62964362662129, -102.31106096412145, -100.01997191029551, -97.75616869606034, -95.518836151998, -93.30674805204525, -91.11842915265017, -88.95227933949397, -86.80666397337758, -84.67997658632447, -82.57067957433642, -80.89748240895473])","array('d', [-199.4039764404297, -198.75478276698246, -198.03430952500975, -197.24149334272835, -196.37649493455143, -195.44176375858996, -194.4415327819594, -193.38100003647978, -192.26570988385097, -191.1011468691042, -189.89249932450204, -188.64453967606775, -187.36157809652244, -186.04745976872448, -184.70558734761656, -183.60986105803076])","array('d', [-44.94553756713867, -44.868277306836866, -44.82356586185916, -44.8005109787091, -44.79187705612104, -44.792818240219965, -44.800054244560805, -44.81133216157818, -44.82507439881463, -44.84014930048451, -44.855723968048395, -44.87117341906196, -44.88602953407916, -44.89995898875878, -44.91276260108445, -44.9220648573909])","array('d', [0.6311601400375364, 0.6458378164882963, 0.6591187278913743, 0.6652485216043549, 0.6533567457947089, 0.6283647058636105, 0.5945984433190734, 0.5555935242479743, 0.5140859864322176, 0.472104299170189, 0.43109382518576506, 0.39203590130767485, 0.35554653408998954, 0.3219520562574852, 0.2913442896610784, 0.26361923868457465])","array('d', [-0.03889042884111406, -0.023190172965887264, -0.012755130709428292, -0.005805016289684207, -0.0011793077186137944, 0.0018811999224780478, 0.003874362610041534, 0.005127103889232655, 0.0058546052298448755, 0.006199633377375918, 0.006259187668539924, 0.006103056287927182, 0.005787175138553281, 0.0053635137609006605, 0.0048873640149475215, 0.004422269917205436])","array('d', [1.3224603692677355, 1.2933276539136371, 1.2633359098115156, 1.2327406425551974, 1.2023357635002931, 1.173077681599855, 1.145578046915664, 1.1201569221132377, 1.096923525658231, 1.075850807344266, 1.0568315479379524, 1.0397161798176087, 1.0243368297753943, 1.0105222812036172, 0.9981074467404256, 0.9841484572432901])",-102.31106096412145,-195.44176375858996,-44.792818240219965,0.6283647058636105,0.0018811999224780478,1.173077681599855,25.000000245443044,-1.0,"[-198.60530830005854, -111.3909779863397, 44.88745926571831]","[-202.48009353623254, -99.77959830654538, 53.55705564070529]","[-188.00341404904364, -102.58539177152926, 50.80873359679243]",10000000000.0,0.012895584106445312
7,-198.7098388671875,-111.96572875976562,44.94631576538086,0.6308910250663754,0.03856796398758883,1.2999246279385426,23.04982959258996,"array('d', [-113.71378326416016, -111.3039335470607, -108.9138904495599, -106.5468439900254, -104.20536781625154, -101.89103109150882, -99.60440204710282, -97.34523525195897, -95.11268391668352, -92.90549613763783, -90.72217612135839, -88.56110735595828, -86.42064206166631, -84.29916314602043, -82.19512431482535, -80.52617180066986])","array('d', [-199.2692413330078, -198.6088662262501, -197.87730871861274, -197.07353595100506, -196.19779360089694, -195.25259748434542, -194.24221108900426, -193.17183645700132, -192.04700531914006, -190.87318073706314, -189.65552593128373, -188.39878773019183, -187.10725194647162, -185.78474147949896, -184.4346390865942, -183.33245814691819])","array('d', [-44.94563293457031, -44.868438766980475, -44.82379811523838, -44.800805713425916, -44.79222213629833, -44.793201897659884, -44.80046668460854, -44.811765900211945, -44.82552404380186, -44.84061113937274, -44.856195532920076, -44.87165309916287, -44.886516261292265, -44.90045200212421, -44.9132612904008, -44.9225676568055])","array('d', [0.6311156153678891, 0.6457975288873788, 0.6590822740946316, 0.6645762817566996, 0.6522488958109942, 0.6269918006982106, 0.5930940020418388, 0.5540548169513949, 0.5125792666938145, 0.47067134764118956, 0.4297581022078425, 0.3908076960771885, 0.35442706995545875, 0.3209367329859425, 0.29042528863596323, 0.2627876920945598])","array('d', [-0.038866933435201666, -0.023160865836857617, -0.012727761557022932, -0.0057823201461748115, -0.0011616432670982682, 0.0018944705913694914, 0.0038841758021036506, 0.0051343721920693265, 0.005860091922038343, 0.006203921969698096, 0.006262693078972228, 0.006106051692841462, 0.005789823315500627, 0.005365898970803934, 0.004889523392754782, 0.0044242238032201195])","array('d', [1.317822323241506, 1.2886921864689584, 1.258702825204212, 1.2281302741736422, 1.197781436678706, 1.1685991068999655, 1.1411836126133739, 1.1158471925372313, 1.0926944298996781, 1.0716959598226803, 1.0527437263209003, 1.035688180703597, 1.02036192049756, 1.0065944057622198, 0.9942212844763041, 0.980308661767133])",-101.89103109150882,-195.25259748434542,-44.793201897659884,0.6269918006982106,0.0018944705913694914,1.1685991068999655,25.000000245457546,-1.0,"[-198.45799381042707, -110.95597504142681, 44.88760627726837]","[-202.26825196169986, -99.32854515823863, 53.564288081518285]","[-187.80898992479604, -102.18742243499426, 50.77922756788443]",10000000000.0,0.012304306030273438
8,-198.56497192382812,-111.5311279296875,44.94660186767578,0.6310397386550901,0.03789696842432013,1.2958550314095363,23.052544127477585,"array('d', [-112.8386459350586, -110.43493300776284, -108.0516650918739, -105.69203190628212, -103.35854713132822, -101.05269619486825, -98.77496433279819, -96.52503241183136, -94.3019921088164, -92.10454178156868, -89.9311459919769, -87.7801567103876, -85.6499009840797, -83.5387414284523, -81.44511519423655, -79.78456408959168])","array('d', [-198.9936981201172, -198.31133866572594, -197.558004120617, -196.73272097947518, -195.83589996937675, -194.87018458316342, -193.83989568551013, -192.7502411454728, -191.6067263896318, -190.41477122335445, -189.17948878544487, -187.90557506642622, -186.59726760173146, -185.2583451791399, -183.89215119122542, -182.77735243896726])","array('d', [-44.94586181640625, -44.86853711107352, -44.82385660309832, -44.80086297413606, -44.792291668219214, -44.79328611864875, -44.80056392026861, -44.81187358951973, -44.82564000788029, -44.84073391520766, -44.8563242954481, -44.871787436930894, -44.88665593851741, -44.90059677556779, -44.91341081878346, -44.922720656178406])","array('d', [0.6309323310852047, 0.6456316863738754, 0.658932213460305, 0.6631830205997445, 0.6500072718234633, 0.6242368952535889, 0.5900873801358639, 0.5509866347542097, 0.509578820050749, 0.46782000823403735, 0.42710139997186014, 0.38836540397597263, 0.3522012371559662, 0.31891802931716223, 0.2885981045784524, 0.26113438744010964])","array('d', [-0.038944877684116364, -0.023188250342255825, -0.012732643369462084, -0.00577856428410357, -0.001155619926503623, 0.0019002033576444588, 0.003888872107494485, 0.005138055783740196, 0.005863040507926729, 0.006206430233308502, 0.006264977988569185, 0.0061082288575064255, 0.005791919148233283, 0.00536788205605816, 0.004891346967458437, 0.004425873856000245])","array('d', [1.3086822191861012, 1.2795626953475268, 1.2495831414746208, 1.2190599247742124, 1.188825260964264, 1.1597950737986358, 1.1325475499808944, 1.1073797214228485, 1.0843872058817048, 1.063536188519766, 1.0447170306906473, 1.027780258411089, 1.0125594177426618, 0.9988853143184123, 0.9865950529361571, 0.9727745494069563])",-101.05269619486825,-194.87018458316342,-44.79328611864875,0.6242368952535889,0.0019002033576444588,1.1597950737986358,25.000000245486262,-1.0,"[-198.30878015730352, -110.52149653373398, 44.88847816067723]","[-202.05667097577626, -98.87903436997412, 53.57216339093677]","[-187.61434871545976, -101.79127860761649, 50.754689126726845]",10000000000.0,0.011940240859985352
9,-198.56497192382812,-111.5311279296875,44.94660186767578,0.6310397386550901,0.03789696842432013,1.2958550314095363,23.052544127477585,"array('d', [-112.40190124511719, -110.0012467374178, -107.62135160835507, -105.26540334332431, -102.9358848330023, -100.63423986570454, -98.36091296178598, -96.11554908586734, -93.89721006334825, -91.70457018587825, -89.53607486798066, -87.39006087809462, -85.26484313380791, -83.15877447891985, -81.07028409433634, -79.41387605265625])","array('d', [-198.8528289794922, -198.1597733380382, -197.39584436565414, -196.56009711718926, -195.65302187708434, -194.67732350823368, -193.63735034074094, -192.53831292949573, -191.3857039591492, -190.18492234752281, -188.94105705553798, -187.6587795197478, -186.34230394326073, -184.99538778063598, -183.62135537544475, -182.5004097558333])","array('d', [-44.94593811035156, -44.868728338962065, -44.82415098079058, -44.801241796861255, -44.79273618094148, -44.79378027446932, -44.8010951042628, -44.81243241519494, -44.82621976693721, -44.84132996144175, -44.85693348259313, -44.87240765103311, -44.88728573113687, -44.90123509243107, -44.91405681665979, -44.923372212456535])","array('d', [0.630859792232513, 0.6455660504885683, 0.6588728235699898, 0.6625195450617308, 0.6489315651818627, 0.6229114553930558, 0.5886389510266017, 0.5495073762556674, 0.5081314583371047, 0.46644408873804266, 0.42581911347274465, 0.3871864503697238, 0.3511267055499909, 0.31794346919789646, 0.287716000737334, 0.26033622680581325])","array('d', [-0.038897696882486316, -0.023143400019163686, -0.012694842500913616, -0.005748674092367872, -0.0011328391494389255, 0.0019172330166233702, 0.003901537911751096, 0.005147556351814967, 0.005870323885378686, 0.006212202050585882, 0.00626973601649224, 0.006112303956831858, 0.005795514993338706, 0.005371111819194715, 0.004894267258256087, 0.004428516244621796])","array('d', [1.304227815070424, 1.2751124907788671, 1.2451368177484932, 1.2146366954331307, 1.1844565476192184, 1.1554992749024828, 1.1283323807402799, 1.1032455687595653, 1.0803301293789103, 1.059550088687426, 1.040795027843855, 1.0239154926949425, 1.008745473652257, 0.9951164158729201, 0.9828661206125034, 0.9690900568908991])",-100.63423986570454,-194.67732350823368,-44.79378027446932,0.6229114553930558,0.0019172330166233702,1.1554992749024828,25.000000245499635,-1.0,"[-198.15802866419574, -110.08850277926958, 44.88977002078132]","[-201.84692240888054, -98.43229948788779, 53.58028138493049]","[-187.4206709047013, -101.39767361207319, 50.73601982139992]",10000000000.0,0.011137723922729492
10,-198.56497192382812,-111.5311279296875,44.94660186767578,0.6310397386550901,0.03789696842432013,1.2958550314095363,23.052544127477585,"array('d', [-111.96572875976562, -109.56805832410807, -107.19146591609635, -104.83913084100968, -102.51350346363722, -100.21598606728193, -97.94698322297772, -95.70610484737227, -93.49238364839495, -91.3044704166419, -89.1407918295452, -86.99966974032124, -84.87940713059541, -82.77834719816488, -80.69491123001485, -79.04258295519688])","array('d', [-198.7098388671875, -198.00645085781844, -197.23227873836353, -196.38640476209102, -195.46939587568426, -194.48401660297955, -193.4346426825644, -192.32648836251005, -191.1650351347556, -189.9556627559624, -188.7034377003163, -187.41300840254954, -186.0885671082263, -184.73385113259545, -183.35216679626143, -182.22521839309704])","array('d', [-44.94631576538086, -44.86981226257738, -44.82574215836256, -44.80319626272665, -44.79495076906205, -44.79618162653181, -44.8036314090376, -44.81506730577756, -44.8289278741604, -44.844093704773556, -44.85974076386834, -44.87525019437423, -44.89015787941615, -44.904132924817134, -44.916977493673365, -44.92630936119735])","array('d', [0.6308910250663754, 0.645594311405165, 0.6588983959134803, 0.6619583539260651, 0.6479675839514701, 0.62170076056581, 0.5873035817397555, 0.5481363771838883, 0.5067857169098696, 0.4651622457294914, 0.4246230947704265, 0.3860861048899648, 0.35012352161736204, 0.31703352972178417, 0.2868923757084599, 0.2595909800009986])","array('d', [-0.03856796398758883, -0.0229062923123455, -0.012524957900607276, -0.005627108888946695, -0.0010457303071874193, 0.0019799424254316246, 0.003947077568424154, 0.0051810864939274715, 0.005895507186749952, 0.006231624549604167, 0.006285210411813139, 0.006125084688842708, 0.005806449428779485, 0.005380746664731638, 0.004902924652410855, 0.004436349974281197])","array('d', [1.2999246279385426, 1.2708074955076032, 1.2408301515221956, 1.2103472075237978, 1.1802148231009073, 1.1513234823177139, 1.1242304628462334, 1.099218409819945, 1.0763744022538324, 1.055660323674186, 1.036964938142054, 1.020138751335738, 1.005016132113245, 0.9914291019966548, 0.9792161021098226, 0.9654815037236353])",-100.21598606728193,-194.48401660297955,-44.79618162653181,0.62170076056581,0.0019799424254316246,1.1513234823177139,25.000000248371993,-1.0,"[-198.15802866419574, -110.08850277926958, 44.88977002078132]","[-201.84692240888054, -98.43229948788779, 53.58028138493049]","[-187.4206709047013, -101.39767361207319, 50.73601982139992]",10000000000.0,0.011998653411865234
11,-198.2683868408203,-110.66355895996094,44.946773529052734,0.6318748593330381,0.03512592613697058,1.2884082059052326,23.05898897966932,"array('d', [-111.5311279296875, -109.13630106224197, -106.76287207836783, -104.4140051190898, -102.09211652786288, -99.79856788226954, -97.53372525684397, -95.29716496974804, -93.08789182092538, -90.90453402911265, -88.74550021795388, -86.60909781526979, -84.49361821177537, -82.3973951986395, -80.3188423324081, -78.67045599012908])","array('d', [-198.56497192382812, -197.85180938850036, -197.0679364492717, -196.21246044751544, -195.28602057439812, -194.29143826503977, -193.2331162628425, -192.11627363479906, -190.9463826160319, -189.72880604279024, -188.46859014700374, -187.17036245523798, -185.83829513370682, -184.47610700617312, -183.0870877983765, -181.95438099166623])","array('d', [-44.94660186767578, -44.87151875141305, -44.82844388664123, -44.80659827464367, -44.79884831361766, -44.800432458141756, -44.80813663871487, -44.81975816629881, -44.833756572954286, -44.84902709261196, -44.86475593223718, -44.880331384755884, -44.8952942782422, -44.909317052117906, -44.92220398830824, -44.93156640019166])","array('d', [0.6310397386550901, 0.6457288730330014, 0.6590201522869906, 0.6615220329219043, 0.647145317635368, 0.6206389495013169, 0.5861170832036197, 0.5469093575458025, 0.5055760514837081, 0.46400695339404857, 0.42354345665886967, 0.3850919795250492, 0.3492168211722342, 0.3162109991576928, 0.2861478546964016, 0.25891730946976305])","array('d', [-0.03789696842432013, -0.022437062660793577, -0.012195535013704512, -0.0053946629250438026, -0.0008806242615259357, 0.0020982469029474254, 0.004032835420547528, 0.005244212428075412, 0.005942915770009859, 0.006268150296967157, 0.006314235501845654, 0.006148964070870447, 0.005826796517031857, 0.005398624153620386, 0.00491897201061792, 0.00445087022575636])","array('d', [1.2958550314095363, 1.2667292885473114, 1.236743987638378, 1.2062712441691754, 1.1761782531291907, 1.1473439562139696, 1.1203160677575104, 1.0953705774595457, 1.0725905432449512, 1.0519357563243354, 1.0332941354271052, 1.0165160805972357, 1.0014362605672946, 0.9878871943743719, 0.9757078901972663, 0.9620107690211966])",-99.79856788226954,-194.29143826503977,-44.800432458141756,0.6206389495013169,0.0020982469029474254,1.1473439562139696,25.000000248376324,-1.0,"[-198.15802866419574, -110.08850277926958, 44.88977002078132]","[-201.84692240888054, -98.43229948788779, 53.58028138493049]","[-187.4206709047013, -101.39767361207319, 50.73601982139992]",10000000000.0,0.01176905632019043
12,-198.11659240722656,-110.23062896728516,44.94680404663086,0.6324457526206967,0.03298374265432357,1.2848398546364643,23.065469388875385,"array('d', [-110.66355895996094, -108.27396372291568, -105.90643112504576, -103.56406806391396, -101.24921629614607, -98.96315739269235, -96.70618394057458, -94.47780852236659, -92.27698284056723, -90.10229186826993, -87.95210933428477, -85.82471451587021, -83.71837595956104, -81.63140873269391, -79.56221085490935, -77.92138548446249])","array('d', [-198.2683868408203, -197.53730219838303, -196.7355870629719, -195.86239305482525, -194.9184925668129, -193.9068154386583, -192.83182013888654, -191.69874133550923, -190.5130406676237, -189.2800555052102, -188.00479959901418, -186.69186591141576, -185.34539283060337, -183.9690677205888, -182.5661518592187, -181.42251977847943])","array('d', [-44.946773529052734, -44.87752149725569, -44.83847975251779, -44.81944454681932, -44.813669735920904, -44.81665585000333, -44.82536697973808, -44.837722234447476, -44.85226494114624, -44.867948369488225, -44.88399916021476, -44.899833853662095, -44.91501291085043, -44.92922212180818, -44.9422743408055, -44.95175586925035])","array('d', [0.6318748593330381, 0.6464845212250082, 0.6597038875663397, 0.6611617290346434, 0.6460491792154528, 0.6190713665299181, 0.5842874941545967, 0.544972973768061, 0.5036410870533758, 0.46214393382280433, 0.421794165290785, 0.3834771135791765, 0.3477422420645009, 0.31487279286860376, 0.2849365001054503, 0.2578212304027668])","array('d', [-0.03512592613697058, -0.02052682455874503, -0.010869073547890748, -0.004466078984724118, -0.00022453472676574657, 0.002566861258043081, 0.0043719451161144274, 0.005493588072110302, 0.006130025934053888, 0.006412093508425547, 0.006428355877774352, 0.006242582548265152, 0.005906346836802181, 0.005468389126453576, 0.0049815548899326285, 0.004507497346453836])","array('d', [1.2884082059052326, 1.2592340764045715, 1.22920406351239, 1.1987217109633326, 1.1686743727722215, 1.1399206300040892, 1.1129909811409706, 1.0881491593714336, 1.0654705845375796, 1.0449108657762636, 1.0263560258737614, 1.0096559632952273, 0.994645639256054, 0.9811582772514043, 0.9690337602497023, 0.9553975836463763])",-98.96315739269235,-193.9068154386583,-44.81665585000333,0.6190713665299181,0.002566861258043081,1.1399206300040892,25.000000245546588,-1.0,"[-197.85066970711682, -109.22385849850006, 44.89409547404027]","[-201.43163552058886, -97.54477391530939, 53.59901748066518]","[-187.0346309059801, -100.61868006669897, 50.72197749147769]",10000000000.0,0.014651060104370117
13,-197.9623565673828,-109.79826354980469,44.946529388427734,0.6330364942550656,0.030330847948789614,1.2811896661904196,23.07159853751556,"array('d', [-110.23062896728516, -107.84355310153192, -105.47889111257801, -103.13970836035939, -100.82830471279537, -98.54592061491535, -96.29281203945254, -94.0684601681273, -91.8717906102362, -89.70136705744355, -87.55554601071745, -85.43259279131112, -83.33076456811587, -81.24836703775443, -79.18379040572759, -77.54670176188885])","array('d', [-198.11659240722656, -197.3769095085217, -196.56662118398648, -195.6848982433743, -194.73257661656277, -193.7126390762036, -192.62957249678652, -191.48862092472464, -190.29524272999163, -189.05476465917386, -187.77218621396472, -186.45208486112372, -185.09858365809652, -183.71535557795764, -182.3056488169146, -181.15667335488916])","array('d', [-44.94680404663086, -44.88205068831433, -44.84610601196454, -44.82922091555025, -44.82495283526431, -44.82900607645241, -44.83848234516861, -44.85139431950304, -44.8663494292696, -44.88234521273069, -44.89863910696124, -44.91466916697958, -44.930010829236934, -44.9443600940423, -44.95753639036522, -44.967107326565014])","array('d', [0.6324457526206967, 0.647001086870418, 0.660171292806101, 0.6611204329252927, 0.6456454030256057, 0.6184311587286039, 0.5835112705513779, 0.5441356526767527, 0.5027953374534998, 0.4613244647464954, 0.42102189900518255, 0.38276279034788885, 0.34708938801245337, 0.31428014231775603, 0.2844000062633506, 0.2573357906559283])","array('d', [-0.03298374265432357, -0.01905747733501442, -0.009852907258383357, -0.003756985691879389, 0.00027525172420775964, 0.002923170987524381, 0.0046293996924122675, 0.0056826556696337495, 0.006271677499851329, 0.006520879309185458, 0.006514435728122074, 0.006313059419433284, 0.005966134760453161, 0.005520769681176225, 0.005028527774508012, 0.0045500001738545915])","array('d', [1.2848398546364643, 1.255632614826786, 1.2255720082315, 1.1950765202943274, 1.165043176592769, 1.1363209774740821, 1.1094322280121804, 1.0846347512727776, 1.0620002171782166, 1.0414821223773378, 1.0229654754010093, 1.006299841593698, 0.9913202456200351, 0.977860187248559, 0.9657599204655875, 0.9521507268727977])",-98.54592061491535,-193.7126390762036,-44.82900607645241,0.6184311587286039,0.002923170987524381,1.1363209774740821,25.000000245557228,-1.0,"[-197.6937097260486, -108.7923232664199, 44.89733740313975]","[-201.22296678316914, -97.10242363749096, 53.608858010377716]","[-186.83990977451663, -100.23465186798187, 50.72496872714098]",10000000000.0,0.018546342849731445
14,-197.80567932128906,-109.36653137207031,44.94654083251953,0.63360720872879,0.02712768875062464,1.277486936250005,23.0779844320134,"array('d', [-109.79826354980469, -107.41378270713463, -105.05208533647344, -102.71618809459105, -100.40834497564585, -98.1297529207224, -95.8806298399041, -93.66042458277465, -91.46803604419088, -89.30200620881412, -87.16067405178576, -85.04229072506682, -82.94510186311129, -80.86740367248818, -78.80757844958023, -77.17433075553153])","array('d', [-197.9623565673828, -197.21388223196053, -196.39483175182875, -195.5043937621257, -194.54346851263992, -193.5150925807689, -192.42378167974368, -191.2747893112324, -190.07357041579948, -188.82544081877165, -187.5353854078912, -186.20796576836773, -184.84728924821968, -183.45701407434922, -182.04037503747654, -180.88594507192585])","array('d', [-44.946529388427734, -44.88734344612321, -44.85522518751694, -44.840992936457575, -44.83858189702687, -44.8439492861251, -44.85436721783856, -44.867964010989255, -44.883426195476, -44.899805871733975, -44.916398406659255, -44.93266834669057, -44.94820957163132, -44.96273066396092, -44.97605916055637, -44.98573976611388])","array('d', [0.6330364942550656, 0.6475356123627514, 0.6606549576240891, 0.6610808277650917, 0.6452330583094519, 0.6177756887284509, 0.5827158617421208, 0.543277271465884, 0.5019280974580487, 0.46048403944610167, 0.4202298051085781, 0.3820300854991732, 0.34641971573715946, 0.3136722187477888, 0.2838496858663706, 0.2568378401310589])","array('d', [-0.030330847948789614, -0.017241034491017323, -0.00859853382684045, -0.002882695649881816, 0.0008909113621432997, 0.003361785163479933, 0.004946154679811139, 0.005915168701562163, 0.006445805692963673, 0.00665454674357803, 0.006620152289286447, 0.006399571245685658, 0.006039495512079398, 0.005585025132331077, 0.005086144981827681, 0.0046021345990257066])","array('d', [1.2811896661904196, 1.2519481367041494, 1.2218558481742932, 1.1913466610854493, 1.1613275239942213, 1.1326375636425416, 1.1057906671911515, 1.0810385947235006, 1.058449170452739, 1.0379737229910222, 1.0194962177240907, 1.002865874997203, 0.9879177815438184, 0.9744857181668157, 0.9624103177850016, 0.9488287970894588])",-98.1297529207224,-193.5150925807689,-44.8439492861251,0.6177756887284509,0.003361785163479933,1.1326375636425416,25.00000024839164,-1.0,"[-197.53419065884063, -108.3613903199508, 44.90104009197796]","[-201.0105312697902, -96.6598310573543, 53.61818221429104]","[-186.64179897125132, -99.85553647752542, 50.732528215556094]",10000000000.0,0.01292109489440918
15,-197.80567932128906,-109.36653137207031,44.94654083251953,0.63360720872879,0.02712768875062464,1.277486936250005,23.0779844320134,"array('d', [-109.36653137207031, -106.9847055376572, -104.62604451619805, -102.29351029435661, -99.98930774846792, -97.71458852465864, -95.46953153169146, -93.25355280747402, -91.06552430643012, -88.90396622110913, -86.76719999331375, -84.65346263953226, -82.56098831377079, -80.48806379434431, -78.43306353173276, -76.80371491393848])","array('d', [-197.80567932128906, -197.0482951599584, -196.2203723866857, -195.32111563089737, -194.35148927627813, -193.3145835979781, -192.2149428047287, -191.0578293751923, -189.84869429516158, -188.59284194974418, -187.29524212734555, -185.9604400913131, -184.5925270880762, -183.1951462531858, -181.77151867083674, -180.6115909491559])","array('d', [-44.94654083251953, -44.894072850827875, -44.866564192684876, -44.85552311408564, -44.855343005062466, -44.86228716524739, -44.8738335497374, -44.88824993814827, -44.90431813086737, -44.921155883461566, -44.93810417958988, -44.95465942208852, -44.97043767522691, -44.98516266372497, -44.99867168539858, -45.0084823551732])","array('d', [0.63360720872879, 0.6480520158856524, 0.6611222175037985, 0.6610173556761834, 0.6447924949299761, 0.6170899945521277, 0.5818898811186206, 0.5423890802936208, 0.5010325082695974, 0.45961712644524666, 0.4194132730730337, 0.3812750315022023, 0.3457297224982459, 0.31304587893659486, 0.28328269810166534, 0.2563248083324197])","array('d', [-0.02712768875062464, -0.015051490377790324, -0.0070887727008058276, -0.0018318254571375989, 0.0016299881950710068, 0.003887685334293237, 0.005325470680666977, 0.00619322829239985, 0.0066537322529893585, 0.006813899634958389, 0.006745974130790712, 0.006502380204804837, 0.006126575235414916, 0.005661246286918889, 0.005154477580521382, 0.00466396430180382])","array('d', [1.277486936250005, 1.2482122522797485, 1.2180893326631757, 1.187567711644006, 1.1575643962839492, 1.1289084081163412, 1.1021050728148833, 1.0774000117117908, 1.054857170120101, 1.0344256993907963, 1.015988525162541, 0.9993945324195068, 0.9844788823392213, 0.9710756499254274, 0.9590258598460509, 0.9454728420673905])",-97.71458852465864,-193.3145835979781,-44.86228716524739,0.6170899945521277,0.003887685334293237,1.1289084081163412,25.00000024557705,-1.0,"[-197.372156102594, -107.93112124805747, 44.905854290104465]","[-200.79478551745507, -96.21678025866923, 53.627082590800796]","[-186.44068427732657, -99.4812179509363, 50.745551029035795]",10000000000.0,0.01381826400756836
16,-197.32022094726562,-108.0755386352539,44.9498291015625,0.6350424289703364,0.015243499539792486,1.2658075849202013,23.096674108625763,"array('d', [-108.505126953125, -106.12888785074806, -103.77658775275255, -101.45107683243862, -99.1544582298624, -96.88778996326684, -94.65117086898073, -92.44395003664697, -90.26494475103316, -88.11263119675218, -85.98529556338428, -83.88114655979163, -81.79839543003465, -79.7353101932926, -77.69024972479912, -76.06893031676866])","array('d', [-197.48464965820312, -196.70897496744652, -195.8628553955024, -194.94552633420827, -193.95808280429287, -192.90372383841873, -191.78705037089313, -190.61334162200427, -189.3880390126072, -188.11642225785207, -186.80342919316226, -185.4535708032055, -184.07090465141135, -182.65904237519723, -181.22117648925976, -180.05005195900515])","array('d', [-44.94801712036133, -44.9116826188988, -44.89522228243841, -44.891815932538584, -44.896963989387714, -44.90766752157024, -44.921899600545444, -44.93826285872815, -44.955767514125405, -44.973688563319726, -44.991476163742945, -45.00870293751163, -45.02503803135852, -45.04024141168231, -45.05417373694624, -45.064289338560975])","array('d', [0.6346876025199889, 0.6490295966754864, 0.662006765885312, 0.660809562959697, 0.6438117361578186, 0.6156095045203186, 0.5801260703956115, 0.5405026957678009, 0.4991361374032981, 0.45778467074394913, 0.4176890199647099, 0.3796814342093785, 0.3442737838897991, 0.31172435478281657, 0.28208641443076654, 0.2552423660062867])","array('d', [-0.01942962594330308, -0.009799757075670743, -0.0034741529800041567, 0.0006797744491273888, 0.003393406371201894, 0.005140304795847104, 0.006227287300819978, 0.006852975083942631, 0.007145975739951535, 0.007190247721100753, 0.007042418642171641, 0.006744086135477502, 0.0063309734428518135, 0.00583999627347315, 0.005314684907049379, 0.004808925884471649])","array('d', [1.2698679129269463, 1.2405303920272033, 1.2103494227174778, 1.1798070532419325, 1.149840973537569, 1.121259116875722, 1.0945491146669035, 1.069943989572782, 1.04749977403071, 1.027161208725504, 1.0088091388317906, 0.992291806693747, 0.9774445644320404, 0.9641021227635942, 0.9521063371889426, 0.9386134213236608])",-96.88778996326684,-192.90372383841873,-44.90766752157024,0.6156095045203186,0.005140304795847104,1.121259116875722,25.000000245598535,-1.0,"[-197.04012303788127, -107.07280478531996, 44.918874515133055]","[-200.35202041833494, -95.33032147152339, 53.645008903655466]","[-186.02879874028446, -98.74554980237238, 50.78467042550439]",10000000000.0,0.014268636703491211
17,-197.1531219482422,-107.6467514038086,44.95269775390625,0.6352004408836364,0.01081910822540523,1.2618053714421134,23.101876828163007,"array('d', [-108.0755386352539, -105.7023680873085, -103.3535175559018, -101.03178753455883, -98.73923033980866, -96.47685553752453, -94.24472039858266, -92.04213945369537, -89.86790201767505, -87.72046198715233, -85.59808788468538, -83.49897437967208, -81.42132146700196, -79.36338803981407, -77.32352545813296, -75.70639959158028])","array('d', [-197.32022094726562, -196.53484386160514, -195.67909767492552, -194.75223369611052, -193.75541511924845, -192.69189621056577, -191.56630487522833, -190.3839261345709, -189.15019361727838, -187.87037168330826, -186.5493793756099, -185.19170801477426, -183.801396107902, -182.3820376237575, -180.9368091386329, -179.7599009718026])","array('d', [-44.9498291015625, -44.92226259243756, -44.91179649492014, -44.912525473800244, -44.920554625317806, -44.93328731129056, -44.948966173409225, -44.96637591553317, -44.98465081460546, -45.00315119125964, -45.02138640498613, -45.03897039251908, -45.05560106781515, -45.07105803445935, -45.08521460096883, -45.09549171371041])","array('d', [0.6350424289703364, 0.6493506572956815, 0.6622972780171393, 0.6605268379931473, 0.6431292627522556, 0.6146742672609252, 0.579053448696167, 0.5393776464032819, 0.49801760039425813, 0.456710868192955, 0.4166824273209863, 0.37875299134680873, 0.34342632004689194, 0.310955360245434, 0.2813903263244362, 0.25461251939157564])","array('d', [-0.015243499539792486, -0.006948593834293663, -0.0015149627829233296, 0.002038861305317875, 0.004345984893361591, 0.005815691112778016, 0.00671252020985389, 0.007207134911084875, 0.007409537947961811, 0.007391204159261584, 0.0072002810381964115, 0.006872493058780891, 0.00643937062534914, 0.00593470039000119, 0.005399540897446181, 0.004885706975696106])","array('d', [1.2658075849202013, 1.236449405826473, 1.2062493533261054, 1.1757070328154362, 1.1457710766707982, 1.1172378492570647, 1.0905854971005788, 1.0660404252634434, 1.0436546020588915, 1.0233705743198949, 1.0050682170887877, 0.9885955448908941, 0.9737881034681648, 0.960481014912758, 0.9485166347461605, 0.9350586721865431])",-96.47685553752453,-192.69189621056577,-44.93328731129056,0.6146742672609252,0.005815691112778016,1.1172378492570647,25.000000248407233,-1.0,"[-196.86984962244347, -106.64492936272504, 44.926964737753714]","[-200.12256590076743, -94.88605036957166, 53.65328135114235]","[-185.8164731754788, -98.38279575712079, 50.805741600744156]",10000000000.0,0.014581441879272461
18,-197.1531219482422,-107.6467514038086,44.95269775390625,0.6352004408836364,0.01081910822540523,1.2618053714421134,23.101876828163007,"array('d', [-107.6467514038086, -105.27666408396414, -102.93125068493944, -100.61326783169763, -98.3247196656777, -96.0665690962287, -93.83883345261775, -91.64079425647931, -89.47121430394061, -87.32852652512449, -85.21098295466504, -83.11676526257706, -81.04406310781444, -78.99112705950107, -76.95630166972778, -75.34323575066479])","array('d', [-197.1531219482422, -196.3582147159311, -195.4930364956744, -194.55685290968717, -193.55089204001249, -192.47845958456128, -191.34420697047372, -190.15342223553998, -188.9115291188966, -187.62377510945532, -186.29505938739422, -184.92985286152222, -183.53217446007292, -182.10560011361366, -180.6532901928133, -179.4708238896181])","array('d', [-44.95269775390625, -44.934394131090016, -44.930253002188635, -44.93534047967404, -44.94640276640297, -44.961269186386104, -44.97846747620895, -44.99697470192319, -45.01605610237539, -45.035162013331686, -45.05386422604437, -45.071820238372446, -45.088758296830086, -45.10447871321777, -45.118868134122394, -45.12931294266156])","array('d', [0.6352004408836364, 0.6494936320255017, 0.6624266447040167, 0.6601049272467974, 0.6423279192763095, 0.6136379324520134, 0.5778946660169384, 0.5381786685842597, 0.49683501570243427, 0.45558097333733594, 0.41562618960321557, 0.37778021085274616, 0.342538990005223, 0.3101503698091629, 0.2806616775497731, 0.2539532106489192])","array('d', [-0.01081910822540523, -0.003938728344125165, 0.0005509245382909676, 0.003470359661800453, 0.005348174130098963, 0.0065253941480761775, 0.007221730106836318, 0.007578238366644171, 0.00768524498749693, 0.007601037176846427, 0.007364813126576646, 0.007006104163532383, 0.006552021268660357, 0.006033052185822803, 0.005487646595287616, 0.004965428119825209])","array('d', [1.2618053714421134, 1.2324379894596735, 1.2022294360728385, 1.171696611910289, 1.1417987516414863, 1.1133206808441143, 1.0867312585822104, 1.0622505191877192, 1.0399265954104295, 1.019700025575354, 1.0014498548947561, 0.9850239723046638, 0.9702581900318368, 0.9569880928807184, 0.9450565726106469, 0.9316351842651902])",-96.0665690962287,-192.47845958456128,-44.961269186386104,0.6136379324520134,0.0065253941480761775,1.1133206808441143,25.00000024562033,-1.0,"[-196.69700234332996, -106.21787368097527, 44.93646940816883]","[-199.89127930731527, -94.44107244350603, 53.66020411817095]","[-185.60250207898213, -98.02110587237657, 50.82926682334489]",10000000000.0,0.012501001358032227
19,-196.98326110839844,-107.2195053100586,44.95709228515625,0.6352469921112058,0.006278117187321116,1.2577410797264916,23.106697594764537,"array('d', [-107.2195053100586, -104.85261880662267, -102.51074163021742, -100.19659493460401, -97.91213747717272, -95.65828640561729, -93.43501952137986, -91.24158566088866, -89.07672144122407, -86.9388391912993, -84.82617483436583, -82.73689741317298, -80.66918660710958, -78.62128499510645, -76.59153062904879, -74.98254913680924])","array('d', [-196.98326110839844, -196.17870749698926, -195.30399364989375, -194.35840057400952, -193.3432217460354, -192.2618136984204, -191.1188500771596, -189.91962042380234, -188.6695371221231, -187.3738294772507, -186.03737567452762, -184.6646252518272, -183.25957675143505, -181.82578738707485, -180.36640075122915, -179.1783831586161])","array('d', [-44.95709228515625, -44.94829116073701, -44.950630435101615, -44.9601776994014, -44.97433923804198, -44.991382458205535, -45.01012801703838, -45.02975045651064, -45.04964936606223, -45.06936737797877, -45.08854027664435, -45.106870204367425, -45.12411649462208, -45.14010068183062, -45.15472307462349, -45.16533563607351])","array('d', [0.6352469921112058, 0.6495357533019664, 0.6624647532325506, 0.6595894972715951, 0.6414346418144246, 0.6125137156577237, 0.5766534421610379, 0.5369033304542128, 0.4955823091983926, 0.45438705890833403, 0.41451172949180404, 0.37675461182803077, 0.3416038149376893, 0.3093020728815064, 0.2798938417297886, 0.25325844400507386])","array('d', [-0.006278117187321116, -0.0008533023066564794, 0.0026660137929253747, 0.004933983520626442, 0.006371331027807844, 0.007248714517939352, 0.007739682752944418, 0.007954840626466805, 0.007964297201287674, 0.007812802972422865, 0.0075303776398787286, 0.007140204738593474, 0.006664866487918016, 0.006131468576635273, 0.005575782362129586, 0.005045176652694856])","array('d', [1.2577410797264916, 1.2283709861224135, 1.1981599281000441, 1.1676424152134686, 1.137788358965045, 1.1093707490086122, 1.0828490311018506, 1.0584368507804067, 1.0361785407242057, 1.016012686472941, 0.9978175623932428, 0.9814409867028394, 0.9667190863361598, 0.9534879500402452, 0.9415910405768173, 0.9282081777020198])",-95.65828640561729,-192.2618136984204,-44.991382458205535,0.6125137156577237,0.007248714517939352,1.1093707490086122,25.000000245631227,-1.0,"[-196.69700234332996, -106.21787368097527, 44.93646940816883]","[-199.89127930731527, -94.44107244350603, 53.66020411817095]","[-185.60250207898213, -98.02110587237657, 50.82926682334489]",10000000000.0,0.01312565803527832
20,-196.63548278808594,-106.36759948730469,44.96940994262695,0.6346717476844784,-0.0027996667195111648,1.2492723921921591,23.115826153539093,"array('d', [-106.36759948730469, -104.00759970987748, -101.67321143364667, -99.36711255596092, -97.0911788956514, -94.84623786364553, -92.63218903290763, -90.44821691546491, -88.293007214775, -86.16493278691604, -84.06219919638117, -81.98295211323703, -79.92535308269208, -77.88763042932585, -75.86811081197762, -74.26735825461061])","array('d', [-196.63548278808594, -195.81095492030454, -194.9165707125147, -193.951643189643, -192.91759662932793, -191.81788442642085, -190.65721659610915, -189.44087673851593, -188.1742459734088, -186.86250962221195, -185.5104973383527, -184.12261039598684, -182.70280193791598, -181.25458786928797, -179.78107497176183, -178.58199375021036])","array('d', [-44.96940994262695, -44.979591690402145, -44.99485363883664, -45.013277946782644, -45.033596359328605, -45.05495457775436, -45.07675968736154, -45.098581080959825, -45.120086693329895, -45.141003347249494, -45.16109445427803, -45.1801511597615, -45.197994757781004, -45.214489071067995, -45.22956160739421, -45.24049822771814])","array('d', [0.6346717476844784, 0.6490152505304312, 0.6619937844794188, 0.6580059938983183, 0.6391097147862775, 0.6097537738869508, 0.5736932650024625, 0.5339116199221492, 0.4926728899669357, 0.4516310331009113, 0.4119483472720572, 0.3744002050184526, 0.3394588993108153, 0.3073569869804627, 0.27813331898234134, 0.25166545700377807])","array('d', [0.0027996667195111648, 0.005303979145873274, 0.006879375831608297, 0.007844110681311727, 0.008401499996504306, 0.008680626110840606, 0.008762319776632449, 0.008696120939597011, 0.008511658210047035, 0.008226615136478765, 0.007852681398364765, 0.00740037597039109, 0.006883250357686224, 0.006321664429834106, 0.0057460403022089645, 0.005199232435310844])","array('d', [1.2492723921921591, 1.2199357941289435, 1.1897556773241185, 1.1593033542405604, 1.1295704678614769, 1.1013048084948693, 1.0749463471465917, 1.050695877729414, 1.0285903554018359, 1.0085647986021788, 0.9904962971074264, 0.9742328590441209, 0.9596115304301878, 0.9464696536355639, 0.9346520387506132, 0.9213574477322435])",-94.84623786364553,-191.81788442642085,-45.05495457775436,0.6097537738869508,0.008680626110840606,1.1013048084948693,25.000000245653098,-1.0,"[-196.19098121897636, -105.01402273074973, 44.97148178733031]","[-199.2117152378351, -93.179199344081, 53.67849742953909]","[-184.9771326546577, -97.00557578881909, 50.89722038726956]",10000000000.0,0.01199650764465332
21,-196.4575958251953,-105.94300079345703,44.97752380371094,0.6339951753616329,-0.007125144358724419,1.2448192397740223,23.119454973698968,"array('d', [-105.94300079345703, -103.58672887436805, -101.25633585023752, -98.95449154623925, -96.68303357915374, -94.44274483274395, -92.23348582868356, -90.05440924770828, -87.9041759781913, -85.78113999728052, -83.6834926601618, -81.60936895598668, -79.55692235386164, -77.52437499874637, -75.5100487418939, -73.91346348327221])","array('d', [-196.4575958251953, -195.622631193288, -194.71801126937888, -193.74306549951086, -192.69928351524806, -191.59016439608104, -190.42043170583239, -189.19536089823714, -187.92031247922532, -186.60044531120002, -185.2405609190492, -183.8450331657006, -182.4177897320773, -180.96232354670576, -179.48172102901424, -178.27709729052637])","array('d', [-44.97752380371094, -44.99674328256303, -45.018145335782314, -45.04077845473584, -45.0640090678271, -45.087402773911755, -45.110646614636856, -45.13349823881491, -45.155753380864255, -45.17722650582298, -45.19774171284546, -45.21713244998159, -45.23524945186325, -45.251976626014645, -45.26725438225716, -45.27833869740559])","array('d', [0.6339951753616329, 0.6484030629200803, 0.6614398570575234, 0.656890468356064, 0.6376302176018144, 0.6080713665750345, 0.5719298108096116, 0.5321535242540876, 0.4909775232039721, 0.45003341781657635, 0.41046701270313785, 0.3730419297745066, 0.33822243917356, 0.3062360050107883, 0.27711873936164305, 0.2507474273232012])","array('d', [0.007125144358724419, 0.008232124188004595, 0.008878937523048004, 0.009222080586894197, 0.009360370228768159, 0.009354957873970053, 0.009242262431979988, 0.009042621744758061, 0.00876633593342394, 0.008418183065129679, 0.008001124088347482, 0.007519653057525075, 0.006983027326731696, 0.006408397859727262, 0.005823638223853299, 0.0052694461400998385])","array('d', [1.2448192397740223, 1.21552200232235, 1.1853782467390885, 1.1549786458702878, 1.1253259637814292, 1.0971544911154871, 1.0708940650297527, 1.0467389894689314, 1.024722642582248, 1.0047784435569187, 0.9867830898759858, 0.9705848734095098, 0.9560214668784653, 0.9429309827329817, 0.9311590254268565, 0.9179152669494408])",-94.44274483274395,-191.59016439608104,-45.087402773911755,0.6080713665750345,0.009354957873970053,1.0971544911154871,25.00000024842711,-1.0,"[-195.97725616254957, -104.52202944148065, 44.98821142981749]","[-198.92224941946677, -92.65980830080528, 53.68388416551923]","[-184.712535899703, -96.58982235435441, 50.92000442407801]",10000000000.0,0.01624894142150879
22,-196.277099609375,-105.51933288574219,44.98701477050781,0.633006930351257,-0.01141655817627904,1.240381942191396,23.123217757652462,"array('d', [-105.51933288574219, -103.16684408432008, -100.84046593743368, -98.54286834327213, -96.27585406666198, -94.04016355721826, -91.83562016909161, -89.66134658883168, -87.51598065295333, -85.39785910177612, -83.30516057572794, -81.23601072464722, -79.18855613794507, -77.16101384628077, -75.15170184410967, -73.55913345995515])","array('d', [-196.277099609375, -195.43178468731287, -194.517050753917, -193.53224206582354, -192.4789095779073, -191.3605930173586, -190.18202464399357, -188.94846762819887, -187.66525855628862, -186.3375272774418, -184.97004524377311, -183.56715743101665, -182.13276493071615, -180.6703368219826, -179.18293847426466, -177.97301002351483])","array('d', [-44.98701477050781, -45.015196004353655, -45.042679000787395, -45.0694750262102, -45.09558209180638, -45.120983180519374, -45.14564333687129, -45.16950699019069, -45.19249658268077, -45.21451342643605, -45.23544173723373, -45.25515686195616, -45.27353869502515, -45.290491037234844, -45.30596707150082, -45.31719405750672])","array('d', [0.633006930351257, 0.6475088613211074, 0.660630737018059, 0.6555454266728187, 0.635946852255999, 0.6062090200744147, 0.570007776573341, 0.5302554096288976, 0.4891580405364196, 0.44832524822889047, 0.40888671845457586, 0.3715946893811132, 0.33690573415139313, 0.30504249268615663, 0.2760385416456297, 0.24977002391546807])","array('d', [0.01141655817627904, 0.011133626112762819, 0.010857814836866644, 0.010583983883148409, 0.010306674158145106, 0.01001933964618902, 0.009714195665095862, 0.009382549338224687, 0.009015506798290938, 0.008605043195935334, 0.008145467621043671, 0.007635306167349807, 0.007079563734310778, 0.006492212229698302, 0.005898597019126957, 0.005337271473472267])","array('d', [1.240381942191396, 1.2111421294419706, 1.1810514275372597, 1.1507196606120773, 1.121160346320295, 1.0930942252476241, 1.066941198047674, 1.0428893671682158, 1.020968820570593, 1.0011116244566, 0.983194280991358, 0.9670655176631161, 0.9525637488095402, 0.9395279432592353, 0.9278045648644921, 0.9146148966415265])",-94.04016355721826,-191.3605930173586,-45.120983180519374,0.6062090200744147,0.01001933964618902,1.0930942252476241,25.00000024567525,-1.0,"[-195.97725616254957, -104.52202944148065, 44.98821142981749]","[-198.92224941946677, -92.65980830080528, 53.68388416551923]","[-184.712535899703, -96.58982235435441, 50.92000442407801]",10000000000.0,0.014012813568115234
