,current_time,x_pos,y_pos,z_pos,roll,pitch,yaw,vel,x_traj,y_traj,z_traj,roll_traj,pitch_traj,yaw_traj,x_cmd,y_cmd,z_cmd,roll_cmd,pitch_cmd,yaw_cmd,vel_cmd,effector_dmg,effector_x,effector_y,effector_z,cost,time_solution
0,5.232771635055542,-224.46490478515625,-153.065673828125,49.95122146606445,0.6313375830650326,0.03245290741324416,0.9311509887364247,23.11601602558038,"array('d', [-154.85189819335938, -152.83474273788954, -150.85715155584396, -148.91742615469528, -147.0134074814565, -145.14272408554262, -143.30294051452395, -141.49164837029258, -139.70652228212776, -137.94535347325663, -136.20606857931884, -134.48673854407983, -132.78558073478086, -131.1009563858512, -129.43136483003428, -128.107984090845])","array('d', [-225.95864868164062, -224.48352392249993, -222.95488821548255, -221.37810468719945, -219.75821501250576, -218.0998599244533, -216.40724809972627, -214.6841582773558, -212.93396079271514, -211.15964885237102, -209.36387354715993, -207.54897917230176, -205.7170370454471, -203.86987697316454, -202.0091160550247, -200.50964379009756])","array('d', [-49.952552795410156, -49.884533978922995, -49.83939309206797, -49.809048061315465, -49.78837955600013, -49.77411036689298, -49.76411817736986, -49.75701130183948, -49.75186487332008, -49.74805565749927, -49.74515804608742, -49.74287841376629, -49.74101382595771, -49.73942638091375, -49.73802763786834, -49.73702111367653])","array('d', [0.6315812468528745, 0.5969813545093869, 0.5586837683913188, 0.5187544528904893, 0.4786895243213183, 0.4395357085068461, 0.4019967965555178, 0.3665200553414319, 0.3333633272093842, 0.30264596261078336, 0.2743870872736263, 0.24853427761346727, 0.22498509220887916, 0.20360331731601022, 0.1842313021939337, 0.16669939089199443])","array('d', [-0.0328932888805867, -0.021715236962903273, -0.014519551575817831, -0.009835235000933631, -0.0067512116979791615, -0.004698447665401163, -0.0033183485967097797, -0.0023827670017990575, -0.001745017679819521, -0.0013096194594328708, -0.0010134115130512387, -0.0008136273786924871, -0.000680267697577361, -0.0005911746593980502, -0.0005288593656725454, -0.00047853211725444866])","array('d', [0.9533799449589587, 0.9257163577542373, 0.900142319847753, 0.8767024594762732, 0.8553438992841385, 0.835958687637715, 0.8184113650298156, 0.8025558852876511, 0.7882455642560064, 0.7753386955115785, 0.7637015619697191, 0.7532099174997777, 0.7437495836644298, 0.7352165395051803, 0.7275167210699738, 0.7188276460812799])",-145.14272408554262,-218.0998599244533,-49.77411036689298,0.4395357085068461,-0.004698447665401163,0.835958687637715,25.00000024622104,-1.0,"[-223.57000984332535, -151.86284624501994, 49.902550649273756]","[-221.83413022541302, -139.8024437871467, 58.65088846318114]","[-209.80585439436234, -146.7997115961178, 53.050993487228524]",10000000000.0,0.012828588485717773
1,5.253518104553223,-224.1616668701172,-152.71282958984375,49.9510498046875,0.6312726140022273,0.03235753625631329,0.9266829649594166,23.11964459080577,"array('d', [-154.49171447753906, -152.48110225636094, -150.51022108818705, -148.57729644349317, -146.6801141551487, -144.81626428994733, -142.98328562559286, -141.17875346292664, -139.40033303735223, -137.64581110622566, -135.91311325240798, -134.20031162667888, -132.50562619274652, -130.82742152732, -129.16420059589768, -127.84587743312362])","array('d', [-225.6628875732422, -224.17885082892695, -222.64157034671547, -221.05645541173877, -219.42856315903865, -217.7625305406259, -216.06255115028597, -214.3323825793092, -212.57537129590295, -210.79448600631858, -208.9923539375838, -207.1712969026028, -205.33336552434224, -203.4803708848794, -201.61391335831746, -200.1099965696441])","array('d', [-49.952239990234375, -49.88434261942246, -49.83929143691248, -49.80901218887242, -49.78839194148371, -49.77415837748146, -49.764192785181315, -49.7571060807928, -49.751975254300284, -49.74817838966659, -49.74529081208804, -49.74301955533498, -49.74116214656099, -49.739581001039575, -49.738187885742526, -49.73718542555006])","array('d', [0.6315755248069761, 0.5961335546224827, 0.557256939931596, 0.5169576414326089, 0.4766836916977267, 0.43744140660056136, 0.39990170886630144, 0.3644856394000027, 0.33143037865919506, 0.3008391816021706, 0.27271881652603747, 0.24700759175433526, 0.22359639761657082, 0.2023445930450278, 0.18309208503487573, 0.16566858448588145])","array('d', [-0.03283735364675525, -0.021673737676715064, -0.014489091162153639, -0.00981292921494222, -0.006734811272922202, -0.004686276970078858, -0.003309191074156095, -0.002375751806168664, -0.0017395258149578857, -0.001305212268536357, -0.0010097787135502855, -0.0008105504479845632, -0.0006775946612988824, -0.0005888030482800413, -0.0005267248226470434, -0.0004766007028652801])","array('d', [0.9489470879223679, 0.9213087739498752, 0.8957984181789206, 0.8724443922257886, 0.8511825106353766, 0.8318973131962439, 0.8144485450387796, 0.7986872308852522, 0.7844650189800586, 0.7716393826532437, 0.7600763522802775, 0.7496518066570795, 0.7402519366447144, 0.7317732372339335, 0.7241222305084369, 0.7154879816006863])",-144.81626428994733,-217.7625305406259,-49.77415837748146,0.43744140660056136,-0.004686276970078858,0.8318973131962439,25.000000246224467,-1.0,"[-223.26140383315732, -151.51400870518316, 49.902521969526894]","[-221.4590016555066, -139.45824945073738, 58.64380420892662]","[-209.4707928089006, -146.50065995322524, 53.01465658565307]",10000000000.0,0.01792454719543457
2,5.272630929946899,-223.8592071533203,-152.3635711669922,49.95142364501953,0.6312102079391477,0.03224074468016626,0.9221477071431023,23.120447781214,"array('d', [-154.1330108642578, -152.12899129250295, -150.16486156143034, -148.23877201797993, -146.34845416447365, -144.49146027669784, -142.6653039711886, -140.86754478162243, -139.09583901824533, -137.34796938565495, -135.62186077975886, -133.9155868836461, -132.2273705476117, -130.55557994984392, -128.89872192014565, -127.5854334778543])","array('d', [-225.36563110351562, -223.8727016261363, -222.32680277941253, -220.73338819776802, -219.0975289810324, -217.42385718917316, -215.71655054971032, -213.9793449678984, -212.21556267863045, -210.42814763859377, -208.61970303958933, -206.7925280919239, -204.94865263682362, -203.08986896615372, -201.21776067617705, -199.70941925893254])","array('d', [-49.951961517333984, -49.88410446041243, -49.83908883606762, -49.808838735028594, -49.788241601946346, -49.77402614555547, -49.76407474756442, -49.75699927446838, -49.75187747322542, -49.74808800372901, -49.74520661742728, -49.74294065737952, -49.74108787096361, -49.73951082645412, -49.738121393047855, -49.73712158419566])","array('d', [0.631495893001556, 0.5952205243111343, 0.5557731807297555, 0.5151112809639984, 0.47463463923562477, 0.4353092235194106, 0.39777322449331043, 0.3624216060395619, 0.32947102195353023, 0.29900874490203194, 0.2710292767277512, 0.24546172919479706, 0.22219037983499038, 0.20107020257924996, 0.18193869358675935, 0.16462495265584892])","array('d', [-0.032820582389831474, -0.021658224701954974, -0.014476110624878195, -0.009802547049713102, -0.006726664063655483, -0.004679908181667848, -0.0033041816458598823, -0.002371759200785097, -0.0017362856528135514, -0.001302527056199022, -0.0010075040523001549, -0.0008085826247396083, -0.0006758606962480007, -0.0005872531337136962, -0.0005253266944468622, -0.00047533540265749195])","array('d', [0.9445066014912465, 0.9168976210558689, 0.8914542551041106, 0.8681887211476206, 0.8470256676617929, 0.8278422536232053, 0.8104935273628668, 0.794827655194288, 0.7806946667378192, 0.7679512486224447, 0.7564632017989797, 0.7461065462461386, 0.7367678539306384, 0.7283441447293207, 0.720742533855321, 0.7121638693907056])",-144.49146027669784,-217.42385718917316,-49.77402614555547,0.4353092235194106,-0.004679908181667848,0.8278422536232053,25.00000024863178,-1.0,"[-222.95351301405145, -151.1688410138995, 49.90307090585024]","[-221.08362245285963, -139.1181024931306, 58.63709691870493]","[-209.13632092193285, -146.20631135496387, 52.97853868712832]",10000000000.0,0.014336347579956055
3,5.286564588546753,-223.8592071533203,-152.3635711669922,49.95142364501953,0.6312102079391477,0.03224074468016626,0.9221477071431023,23.120447781214,"array('d', [-153.41998291015625, -151.42928178430995, -149.47879365114977, -147.56651493832013, -145.6900668852621, -143.8469254733809, -142.03455367804727, -140.25047936683472, -138.492340967454, -136.75791310599348, -135.04511936842184, -133.3520365881035, -131.6768934838924, -130.0180655326117, -128.37406738243112, -127.07099306184178])","array('d', [-224.76663208007812, -223.25597061010697, -221.6928858650704, -220.08291771128935, -218.43116414105637, -216.74224725707688, -215.02031335834917, -213.269055509503, -211.49174808765028, -209.69128615350667, -207.87022538471942, -206.0308202793812, -204.17505954209722, -202.3046982492761, -200.42128675263763, -198.90413602111198])","array('d', [-49.95144271850586, -49.88398488972983, -49.83925146637818, -49.80920142583514, -49.78874707944062, -49.774634573003446, -49.76475840702658, -49.75773884164581, -49.752659440223276, -49.748902905465314, -49.746047809906024, -49.743803469422794, -49.74196900528781, -49.74040792479094, -49.73903270751106, -49.73804316194898])","array('d', [0.6314047574996945, 0.5934555517783425, 0.552860924250348, 0.5114683506868228, 0.4705810256065225, 0.43108430814603854, 0.3935510641228961, 0.35832420404670073, 0.3255793673520454, 0.29537184620842216, 0.2676715556182193, 0.24238914000087955, 0.219395571845492, 0.19853698199267325, 0.17964598657169742, 0.16255042536784434])","array('d', [-0.032632794231176376, -0.021525588824981904, -0.014382300320973271, -0.009735844703043216, -0.006678818518186714, -0.0046451736855361, -0.0032785777291733276, -0.0023525304140387527, -0.0017215200567499704, -0.0012908925977390133, -0.0009980692090381497, -0.0008006959822428357, -0.0006690712070631664, -0.0005812581555077198, -0.0005199386427944447, -0.000470460312752197])","array('d', [0.9356128732350208, 0.908058700741711, 0.8827457663516334, 0.8596539186171285, 0.8386855233400553, 0.8197030227049632, 0.8025520823758624, 0.7870751327925495, 0.7731189293470372, 0.7605385412681629, 0.7491992670819021, 0.7389773701722091, 0.7297601521738395, 0.7214456568489229, 0.7139421657404798, 0.7054736841794493])",-143.8469254733809,-216.74224725707688,-49.774634573003446,0.43108430814603854,-0.0046451736855361,0.8197030227049632,25.000000246234297,-1.0,"[-222.95351301405145, -151.1688410138995, 49.90307090585024]","[-221.08362245285963, -139.1181024931306, 58.63709691870493]","[-209.13632092193285, -146.20631135496387, 52.97853868712832]",10000000000.0,0.012682676315307617
4,5.299434423446655,-223.24937438964844,-151.66917419433594,49.952301025390625,0.6308271884918212,0.03167448937892914,0.9127646247532705,23.122560451320044,"array('d', [-153.065673828125, -151.0817088824638, -149.13811735238087, -147.23281712092782, -145.36337381624926, -143.52722524358458, -141.7218092058494, -139.94463795047116, -138.1933411962142, -136.46568976315373, -134.75960680829, -133.07317095457577, -131.4046140552766, -129.75231542045304, -128.11479377398638, -126.81685500395861])","array('d', [-224.46490478515625, -222.94539027645865, -221.3737303482725, -219.75550561075246, -218.09582607228023, -216.3993080408975, -214.6700816702593, -212.91181840433546, -211.12776862261072, -209.32080293954053, -207.4934533115505, -205.6479519298516, -203.7862669820435, -201.91013498450152, -200.02108970821013, -198.49953964849885])","array('d', [-49.95122146606445, -49.88414084508961, -49.8396661274278, -49.80979505286359, -49.78946582590968, -49.775441896100276, -49.76562936345193, -49.75865630566132, -49.75361159295741, -49.749881561012856, -49.74704729030224, -49.74481983813801, -49.74299953326736, -49.74145070553675, -49.740086366063736, -49.739104660350854])","array('d', [0.6313375830650326, 0.5925530352394578, 0.5513868696256001, 0.509630949523357, 0.46853996319242514, 0.4289589710843603, 0.39142824906702633, 0.3562647573448636, 0.3236236856521298, 0.29354437078673196, 0.265984450577811, 0.24084533947494435, 0.21799135440438114, 0.1972641995586166, 0.17849404733266447, 0.1615081075466922])","array('d', [-0.03245290741324416, -0.02140264576247389, -0.014297606553901856, -0.009676925073022, -0.006637348067925911, -0.004615583491038522, -0.0032571251045343443, -0.0023366833062951255, -0.0017095514308914836, -0.0012816140726285227, -0.000990656715308011, -0.0007945762496267611, -0.0006638485600998746, -0.000576668035844402, -0.0005158186727287713, -0.00046673240918947904])","array('d', [0.9311509887364247, 0.9036254054024123, 0.8783785897523634, 0.8553742258465951, 0.8345036190653646, 0.8156219287046393, 0.7985701811467829, 0.7831879686534818, 0.7693204233873799, 0.7568218101880276, 0.7455571757820041, 0.7354029027771511, 0.7262466549799538, 0.7179869860661391, 0.7105327596001275, 0.7021196560330742])",-143.52722524358458,-216.3993080408975,-49.775441896100276,0.4289589710843603,-0.004615583491038522,0.8156219287046393,25.00000024623743,-1.0,"[-222.95351301405145, -151.1688410138995, 49.90307090585024]","[-221.08362245285963, -139.1181024931306, 58.63709691870493]","[-209.13632092193285, -146.20631135496387, 52.97853868712832]",10000000000.0,0.011723518371582031
5,5.312751770019531,-223.24937438964844,-151.66917419433594,49.952301025390625,0.6308271884918212,0.03167448937892914,0.9127646247532705,23.122560451320044,"array('d', [-152.71282958984375, -150.73565348745785, -148.79900799572792, -146.90073341759594, -145.03834022954516, -143.20922831881782, -141.41081048793026, -139.64058349740137, -137.89616847208623, -136.17533253186406, -134.47599850475424, -132.79624689806383, -131.13431278834153, -129.48857940079893, -127.85756960908334, -126.56479738481156])","array('d', [-224.1616668701172, -222.63332001170082, -221.05310429889732, -219.42664125610793, -217.75905285073762, -216.0549495529744, -214.31844539049138, -212.55319025747428, -210.7624106359964, -208.9489528053359, -207.11532511054682, -205.26373753782934, -203.39613784860205, -201.51424407818342, -199.61957348443886, -198.09363418555907])","array('d', [-49.9510498046875, -49.884171469978206, -49.839838993175036, -49.81006827941842, -49.78981035905135, -49.775837610286764, -49.76606230396299, -49.75911677318091, -49.75409282702559, -49.75037883870721, -49.74755730797677, -49.74534028357731, -49.743528784291165, -49.74198761131972, -49.740630081635224, -49.739653288089])","array('d', [0.6312726140022273, 0.5916524967915867, 0.5499148615824364, 0.5077956133327451, 0.4665008509304592, 0.4268353635154372, 0.3893068934092091, 0.3542065003894522, 0.3216689567435553, 0.2917176585893184, 0.26429796789900534, 0.23930206209023336, 0.21658759153826032, 0.1959918223726008, 0.17734247396549194, 0.16046612078011951])","array('d', [-0.03235753625631329, -0.021335654133758618, -0.014250455896680843, -0.00964355134683222, -0.006613515420019604, -0.004598360381811442, -0.003244490376137933, -0.0023272430504485183, -0.0017023412121389713, -0.0012759633603898824, -0.0009860972330052252, -0.0007907807717334058, -0.0006605906016925062, -0.000573795751977595, -0.0005132382560747195, -0.0004643975515613488])","array('d', [0.9266829649594166, 0.8991858245017019, 0.8740049135979124, 0.8510877553284039, 0.8303146346759466, 0.8115334639975905, 0.7945806520288435, 0.7792929615339436, 0.7655139014516563, 0.7530969275393699, 0.741906828176109, 0.731820098535885, 0.7227247587458753, 0.7145198677090622, 0.7071148675010586, 0.6987570830004431])",-143.20922831881782,-216.0549495529744,-49.775837610286764,0.4268353635154372,-0.004598360381811442,0.8115334639975905,25.000000246240493,-1.0,"[-222.33249343525574, -150.4829732394321, 49.90479723546591]","[-220.32307622227285, -138.44161272500327, 58.620752686575216]","[-208.46106667323468, -145.62782752471912, 52.90664327995089]",10000000000.0,0.011855840682983398
6,5.329112768173218,-222.9419708251953,-151.32411193847656,49.952789306640625,0.630532383918762,0.031391803175210856,0.9082565466549731,23.123064508585347,"array('d', [-152.3635711669922, -150.39332559624827, -148.46376946405545, -146.57266380439162, -144.7174629800208, -142.89552841194222, -141.10424760516835, -139.34110169786786, -137.60370319368724, -135.88981555793563, -134.19736138302318, -132.52442318274444, -130.86923939326303, -129.23019729451167, -127.60582404497409, -126.31831471530131])","array('d', [-223.8592071533203, -222.32192516471562, -220.73305525599972, -219.0982595487449, -217.4226716240489, -215.71089579348455, -213.9670296694269, -212.19470133208915, -210.3971131202551, -208.57708674644422, -206.73710672570928, -204.87936063388568, -203.0057756151619, -201.11805104809523, -199.21768751768536, -197.68730333312902])","array('d', [-49.95142364501953, -49.88479141801389, -49.8406293979042, -49.81097721902367, -49.79080225186822, -49.77688804653523, -49.767154494599964, -49.760239135469796, -49.755237351255644, -49.75153998365498, -49.74873125027988, -49.74652440153226, -49.74472129489515, -49.743187305557264, -49.7418361210089, -49.740863895287184])","array('d', [0.6312102079391477, 0.590742302323287, 0.5484250307611063, 0.505937200465068, 0.4644355498554437, 0.4246840534989915, 0.3871575148815626, 0.3521207750271014, 0.3196879302360766, 0.28986622316973215, 0.26258856573648903, 0.23773775890114707, 0.21516467973605294, 0.1947020809279606, 0.1761751839594149, 0.15940991300929258])","array('d', [-0.03224074468016626, -0.02125488560728203, -0.014194424240304183, -0.009604465476739453, -0.006586042747206605, -0.004578864489819945, -0.0032304908063735672, -0.002317041839522165, -0.0016947689772727295, -0.0012702086858074094, -0.0009815931543894812, -0.0007871300893903383, -0.0006575175274505089, -0.0005711153674986617, -0.0005108378601958547, -0.00046222558328317277])","array('d', [0.9221477071431023, 0.8946791958253805, 0.869564849831708, 0.8467358040503669, 0.8260612056594255, 0.8073816521472174, 0.7905288897164328, 0.7753368192694163, 0.7616473027190162, 0.7493129699123582, 0.738198340123588, 0.7281800155892795, 0.7191463716068973, 0.7109969745083067, 0.7036418493582718, 0.6953401326966528])",-142.89552841194222,-215.71089579348455,-49.77688804653523,0.4246840534989915,-0.004578864489819945,0.8073816521472174,25.000000246243527,-1.0,"[-222.01974349572382, -150.14204585357808, 49.90570933522304]","[-219.94335096635018, -138.10465402874325, 58.611442625380796]","[-208.12269011736552, -145.3384361552637, 52.87172370897783]",10000000000.0,0.012205123901367188
7,5.348107099533081,-222.6328582763672,-150.9805145263672,49.95328140258789,0.6298598051071165,0.03102221712470049,0.9038205305722096,23.12531981585464,"array('d', [-151.66917419433594, -149.7133702516162, -147.79856681306603, -145.92235823949676, -144.0820832507528, -142.2750251916717, -140.49852098034185, -138.7500211304184, -137.02712185674443, -135.32758044579973, -133.6493202293943, -131.9904289614107, -130.34915299689214, -128.72388886736522, -127.11317336669603, -125.83648268417282])","array('d', [-223.24937438964844, -221.69370912955029, -220.087067688924, -218.4351851777254, -216.74321218310263, -215.01573578823485, -213.2568167820735, -211.47003629395005, -209.65854555930522, -207.8251147364034, -205.97217857998334, -204.10187801192552, -202.21609733669197, -200.31649721182382, -198.4045436421803, -196.86510680461126])","array('d', [-49.952301025390625, -49.88684844346075, -49.84348316531596, -49.814374380860116, -49.794574048495754, -49.78092122143651, -49.771372460748374, -49.76458974029238, -49.75968488769863, -49.75605993555032, -49.753306799256066, -49.751144066843864, -49.749377297217656, -49.74787438692172, -49.74655064538642, -49.745598171334315])","array('d', [0.6308271884918212, 0.5886395527204143, 0.5451542376942037, 0.501930670417108, 0.4600234232063803, 0.4201125116718603, 0.38260523212629877, 0.34771280665884857, 0.3155070986618897, 0.28596237783028106, 0.25898615452281726, 0.2344421096809999, 0.21216732190268742, 0.19198536783222608, 0.17371641813507097, 0.15718512948780622])","array('d', [-0.03167448937892914, -0.020873989569229662, -0.013935785703223073, -0.00942700316760611, -0.006462881467337411, -0.0044923092115150285, -0.003168797214145774, -0.002272340617980369, -0.0016617301947361703, -0.0012451813960168636, -0.0009620512449351887, -0.0007713167178046368, -0.0006442193251221256, -0.0005595218936660002, -0.0005004566969516349, -0.00045283231707286885])","array('d', [0.9127646247532705, 0.8853690863240272, 0.8604033744905724, 0.8377652336944262, 0.8173013292897215, 0.7988375919009326, 0.7821964688576436, 0.7672061848919142, 0.7537053622431668, 0.7415450361302829, 0.7305892469474033, 0.720714872388205, 0.7118110609004098, 0.7037784568524832, 0.6965283132054837, 0.6883446666255324])",-142.2750251916717,-215.01573578823485,-49.78092122143651,0.4201125116718603,-0.0044923092115150285,0.7988375919009326,25.000000246249524,-1.0,"[-221.70538567323925, -149.802537483048, 49.90675554031617]","[-219.56312253360628, -137.76610670348404, 58.59784538735693]","[-207.78335210041465, -145.04939284435787, 52.83670387447432]",10000000000.0,0.016524314880371094
8,5.364798307418823,-222.32199096679688,-150.63841247558594,49.953765869140625,0.6285081505775452,0.030302666127681697,0.8995103398945672,23.130866225085835,"array('d', [-151.32411193847656, -149.37530238954557, -147.46763162009776, -145.598614856648, -143.76553637602794, -141.96564308312128, -140.19624854488498, -138.45478938648876, -136.7388547062303, -135.04619943373606, -133.37474778708844, -131.7225905020483, -130.08797814686145, -128.46931205950054, -126.865133984429, -125.59362752050374])","array('d', [-222.9419708251953, -221.37752726118924, -219.76241184725527, -218.10239110954322, -216.40262125778366, -214.66767940168347, -212.90160754728916, -211.1079635847512, -209.2898737839848, -207.4500832933294, -205.59100282737043, -203.71475082586198, -201.82319098178874, -199.9179653405864, -198.0005232941788, -196.4568107966097])","array('d', [-49.952789306640625, -49.8879251213257, -49.84495644467788, -49.81611765977758, -49.796503161507815, -49.7829797776518, -49.77352238037559, -49.766805123656724, -49.76194802125954, -49.75835867006091, -49.755632809751425, -49.75349167858122, -49.751742672592606, -49.75025493938952, -49.74894459273876, -49.74800176453552])","array('d', [0.630532383918762, 0.5875356681659224, 0.5435042559681527, 0.4999398205786129, 0.4578479734753706, 0.41786872385866974, 0.380377308897702, 0.34555953482178564, 0.31346726563420085, 0.2840591640484388, 0.2572307206370777, 0.23283657227113486, 0.21070727567316908, 0.19066207810458205, 0.17251877898598833, 0.156101460674296])","array('d', [-0.031391803175210856, -0.02068424147295758, -0.013807183403840326, -0.00933891492558458, -0.006401846355771329, -0.004449484398539616, -0.003138324693700427, -0.0022503012710523218, -0.0016454728548453152, -0.0012328917570349842, -0.0009524748211599461, -0.0007635814278867007, -0.000637723032611808, -0.0005538625478777522, -0.0004953902430728137, -0.0004482479997704032])","array('d', [0.9082565466549731, 0.8809019742204495, 0.8560122257131187, 0.8334692872502402, 0.8131093069482622, 0.7947513961516328, 0.7782136993811293, 0.7633218277030025, 0.7499129227963758, 0.737837303903593, 0.726958814386622, 0.717154486196138, 0.7083138540147185, 0.7003380904173264, 0.6931390458040634, 0.6850128233578819])",-141.96564308312128,-214.66767940168347,-49.7829797776518,0.41786872385866974,-0.004449484398539616,0.7947513961516328,25.00000024625227,-1.0,"[-221.38942910736566, -149.464418035819, 49.90831882599745]","[-219.18317869752156, -137.42360189456423, 58.57729833811773]","[-207.44323429985198, -144.76138688463624, 52.804030894191285]",10000000000.0,0.011599302291870117
9,5.379064083099365,-222.32199096679688,-150.63841247558594,49.953765869140625,0.6285081505775452,0.030302666127681697,0.8995103398945672,23.130866225085835,"array('d', [-150.9805145263672, -149.0386053211486, -147.13794027539942, -145.2759594384219, -143.44989662821203, -141.65696585678978, -139.8944603461499, -138.15980532861266, -136.4505848433739, -134.76455316068925, -133.09963679370568, -131.45393064086656, -129.82569048637004, -128.2133233393194, -126.61537665237533, -125.34879889580584])","array('d', [-222.6328582763672, -221.05982520552925, -219.43645682982643, -217.7685411649235, -216.0612331260262, -214.31909505579168, -212.54614686992528, -210.7459209470148, -208.92151703777103, -207.0756542242505, -205.21071846657853, -203.32880524083612, -201.43175730271986, -199.52119786152554, -197.59855953697542, -196.05079938076983])","array('d', [-49.95328140258789, -49.88918494517297, -49.84673141061261, -49.818242087527516, -49.79886746804125, -49.78551084218176, -49.77617098500453, -49.76953787699895, -49.764742129157995, -49.76119851996862, -49.7585077132224, -49.756394353206176, -49.75466819367013, -49.75319998611554, -49.75190687484804, -49.75097645381721])","array('d', [0.6298598051071165, 0.5861172717635629, 0.5415933282436347, 0.49773230842175276, 0.45549188784146477, 0.41547329250096254, 0.3780209118848242, 0.3432962425464826, 0.3113321169189419, 0.282072415554737, 0.25540129808672646, 0.2311649206145034, 0.20918776581953225, 0.18928509221050394, 0.17127256743180555, 0.1549738417271878])","array('d', [-0.03102221712470049, -0.02043738486607533, -0.013640525925878867, -0.009225102335060157, -0.006323163844191118, -0.0043943654371131, -0.0030991449939442267, -0.0022219806040971748, -0.0016245857765891554, -0.0012171001870295507, -0.0009401654343598599, -0.0007536344735104031, -0.0006293662927178838, -0.0005465808328392116, -0.0004888709313554484, -0.0004423490820372157])","array('d', [0.9038205305722096, 0.8765270318701474, 0.8517289084781131, 0.8292934020008487, 0.8090469860606013, 0.7908026065824666, 0.7743745956236183, 0.7595863122409753, 0.746273682108719, 0.7342865010351202, 0.7234885547574156, 0.7137571297166968, 0.7049822182758105, 0.6970655717864956, 0.6899196740468201, 0.6818532150850771])",-141.65696585678978,-214.31909505579168,-49.78551084218176,0.41547329250096254,-0.0043943654371131,0.7908026065824666,25.000000246254846,-1.0,"[-221.38942910736566, -149.464418035819, 49.90831882599745]","[-219.18317869752156, -137.42360189456423, 58.57729833811773]","[-207.44323429985198, -144.76138688463624, 52.804030894191285]",10000000000.0,0.010770082473754883
10,5.398429870605469,-221.69488525390625,-149.95863342285156,49.95485305786133,0.6220328211784362,0.027937985956668743,0.8913043896344044,23.14387425018631,"array('d', [-150.63841247558594, -148.70319847154548, -146.80928054975257, -144.9540282956744, -143.13463114589885, -141.34827605034022, -139.59224097874954, -137.86394405428712, -136.16096780713949, -134.48106878045712, -132.82217821339268, -131.18239720041245, -129.5599884647567, -127.95336617034748, -126.361084777501, -125.09896545971306])","array('d', [-222.32199096679688, -220.74066702562456, -219.1094052422486, -217.43399613979378, -215.71958058806464, -213.9706974592358, -212.1913385797298, -210.3850066593164, -208.554772041634, -206.70332573497518, -204.83302754840562, -202.94594901926556, -201.04391127837602, -199.12851820406544, -197.20118527602995, -195.64977051608017])","array('d', [-49.953765869140625, -49.89116007283204, -49.84970070943624, -49.82188268541331, -49.80296729358672, -49.78992916871952, -49.78081349759332, -49.774340799098326, -49.76966202927656, -49.76620569837995, -49.763581855056806, -49.761521618650995, -49.75983921625453, -49.75840843821579, -49.757148380022706, -49.756241750032764])","array('d', [0.6285081505775452, 0.5841321902044098, 0.5392107330679896, 0.4951318146025876, 0.4528070573025209, 0.4128010364924117, 0.37542937764946777, 0.3408311695974388, 0.30902188582736717, 0.279932060714955, 0.2534357316530882, 0.2293715697837057, 0.2075587807514132, 0.1878092440790299, 0.16993692658019183, 0.15376530379816894])","array('d', [-0.030302666127681697, -0.019959968357149162, -0.013319873860940417, -0.009006969595955374, -0.006172773235688007, -0.004289197189590132, -0.0030244547110110445, -0.0021679973918840387, -0.0015847503884665638, -0.0011869512819976354, -0.000916633191610492, -0.0007345929000680993, -0.0006133516514022039, -0.0005326176345733657, -0.00047636731813653974, -0.00043103534366870083])","array('d', [0.8995103398945672, 0.872314009470282, 0.8476357453863217, 0.8253298577778362, 0.8052146121847047, 0.7870979187069923, 0.7707911466787953, 0.756116035242746, 0.7429077616377026, 0.7310159426692688, 0.7203045588412533, 0.7106513346358246, 0.7019468523278797, 0.6940935365603638, 0.6870045723037408, 0.6790021877111736])",-141.34827605034022,-213.9706974592358,-49.78992916871952,0.4128010364924117,-0.004289197189590132,0.7870979187069923,25.00000024625719,-1.0,"[-221.38942910736566, -149.464418035819, 49.90831882599745]","[-219.18317869752156, -137.42360189456423, 58.57729833811773]","[-207.44323429985198, -144.76138688463624, 52.804030894191285]",10000000000.0,0.015497207641601562
11,5.418398380279541,-221.3785858154297,-149.62098693847656,49.95555877685547,0.6167080998420714,0.026285085827112017,0.887327448525701,23.1505962070247,"array('d', [-149.95863342285156, -148.03605387097335, -146.1545649215284, -144.31143240589546, -142.50379349679608, -140.72881333866056, -138.983766853202, -137.2660808728412, -135.57335394809854, -133.90336299299562, -132.25406192759928, -130.62357540202203, -129.0101895578475, -127.4123411433781, -125.8286059228981, -124.57310951105255])","array('d', [-221.69488525390625, -220.09803379622218, -218.45236911005776, -216.7635983579815, -215.03677153360843, -213.27633556911033, -211.48619363910936, -209.66976554642835, -207.8300456222076, -205.96965610461862, -204.09089516662834, -202.19577949145383, -200.28608166387824, -198.36336279352193, -196.42900081218815, -194.87216565671415])","array('d', [-49.95485305786133, -49.89713997896803, -49.85893425056258, -49.83330813541328, -49.81588952372534, -49.80388810231649, -49.795501427682595, -49.78954998632014, -49.78525117742018, -49.78207827226548, -49.77967186581528, -49.777784128835606, -49.77624381963184, -49.77493459394138, -49.773781879083, -49.77295251527926])","array('d', [0.6220328211784362, 0.576958659778947, 0.5317301983068063, 0.4876264981115452, 0.4454748793013194, 0.4057758816925496, 0.368796922306175, 0.3346409784532012, 0.303296613602697, 0.2746744930977207, 0.24863424721034824, 0.22500446048597164, 0.20359775284281115, 0.18422233352575904, 0.16669099957884526, 0.15082826732521679])","array('d', [-0.027937985956668743, -0.018395935418617244, -0.012272043644034475, -0.008295556619637342, -0.0056830314520871185, -0.00394710242393593, -0.00278169155736979, -0.0019926292377397867, -0.001455381939469032, -0.0010890539355829858, -0.0008402225114947565, -0.0006727607973708174, -0.0005613452647391506, -0.000487271030449938, -0.000435760181555345, -0.0003942924833573841])","array('d', [0.8913043896344044, 0.8645028492645941, 0.84022413688986, 0.8183057252970011, 0.7985567318698753, 0.7807806284601885, 0.7647871483929226, 0.7503980320574654, 0.7374494006604378, 0.7257923469516941, 0.7152926145185077, 0.7058298277531543, 0.6972965076946398, 0.6895969864618394, 0.6826462688750438, 0.6747995325823312])",-140.72881333866056,-213.27633556911033,-49.80388810231649,0.4057758816925496,-0.00394710242393593,0.7807806284601885,25.000000246261006,-1.0,"[-220.75265626241452, -148.79225064280763, 49.91295153033001]","[-218.42462773449378, -136.71173829320347, 58.4944143744055]","[-206.7607999340545, -144.18225507796853, 52.73711465924017]",10000000000.0,0.01546931266784668
12,5.434306621551514,-221.3785858154297,-149.62098693847656,49.95555877685547,0.6167080998420714,0.026285085827112017,0.887327448525701,23.1505962070247,"array('d', [-149.62098693847656, -147.70446388347167, -145.82875949026905, -143.99110824593242, -142.18864072010922, -140.4185283081735, -138.67805899525587, -136.9646762131437, -135.27599676476876, -133.60981633422224, -131.96410742012492, -130.33701260899093, -128.72683505338716, -127.13202741997166, -125.55118021781881, -124.2978458478418])","array('d', [-221.3785858154297, -219.77434678078527, -218.12203817287354, -216.4272800893031, -214.6950443338937, -212.9297079882965, -211.135112338439, -209.31462271706437, -207.47118572900695, -205.60738190985688, -203.72547305215332, -201.8274441315488, -199.91504011338796, -197.98979805542066, -196.05307494202555, -194.49445070826488])","array('d', [-49.95555877685547, -49.90126375542746, -49.86532782569647, -49.84122908062679, -49.82485247870891, -49.813572208339764, -49.80569229133745, -49.80010297409918, -49.796067973742836, -49.793091739816354, -49.790836131608025, -49.78906796830954, -49.78762611675179, -49.78640109407258, -49.78532273043525, -49.784546882646076])","array('d', [0.6167080998420714, 0.5715809397430602, 0.5264554078038678, 0.4825575449736904, 0.4406760953417681, 0.40128394043073345, 0.36462884612014185, 0.3307999442173704, 0.29977616121610023, 0.2714615982422009, 0.2457115930571762, 0.2223521454013415, 0.20119460029436115, 0.1820469205575049, 0.16472248572722392, 0.1490470821730782])","array('d', [-0.026285085827112017, -0.017304310425356868, -0.01154159678177351, -0.0078001241964339, -0.0053422563575408035, -0.0037092335512820145, -0.0026129981339485728, -0.0018708401145714074, -0.0013655901502557272, -0.0010211435961462326, -0.0007872450944210766, -0.0006299103072427933, -0.0005253158358059835, -0.0004558609818744863, -0.00040763445882432514, -0.0003688432744213786])","array('d', [0.887327448525701, 0.8608328161975973, 0.8368422167298645, 0.8151893156064639, 0.7956823488038862, 0.7781254346129641, 0.7623296818253256, 0.7481185020161628, 0.7353297588833859, 0.72381624873028, 0.713445329405696, 0.7040981297414008, 0.6956685584948552, 0.6880622170680424, 0.681195260392762, 0.6734428822554439])",-140.4185283081735,-212.9297079882965,-49.813572208339764,0.40128394043073345,-0.0037092335512820145,0.7781254346129641,25.00000024626253,-1.0,"[-220.43168320902075, -148.45830844721257, 49.91613568808711]","[-218.04465854474236, -136.3412551716198, 58.42960344033548]","[-206.41787363210238, -143.89183876895098, 52.70190233649626]",10000000000.0,0.011169910430908203
13,5.460226774215698,-220.7421875,-148.9519500732422,49.958106994628906,0.6015907526016234,0.02180001325905306,0.8793959180500845,23.165596658479206,"array('d', [-149.28488159179688, -147.37445782278556, -145.50446511621504, -143.67211864052337, -141.87455440994032, -140.10896100124782, -138.37264900462787, -136.6630866528243, -134.977916017236, -133.31495755946577, -131.67220752379404, -130.0478309091041, -128.4401517912895, -126.84764220998672, -125.26891050097687, -124.01707551769559])","array('d', [-221.06045532226562, -219.4488127012675, -217.78997961123184, -216.08945882517597, -214.35212168007516, -212.58225872715522, -210.78363671064608, -208.95955678871078, -207.1129103209955, -205.2462302557377, -203.36173734911742, -201.4613811407441, -199.54687594974246, -197.6197322876241, -195.68128410344417, -194.1213656751775])","array('d', [-49.956459045410156, -49.90648428111364, -49.873415358547355, -49.851244811881315, -49.83618307953784, -49.82581243629378, -49.81857147964838, -49.81343858502134, -49.80973595862552, -49.8070074086303, -49.80494163197341, -49.80332393306605, -49.80200593399498, -49.80088680940707, -49.799901944294476, -49.799193387397736])","array('d', [0.6098763942718504, 0.5648825714592473, 0.5200256883303499, 0.47647845509724845, 0.4349922612525611, 0.3960142552578041, 0.359774724663783, 0.3263511334564133, 0.295714828873888, 0.26776522393038427, 0.24235502952059476, 0.21930910317131116, 0.19843872934793877, 0.17955260809737117, 0.16246545233092657, 0.14700483371744608])","array('d', [-0.024195384234189873, -0.01592516832792976, -0.010619284939141457, -0.007174853509504971, -0.004912350777840169, -0.003409262816516817, -0.0024003416041426797, -0.0017173703429888083, -0.0012524870335754563, -0.0009356390391571829, -0.0007205702372172443, -0.0005760006754773448, -0.0004800001008412308, -0.0004163612137118251, -0.0003722664760636524, -0.0003368409853544811])","array('d', [0.8832946578648427, 0.8571848237802356, 0.8335466929207512, 0.8122128357251405, 0.7929928136290589, 0.7756931358126932, 0.7601276488816275, 0.7461224954463984, 0.7335181060445706, 0.7221696222791976, 0.711946516210234, 0.7027318107075136, 0.6944211060748924, 0.686921510767625, 0.6801505178959953, 0.67250635806005])",-140.10896100124782,-212.58225872715522,-49.82581243629378,0.3960142552578041,-0.003409262816516817,0.7756931358126932,25.00000024626388,-1.0,"[-220.10882138665443, -148.12597006703905, 49.92016951005023]","[-217.6619873770168, -135.96106069453828, 58.347979622299064]","[-206.07287212943865, -143.6034303202944, 52.66585024312507]",10000000000.0,0.02111673355102539
14,5.47167706489563,-220.7421875,-148.9519500732422,49.958106994628906,0.6015907526016234,0.02180001325905306,0.8793959180500845,23.165596658479206,"array('d', [-148.9519500732422, -147.04737342008983, -145.1827205145325, -143.35520413057202, -141.56198030528716, -139.80026704242502, -138.06740771676434, -136.36090379782593, -134.67842962447278, -133.01783626786894, -131.3771486125821, -129.7545582188991, -128.14841364749103, -126.55720941244994, -124.97957441748724, -123.72840978769095])","array('d', [-220.7421875, -219.12348800954334, -217.45858902018398, -215.752848524718, -214.01101734884347, -212.23728478202884, -210.43533213458272, -208.60838829007952, -206.75928330373284, -204.8904979727964, -203.0042085496634, -201.10232647180038, -199.1865333289216, -197.25831142488525, -195.31897031683408, -193.75843905504263])","array('d', [-49.958106994628906, -49.913083163620556, -49.88329731547186, -49.863333107887414, -49.84977463880796, -49.84044291063198, -49.83393083559479, -49.82931780850026, -49.82599306481711, -49.8235455143109, -49.82169460912691, -49.820246840977035, -49.819068455384375, -49.818068554342204, -49.81718889077168, -49.816556049041886])","array('d', [0.6015907526016234, 0.556945541860471, 0.5125409834781643, 0.46949902589756576, 0.4285371188494046, 0.39008026971763243, 0.35434473193343197, 0.3213994541871867, 0.2912110120065088, 0.2636765821691439, 0.238648352156472, 0.21595180524662388, 0.19539961066246642, 0.17680233858026076, 0.1599768625578547, 0.14475306436875202])","array('d', [-0.02180001325905306, -0.014345439682920406, -0.00956359592295698, -0.006459724946332634, -0.004421113374858692, -0.0030668783394337796, -0.0021579504381596458, -0.0015427363499420108, -0.0011240439961653506, -0.0008387558828186984, -0.0006451973294703536, -0.0005151860908452553, -0.00042896081825879507, -0.00037191172116454924, -0.0003324769916158748, -0.00030083796767147846])","array('d', [0.8793959180500845, 0.853742880916127, 0.8305152251504805, 0.8095475643208042, 0.7906532295650217, 0.7736429940732364, 0.7583348700112998, 0.7445588185644334, 0.732158665922832, 0.72099253038311, 0.7109324781074396, 0.7018637891863573, 0.6936840289556773, 0.686302018404854, 0.6796367444369231, 0.6721117430493934])",-139.80026704242502,-212.23728478202884,-49.84044291063198,0.39008026971763243,-0.0030668783394337796,0.7736429940732364,25.000000246264975,-1.0,"[-219.78598983092385, -147.79669386973922, 49.92540956474151]","[-217.2813561238448, -135.57293845274157, 58.25046893382615]","[-205.72879408881496, -143.31549733791942, 52.62987356177341]",10000000000.0,0.011416435241699219
15,5.509779691696167,-220.09996032714844,-148.29051208496094,49.963165283203125,0.5811314582824705,0.015811784192919627,0.8719631592419483,23.17646159045118,"array('d', [-148.29051208496094, -146.39695432800588, -144.54199215264333, -142.7228787592527, -140.9368482904342, -139.18120930084916, -137.45339703090175, -135.75100123738633, -134.0717789340958, -132.41365756863067, -130.77473206284986, -129.15325794191526, -127.54764206471866, -125.95643203470482, -124.37830509857763, -123.12620722405799])","array('d', [-220.09996032714844, -218.46807710249988, -216.79225362374808, -215.07749314603922, -213.32825734229417, -211.548497185558, -209.7416963399248, -207.91091899426013, -206.05885735242543, -204.18787629908414, -202.3000541567384, -200.39721921919397, -198.48098213241838, -196.55276436070923, -194.61382302571488, -193.05374840845724])","array('d', [-49.963165283203125, -49.93051549397252, -49.90892913078824, -49.89447158203426, -49.884662475689936, -49.877920014916725, -49.87322291303291, -49.86990301611494, -49.8675170227511, -49.865766507104134, -49.86444774710538, -49.86342016471321, -49.86258654354075, -49.861880792988984, -49.86126057591593, -49.860814443824225])","array('d', [0.5811314582824705, 0.537758237221152, 0.49474689668782196, 0.4531263458987764, 0.41355593145966907, 0.3764261491668217, 0.3419343451751314, 0.3101407387065202, 0.2810097247894812, 0.2544404318402444, 0.23028951540181597, 0.20838835249820836, 0.1885561843650542, 0.17061030905852922, 0.15437410970972335, 0.1396834834887489])","array('d', [-0.015811784192919627, -0.010399115691000565, -0.006928101434382168, -0.004675580912507584, -0.0031964006133674886, -0.002213963713189713, -0.0015547175744482931, -0.001108642162671782, -0.0008052145829651051, -0.0005986440455785837, -0.0004586985619456267, -0.0003649315864980351, -0.0003029985230781628, -0.00026228116445119014, -0.00023435829629743753, -0.000212056653278228])","array('d', [0.8719631592419483, 0.8474063698755535, 0.8251479340256592, 0.8050341494839852, 0.7868917685281357, 0.7705446095337134, 0.7558224813961916, 0.74256564485429, 0.7306267650402805, 0.7198714875730478, 0.7101782731608088, 0.7014378363406308, 0.6935523702022298, 0.6864346484916906, 0.6800070479240475, 0.6727503244380412])",-139.18120930084916,-211.548497185558,-49.877920014916725,0.3764261491668217,-0.002213963713189713,0.7705446095337134,25.000000246266527,-1.0,"[-219.13509374476382, -147.14226559709041, 49.93944859518739]","[-216.5203364680389, -134.7739413847865, 58.013332453848655]","[-205.0378715893337, -142.74003189720057, 52.564075416662035]",10000000000.0,0.012009620666503906
16,5.525274991989136,-219.77606201171875,-147.96200561523438,49.96692657470703,0.5693784952163693,0.012598228640854208,0.8681101957943776,23.183215094424117,"array('d', [-147.96200561523438, -146.07417266388066, -144.22415273150008, -142.4092365049629, -140.62671006627554, -138.8739376037491, -137.14840895972804, -135.44776544431832, -133.76981181547032, -132.1125192899912, -130.47402270003462, -128.8526138669999, -127.24673262831541, -125.65495655551821, -124.07599014855843, -122.82308306400712])","array('d', [-219.77606201171875, -218.13743417316917, -216.45610122513148, -214.73687360742704, -212.98405477735645, -211.20146499037122, -209.39247946098646, -207.56007206681363, -205.70685950334322, -203.83514324388753, -201.94694810283568, -200.04405699230276, -198.12804186441255, -196.20029101281676, -194.26203296946454, -192.70278239038163])","array('d', [-49.96692657470703, -49.9409159612371, -49.923726018247415, -49.91221890549822, -49.90441693975374, -49.89905906194651, -49.895331122619254, -49.89270048601973, -49.890813742307934, -49.88943294699893, -49.888395628985904, -49.887589640172266, -49.886937397345974, -49.8863861436867, -49.88590209123767, -49.88555399377667])","array('d', [0.5693784952163693, 0.5268142795638884, 0.48465386199321336, 0.44388043207815436, 0.4051256051174071, 0.3687641813500375, 0.3349856938490833, 0.30384762344265415, 0.27531482952880626, 0.24928886344393303, 0.22562993138811993, 0.20417352797878757, 0.18474319413297205, 0.16716043965275315, 0.15125257667541311, 0.13685900334193818])","array('d', [-0.012598228640854208, -0.008282646130729503, -0.005515581062985677, -0.0037200950776440076, -0.0025411550194029712, -0.0017582116302969223, -0.001232904117218634, -0.000877533825276419, -0.0006358923374281017, -0.00047148657178341615, -0.0003602239368569484, -0.0002858085160938955, -0.000236803250538223, -0.00020473464298654523, -0.00018287202320467513, -0.0001654698231334292])","array('d', [0.8681101957943776, 0.8441687390828458, 0.8224525562850324, 0.8028154293295071, 0.785092147322473, 0.7691141291753036, 0.7547179625893244, 0.741749779381817, 0.7300672558674138, 0.7195402867000763, 0.7100509275861833, 0.7014929357288837, 0.6937710842255973, 0.686800341296145, 0.6805049587399395, 0.6733965600489887])",-138.8739376037491,-211.20146499037122,-49.89905906194651,0.3687641813500375,-0.0017582116302969223,0.7691141291753036,25.000000246267213,-1.0,"[-218.8067341999652, -146.81743298639748, 49.9480297316249]","[-216.1349722484163, -134.36779534610685, 57.876977373002916]","[-204.68924596004723, -142.4547315957041, 52.52937867576624]",10000000000.0,0.011772394180297852
17,5.551400899887085,-219.4503173828125,-147.63497924804688,49.97142028808594,0.5568283796310425,0.009403574280440655,0.864166990914617,23.188591298938736,"array('d', [-147.63497924804688, -145.75303077837947, -143.90805052103084, -142.0973770143672, -140.31835519702585, -138.56841011614856, -136.84509048138122, -135.14609278811199, -133.46927269879234, -131.8126479809718, -130.17439584224059, -128.55284659661925, -126.94647502682821, -125.35389044262661, -123.7738261983233, -122.51988759045649])","array('d', [-219.4503173828125, -217.80483739011308, -216.1179326183002, -214.3942169485977, -212.6378311050984, -210.8524602060268, -209.04136700402026, -207.20743153964395, -205.35319194753473, -203.48088366303486, -201.59247573472234, -199.6897037482843, -197.77409927951953, -195.84701598732084, -193.90965253152135, -192.35140008747985])","array('d', [-49.97142028808594, -49.952008923605185, -49.93918706848632, -49.93060995073937, -49.9248000228952, -49.92081524563542, -49.91804746199149, -49.91609879413935, -49.914705219244155, -49.91368893952437, -49.91292851350566, -49.912340077564565, -49.91186558686757, -49.91146555678386, -49.91111470741726, -49.910862486313356])","array('d', [0.5568283796310425, 0.5151604659682812, 0.47392866942975065, 0.43407130257036064, 0.3961930606894224, 0.3606538307638655, 0.3276360883057974, 0.29719530152052626, 0.2692974838468813, 0.24384725557630252, 0.22070896852285019, 0.19972277195366403, 0.18071697951665106, 0.1635177163177244, 0.14795655254384385, 0.13387663710691738])","array('d', [-0.009403574280440655, -0.006179464534571096, -0.004112546574115921, -0.0027715323225111837, -0.0018911015798214496, -0.0013064743385780813, -0.0009142953478376118, -0.0006490636734254382, -0.0004688033914036868, -0.0003462645904341905, -0.0002634576131653635, -0.00020821273369143136, -0.00017198418601741463, -0.00014843276221711624, -0.00013251230977663435, -0.00011990247764915934])","array('d', [0.864166990914617, 0.840872383484538, 0.8197261421723129, 0.8005900995090018, 0.783307529022997, 0.7677178223786014, 0.7536646638224653, 0.7410003300497969, 0.729587744590843, 0.719301253842306, 0.7100266816642801, 0.7016609750455354, 0.6941116115903734, 0.6872958592545556, 0.6811399343382385, 0.6741880758624617])",-138.56841011614856,-210.8524602060268,-49.92081524563542,0.3606538307638655,-0.0013064743385780813,0.7677178223786014,25.00000024626787,-1.0,"[-218.47644960785024, -146.49419767318966, 49.957315134547315]","[-215.746415151693, -133.95929760916104, 57.73055077056205]","[-204.33859940312075, -142.17047736627438, 52.49239586229525]",10000000000.0,0.01359701156616211
18,5.570399284362793,-219.122802734375,-147.30941772460938,49.977142333984375,0.5434878468513485,0.006181116215884491,0.8602830330517629,23.195012416405838,"array('d', [-147.30941772460938, -145.43326899573145, -143.59317982318115, -141.78654866108047, -140.01078746144952, -138.2633881997771, -136.54196324863273, -134.84426821117665, -133.1682129276066, -131.51186448329062, -129.8734448247164, -128.25132479777045, -126.64401590937219, -125.05016077777485, -123.46852301419442, -122.21306082985741])","array('d', [-219.122802734375, -217.47064239988555, -215.77837190255354, -214.05040464187948, -212.2907144116204, -210.50284737211706, -208.6899505425043, -206.8548073990105, -204.99987526786305, -203.12732169969362, -201.23905845533892, -199.3367725298621, -197.4219540597747, -195.4959211615967, -193.55984183504583, -192.00278063336583])","array('d', [-49.977142333984375, -49.96438636936462, -49.955967214234356, -49.950341258052205, -49.946535973567435, -49.943931366434654, -49.942127191293125, -49.94086157500138, -49.93996071211602, -49.93930751943756, -49.938821983875606, -49.93844881232758, -49.93814970473119, -49.93789859312435, -49.93767879572298, -49.93752085716502])","array('d', [0.5434878468513485, 0.5028293025027681, 0.46262127802065767, 0.42375994643005466, 0.38682542447861107, 0.3521646948765823, 0.31995491197305115, 0.29025104053888534, 0.26302156200233845, 0.2381753061793619, 0.21558175236619592, 0.19508653725165773, 0.17652343684809518, 0.15972374131749037, 0.14452368994959947, 0.13077045429943007])","array('d', [-0.006181116215884491, -0.004059101025314644, -0.0026989266826593318, -0.0018165617681933242, -0.0012373297513447348, -0.0008527715212374293, -0.000594871001287228, -0.0004205304147932844, -0.00030213497404663867, -0.00022175998433305338, -0.00016757241990890753, -0.0001315654831056061, -0.00010811184351479055, -9.30290466939369e-05, -8.297655538152704e-05, -7.508107667262576e-05])","array('d', [0.8602830330517629, 0.8376643937862105, 0.8171127323232285, 0.7984988253203716, 0.7816750959664895, 0.766489424126076, 0.7527930008876813, 0.74044457924639, 0.7293125990703754, 0.7192760767393352, 0.7102247802361984, 0.7020589870780019, 0.694688991053283, 0.6880344481402303, 0.6820236094666497, 0.6752352232422351])",-138.2633881997771,-210.50284737211706,-49.943931366434654,0.3521646948765823,-0.0008527715212374293,0.766489424126076,25.000000246268424,-1.0,"[-218.14448700222323, -146.17239865468383, 49.96787071869967]","[-215.3571195821968, -133.5484554454434, 57.57488331995436]","[-203.98692888294138, -141.88577573257163, 52.45552262818763]",10000000000.0,0.013579130172729492
19,5.620527267456055,-218.1304931640625,-146.3413848876953,50.0027961730957,0.5016010999679563,-0.0026215412653983632,0.8486259738591051,23.203825234580368,"array('d', [-146.6626434326172, -144.7981520778263, -142.96782272737678, -141.1691938405143, -139.39982219747515, -137.6573403792489, -135.9394929490986, -134.24415761118547, -132.56935585700145, -130.91325629184448, -129.2741729036979, -127.65055990008058, -126.04100430766292, -124.44421723795794, -122.85902452321888, -121.60021271115248])","array('d', [-218.46279907226562, -216.79743540149167, -215.09458513111997, -213.3582748883287, -211.59215140035263, -209.7994859427733, -207.98319509660718, -206.14586914967165, -204.28980316351337, -202.41702796748606, -200.529339654724, -198.6283269000486, -196.71539582763987, -194.79179236820534, -192.8586221464211, -191.3042727759795])","array('d', [-49.992767333984375, -49.99239820481797, -49.99216410165555, -49.99201681607744, -49.99192595850547, -49.99187212420524, -49.991842743425174, -49.991829539143, -49.99182695669063, -49.99183118753886, -49.99183956150636, -49.9918501716945, -49.99186164992367, -49.99187304201221, -49.99188375038576, -49.991891567690125])","array('d', [0.5157889723777769, 0.4772864546048641, 0.4392385541778927, 0.40246337136295623, 0.3674959778702516, 0.33466036867718946, 0.3041250955709301, 0.27594567974005135, 0.2500967999007068, 0.22649676089290866, 0.20502619911007272, 0.18554250020484048, 0.16789102247871793, 0.15191393068856296, 0.1374572328264944, 0.12437645890257455])","array('d', [-0.00018125504720946758, -0.0001151510307490281, -7.283737368023368e-05, -4.5447997053143566e-05, -2.7536853353241706e-05, -1.572758845617044e-05, -7.907490153791521e-06, -2.742104352898545e-06, 6.20055069447712e-07, 2.7294350338364107e-06, 3.949388078435252e-06, 4.529092575693781e-06, 4.65145119616293e-06, 4.46532817895657e-06, 4.107352570723859e-06, 3.715872441131278e-06])","array('d', [0.852537886300359, 0.8312899393434043, 0.8119459385424368, 0.7943944266407683, 0.7785058722199363, 0.7641449080506071, 0.7511775922858699, 0.7394755592335518, 0.7289182683107952, 0.7193941018242578, 0.7108007650250977, 0.7030452567643991, 0.6960435668831361, 0.6897201899196291, 0.6840075059929364, 0.6775549479975459])",-137.6573403792489,-209.7994859427733,-49.99187212420524,0.33466036867718946,-1.572758845617044e-05,0.7641449080506071,25.00000024626947,-1.0,"[-217.65239153413535, -145.70212511261565, 49.98595708239392]","[-214.78079414007152, -132.94580450102973, 57.3364817480783]","[-203.4664984415725, -141.4668954662135, 52.39910171308101]",10000000000.0,0.02146315574645996
20,5.63514256477356,-218.1304931640625,-146.3413848876953,50.0027961730957,0.5016010999679563,-0.0026215412653983632,0.8486259738591051,23.203825234580368,"array('d', [-146.3413848876953, -144.4828389959617, -142.65748273147915, -140.86293102618436, -139.09681600197564, -137.356842099851, -135.6408210203103, -133.94669237344806, -132.27253426377806, -130.61656681163058, -128.97715075376317, -127.3527826753316, -125.74208802301794, -124.14381277436839, -122.55681444877057, -121.29629907108108])","array('d', [-218.1304931640625, -216.45850131752692, -214.75032152530954, -213.00979656057245, -211.2404150465254, -209.44531392260592, -207.62729626594583, -205.78885662463557, -203.93220924290324, -202.05931656762286, -200.17191663004846, -198.2715485957286, -196.359576167741, -194.43720873885744, -192.50552029378477, -190.95255179590077])","array('d', [-50.0027961730957, -50.00821085193336, -50.01179377436989, -50.01419718462213, -50.01583177567947, -50.01695923525054, -50.01774841067722, -50.01830970165391, -50.01871630897348, -50.01901747156867, -50.01924676741158, -50.019427336180954, -50.01957515690721, -50.01970108148533, -50.01981206800712, -50.01989194569935])","array('d', [0.5016010999679563, 0.4642143646304374, 0.42727734032080866, 0.3915715226406942, 0.3576108318488903, 0.32570852828163055, 0.29602928692495684, 0.2686291578459127, 0.24348608426130475, 0.2205232363025745, 0.1996269414392349, 0.18066056682790807, 0.1634753662958482, 0.14791904307704065, 0.1338425853850577, 0.12110579034842203])","array('d', [0.0026215412653983632, 0.0017251587400762105, 0.0011507622784745267, 0.0007781815993219702, 0.0005335719068646427, 0.00037110602706480093, 0.0002620535316676946, 0.00018821108819605246, 0.00013791382435341588, 0.00010358885901060127, 8.023736363002057e-05, 6.448050711983268e-05, 5.395171559148347e-05, 4.6905494357865413e-05, 4.196612994598694e-05, 3.7971968213299106e-05])","array('d', [0.8486259738591051, 0.8280644908271451, 0.8093270934597357, 0.7923107377036341, 0.7768944695071783, 0.7629509392277839, 0.7503533742360412, 0.7389796670396334, 0.7287146682618683, 0.7194513715674314, 0.711091412338955, 0.7035451341102483, 0.6967313735370712, 0.6905770525090342, 0.6850166292196898, 0.6787356303047538])",-137.356842099851,-209.44531392260592,-50.01695923525054,0.32570852828163055,0.00037110602706480093,0.7629509392277839,25.00000024626999,-1.0,"[-217.1389743689643, -145.2158294621717, 50.00672848048968]","[-214.17994684773467, -132.32580120591265, 57.084251188432674]","[-202.9243925924987, -141.03379282978088, 52.34258689347464]",10000000000.0,0.011676788330078125
21,5.65101957321167,-217.79672241210938,-146.02145385742188,50.01400375366211,0.4872631728649138,-0.0051861591637136165,0.8446526686337333,23.206393255536366,"array('d', [-146.02145385742188, -144.16899104804014, -142.34873754037352, -140.55838700437963, -138.79564756725557, -137.0582956789698, -135.34421022129135, -133.65139278927754, -131.97797824835405, -130.32223844516116, -128.6825811222748, -127.05754552632222, -125.44579581824838, -123.84611313366624, -122.25738696005527, -120.99523700775943])","array('d', [-217.79672241210938, -216.11801485960208, -214.4044061314001, -212.6595621563804, -210.8868177532008, -209.08917817450822, -207.26933458692142, -205.42968669930593, -203.57236838115298, -201.69927383862415, -199.81208298884812, -197.91228531486658, -196.00120185424538, -194.08000517987202, -192.14973733924612, -190.59811544108092])","array('d', [-50.01400375366211, -50.024708812279336, -50.03177963120245, -50.03651068844416, -50.03971697247072, -50.04191776959907, -50.04344816794419, -50.04452732105715, -50.04530061468222, -50.04586592868609, -50.04629009888067, -50.04661926469511, -50.046885349770676, -50.047110064835664, -50.04730731330531, -50.04744913911671])","array('d', [0.4872631728649138, 0.45100179819652064, 0.4151835904162697, 0.38055461473437946, 0.34760814237720694, 0.3166468341352682, 0.2878314416767532, 0.2612184221455787, 0.23678884361088165, 0.2144706128978786, 0.1941556439517837, 0.17571320926370002, 0.15900041061754017, 0.14387046901562342, 0.13017935665531918, 0.1177911636228172])","array('d', [0.0051861591637136165, 0.0034075851102955655, 0.0022680869209438224, 0.0015290891354374258, 0.0010440305323752414, 0.0007219798349445719, 0.0005059428353343186, 0.0003598173384483543, 0.00026047479717026227, 0.00019290362730148755, 0.00014719503737487072, 0.00011664721165480413, 9.655600977518458e-05, 8.34349293925678e-05, 7.451269354118975e-05, 6.742138962713923e-05])","array('d', [0.8446526686337333, 0.8247750585754791, 0.8066435421073537, 0.7901629989960479, 0.7752206184096092, 0.7616967213523796, 0.7494714438671533, 0.7384287494952876, 0.7284587507259286, 0.71945896688068, 0.7113349097699436, 0.7040002368315808, 0.6973766167971771, 0.6913933950457587, 0.6859871109991191, 0.6798797780049595])",-137.0582956789698,-209.08917817450822,-50.04191776959907,0.3166468341352682,0.0007219798349445719,0.7616967213523796,25.00000024627054,-1.0,"[-217.0635143041946, -145.14534047560267, 50.01007957039293]","[-214.09141140132218, -132.23587301540957, 57.046574026366955]","[-202.8447004896012, -140.97082060363823, 52.333593621243864]",10000000000.0,0.011287689208984375
