,current_time,x_pos,y_pos,z_pos,roll,pitch,yaw,vel,x_traj,y_traj,z_traj,roll_traj,pitch_traj,yaw_traj,x_cmd,y_cmd,z_cmd,roll_cmd,pitch_cmd,yaw_cmd,vel_cmd,effector_dmg,effector_x,effector_y,effector_z,cost,time_solution
0,14.182984828948975,-205.3963623046875,-135.8869171142578,49.9490966796875,0.6295111775398252,0.03354899585247034,0.6761414567616323,23.14375143705691,"array('d', [-137.7723846435547, -136.1728655710629, -134.6200094141409, -133.107750419721, -131.63095657481796, -130.18528200813032, -128.76703704588533, -127.37307950147014, -126.00072407334945, -124.64766609748352, -123.31191674951765, -121.99174776616476, -120.68564452480544, -119.39226685913026, -118.1104173454858, -117.09396010041533])","array('d', [-208.0036163330078, -206.08356396922116, -204.1248947548528, -202.13441988545483, -200.11736072920007, -198.07782063835535, -196.0190819913844, -193.94380573501303, -191.85417268037804, -189.75198774718405, -187.6387592468448, -185.51576043291877, -183.384077807212, -181.24464905247328, -179.09829246901126, -177.3750581460765])","array('d', [-49.94211959838867, -49.8749700142862, -49.830635802473054, -49.80095922869117, -49.780820188496705, -49.76696471223984, -49.75729726119844, -49.75044933304454, -49.745514012630906, -49.74188117643504, -49.739134449320005, -49.73698654038052, -49.735238769166074, -49.73375604124126, -49.732451752906556, -49.73151321631215])","array('d', [0.6311061978340146, 0.551534022541029, 0.48267043173221486, 0.42324276356192786, 0.37208142571667524, 0.3281155293220701, 0.29036726485269915, 0.25794726209261837, 0.23005142228921677, 0.20595912549543144, 0.1850325583819992, 0.16671690774193626, 0.15054121743812535, 0.13611976960045774, 0.12315390863808115, 0.11143427480567693])","array('d', [-0.03254638239741312, -0.02136652979109672, -0.01422196015926758, -0.009597030573099572, -0.006564962818318442, -0.00455303958950806, -0.0032034547943502857, -0.002290130779940791, -0.0016684982093905607, -0.001244839238438192, -0.0009573389587005717, -0.0007642101628939021, -0.0006361433197303566, -0.0005514518999843547, -0.0004929546558600691, -0.00044604396820280257])","array('d', [0.7081214944508414, 0.6817905341116923, 0.6594920373006049, 0.6404107335511104, 0.6239438087769059, 0.6096293920031914, 0.5971045228227273, 0.5860791068813533, 0.5763189477582664, 0.5676341016778745, 0.559870420994754, 0.5529030299435523, 0.5466309731976601, 0.5409725689330603, 0.5358611725946963, 0.5300881338100714])",-130.18528200813032,-198.07782063835535,-49.76696471223984,0.3281155293220701,-0.00455303958950806,0.6096293920031914,25.000000248656722,-1.0,"[-204.98706491741342, -135.46898901237802, 49.897662300896265]","[-199.67756593634581, -124.02855494500398, 58.01712588663328]","[-190.19051514215724, -133.23104152338001, 50.92416402269417]",10000000000.0,0.015061140060424805
1,14.197876453399658,-205.3963623046875,-135.8869171142578,49.9490966796875,0.6295111775398252,0.03354899585247034,0.6761414567616323,23.14375143705691,"array('d', [-137.22586059570312, -135.6436472684612, -134.10821747580835, -132.61335301918297, -131.15382503288072, -129.72522740922275, -128.32383547080164, -126.94648985489964, -125.5905007420436, -124.25356779468, -122.93371244052183, -121.62922032207946, -120.33859261475273, -119.06050551412555, -117.79377758236355, -116.78883706822005])","array('d', [-207.26531982421875, -205.33098094614627, -203.3586204248829, -201.355048407965, -199.32546012857927, -197.27392166088956, -195.20367374759547, -193.1173348218261, -191.01704416578906, -188.9045671833603, -186.7813752564184, -184.64870760158465, -182.50761971085348, -180.35902129535722, -178.20370563413113, -176.47270632550547])","array('d', [-49.9439811706543, -49.87684153584924, -49.83250869868536, -49.802828034012954, -49.78268180422966, -49.76881761485745, -49.75914089337373, -49.752283693473665, -49.7473394012359, -49.74369804625636, -49.74094332617312, -49.73878798253215, -49.73703334808763, -49.73554433059598, -49.73423431704404, -49.73329121175737])","array('d', [0.6304059624671935, 0.5493436531426471, 0.4794921685668168, 0.4194497402111027, 0.36795292977078076, 0.3238598759780788, 0.286137505770441, 0.2538525731674827, 0.22616579310315718, 0.20232831128406423, 0.18167988108260924, 0.16364827463633738, 0.14774959633011733, 0.13358928150490512, 0.12086365169882722, 0.10936196444243608])","array('d', [-0.03254030272364606, -0.021364578042687977, -0.014222765952956792, -0.009599470450515622, -0.0065682604876109675, -0.0045567063626483165, -0.0032072030713369156, -0.0022938012263460047, -0.0016720079178063093, -0.001248147917731437, -0.0009604283165355038, -0.0007670723579361571, -0.0006387755463838511, -0.0005538551474637148, -0.0004951352962855887, -0.0004480170934332612])","array('d', [0.6991068283703664, 0.6728580435381318, 0.650698844506987, 0.6317865401128999, 0.6155022236663216, 0.6013739765375231, 0.5890323224236225, 0.5781828989108947, 0.5685887851835338, 0.5600584375317856, 0.5524369573395388, 0.5455993648146648, 0.5394450833263418, 0.5338931477221338, 0.5288778333401936, 0.5232156237208221])",-129.72522740922275,-197.27392166088956,-49.76881761485745,0.3238598759780788,-0.0045567063626483165,0.6013739765375231,25.00000024865608,-1.0,"[-204.22703095106755, -134.94876324553763, 49.89878262552084]","[-198.79109371790324, -123.54177100544331, 57.98154913405773]","[-189.4095550307014, -132.81360476814191, 50.83873242512436]",10000000000.0,0.01352071762084961
2,14.212165117263794,-205.0186767578125,-135.62391662597656,49.94989776611328,0.62947016954422,0.03376314043998712,0.6717524091389516,23.14260070852384,"array('d', [-136.95489501953125, -135.38160137205287, -133.85515384636994, -132.3692562717185, -130.91863009915826, -129.4988382345716, -128.10613793499476, -126.7373609223321, -125.38981497127526, -124.06120189434695, -122.7495483264649, -121.45314700564693, -120.17050718347446, -118.90031342717093, -117.64139248072382, -116.64232343741104])","array('d', [-206.8941650390625, -204.95256843381267, -202.9732496936506, -200.96301908764895, -198.92705885684285, -196.86941631703618, -194.7933112153947, -192.70134054073594, -190.59562262956524, -188.4779029574623, -186.3496342827983, -184.2120386564002, -182.06615592907818, -179.912881700601, -177.75299662421364, -176.01789210905628])","array('d', [-49.94482421875, -49.87756216596007, -49.83314551309907, -49.80340596611086, -49.78321737836811, -49.76932202325113, -49.759621855198375, -49.75274661262209, -49.74778810740594, -49.744135281450006, -49.74137107187954, -49.73920768525834, -49.737446078993656, -49.73595090177899, -49.734635368767435, -49.733687982248526])","array('d', [0.6300932765007016, 0.548263050510684, 0.47790144859266614, 0.4175403128259013, 0.36586811409457876, 0.3217066714398624, 0.2839946333565536, 0.25177628782009714, 0.22419431441121554, 0.2004853696171811, 0.17997768037850628, 0.16209005984555452, 0.1463319467579698, 0.13230421141185983, 0.11970057551914143, 0.10830956949971554])","array('d', [-0.03259891271591184, -0.021404255146258454, -0.014250354041643296, -0.009619124019837128, -0.006582583349942311, -0.004567377410767436, -0.0032153318331840154, -0.0023001365786723075, -0.0016770643064848935, -0.0012522836779280476, -0.0009638953071332136, -0.0007700479513643808, -0.0006413835426799532, -0.0005561796594931925, -0.0004972301831218113, -0.00044991262560027846])","array('d', [0.6944887797024585, 0.6682795413957563, 0.6461894978991233, 0.6273618324086451, 0.6111693656508081, 0.5971350105369493, 0.5848859302840678, 0.5741255521134202, 0.5646155357921004, 0.5561634958201641, 0.5486141291867807, 0.5418423860065661, 0.5357478697465018, 0.5302499711545008, 0.5252834278462942, 0.5196779071048152])",-129.4988382345716,-196.86941631703618,-49.76932202325113,0.3217066714398624,-0.004567377410767436,0.5971350105369493,25.000000248655702,-1.0,"[-204.22703095106755, -134.94876324553763, 49.89878262552084]","[-198.79109371790324, -123.54177100544331, 57.98154913405773]","[-189.4095550307014, -132.81360476814191, 50.83873242512436]",10000000000.0,0.01119852066040039
3,14.226333618164062,-204.63973999023438,-135.3625030517578,49.950218200683594,0.6294595003128051,0.034025471657514475,0.6672857562687733,23.142321868733237,"array('d', [-136.6855010986328, -135.12134349862475, -133.6041042274393, -132.12740659307025, -130.6859203731861, -129.2751759832799, -127.89141150455899, -126.53144894299557, -125.19259310633932, -123.87254757772833, -122.56934395399615, -121.28128191870185, -120.00687871361471, -118.74482723102888, -117.49396237144238, -116.50087519204978])","array('d', [-206.52169799804688, -204.57274390607137, -202.58636192663923, -200.5693651048858, -198.52692405666573, -196.46306809021948, -194.3809963891518, -192.28328475193493, -190.17203071710372, -188.04895991303653, -185.91550651270538, -183.77287541140734, -181.62209081138602, -179.464034183058, -177.2994735301151, -175.56001483790274])","array('d', [-49.946014404296875, -49.87845891004824, -49.83384449746349, -49.80396888964941, -49.78368475511919, -49.769720901192684, -49.75997056315163, -49.75305773466669, -49.748070380408194, -49.74439482728405, -49.74161221274613, -49.73943349487539, -49.73765876521702, -49.736152081199364, -49.734826271820694, -49.73387107699095])","array('d', [0.6298990845680233, 0.5472692456423879, 0.4763735852973527, 0.41567561413856957, 0.36381440940815707, 0.31957451198821246, 0.2818655397531061, 0.24970870003790016, 0.2222281243179109, 0.1986455496781876, 0.1782773182290284, 0.16053299122431372, 0.1449151104932454, 0.13101980923777587, 0.1185380949862024, 0.1072577135205082])","array('d', [-0.03274017199873914, -0.021498620320085007, -0.014314723110554527, -0.009663937848508514, -0.006614425924403523, -0.004590480551058147, -0.003232464593023583, -0.002313141522788914, -0.00168718672885612, -0.0012603768615718895, -0.0009705501016867643, -0.0007756753008304193, -0.0006462673150443878, -0.0005605105542028061, -0.0005011276142117652, -0.0004534391674028742])","array('d', [0.6897814432766775, 0.663605885929382, 0.6415810325089889, 0.6228352735471707, 0.6067327693061216, 0.5927910138731534, 0.5806336364479086, 0.5699617284069931, 0.5605354377090158, 0.5521614691565917, 0.5446840663851831, 0.5379780753970904, 0.5319432574531515, 0.5264993458043783, 0.5215815332762016, 0.5160331431283948])",-129.2751759832799,-196.46306809021948,-49.769720901192684,0.31957451198821246,-0.004590480551058147,0.5927910138731534,25.000000248655287,-1.0,"[-203.8452475386747, -134.69091075492236, 49.899262676974935]","[-198.34808176078297, -123.30108895618505, 57.96481459878318]","[-189.018023050241, -132.60626694554773, 50.79796961342737]",10000000000.0,0.013219356536865234
4,14.24724555015564,-204.26170349121094,-135.1041259765625,49.95067596435547,0.6294372677803037,0.034197252243757144,0.6627061525967459,23.140042950726126,"array('d', [-136.41769409179688, -134.86249923155964, -133.35428937590666, -131.8866105825248, -130.45408281651567, -129.0522051018234, -127.67719699331042, -126.32587114703911, -124.99552958338342, -123.68387771108365, -122.38895206156855, -121.1090591845557, -119.84272420268427, -118.5886482101928, -117.34567413860225, -116.36031888735761])","array('d', [-206.14788818359375, -204.1917927369217, -202.19855383648573, -200.17498811566495, -198.1262551252552, -196.05636670269533, -193.96850203203337, -191.86521630801056, -189.74858686266595, -187.62032005607628, -185.4818320285237, -183.3343110368148, -181.178766110129, -179.01606502065374, -176.8469635092341, -175.106545430338])","array('d', [-49.947139739990234, -49.879064688136054, -49.834102803289596, -49.80399059725346, -49.7835424270868, -49.76946273139484, -49.759628995421174, -49.752654871455555, -49.74762142826736, -49.74391032588027, -49.741099501779665, -49.738897699832116, -49.73710347834795, -49.73557984990105, -49.73423896611665, -49.73327432401818])","array('d', [0.6297082304954527, 0.5462983949118586, 0.4748818815564041, 0.4138553696544001, 0.3618097532685704, 0.31749325023175273, 0.2797871985246498, 0.24769031572605826, 0.2203086507152855, 0.19684938683642084, 0.1766172657297363, 0.15901281315823168, 0.14353183203541875, 0.12976582483019666, 0.11740314436761416, 0.1062307676374323])","array('d', [-0.03299094364047042, -0.02166506113055361, -0.014427206620847077, -0.009741332396204137, -0.006668650903470121, -0.004629189328818233, -0.0032606502346036108, -0.002334112809537475, -0.0017031698737096054, -0.0012728910281269174, -0.000980643974868261, -0.0007840769261977551, -0.0006534790045712751, -0.0005668686497479603, -0.000506839818564122, -0.00045860799074745037])","array('d', [0.6851825873043873, 0.6590399368931243, 0.6370786558400414, 0.618412729202125, 0.6023979014020717, 0.5885464019354576, 0.5764784230958613, 0.5658927806267866, 0.5565481463406968, 0.5482503341942222, 0.5408431415534403, 0.5342013090932227, 0.5282247489014564, 0.5228335260287337, 0.5179632757810021, 0.5124602452212446])",-129.0522051018234,-196.05636670269533,-49.76946273139484,0.31749325023175273,-0.004629189328818233,0.5885464019354576,25.00000024629138,-1.0,"[-203.82926814828318, -134.68022578827598, 49.89925963739379]","[-198.32950599506015, -123.29114203977865, 57.96408372894653]","[-189.0016371093988, -132.59771219075876, 50.79619602915679]",10000000000.0,0.017890214920043945
5,14.272698640823364,-204.26170349121094,-135.1041259765625,49.95067596435547,0.6294372677803037,0.034197252243757144,0.6627061525967459,23.140042950726126,"array('d', [-135.8869171142578, -134.3494497395576, -132.85910961242135, -131.40928876590408, -129.99450761258385, -128.61020219270335, -127.25255463492464, -125.91835841959123, -124.60490946241771, -123.30991627223425, -122.03142469932551, -120.76775449067169, -119.51744602015188, -118.27921630546867, -117.05192389227142, -116.07897946181745])","array('d', [-205.3963623046875, -203.42634327022182, -201.41972515605858, -199.38333389039133, -197.32230876701738, -195.24062847341153, -193.1414339234743, -191.02724075532092, -188.90008744235254, -186.76164325235362, -184.61328958655025, -182.45618262992852, -180.29130215012853, -178.11948949045103, -175.94147672210931, -174.19409027679436])","array('d', [-49.9490966796875, -49.8798657013295, -49.8341313521146, -49.80349389261894, -49.78268229746927, -49.76834665141014, -49.75832929098523, -49.75122078212609, -49.746086794816456, -49.74229856442249, -49.73942687711111, -49.73717552504343, -49.73533963500594, -49.73377987994673, -49.73240689630137, -49.73141911044779])","array('d', [0.6295111775398252, 0.544544506183681, 0.47208454759185864, 0.41039540363231075, 0.3579727298714481, 0.31349305358698265, 0.2757819044211808, 0.2437935892001247, 0.21659841065566335, 0.1933747452063386, 0.17340434142613542, 0.15606978934897542, 0.14085349177354992, 0.1273377209975496, 0.11520551338423497, 0.10424226871259204])","array('d', [-0.03354899585247034, -0.02203524792477518, -0.014677103734223955, -0.009912975643494401, -0.006788619907406502, -0.004714561176979492, -0.003322570358552114, -0.0023799690149545797, -0.0017379341698657424, -0.0012999576206324229, -0.0010023572858335514, -0.0008020658569274625, -0.0006688682922545362, -0.0005804114600813934, -0.0005189999661299548, -0.00046961094826020476])","array('d', [0.6761414567616323, 0.6500539898900152, 0.6282099766894451, 0.6096945428376338, 0.5938466078210798, 0.5801678697897985, 0.5682716277971173, 0.5578521132593727, 0.5486650040260835, 0.5405142861444406, 0.5332428165433165, 0.5267250775863744, 0.5208612368873509, 0.5155719793918843, 0.5107937847675034, 0.5053946036779027])",-128.61020219270335,-195.24062847341153,-49.76834665141014,0.31349305358698265,-0.004714561176979492,0.5801678697897985,25.000000246288742,-1.0,"[-203.07989962991712, -134.1817868893243, 49.89939008341702]","[-197.45687340439844, -122.82844115152533, 57.929528103721]","[-188.2334825320163, -132.20149287498214, 50.71322973096362]",10000000000.0,0.024033784866333008
6,14.289912939071655,-203.5015106201172,-134.59210205078125,49.95121765136719,0.6283032894134519,0.03397535160183891,0.6536570946362354,23.141026874464742,"array('d', [-135.62391662597656, -134.09510125049468, -132.61348651148154, -131.1723880638208, -129.76627715399957, -128.39055874633075, -127.04139647075016, -125.71557426864844, -124.41038492892409, -123.12353834994943, -121.8530848254534, -120.59735045363419, -119.35488297359089, -118.12440710500462, -116.90478895089898, -115.93791890470978])","array('d', [-205.0186767578125, -203.0419515529235, -201.0288888934274, -198.9863184869505, -196.91936959284828, -194.83200487192076, -192.72734685606528, -190.6078922361067, -188.47566089807233, -186.33230437980302, -184.17918748304226, -182.017451069605, -179.84806092634525, -177.67184576773414, -175.48952635263922, -173.73877146107472])","array('d', [-49.94989776611328, -49.880222717835835, -49.83419072815701, -49.80335021162411, -49.78239763572043, -49.76796235853893, -49.7578732819523, -49.750712122430755, -49.74553862856361, -49.7417200138836, -49.738824296709964, -49.73655334699582, -49.73470095596501, -49.73312688393945, -49.73174117507826, -49.73074421379904])","array('d', [0.62947016954422, 0.5437407795865017, 0.47076852432444116, 0.4087526938727052, 0.3561425598375807, 0.31157979016894116, 0.27386278550836873, 0.24192425357889843, 0.21481709648672392, 0.1917056528849878, 0.1718604539575064, 0.15465532927039935, 0.13956612796379336, 0.12617060038947886, 0.11414917007157999, 0.1032864496704675])","array('d', [-0.03376314043998712, -0.022177698295981218, -0.01477357446690564, -0.009979463446071627, -0.006835252007951193, -0.004747857796737201, -0.0033467984262314926, -0.002397965606159987, -0.0017516148903517126, -0.001310634467986577, -0.0010109392872778707, -0.0008091863596955591, -0.0006749656556337236, -0.0005857798329504917, -0.0005238208997634394, -0.00047397310979276227])","array('d', [0.6717524091389516, 0.64568880401849, 0.6238993087699001, 0.605454882152571, 0.5896862059286807, 0.5760898216368596, 0.5642756465012265, 0.5539356551442554, 0.5448240440436908, 0.5367438874174347, 0.529537564804068, 0.5230794158732783, 0.5172697182858563, 0.5120294468037838, 0.5072954822532176, 0.5019462017757066])",-128.39055874633075,-194.83200487192076,-49.76796235853893,0.31157979016894116,-0.004747857796737201,0.5760898216368596,25.00000024628734,-1.0,"[-203.07989962991712, -134.1817868893243, 49.89939008341702]","[-197.45687340439844, -122.82844115152533, 57.929528103721]","[-188.2334825320163, -132.20149287498214, 50.71322973096362]",10000000000.0,0.015188217163085938
7,14.30320143699646,-203.5015106201172,-134.59210205078125,49.95121765136719,0.6283032894134519,0.03397535160183891,0.6536570946362354,23.141026874464742,"array('d', [-135.3625030517578, -133.84252605131854, -132.36982513435373, -130.93763827064072, -129.5403865974458, -128.1734433467102, -126.83295321711927, -125.51569035182298, -124.21894428553811, -122.94042627652196, -121.67819110142715, -120.4305712945508, -119.19612207118746, -117.97357597498429, -116.76180678837113, -115.80114990732109])","array('d', [-204.63973999023438, -202.6562298692284, -200.63664507501946, -198.58781972888605, -196.51487316623718, -194.42175194565968, -192.31156008232875, -190.1867751732134, -188.049398375385, -185.90106336535388, -183.74311822515298, -181.57668838391848, -179.40272554813797, -177.22204571299258, -175.03535824292115, -173.2811864072293])","array('d', [-49.950218200683594, -49.87999981016862, -49.83360489839737, -49.80251796782259, -49.7813953759101, -49.7668409006146, -49.75666686709569, -49.74944407760172, -49.744224980647914, -49.740371831871464, -49.7374492358279, -49.73515668891114, -49.733286330589856, -49.73169679150629, -49.73029738486349, -49.72929055510722])","array('d', [0.6294595003128051, 0.5429505320019345, 0.46945406530242795, 0.40710318870124795, 0.3542999149224544, 0.30965043433253736, 0.2719255436826038, 0.2400359672764591, 0.21301688729019583, 0.19001833757704145, 0.17029941058801645, 0.1532249961784606, 0.13826425056091732, 0.12499030148212947, 0.11308089666891323, 0.10231983583552234])","array('d', [-0.034025471657514475, -0.022351692037332508, -0.0148909150814708, -0.010059885618764404, -0.006891254983446891, -0.00478748809415193, -0.003375319571155824, -0.0024188756169492183, -0.001767275007850402, -0.0013226622550483586, -0.0010204564922422722, -0.0008169757473704222, -0.0006815698751833152, -0.0005915629596393203, -0.0005290059766342115, -0.0004786647617813653])","array('d', [0.6672857562687733, 0.6412447558931619, 0.6195093289595154, 0.6011359374886215, 0.585446849485732, 0.5719333402121812, 0.5602018692421643, 0.5499420990940443, 0.5409067040310186, 0.5328978169053589, 0.5257573196059192, 0.5193593965148949, 0.5136044289361796, 0.5084136797881884, 0.5037244326939381, 0.4984256052238914])",-128.1734433467102,-194.42175194565968,-49.7668409006146,0.30965043433253736,-0.00478748809415193,0.5719333402121812,25.000000246285826,-1.0,"[-202.31139995363037, -133.68048789416275, 49.90026442804388]","[-196.56281003179865, -122.35791909516223, 57.884821378965725]","[-187.4466684656137, -131.80966549540298, 50.634962557525746]",10000000000.0,0.012431621551513672
8,14.318143367767334,-203.1192626953125,-134.33856201171875,49.95133590698242,0.6259510517120359,0.0334341228008269,0.6492458144810536,23.1423714779669,"array('d', [-135.1041259765625, -133.59323812588298, -132.1297034136516, -130.70667923489546, -129.31853513646627, -127.96061184068783, -126.62903473507923, -125.32056803233786, -124.03249804463739, -122.76253753155959, -121.50874596508672, -120.26946256934497, -119.04325030791131, -117.82884982147876, -116.62514283371641, -115.67086757674869])","array('d', [-204.26170349121094, -202.27127387258443, -200.24504202188552, -198.1898442881019, -196.11078871310892, -194.01180481052174, -191.89597737608955, -189.7657643570795, -187.62314772329674, -185.46974290128142, -183.30688091761044, -181.13567147517418, -178.95705194146478, -176.7718253635013, -174.580689508243, -172.8230378456673])","array('d', [-49.95067596435547, -49.880100852326954, -49.83346600544934, -49.80221483699618, -49.780977901048466, -49.76634247177997, -49.7561101313486, -49.7488445698248, -49.74359345021497, -49.73971575861061, -49.7367738358683, -49.734465596996195, -49.732582076733834, -49.73098114754574, -49.7295716296191, -49.72855751129433])","array('d', [0.6294372677803037, 0.5421322534444838, 0.468100848957086, 0.40540828111837945, 0.3524082466413914, 0.3076707079680502, 0.26993828283567856, 0.2380992498730832, 0.21117069103635466, 0.18828802112608106, 0.16869863701877502, 0.15175828441368502, 0.1369292713646385, 0.12377999481203741, 0.11198546395767608, 0.10132864723970963])","array('d', [-0.034197252243757144, -0.02246635942887146, -0.014968843199072376, -0.010113759658427863, -0.006929126518586975, -0.004814561017165971, -0.003395015637857871, -0.0024334822234608937, -0.0017783455715734864, -0.0013312671103027564, -0.0010273416938798464, -0.000822664081393459, -0.0006864249965572246, -0.0005958297383965133, -0.0005328355201123532, -0.0004821298763250784])","array('d', [0.6627061525967459, 0.636688859933847, 0.6150091500347298, 0.5967087075166562, 0.5811012439059062, 0.5676726813725607, 0.5560259623705535, 0.5458483944644746, 0.5368910990923955, 0.5289552472284271, 0.521882211257102, 0.5155460157665558, 0.5098471471785263, 0.5047071625627021, 0.5000637573117152, 0.49481665404831365])",-127.96061184068783,-194.01180481052174,-49.76634247177997,0.3076707079680502,-0.004814561017165971,0.5676726813725607,25.000000246284188,-1.0,"[-201.92512044425953, -133.4321900792267, 49.90119406576367]","[-196.1154048552779, -122.11216999180932, 57.84501871108475]","[-187.05168553035733, -131.61737914019028, 50.599330955971595]",10000000000.0,0.013319730758666992
9,14.332214117050171,-202.7355499267578,-134.08673095703125,49.951263427734375,0.6216952204704281,0.032497089356183784,0.6448609987881521,23.145563980176007,"array('d', [-134.59210205078125, -133.0991866940948, -131.65368153502862, -130.24859757833062, -128.87821412018516, -127.53781748846377, -126.22350302092022, -124.93202197668484, -123.66065981946925, -122.40713688653408, -121.16952582219649, -119.94618239770648, -118.73568776700677, -117.53680109449643, -116.34842203504937, -115.40625738539929])","array('d', [-203.5015106201172, -201.49754867983057, -199.4584078663388, -197.3908996921336, -195.3000927293874, -193.1898720991033, -191.06327758430416, -188.9227234990059, -186.7701505144672, -184.6071355508407, -182.43497412708317, -180.25474350587487, -178.06735166327232, -175.8735752192505, -173.67408833609963, -171.90991519363715])","array('d', [-49.95121765136719, -49.88109639167516, -49.834754474833616, -49.80369422151125, -49.78258308485339, -49.76803154549767, -49.757855880946124, -49.750629172112305, -49.745405149824784, -49.741546770876106, -49.73861900953257, -49.736321547908254, -49.73444661204841, -49.73285286656464, -49.73144962909961, -49.73044002229265])","array('d', [0.6283032894134519, 0.5395925563132894, 0.4646403122539536, 0.4013841528415999, 0.348087238892298, 0.303251768372196, 0.26556769209781494, 0.23388135815038366, 0.20717605824289423, 0.1845599483274224, 0.16525866197192302, 0.14861098550311755, 0.13406659496134107, 0.12118524722034067, 0.10963706660799051, 0.09920372925290197])","array('d', [-0.03397535160183891, -0.022323705910265675, -0.014876274925033477, -0.010053051996688187, -0.006888850169884685, -0.004787503732743143, -0.0033765878714756546, -0.002420732974775052, -0.0017693542245189866, -0.0013247667592740568, -0.0010224854903914749, -0.0008188805880888175, -0.0006833294889865366, -0.0005931709952760918, -0.000530465083662764, -0.0004799850165364495])","array('d', [0.6536570946362354, 0.6277434209676123, 0.6062172779587289, 0.5880954782307987, 0.5726774519359202, 0.5594402249896581, 0.5479809161576019, 0.5379829625768358, 0.5291949784206817, 0.5214166456943363, 0.5144886373077526, 0.5082848942246776, 0.5027062874787379, 0.4976750915100522, 0.4931299219277932, 0.48799366666824306])",-127.53781748846377,-193.1898720991033,-49.76803154549767,0.303251768372196,-0.004787503732743143,0.5594402249896581,25.000000246280685,-1.0,"[-201.92512044425953, -133.4321900792267, 49.90119406576367]","[-196.1154048552779, -122.11216999180932, 57.84501871108475]","[-187.05168553035733, -131.61737914019028, 50.599330955971595]",10000000000.0,0.011943340301513672
10,14.346246719360352,-202.3503875732422,-133.83660888671875,49.95125198364258,0.6150310635566709,0.03121559135615818,0.6405891338970999,23.149450908527406,"array('d', [-134.33856201171875, -132.85433825080034, -131.4173892861885, -130.02068212063227, -128.65847352470067, -127.32604023303132, -126.01947642718952, -124.7355379507848, -123.47151877214587, -122.22515031103056, -120.99451783056985, -119.77799043462863, -118.57416268133323, -117.38180672951029, -116.19983448776011, -115.26269428422306])","array('d', [-203.1192626953125, -201.108814775674, -199.06361799642033, -196.99043362463644, -194.89428747836112, -192.77902761754248, -190.64766126497943, -188.50257387042183, -186.34568037408317, -184.17853469131552, -182.0024117578745, -179.81837043704277, -177.62730229339306, -175.42996935127306, -173.22703283177052, -171.46018542673315])","array('d', [-49.95133590698242, -49.882329980351145, -49.836722952819294, -49.80615379043614, -49.78537565311052, -49.77105336020866, -49.761038059086566, -49.753925502881714, -49.748784371767975, -49.74498762353147, -49.74210701662905, -49.73984688518752, -49.7380026533885, -49.736435150142356, -49.73505507853629, -49.73406214938239])","array('d', [0.6259510517120359, 0.5368280966256349, 0.46164905220554303, 0.39830061545272516, 0.34500989093717427, 0.30025210408730396, 0.2626962630415051, 0.23117208229603523, 0.2046495106021432, 0.18222602085253792, 0.16311881474957396, 0.1466602209759032, 0.13229523691160253, 0.119580578360287, 0.10818486299752264, 0.09788972096856981])","array('d', [-0.0334341228008269, -0.021969192765341046, -0.014640787541979007, -0.009894354636390641, -0.006780301800843865, -0.004712098882160358, -0.003323331422723791, -0.002382417687115751, -0.0017411871357088644, -0.0013035138771219775, -0.0010059363267665594, -0.0008055125261066222, -0.0006720986426807722, -0.0005833839617891282, -0.0005217023400646868, -0.00047205615753392573])","array('d', [0.6492458144810536, 0.6234761708484446, 0.6020968144517816, 0.584119493951418, 0.5688408741016053, 0.5557363159050339, 0.5444018954796956, 0.5345204238638522, 0.5258402073685454, 0.5181608814486746, 0.5113232908900416, 0.5052017270045674, 0.49969754857629917, 0.4947336119737354, 0.49024916365203014, 0.4851814286251904])",-127.32604023303132,-192.77902761754248,-49.77105336020866,0.30025210408730396,-0.004712098882160358,0.5557363159050339,25.000000246278862,-1.0,"[-201.89788519718545, -133.4148665615945, 49.90128673725046]","[-196.0838986812604, -122.0940621906674, 57.84086790931738]","[-187.0238396764532, -131.60412073697353, 50.59696583410668]",10000000000.0,0.012454748153686523
11,14.359639406204224,-202.3503875732422,-133.83660888671875,49.95125198364258,0.6150310635566709,0.03121559135615818,0.6405891338970999,23.149450908527406,"array('d', [-134.08673095703125, -132.61105692678564, -131.18234862091572, -129.7935594424585, -128.4389469294688, -127.11379635119143, -125.81421507629503, -124.53697505748382, -123.27938815640083, -122.03920462242561, -120.81452881135354, -119.60374864174489, -118.40547678492673, -117.21850250032708, -116.04175358352153, -115.10866308653874])","array('d', [-202.7355499267578, -200.71875037208972, -198.6677588899337, -196.58924860547006, -194.48817912038737, -192.36834598016912, -190.2327131633113, -188.0836295832078, -185.922978770286, -183.75228732403846, -181.5728062502146, -179.38557335974872, -177.19146166015423, -174.99121681102645, -172.7854856068608, -171.0164960741371])","array('d', [-49.951263427734375, -49.88419024050381, -49.839859745414714, -49.81014605082823, -49.78994983028372, -49.77602952201808, -49.76629644671058, -49.75938556206589, -49.75439145878645, -49.750704471336086, -49.747908174463454, -49.745715023262534, -49.74392603598039, -49.742405833915505, -49.741067552563955, -49.74010471514456])","array('d', [0.6216952204704281, 0.5324532832471263, 0.4572849525456627, 0.39403877477121896, 0.3409147178768629, 0.2963676515371941, 0.2590507753364397, 0.22778128999602082, 0.2015191851216576, 0.1793540678107776, 0.16049706297776908, 0.14427599887509282, 0.13013279275343637, 0.11762238232270893, 0.10641281869437744, 0.09628630883396878])","array('d', [-0.032497089356183784, -0.021354066730257477, -0.01423108871665108, -0.009617412941010905, -0.006590244485885306, -0.00457960295386142, -0.0032294015287182743, -0.0023145745040036854, -0.0016911114081799856, -0.001265578353216333, -0.0009762855766289604, -0.0007814852519375788, -0.000651866973848886, -0.0005657316502429253, -0.0005058917212895327, -0.00045774991013981857])","array('d', [0.6448609987881521, 0.6193332552096654, 0.5981758610482556, 0.5804029667353853, 0.5653128781684397, 0.5523820890132121, 0.541207513102436, 0.5314726566759488, 0.5229264782558891, 0.5153692811013391, 0.5086426216245445, 0.5026215529612222, 0.497208237004946, 0.4923263552309159, 0.4879159750681376, 0.48293182485630565])",-127.11379635119143,-192.36834598016912,-49.77602952201808,0.2963676515371941,-0.00457960295386142,0.5523820890132121,25.000000248649634,-1.0,"[-201.51562239676076, -133.17185532385997, 49.90263218283765]","[-195.64186645427137, -121.83936413993051, 57.78131447711957]","[-186.6331647756209, -131.41837056680606, 50.56425621637664]",10000000000.0,0.012352228164672852
12,14.371474981307983,-202.3503875732422,-133.83660888671875,49.95125198364258,0.6150310635566709,0.03121559135615818,0.6405891338970999,23.149450908527406,"array('d', [-133.83660888671875, -132.3691437148584, -130.9481124998241, -129.56649640441438, -128.21858452323102, -126.89969422487209, -125.60596450637905, -124.33419812140579, -123.08173670386097, -121.84635906433441, -120.6261967272028, -119.419663220619, -118.22539513375088, -117.04220386708754, -115.86903755204536, -114.93528336506004])","array('d', [-202.3503875732422, -200.32751767632723, -198.2711605449844, -196.18785748370468, -194.0824745073087, -191.95873647981423, -189.81955152924962, -187.6672229761523, -185.50359625001158, -183.33016557186204, -181.14815410372537, -178.9585755156788, -176.7622817707825, -174.56000012016358, -172.352361221414, -170.57558058183469])","array('d', [-49.95125198364258, -49.886822936696525, -49.8442402797588, -49.81569899343586, -49.79630104934298, -49.78293269225905, -49.77358744868555, -49.76695388542171, -49.76216206224497, -49.758626128963876, -49.755945874958805, -49.75384491262658, -49.75213195439089, -49.75067684258457, -49.749396063780225, -49.748471311858644])","array('d', [0.6150310635566709, 0.5260529125252533, 0.45120361730765685, 0.3883108357751349, 0.33555941147118984, 0.29139274535902815, 0.25445511695023093, 0.2235567391848483, 0.1976521804451529, 0.17582695806194826, 0.15728927280520436, 0.1413650668409456, 0.12749530515314705, 0.11523481944383832, 0.10425232754583692, 0.09433141542195227])","array('d', [-0.03121559135615818, -0.02051215546692054, -0.01366982776512574, -0.009237653402318094, -0.006329378753356211, -0.004397585606325407, -0.0031002689429289305, -0.0022212517718168414, -0.0016222024719164882, -0.001213365306054736, -0.000935474073636625, -0.000748416469071281, -0.0006240253060770206, -0.0005414418493692906, -0.00048413718302099906, -0.00043806580687916034])","array('d', [0.6405891338970999, 0.6154250220417938, 0.5945828213504958, 0.5770884665523541, 0.5622474451842039, 0.5495409073243774, 0.5385689786462357, 0.5290175326571998, 0.5206373967946581, 0.5132304474123269, 0.5066396352114584, 0.5007412933279906, 0.495438781174967, 0.4906569066474835, 0.48633679119619666, 0.4814720300894288])",-126.89969422487209,-191.95873647981423,-49.78293269225905,0.29139274535902815,-0.004397585606325407,0.5495409073243774,25.00000024627513,-1.0,"[-201.51562239676076, -133.17185532385997, 49.90263218283765]","[-195.64186645427137, -121.83936413993051, 57.78131447711957]","[-186.6331647756209, -131.41837056680606, 50.56425621637664]",10000000000.0,0.010491132736206055
13,14.396333932876587,-201.57557678222656,-133.34153747558594,49.951908111572266,0.5945611596107481,0.027575343847274697,0.6322391192105152,23.163523987889263,"array('d', [-133.34153747558594, -131.8897729422742, -130.48273241180215, -129.11356840419677, -127.77671996868361, -126.46763567949786, -125.18257068218189, -123.91843183952624, -122.67265499484925, -121.44310471399481, -120.22799080204985, -119.02579828930199, -117.8352290263196, -116.65515389293343, -115.48457514310907, -114.55201477018413])","array('d', [-201.57557678222656, -199.54117540459106, -197.47511770143305, -195.3835632587202, -193.27111576378857, -191.1413080464642, -188.99690081143572, -186.84008011273278, -184.6725955887172, -182.49586163156866, -180.31103386712286, -178.11906817930551, -175.92076666953443, -173.71681329720442, -171.5078009603296, -169.72929649291956])","array('d', [-49.951908111572266, -49.89499215795557, -49.85737853176588, -49.832172212809745, -49.81504608243321, -49.80324901038353, -49.79500791990536, -49.789163712045486, -49.78494733338849, -49.781840746181544, -49.77948996231387, -49.777650436390076, -49.776152863148624, -49.774882014586616, -49.773763963853106, -49.772956405486035])","array('d', [0.5945611596107481, 0.5072078668235213, 0.4338861604355812, 0.3724295289129124, 0.32102566286569173, 0.27811952007775487, 0.242356557158422, 0.21254830950101752, 0.18765111129113718, 0.16675283619174863, 0.1490646743896887, 0.13391616205347612, 0.1207523895495632, 0.10913274798702775, 0.09873084233782321, 0.08933536855025236])","array('d', [-0.027575343847274697, -0.018119269842943205, -0.012073665050835044, -0.008157080981025789, -0.005586811359602534, -0.0038793659557849955, -0.0027326482011482667, -0.0019556837318352263, -0.0014262527621288577, -0.0010650433248314258, -0.0008196772277264648, -0.0006546958490757635, -0.0005451895867295416, -0.00047269859033635393, -0.00042257812478733607, -0.0003823648639085468])","array('d', [0.6322391192105152, 0.6081512244231436, 0.5882105211407088, 0.5714913718223271, 0.5573284741101875, 0.5452218303654519, 0.534784479992125, 0.5257116461020588, 0.51776128503114, 0.5107409677713735, 0.5044983754383583, 0.49891389149445964, 0.49389441836109876, 0.48936790514228734, 0.4852782776389069, 0.4806749639432504])",-126.46763567949786,-191.1413080464642,-49.80324901038353,0.27811952007775487,-0.0038793659557849955,0.5452218303654519,25.000000246271412,-1.0,"[-200.36597733971215, -132.4554456500922, 49.91055033767208]","[-194.3209980109711, -120.99068334684057, 57.461540355215064]","[-185.46007975603365, -130.87784600709045, 50.480985777742276]",10000000000.0,0.011099815368652344
14,14.415048360824585,-201.1859130859375,-133.09664916992188,49.952903747558594,0.5810642838478085,0.025133583694696322,0.6281652609494068,23.169450734053893,"array('d', [-133.09664916992188, -131.6523907919337, -130.2517154203514, -128.8879103702947, -127.55552709378107, -126.25010902175252, -124.96799270931403, -123.70615598849821, -122.46209733944359, -121.23373710648816, -120.0193350707991, -118.81742122442787, -117.62673798250374, -116.44619289702362, -115.27482142755694, -114.3413244530581])","array('d', [-201.1859130859375, -199.14603554915598, -197.07559581939674, -194.98051505816645, -192.86523503383575, -190.73317151069307, -188.58699642969484, -186.42882607060983, -184.2603536969817, -182.08294717883575, -179.89772311498797, -177.7056042279768, -175.5073641589307, -173.30366225111197, -171.09506998314203, -169.31696760944064])","array('d', [-49.952903747558594, -49.90102816176919, -49.86674882322462, -49.84378062763348, -49.828179121846055, -49.81743631085052, -49.80993568170432, -49.80462038124457, -49.80078911502841, -49.797969423128194, -49.79583840819734, -49.79417295994391, -49.792818582107124, -49.79167011045744, -49.790660080956485, -49.78993057663878])","array('d', [0.5810642838478085, 0.49501619505707695, 0.42285986090955413, 0.3624520243687803, 0.311996075734974, 0.26994840529596387, 0.23496339302770108, 0.20585998741613173, 0.18160100584240843, 0.16128020656709963, 0.14411424200142173, 0.12943776653543623, 0.11670066234307451, 0.10546676740062894, 0.09541375025041891, 0.08633393923873914])","array('d', [-0.025133583694696322, -0.016513788008512706, -0.011002515888885544, -0.007431874140482636, -0.005088506297663358, -0.003531739703526063, -0.002486214277620414, -0.0017778463293031807, -0.0012952190275293623, -0.0009660265450019443, -0.0007425142233621108, -0.0005923495121073819, -0.0004928132621233541, -0.0004270609585402773, -0.00038171904444403307, -0.00034539411917158683])","array('d', [0.6281652609494068, 0.6047665306531489, 0.5853958536520428, 0.569161440547025, 0.555418495045109, 0.5436803183130146, 0.5335690904817304, 0.5247866494435772, 0.5170959621629082, 0.5103085475306045, 0.5042752996047057, 0.4988792836970058, 0.4940296836221324, 0.48965641643321134, 0.48570512347693157, 0.48125751403537564])",-126.25010902175252,-190.73317151069307,-49.81743631085052,0.26994840529596387,-0.003531739703526063,0.5436803183130146,25.000000246269586,-1.0,"[-200.36597733971215, -132.4554456500922, 49.91055033767208]","[-194.3209980109711, -120.99068334684057, 57.461540355215064]","[-185.46007975603365, -130.87784600709045, 50.480985777742276]",10000000000.0,0.0113372802734375
15,14.449764966964722,-200.40396118164062,-132.61337280273438,49.95743179321289,0.5486103296279905,0.01925526559352861,0.6203938285496569,23.1805256125041,"array('d', [-132.8535614013672, -131.41635084097578, -130.02141797469508, -128.66221400558598, -127.33342477089171, -126.03070567694581, -124.75048830162811, -123.48983243288983, -122.2463081540022, -121.01789897659208, -119.80292080828144, -118.59995378294343, -117.40778530503236, -116.22536343971682, -115.0517602423778, -114.11812748389])","array('d', [-200.7947998046875, -198.74980662411443, -196.67543054530447, -194.5773330642386, -192.45977970750846, -190.32605909320048, -188.1787470641693, -186.01988464571482, -183.85110453884536, -181.67372482629946, -179.4888204845962, -177.29727897183372, -175.09984373078973, -172.8971480236874, -170.68974065215997, -168.91640966390364])","array('d', [-49.954490661621094, -49.90834847126817, -49.87786198076649, -49.85743963162895, -49.843572120430196, -49.8340279826771, -49.82736881844395, -49.822654127991704, -49.81925975078068, -49.81676512972286, -49.81488278692408, -49.81341404183023, -49.81222128302261, -49.81121082429597, -49.81032257249595, -49.80968241936062])","array('d', [0.5656552314758299, 0.4812140576232344, 0.410468237602621, 0.3513099718485213, 0.30196711333250587, 0.2609141439689055, 0.22681965148739902, 0.1985143245180157, 0.17497107939528667, 0.1552926107023425, 0.13870360928264433, 0.12454600131722376, 0.11227622265999067, 0.10146394554323028, 0.0917919233656695, 0.08305677445504434])","array('d', [-0.022356310859322416, -0.014687558349121088, -0.009784062997994865, -0.006607004444942121, -0.004521847884192074, -0.0031365902598539668, -0.002206267208187721, -0.0015760015020001125, -0.001146663311315901, -0.0008539174376670165, -0.0006552707533105082, -0.000521949443015556, -0.00043372931626929726, -0.00037560726774207154, -0.0003356605624750698, -0.00030371880540301096])","array('d', [0.6242822567608695, 0.6016544145829166, 0.5829189882477206, 0.5672226876186722, 0.5539442042338412, 0.5426121678189435, 0.5328593484185996, 0.5243952711082496, 0.5169887266961585, 0.5104558074095199, 0.5046511038956654, 0.499460736964894, 0.49479645930831984, 0.4905903766325494, 0.4867900166980286, 0.48250323555775804])",-126.03070567694581,-190.32605909320048,-49.8340279826771,0.2609141439689055,-0.0031365902598539668,0.5426121678189435,25.000000246267852,-1.0,"[-199.57802965141303, -131.97700791126397, 49.92095898870925]","[-193.4232584689054, -120.35538997639219, 57.135998023034745]","[-184.65772356787312, -130.52534002948659, 50.447387269197286]",10000000000.0,0.011401653289794922
16,14.461963891983032,-200.40396118164062,-132.61337280273438,49.95743179321289,0.5486103296279905,0.01925526559352861,0.6203938285496569,23.1805256125041,"array('d', [-132.61337280273438, -131.18317149275208, -129.79380944155, -128.4389218541318, -127.11334465785617, -125.81285790640715, -124.53399864726318, -123.2739173604023, -122.03026311168263, -120.80108886414736, -119.58477204470535, -118.37994759600859, -117.18545198937204, -116.00027740342438, -114.82353570228054, -113.8874394757505])","array('d', [-200.40396118164062, -198.35391905709162, -196.27574589983743, -194.1748301841486, -192.05525109878755, -189.92016234222376, -187.77203756237623, -185.61283766351306, -183.44413083547815, -181.2671821206293, -179.083022154334, -176.89250082667502, -174.69632940492497, -172.49511335275304, -170.28937728690707, -168.51822876592837])","array('d', [-49.95743179321289, -49.91769117835155, -49.89143832436778, -49.873856350035645, -49.861922023295335, -49.853712818153085, -49.847989365506145, -49.84394121872828, -49.84103046099524, -49.83889459094321, -49.837285768171824, -49.83603266672881, -49.83501659277982, -49.834156725412065, -49.83340123098982, -49.832857029551214])","array('d', [0.5486103296279905, 0.46599881633365686, 0.3968500823776201, 0.3390987271679718, 0.29100220320211595, 0.2510570834998241, 0.21794940750446895, 0.19052431671502723, 0.16776714091214565, 0.14879150565695679, 0.13283186021082113, 0.11923887270592182, 0.10747676544303204, 0.09712204514491846, 0.0878633179635709, 0.07950202496466847])","array('d', [-0.01925526559352861, -0.012648831769262835, -0.008424326120102193, -0.005687037010247034, -0.003890432778653063, -0.0026968547235789444, -0.00189528327975564, -0.0013522937130823552, -0.000982482182537825, -0.0007304189707777997, -0.0005594907467010227, -0.0004449020075506596, -0.0003692196953462687, -0.0003195035641066656, -0.0002854598776762132, -0.00025829572032856906])","array('d', [0.6203938285496569, 0.5986023047962151, 0.580556978390309, 0.5654454559726779, 0.5526716072551763, 0.5417806223187346, 0.5324167892041086, 0.5242980392566128, 0.5171995557865734, 0.5109424598171899, 0.5053854056257409, 0.500417865762934, 0.49595440083390013, 0.4919294984384507, 0.4882927304766585, 0.48418869913418777])",-125.81285790640715,-189.92016234222376,-49.853712818153085,0.2510570834998241,-0.0026968547235789444,0.5417806223187346,25.000000246266115,-1.0,"[-199.1837130814145, -131.7415009915315, 49.92855067958536]","[-192.97541360027375, -120.02853138285064, 56.94733693495646]","[-184.25669548824496, -130.35466828870673, 50.43927646470128]",10000000000.0,0.011253833770751953
17,14.49550724029541,-199.6178741455078,-132.13807678222656,49.966793060302734,0.5109645724296568,0.012776603922247744,0.6124446550991872,23.191604031119667,"array('d', [-132.13807678222656, -130.72219962753329, -129.34401055809263, -127.99755003948533, -126.6779830326387, -125.38136268103763, -124.1044572373007, -122.84461609666467, -121.59966157080028, -120.36779890161858, -119.14754030476922, -117.93764070482105, -116.73704389676874, -115.54483848629539, -114.36022332135776, -113.41752976636927])","array('d', [-199.6178741455078, -197.55768566874679, -195.47198584927935, -193.3656131368462, -191.24226477808284, -189.10481437279464, -186.95552143030295, -184.79617782359216, -182.62821494709385, -180.45278492606744, -178.27082369710507, -176.0831007000977, -173.8902581339896, -171.6928416550652, -169.4913237332297, -167.72463113555074])","array('d', [-49.966793060302734, -49.940425718151815, -49.92301336149812, -49.911358507761406, -49.90345407369203, -49.89802350310689, -49.894243694911204, -49.89157628964435, -49.88966387005161, -49.888265495534995, -49.88721636889333, -49.88640251338573, -49.88574492493103, -49.88518978840063, -49.88470260114217, -49.88435190931154])","array('d', [0.5109645724296568, 0.4324403931522172, 0.36685611544523905, 0.312239625337069, 0.2669144596521108, 0.2294271119940217, 0.1985034462671234, 0.17302182651333933, 0.15199624961109381, 0.1345656363176574, 0.11998701123407442, 0.10763121939224192, 0.09698037929260912, 0.08762660869882982, 0.07927176471531173, 0.07172806540271404])","array('d', [-0.012776603922247744, -0.008390840964578237, -0.005585952568228911, -0.0037682876651938665, -0.002575173953825206, -0.0017825092285385863, -0.0012502181611159058, -0.000889720270507017, -0.0006443094822355201, -0.00047717826100732494, -0.0003640109250245728, -0.00028833589506162944, -0.00023856514187420465, -0.00020608589352425229, -0.00018403179944156067, -0.00016651996198606655])","array('d', [0.6124446550991872, 0.5924473102336493, 0.5758914298726947, 0.562046965255684, 0.5503692825218348, 0.5404379008506811, 0.5319212711122615, 0.5245551452503759, 0.5181283776130873, 0.5124729172019696, 0.5074562092315451, 0.5029749965855577, 0.49894993646867564, 0.49532068675077945, 0.49204125276899274, 0.4883385848798663])",-125.38136268103763,-189.10481437279464,-49.89802350310689,0.2294271119940217,-0.0017825092285385863,0.5404379008506811,25.000000246262577,-1.0,"[-199.1837130814145, -131.7415009915315, 49.92855067958536]","[-192.97541360027375, -120.02853138285064, 56.94733693495646]","[-184.25669548824496, -130.35466828870673, 50.43927646470128]",10000000000.0,0.011036872863769531
18,14.514108419418335,-199.2227783203125,-131.90289306640625,49.97357177734375,0.49069076776504494,0.009502298198640293,0.6084976355221607,23.19550067670066,"array('d', [-131.90289306640625, -130.49412018310954, -129.1213535128565, -127.77885031035433, -126.46195101388749, -125.16685446117417, -123.8904524001317, -122.63020057296636, -121.38401394621536, -120.15017918511812, -118.92728053235307, -117.71413697584387, -116.50974956971355, -115.31325833246407, -114.12390847157975, -113.17698877882844])","array('d', [-199.2227783203125, -197.15764440696842, -195.06833562125857, -192.95942165639804, -190.8344094619312, -188.6960310980229, -186.54643675507677, -184.38733136568786, -182.2200755660067, -180.0457628171508, -177.86527968162272, -175.6793535281391, -173.4885903403042, -171.29350433720498, -169.09454051271817, -167.32994529064536])","array('d', [-49.97357177734375, -49.953962440651374, -49.94101497046437, -49.93235093440074, -49.926477257182036, -49.922444216041164, -49.91963938501687, -49.91766215614903, -49.91624653274757, -49.915213175268775, -49.91443939684507, -49.91384032555986, -49.91335711733753, -49.91294968267159, -49.912592322843125, -49.912335099919545])","array('d', [0.49069076776504494, 0.4143889483245724, 0.3507420048211787, 0.2978273552455919, 0.25400416917816304, 0.21784620588420162, 0.18810131115185047, 0.16366633480048534, 0.14357131085732228, 0.12696935086918823, 0.11313015101601069, 0.10143586494496622, 0.09137860830346495, 0.08255917366202092, 0.07468672408389657, 0.06757934870055464])","array('d', [-0.009502298198640293, -0.0062397644296166305, -0.004153070031265171, -0.0028007328347670565, -0.0019130221539665154, -0.0013232507350711211, -0.0009272211104870082, -0.0006590359995366044, -0.000476507707861007, -0.00035225113785649465, -0.0002681741755819939, -0.0002120196208701482, -0.0001751618141772791, -0.00015118587646006438, -0.00013497243833795675, -0.00012212920178185802])","array('d', [0.6084976355221607, 0.5894388524863884, 0.5736670277545748, 0.5604922801356438, 0.5493955269326757, 0.5399735732550324, 0.531907197096543, 0.5249413466816365, 0.5188719989696766, 0.5135367860841912, 0.5088077908217435, 0.5045856028890797, 0.500794109083629, 0.4973757058471479, 0.49428674506592696, 0.49079923640221723])",-125.16685446117417,-188.6960310980229,-49.922444216041164,0.21784620588420162,-0.0013232507350711211,0.5399735732550324,25.000000246260825,-1.0,"[-198.39060666292443, -131.27584290875524, 49.94762867583345]","[-192.0733278587233, -119.36943151857666, 56.530132478932785]","[-183.45098912400996, -130.02155561520073, 50.43197480845697]",10000000000.0,0.013195037841796875
19,14.538828134536743,-198.82647705078125,-131.6692657470703,49.982269287109375,0.4698599576950071,0.006229513790458366,0.6046980182316636,23.197672019604628,"array('d', [-131.6692657470703, -130.267312881123, -128.89964938942643, -127.56075401245049, -126.24614629430735, -124.95217388119677, -123.6758547685928, -122.41475347312328, -121.1668797343158, -119.93060346988943, -118.7045825191715, -117.48770127941178, -116.27901922437266, -115.07772879704277, -113.88312245914994, -112.93119923734821])","array('d', [-198.82647705078125, -196.75664899812705, -194.66396990315477, -192.5527511488094, -190.42631428666635, -188.2872521413497, -186.1376066164285, -183.97899608813745, -181.8127104789827, -179.63978445022082, -177.46105495858632, -175.2772070194673, -173.088810093069, -170.89634664059997, -168.70023385407532, -166.93732899634165])","array('d', [-49.982269287109375, -49.96941377056622, -49.9609259072939, -49.95524654380772, -49.95139683051481, -49.94875408041905, -49.946916721256684, -49.94562205042763, -49.94469562470637, -49.94401982238632, -49.94351417126978, -49.94312299740881, -49.94280769687758, -49.94254196779433, -49.94230895084038, -49.94214116296883])","array('d', [0.4698599576950071, 0.39585876049612984, 0.3342166253697271, 0.283061417544661, 0.24078900526523156, 0.2060014937625701, 0.17746975691852324, 0.15411012147980369, 0.13496958195375, 0.11921628584430555, 0.10613335861752236, 0.09511492442252294, 0.08566365476268141, 0.0773894661452973, 0.07000916151617305, 0.06334691468085386])","array('d', [-0.006229513790458366, -0.004090627522691265, -0.00272249970288034, -0.0018357872287909972, -0.0012536950919804473, -0.0008669569333795456, -0.0006072627348573188, -0.0004314075799522661, -0.00031172947615104243, -0.0002302712661912283, -0.0001751688434089619, -0.000138383888616094, -0.00011425898335527316, -9.858573667788341e-05, -8.800432780332227e-05, -7.963052786536577e-05])","array('d', [0.6046980182316636, 0.5865850453817145, 0.5716065333437518, 0.559111166189104, 0.5486046912281731, 0.5397008904604828, 0.5320927632191917, 0.5255344498212311, 0.5198290942051315, 0.514820075585664, 0.5103841819192858, 0.5064259124383634, 0.5028724374958724, 0.4996689364352332, 0.4967741434697639, 0.4935071659368424])",-124.95217388119677,-188.2872521413497,-49.94875408041905,0.2060014937625701,-0.0008669569333795456,0.5397008904604828,25.000000246259155,-1.0,"[-197.59249027087728, -130.81651178914512, 49.97292507686051]","[-191.16962106719333, -118.71209388529643, 56.074549319745]","[-182.64208148794145, -129.69087261772896, 50.44005854696174]",10000000000.0,0.01417994499206543
20,14.556238651275635,-198.42898559570312,-131.4371337890625,49.992652893066406,0.44872441887855513,0.0031467117369173396,0.6009258190777639,23.200188843514184,"array('d', [-131.4371337890625, -130.04197540978194, -128.67937691487725, -127.34403811867831, -126.03165751180086, -124.73873182255778, -123.46240590454829, -122.2003538602058, -120.95068110294177, -119.71184171719318, -118.48256802032442, -117.26181064315111, -116.04868823648496, -114.84244635763086, -113.64242534880026, -112.68549521914117])","array('d', [-198.42898559570312, -196.35453737546734, -194.25854093452435, -192.14506304991397, -190.01724683568648, -187.87754951750475, -185.72790661189498, -183.56985088405776, -181.40460194258554, -179.23313572838114, -177.0562394815898, -174.87455564057782, -172.68861685286896, -170.49887349624154, -168.30571461746754, -166.5448314084188])","array('d', [-49.992652893066406, -49.986157764651935, -49.98186671334871, -49.97899306976205, -49.97704291933899, -49.97570204475471, -49.97476780305558, -49.97410763426803, -49.973633526276565, -49.97328615077593, -49.973024934394864, -49.97282182245308, -49.97265737406851, -49.97251834942826, -49.972396258458986, -49.97230828743724])","array('d', [0.44872441887855513, 0.37704677545924475, 0.3174337926540832, 0.2680620507499246, 0.22736320407828017, 0.1939672415990085, 0.16666787056264312, 0.14440086621552195, 0.12623025934327922, 0.11133937206689701, 0.09902493145430667, 0.088693216772888, 0.07985763637204066, 0.0721373960257601, 0.06525707901923802, 0.05904705223470753])","array('d', [-0.0031467117369173396, -0.00206740207703369, -0.0013769586569388399, -0.0009294225093278891, -0.0006355995299590094, -0.0004403572106858485, -0.00030922372680685755, -0.000220393174787426, -0.0001599023247110427, -0.0001186856499601498, -9.075341797811649e-05, -7.20481737449982e-05, -5.971625164046129e-05, -5.1638212766082885e-05, -4.612649569691299e-05, -4.173768883871631e-05])","array('d', [0.6009258190777639, 0.5837552435196174, 0.5695714095136739, 0.5577591587679902, 0.5478478033668565, 0.5394674119528383, 0.5323228244030616, 0.526177166692005, 0.5208406441339738, 0.5161623361112138, 0.5120237224620198, 0.5083332171806101, 0.5050212888034813, 0.5020359182560631, 0.4993382419207929, 0.49629453612469876])",-124.73873182255778,-187.87754951750475,-49.97570204475471,0.1939672415990085,-0.0004403572106858485,0.5394674119528383,25.0000002462575,-1.0,"[-197.1917729642973, -130.58902847383024, 49.98793283325055]","[-190.71772385365415, -118.38879966091609, 55.83952279030669]","[-182.2366707013316, -129.52457806086377, 50.44821711776885]",10000000000.0,0.01052236557006836
21,14.594594955444336,-197.6309356689453,-130.97694396972656,50.018775939941406,0.40635299682617165,-0.002317249076440995,0.593458251157079,23.204810696831107,"array('d', [-130.97694396972656, -129.59533471185608, -128.24285640706782, -126.91463818552035, -125.60672754829916, -124.31591371113842, -123.03959185013379, -121.77565336891952, -120.52239412967076, -119.2784362444832, -118.04266102445946, -116.81415178866791, -115.59214584749309, -114.3759953179427, -113.16513662729805, -112.1985275870287])","array('d', [-197.6309356689453, -195.54742677984896, -193.44487858713785, -191.3269138513553, -189.19634399257006, -187.0553697703068, -184.90572283627841, -182.74877021340663, -180.5855942510757, -178.41705547489892, -176.24384284256197, -174.06651421059524, -171.88552878703692, -169.70127270936814, -167.51407848629555, -165.75793434195458])","array('d', [-50.018775939941406, -50.02354867897828, -50.02668176027893, -50.028760450666255, -50.0301523632447, -50.03109149893423, -50.031728899094176, -50.0321635050265, -50.03246115347835, -50.03266637619374, -50.032809777485134, -50.032912654013074, -50.032989866177644, -50.03305158320149, -50.03310429634855, -50.033142036907655])","array('d', [0.40635299682617165, 0.3392793273231328, 0.28370362043657493, 0.23789158923208906, 0.2003412572807698, 0.16973499049327154, 0.14490991324700506, 0.12483920300019394, 0.10861998307293913, 0.09546530104027998, 0.08469871057338861, 0.07575059484322452, 0.0681557448498031, 0.061551929558432875, 0.05567932461764582, 0.05038074088670673])","array('d', [0.002317249076440995, 0.001514338682074432, 0.0010006956068125605, 0.0006678100794233947, 0.0004493641452814815, 0.000304363319789253, 0.00020717805268417942, 0.00014160065324199755, 9.72578331290582e-05, 6.741812373536889e-05, 4.763296455099681e-05, 3.4880986109448544e-05, 2.7019885108414797e-05, 2.243029969829933e-05, 1.978436441476302e-05, 1.7901181970152404e-05])","array('d', [0.593458251157079, 0.5781298737825014, 0.5655121300045901, 0.5550540158022137, 0.5463274050237261, 0.5389922616601882, 0.5327754892034573, 0.5274571915419142, 0.5228610830038539, 0.5188472654945137, 0.5153063730683095, 0.5121545131335357, 0.5093286730879749, 0.5067823958179926, 0.5044816028670824, 0.501886161896187])",-124.31591371113842,-187.0553697703068,-50.03109149893423,0.16973499049327154,0.000304363319789253,0.5389922616601882,25.000000246254203,-1.0,"[-197.1917729642973, -130.58902847383024, 49.98793283325055]","[-190.71772385365415, -118.38879966091609, 55.83952279030669]","[-182.2366707013316, -129.52457806086377, 50.44821711776885]",10000000000.0,0.011089324951171875
