,x_pos,y_pos,z_pos,roll,pitch,yaw,vel,x_traj,y_traj,z_traj,roll_traj,pitch_traj,yaw_traj,x_cmd,y_cmd,z_cmd,roll_cmd,pitch_cmd,yaw_cmd,vel_cmd,effector_dmg,effector_x,effector_y,effector_z,cost,time_solution
0,-182.58692932128906,-81.53132629394531,44.88933563232422,0.6351137757301326,0.03935696557164186,0.9632079164173936,23.11414334125804,"array('d', [-81.53132629394531, -79.50036208812527, -77.50967401134531, -75.5586989741762, -73.64594142978441, -71.76938234775672, -69.92672929009488, -68.11557655860346, -66.33350960981791, -64.57817304204323, -62.84731402583512, -61.1388088172508, -59.45067737760466, -57.781089439673764, -56.128364259732, -54.81987043667225])","array('d', [-182.58692932128906, -181.13136133337946, -179.61977550346063, -178.05679288914283, -176.44712601392152, -174.79537636236347, -173.10589408744542, -171.38269989279783, -169.62945286508833, -167.84944787045313, -166.04563021466763, -164.22061942654994, -162.37673716819518, -160.51603638197193, -158.6403301068388, -157.12768385805336])","array('d', [-44.88933563232422, -44.81224655249609, -44.76943615680274, -44.74874733067544, -44.74241711237944, -44.74542508624733, -44.75447111930621, -44.767339486860806, -44.78250163614749, -44.7988680370221, -44.81563496342619, -44.8321935297198, -44.84808123588617, -44.86296383107239, -44.87663934770679, -44.88657458235422])","array('d', [0.6351137757301326, 0.6145857214135997, 0.5859209833731528, 0.5520617891445051, 0.5153161397897128, 0.4774269850002626, 0.4396687132016222, 0.40294361178096044, 0.3678659709924315, 0.3348304080981401, 0.30406522491176147, 0.27567315205665394, 0.24966206927465903, 0.22596800255835817, 0.20447226330683171, 0.1850141715421984])","array('d', [-0.03935696557164186, -0.022604270595323172, -0.011825694988471459, -0.004842089103049964, -0.0002979014292185426, 0.0026550213093862944, 0.004550206478306464, 0.005724936678692242, 0.0063937009009374475, 0.006694495393953491, 0.0067187416833610555, 0.006531334427219508, 0.006184698580513346, 0.005729049026443973, 0.00521991228249397, 0.004723172073972285])","array('d', [0.9632079164173936, 0.9349145274897073, 0.9080654668014203, 0.882981884181327, 0.8598083191722522, 0.8385686524509509, 0.8192106560371346, 0.8016376880740028, 0.785729741504951, 0.7713568165730869, 0.7583871694882424, 0.7466923012019665, 0.7361499395615083, 0.7266458178392189, 0.7180747483295067, 0.7084083951517361])",-71.76938234775672,-174.79537636236347,-44.74542508624733,0.4774269850002626,0.0026550213093862944,0.8385686524509509,25.0000002461527,-1.0,"[-181.73125874131802, -80.30073924967725, 44.83031542348344]","[-180.4738693673995, -68.23886720275729, 53.658124590320234]","[-168.16799892471883, -74.84490800707296, 48.18767876391128]",10000000000.0,0.012890815734863281
1,-182.30101013183594,-81.16264343261719,44.8875846862793,0.6352980136871335,0.039316367357969215,0.958970443406377,23.117683022017328,"array('d', [-81.16264343261719, -79.13785842164684, -77.15353239415361, -75.20902779386535, -73.30279315270754, -71.43276951301816, -69.5966372535298, -67.79197315352215, -66.01635222096705, -64.2674136375622, -62.54290262682936, -60.8406957921103, -59.158814864031434, -57.4954321320778, -55.84886975320657, -54.545270830032706])","array('d', [-182.30101013183594, -180.83685347790063, -179.3169226540788, -177.74589587991971, -176.12850868257738, -174.4693630211638, -172.77279586249145, -171.04280724054908, -169.28303213181968, -167.49674037735429, -165.68685285558945, -163.8559661257227, -162.00638078409324, -160.14013079426263, -158.259012314897, -156.74214536414524])","array('d', [-44.8875846862793, -44.81059164942587, -44.76786504537349, -44.74724668650634, -44.740975362259185, -44.74403309727008, -44.75312201709573, -44.76602819134626, -44.78122436677746, -44.797621881447945, -44.814417535456, -44.83100271690839, -44.84691503080503, -44.86182024140099, -44.87551638301633, -44.88546657859939])","array('d', [0.6352980136871335, 0.6139277309831329, 0.5846727729026426, 0.5504299645252484, 0.5134625740939462, 0.4754738215482078, 0.43770488411884917, 0.40103128975283237, 0.36604627109953874, 0.3331281649599045, 0.30249290737722256, 0.27423406309792014, 0.248352991306503, 0.22478143133368078, 0.20339834786816086, 0.18404245258150426])","array('d', [-0.039316367357969215, -0.022567925694733777, -0.011794903623486752, -0.004816419136656031, -0.00027638664192524836, 0.002673368322835449, 0.0045662082297147685, 0.005739209527134144, 0.006406671198377342, 0.006706433879809916, 0.006729800473293945, 0.00654158176867506, 0.006194151081169943, 0.005737702504296468, 0.005227772273974759, 0.00473028408900746])","array('d', [0.958970443406377, 0.9306914721609214, 0.9038974609521527, 0.8788935114986139, 0.8558121537253561, 0.8346689975826812, 0.8154064804539762, 0.7979247344700057, 0.7821019648736054, 0.7678073358132348, 0.7549088844047305, 0.7432782844712873, 0.7327936767119986, 0.7233413414155648, 0.7148166940700131, 0.7052024081574874])",-71.43276951301816,-174.4693630211638,-44.74403309727008,0.4754738215482078,0.002673368322835449,0.8346689975826812,25.00000024615722,-1.0,"[-181.4401312948271, -79.93569134633987, 44.828625327649654]","[-180.119462301913, -67.87839905044797, 53.653450306230305]","[-167.8499414391398, -74.52651971974042, 48.15241864257849]",10000000000.0,0.012874841690063477
2,-181.4340362548828,-80.06542205810547,44.88301467895508,0.635489702224731,0.03855897486209868,0.9459664384510852,23.12395241339924,"array('d', [-80.4296875, -78.41753634894376, -76.44620913956183, -74.51490883426429, -72.62196839272352, -70.7652481785429, -68.9423746040651, -67.1508902997062, -65.38835045039521, -63.6523845157024, -61.94073490926035, -60.25127995631504, -58.58204588236256, -56.93121096925203, -55.29710397566421, -54.003392473471166])","array('d', [-181.7245635986328, -180.2430349291597, -178.70625979704303, -177.1190202451395, -175.48609098758521, -173.81207024413766, -172.10126525192916, -170.3576322144007, -168.58475597667504, -166.78585481894774, -164.96379953955946, -163.12113974345928, -161.26013304096145, -159.3827747096882, -157.49082652123934, -155.9655175569362])","array('d', [-44.88443374633789, -44.80853001440107, -44.76656790822483, -44.74649239519138, -44.740612868846135, -44.743959370700146, -44.75326656472558, -44.766342527369716, -44.78167486756227, -44.798184936370106, -44.8150762462052, -44.83174464275326, -44.84773064715707, -44.86270189524173, -44.876457607083, -44.88645090663569])","array('d', [0.6354635357856747, 0.6124062712328534, 0.5819760984923814, 0.5469755632899657, 0.5095763201888153, 0.4714008869156784, 0.4336233156986904, 0.3970652127557717, 0.36227745510887766, 0.3296056687083341, 0.29924096310103143, 0.27125851444554383, 0.245646614207985, 0.2223284281682784, 0.20117825159368974, 0.18203362621884367])","array('d', [-0.03880156204104417, -0.022208267722462482, -0.011541103450973991, -0.00463472384504561, -0.00014382272073828974, 0.0027723778796849455, 0.004642203142380034, 0.005799312266740539, 0.00645568724003493, 0.006747594145150309, 0.006765261677285345, 0.0065727654711796235, 0.006221976999630159, 0.005762753807294801, 0.005250418001046514, 0.004750774792055681])","array('d', [0.9503616849568228, 0.9221236858121529, 0.8954511927110977, 0.8706168152731885, 0.8477290318634185, 0.8267870192481328, 0.8077226830026236, 0.7904298276958112, 0.7747831850339314, 0.7606503286332527, 0.7478989240317068, 0.7364010469585256, 0.7260357127623595, 0.7166903394462443, 0.7082615882982157, 0.6987548745295096])",-70.7652481785429,-173.81207024413766,-44.743959370700146,0.4714008869156784,0.0027723778796849455,0.8267870192481328,25.000000246166156,-1.0,"[-180.55724949450737, -78.84973239922876, 44.82519054791485]","[-179.04250170702102, -66.80513069192816, 53.63615581017736]","[-166.8856051182539, -73.5882146798007, 48.05049229153527]",10000000000.0,0.013836383819580078
3,-181.13999938964844,-79.70077514648438,44.881797790527344,0.6354264020919799,0.038171373307704905,0.9417082230236868,23.128539507036525,"array('d', [-80.06542205810547, -78.05977741270647, -76.09513535707968, -74.1706179145393, -72.28449966081371, -70.43460042166913, -68.6185196765398, -66.83378318314902, -65.07793650705574, -63.348604589943854, -61.643528807963186, -59.960588720083564, -58.2978131636281, -56.65338376301019, -55.02563289997307, -53.73696529613947])","array('d', [-181.4340362548828, -179.94368439240384, -178.3983614883462, -176.8029005368161, -175.16209462184437, -173.48053891878095, -171.76252476801656, -170.011985574072, -168.23248035990576, -166.4272009724239, -164.59899260164454, -162.75038087774342, -160.88360148089092, -159.00062996150876, -157.10321056016002, -155.57363762163249])","array('d', [-44.88301467895508, -44.807624666458274, -44.76602373079923, -44.74620505449975, -44.740511166532556, -44.74399470510016, -44.75340567300223, -44.76656252988539, -44.78195989753214, -44.79852384834411, -44.81546105458847, -44.832169454837995, -44.848190934425304, -44.86319400122021, -44.87697842686532, -44.88699250507523])","array('d', [0.635489702224731, 0.6115780617635892, 0.5805549219831276, 0.5451738512315198, 0.507559453720547, 0.46929307230187917, 0.431514638187758, 0.39501840051500287, 0.36033376446865323, 0.32778977591732567, 0.2975649583754793, 0.26972516336215563, 0.24425205524690655, 0.2210644536628559, 0.20003429153148813, 0.18099852825610818])","array('d', [-0.03855897486209868, -0.022038466014742433, -0.01142109487718277, -0.004548689019823519, -8.095972906718833e-05, 0.0028194085040377593, 0.0046783733727396035, 0.005827983413358481, 0.006479126317538666, 0.0067673234981777235, 0.006782295262418813, 0.0065877694188533915, 0.006235380479731938, 0.005774827929741987, 0.0052613345808395, 0.0047606525228139135])","array('d', [0.9459664384510852, 0.9177525995755967, 0.891144752949039, 0.866398955140887, 0.8436115381959854, 0.8227734263645594, 0.8038112555011018, 0.7866156727877829, 0.7710596824756438, 0.7570100735146605, 0.7443343375579317, 0.7329047646694778, 0.7226008222872778, 0.7133105130183548, 0.7049311371437122, 0.6954798179864234])",-70.43460042166913,-173.48053891878095,-44.74399470510016,0.46929307230187917,0.0028194085040377593,0.8227734263645594,25.0000002461706,-1.0,"[-180.2580308040007, -78.4888120138108, 44.824554633988406]","[-178.67977446226072, -66.44786597253263, 53.629367258387916]","[-166.56014313552492, -73.27657863982397, 48.018376275363714]",10000000000.0,0.013430356979370117
4,-180.84437561035156,-79.33775329589844,44.88059616088867,0.6349875330924987,0.03753117844462395,0.9376148144390918,23.134411372629028,"array('d', [-79.70077514648438, -77.70145963160657, -75.74331620342451, -73.82538608489271, -71.9458869275807, -70.10259965361081, -68.29309823235185, -66.51489267363795, -64.76551977122676, -63.04260057067379, -61.34387585987593, -59.667226754114985, -58.01068493513351, -56.3724355405298, -54.750814704321485, -53.467009661507426])","array('d', [-181.13999938964844, -179.64112599068662, -178.08756086770978, -176.48418159845173, -174.83579613529116, -173.1469948832646, -171.42205264726894, -169.664880039105, -167.87901062938704, -166.06761038902334, -164.23349953600172, -162.37918037549312, -160.50686728236448, -158.61851665862113, -156.715855736689, -155.182199060043])","array('d', [-44.881797790527344, -44.80722112025525, -44.76618002288929, -44.74675161208947, -44.74133416555163, -44.745017375286466, -44.754575931680115, -44.76784480053207, -44.7833296827597, -44.79996411231571, -44.81695979441718, -44.83371805535794, -44.849783042254074, -44.864824747166985, -44.878643887105625, -44.888683060822345])","array('d', [0.6354264020919799, 0.6106999719527146, 0.5791142008452219, 0.5433746561852149, 0.5055602672989876, 0.467212636628014, 0.42943888246936185, 0.39300700627866697, 0.358425842901934, 0.3260085705968711, 0.2959216776362815, 0.26822210656574375, 0.24288519741791373, 0.21982563064507946, 0.1989131004075996, 0.1799840324825926])","array('d', [-0.038171373307704905, -0.021773045164452814, -0.011237219075006345, -0.004419430572411066, 1.1548817833405854e-05, 0.002887051892739156, 0.004729084093660766, 0.005867077303203662, 0.006510179557088108, 0.0067927483866991375, 0.006803718885483624, 0.006606283775006383, 0.006251709149619411, 0.00578943896663938, 0.005274519198241816, 0.004772582459049653])","array('d', [0.9417082230236868, 0.9135226577814272, 0.8869813344286966, 0.8623243964046681, 0.8396365910152198, 0.8189010191390889, 0.8000393475754015, 0.7829392640578969, 0.7674721687028137, 0.7535041377052546, 0.7409025264036408, 0.7295398543186981, 0.7192960417919392, 0.7100596681765613, 0.7017286602772285, 0.6923316106234948])",-70.10259965361081,-173.1469948832646,-44.745017375286466,0.467212636628014,0.002887051892739156,0.8189010191390889,25.000000246174807,-1.0,"[-180.2580308040007, -78.4888120138108, 44.824554633988406]","[-178.67977446226072, -66.44786597253263, 53.629367258387916]","[-166.56014313552492, -73.27657863982397, 48.018376275363714]",10000000000.0,0.014584541320800781
5,-180.84437561035156,-79.33775329589844,44.88059616088867,0.6349875330924987,0.03753117844462395,0.9376148144390918,23.134411372629028,"array('d', [-79.33775329589844, -77.3445266063446, -75.3926110796668, -73.48096813288205, -71.60776189553006, -69.7707381687975, -67.96744885179798, -66.19539110707166, -64.45209532379064, -62.735180558724686, -61.0423885464053, -59.37160320221191, -57.720860073999965, -56.088348667720894, -54.472409600847556, -53.1931110782147])","array('d', [-180.84437561035156, -179.33734750484254, -177.7759400009042, -176.16506157235727, -174.50952617237027, -172.8139137300969, -171.08247891728715, -169.31910736028323, -167.5273059140536, -165.7102140171502, -163.87062664720813, -162.01102275546947, -160.133595521341, -158.24028237971862, -156.3327937639513, -154.79539118541618])","array('d', [-44.88059616088867, -44.807355112856506, -44.76722079147656, -44.74841615222975, -44.74343447603552, -44.74742763282834, -44.75721126000385, -44.770647483308, -44.78626015845618, -44.802995047371226, -44.82007214355934, -44.836898408424794, -44.85302180629838, -44.86811487281973, -44.88197995219047, -44.8920522426347])","array('d', [0.6349875330924987, 0.6095239055205907, 0.5774402012915529, 0.5413943541319368, 0.5034209332292202, 0.4650235048089673, 0.4272781222208705, 0.39092815428839184, 0.3564632759321867, 0.32418198745753657, 0.2942397198246652, 0.26668529049418005, 0.24148832335986684, 0.21855980783330117, 0.1977674992539438, 0.17894744960349784])","array('d', [-0.03753117844462395, -0.02134077759738092, -0.01094168205325476, -0.00421442379036971, 0.00015616684380781015, 0.002991069159733046, 0.0048055838368347426, 0.005924776645327246, 0.006554932491283784, 0.006828514640085612, 0.0068331904191783355, 0.006631291078282025, 0.006273485492845193, 0.0058087930603557434, 0.005291949301087164, 0.004788354064709144])","array('d', [0.9376148144390918, 0.9094774909272092, 0.8830177346065218, 0.8584607797944361, 0.8358807496113984, 0.8152537218560982, 0.7964970125214315, 0.7794958068888562, 0.7641202294630933, 0.7502358750049604, 0.7377101221780328, 0.7264158274648025, 0.7162334341621126, 0.7070521421012885, 0.6987705307370388, 0.6894288539348823])",-69.7707381687975,-172.8139137300969,-44.74742763282834,0.4650235048089673,0.002991069159733046,0.8152537218560982,25.00000024861371,-1.0,"[-179.95743186478495, -78.1293812695903, 44.82431260879555]","[-178.31813384244143, -66.08911841491167, 53.61890028441667]","[-166.23441357936008, -72.9656116260086, 47.98884293823135]",10000000000.0,0.013152360916137695
6,-180.2481689453125,-78.61656951904297,44.87822723388672,0.6314957141876218,0.035237051546573604,0.9298852244999747,23.151068615460822,"array('d', [-78.61656951904297, -76.63476544523922, -74.69434358437951, -72.79411746856482, -70.93216522367031, -69.10618454023637, -67.31370337900373, -65.55221062867959, -63.819238524713576, -62.11241436485582, -60.429491965827744, -58.76836939493973, -57.12709719034616, -55.503879843989566, -53.89707240679239, -52.62493789701702])","array('d', [-180.2481689453125, -178.72592256912833, -177.15017178861245, -175.52581473956488, -173.85762607653078, -172.1501281990746, -170.40750950613307, -168.63358724132254, -166.83180185050222, -165.00523059563588, -163.15661159189057, -161.2883726094154, -159.40266127935945, -157.50137483706538, -155.5861884481212, -154.0428370205866])","array('d', [-44.87822723388672, -44.809753546172345, -44.77282493133846, -44.756204632160596, -44.75273356172237, -44.75778882698152, -44.76833323763292, -44.78232600349724, -44.798355684427094, -44.815411620785085, -44.832743439555024, -44.84977838459367, -44.86607829117555, -44.88132502936932, -44.895326931205446, -44.90549798550266])","array('d', [0.6314957141876218, 0.6049552540225814, 0.572225064808866, 0.5358642169403006, 0.49782064096820394, 0.4595269126928466, 0.42200323535284306, 0.38595013750402124, 0.351824996515867, 0.31990232590799095, 0.2903200664525411, 0.2631146504215099, 0.2382473916601628, 0.21562430187711557, 0.1951109673551361, 0.176543719916852])","array('d', [-0.035237051546573604, -0.01980670634154171, -0.00990260171279418, -0.003500557254639911, 0.0006543852725864955, 0.0033449469362388574, 0.005061964281071305, 0.006114744792032857, 0.006699335738481162, 0.006941479656359146, 0.006924371691011934, 0.006707310705456182, 0.006338853499467294, 0.0058664925902252195, 0.005343806913147076, 0.00483527656767784])","array('d', [0.9298852244999747, 0.9019870261770063, 0.8758058005937974, 0.8515413773179286, 0.8292511752882242, 0.8089012417096083, 0.7904034722391613, 0.773640614467054, 0.7584821997566572, 0.7447943293399228, 0.7324455176240173, 0.7213100932827655, 0.711270124357378, 0.7022164680212928, 0.694049309403428, 0.6848361317831427])",-69.10618454023637,-172.1501281990746,-44.75778882698152,0.4595269126928466,0.0033449469362388574,0.8089012417096083,25.000000246184673,-1.0,"[-179.3518367216931, -77.41498889797464, 44.825382593907335]","[-177.59727506818479, -65.35450881317409, 53.56988564028838]","[-165.5814688575015, -72.34364728565525, 47.9331893987131]",10000000000.0,0.017305374145507812
7,-179.6450653076172,-77.90192413330078,44.8762092590332,0.6235021352767942,0.030937587842345165,0.922410980859075,23.167934127298846,"array('d', [-78.2584228515625, -76.2820166192676, -74.34690327191005, -72.45182772405717, -70.5948368105613, -68.77361696666871, -66.985696096642, -65.22856937383722, -63.49977883633499, -61.796963394339045, -60.117889224105, -58.460466827689665, -56.8227588284669, -55.202981193241484, -53.59949969169004, -52.32993258490114])","array('d', [-179.94749450683594, -178.41807169924695, -176.83574445198667, -175.20536217627665, -173.53164878012547, -171.81907541258926, -170.07178099982582, -168.29353670115148, -166.48774108579826, -164.65743398839007, -162.8053204383599, -160.93379917038294, -159.04499245832162, -157.1407754631783, -155.2228041693774, -153.6773399321983])","array('d', [-44.877197265625, -44.81261952421088, -44.778298050662876, -44.76344550678094, -44.76119032502749, -44.767095037222504, -44.77824317815183, -44.79267339878248, -44.809027138539065, -44.82632935778761, -44.843853947255454, -44.861044813891766, -44.87747524152302, -44.892834839883, -44.9069369102406, -44.91718017374255])","array('d', [0.6281038522720334, 0.6012524324098798, 0.568402337294185, 0.532060234474252, 0.49413110018613526, 0.45601422899010424, 0.4187049473597451, 0.3828856359650462, 0.34900068500956744, 0.31731549776196194, 0.2879617995462462, 0.26097197895243457, 0.23630495793586337, 0.21386564006123168, 0.193519530080775, 0.17510372779221417])","array('d', [-0.03335868939757334, -0.018556653235634248, -0.009059916502387423, -0.0029245572496090166, 0.001054039468404002, 0.0036268168787996703, 0.0052644080500052716, 0.006263171561551611, 0.006810778414480089, 0.0070274921622287935, 0.0069928716341878545, 0.006763752124851633, 0.0063869700349353095, 0.005908763399597497, 0.005381744474315379, 0.004869603909672958])","array('d', [0.9261883060124259, 0.8984992524205998, 0.8725309333709543, 0.848472903396379, 0.8263767561695768, 0.8062057846112094, 0.7878710485819863, 0.7712555667670895, 0.7562297298998757, 0.7426607757903712, 0.7304184545047089, 0.7193783311550069, 0.7094236582237425, 0.7004463971466796, 0.6923477412671384, 0.6832114514812422])",-68.77361696666871,-171.81907541258926,-44.767095037222504,0.45601422899010424,0.0036268168787996703,0.8062057846112094,25.000000246188147,-1.0,"[-179.0466682173091, -77.06008687202679, 44.82716851141768]","[-177.2369636037166, -64.9762077382421, 53.52802101514541]","[-165.25360380835951, -72.03425511491498, 47.90814065666259]",10000000000.0,0.01226186752319336
8,-179.6450653076172,-77.90192413330078,44.8762092590332,0.6235021352767942,0.030937587842345165,0.922410980859075,23.167934127298846,"array('d', [-77.90192413330078, -75.9309961680049, -74.00118523934117, -72.11116969178268, -70.2589716970016, -68.44227421224949, -66.65861265280589, -64.90549534881767, -63.18048020022836, -61.481223008459615, -59.80550689504603, -58.15125879062359, -56.516556902783016, -54.899631763118734, -53.298862612566175, -52.03096747373402])","array('d', [-179.6450653076172, -178.1083799996179, -176.5195174578082, -174.8832504644743, -173.20423132493855, -171.48686404549835, -169.73522586070376, -167.95303239941242, -166.1436330148835, -164.310024378418, -162.45487391743427, -160.58054774155235, -158.68913988092672, -156.78250106926055, -154.86226616299967, -153.31465267400515])","array('d', [-44.8762092590332, -44.81665003192442, -44.785681231907034, -44.773097985829395, -44.77240061614357, -44.77939111684302, -44.79130874623313, -44.806294544455184, -44.823058078762415, -44.840670203651946, -44.85843609003013, -44.87582114985509, -44.892413463956146, -44.90791265951088, -44.922138470271385, -44.93247401402649])","array('d', [0.6235021352767942, 0.5964669808405021, 0.5636181578712611, 0.5274058369328166, 0.48969033419133995, 0.4518374704315558, 0.41481836877539535, 0.3792983738752705, 0.3457101749821006, 0.31431136939463383, 0.28522869955802727, 0.2584916206160856, 0.23405762208586803, 0.21183129162077877, 0.19167866713109424, 0.1734380459630192])","array('d', [-0.030937587842345165, -0.01694806663256925, -0.007977340236348728, -0.0021859256065132186, 0.0015654490931391956, 0.0039865709271222965, 0.00552195625445479, 0.006451251932341632, 0.006951333662771904, 0.007135411887658301, 0.007078368306383003, 0.006833870266340342, 0.006446539865658793, 0.00596099585889538, 0.005428595702653062, 0.004911996617392962])","array('d', [0.922410980859075, 0.8949969799621671, 0.8692978301112712, 0.8454938671852489, 0.8236321353541838, 0.8036744109554728, 0.7855320065937276, 0.7690891215598358, 0.7542177445035537, 0.7407868397048938, 0.7286678593828844, 0.7177379717581048, 0.7078819010860646, 0.6989929384472272, 0.6909734636295525, 0.6819287761642345])",-68.44227421224949,-171.48686404549835,-44.77939111684302,0.4518374704315558,0.0039865709271222965,0.8036744109554728,25.00000024619007,-1.0,"[-178.73964845707738, -76.70690636712234, 44.82981027977236]","[-176.8735973521498, -64.59029812518273, 53.47305376732723]","[-164.9234196903654, -71.72840510156433, 47.88371725522482]",10000000000.0,0.012479782104492188
9,-179.34078979492188,-77.547119140625,44.87561798095703,0.6176895499229427,0.02799628116190423,0.9185854355481007,23.176152305356315,"array('d', [-77.547119140625, -75.58170859415026, -73.65714858748409, -71.77205583206081, -69.92443576332138, -68.11197621760941, -66.33222793248292, -64.58271934904953, -62.86103029068102, -61.16483869157325, -59.49194914808398, -57.84030894911614, -56.208015319608734, -54.59331638188516, -52.994607540550355, -51.72790604979847])","array('d', [-179.34078979492188, -177.7968233146056, -176.20152620141434, -174.55956846467873, -172.87551113516693, -171.15367605824983, -169.3980672366538, -167.61233586393223, -165.7997751767886, -163.96333330676376, -162.10563586003772, -160.2290129785694, -158.33552776868038, -156.42700435669883, -154.50505466949366, -152.95581598537984])","array('d', [-44.87561798095703, -44.82215280209276, -44.79524990089241, -44.78541497128867, -44.78660133238008, -44.794902331277086, -44.80774653496346, -44.82339938565574, -44.840653203840745, -44.8586345945114, -44.876686743303075, -44.894301218287126, -44.91108411685147, -44.926747275273414, -44.9411182669025, -44.951561059029785])","array('d', [0.6176895499229427, 0.5906058884914382, 0.5578845081012878, 0.5219158668984122, 0.48451458068005804, 0.4470132815835163, 0.41035989822099345, 0.37520408576284536, 0.34196828376945054, 0.3109037047706632, 0.2821334239339316, 0.25568513159839423, 0.23151588405091794, 0.2095307702160404, 0.18959698845198003, 0.17155446503129054])","array('d', [-0.02799628116190423, -0.014996292073023056, -0.00666548144170469, -0.001292130257198224, 0.0021832434543082465, 0.004420251435015986, 0.005831613148054164, 0.006676652534192597, 0.007119130161686863, 0.0072636946568236235, 0.007179553388156136, 0.006916530838986939, 0.006516561115917111, 0.006022292993170749, 0.005483550969812378, 0.0049617218902469765])","array('d', [0.9185854355481007, 0.8915109247794973, 0.8661356206064906, 0.8426318646658062, 0.8210435018555738, 0.8013320525154894, 0.7834101686415126, 0.7671641276098241, 0.7524682394974279, 0.7391937700062864, 0.7272143262922568, 0.7164090341417927, 0.7066643661409323, 0.6978751589253731, 0.6899451486797211, 0.6810031150627793])",-68.11197621760941,-171.15367605824983,-44.794902331277086,0.4470132815835163,0.004420251435015986,0.8013320525154894,25.000000246192485,-1.0,"[-178.43072909059802, -76.35547051637076, 44.8336290448128]","[-176.50761532256493, -64.19699483736943, 53.405274312690786]","[-164.59112908002254, -71.42562260875334, 47.86052038000134]",10000000000.0,0.013375282287597656
10,-178.41697692871094,-76.49300384521484,44.8781623840332,0.5944881439208984,0.017423078417777974,0.9071008721974235,23.20053096449256,"array('d', [-76.84264373779297, -74.88808312975573, -72.97359005124854, -71.09768756369562, -69.25837511059048, -67.45337455899211, -65.68028821379649, -63.93670256263291, -62.220256394664624, -60.528684740393416, -58.85984608054649, -57.21173780659636, -55.5825033124067, -53.97043303044547, -52.37396101282604, -51.10930787545161])","array('d', [-178.72682189941406, -177.16870468828017, -175.5612001025168, -173.90871817913546, -172.21559514909111, -170.48595598065424, -168.72363325228363, -166.9321301887958, -165.1146131727698, -163.27392202737005, -161.4125900406507, -159.53286865317367, -157.63675377666803, -155.72601202493402, -153.80220594278723, -152.25246904644942])","array('d', [-44.87640380859375, -44.83710000737903, -44.81963268194633, -44.816166837285124, -44.821711834118574, -44.8330393982345, -44.84801848840462, -44.86520377655007, -44.88357992622162, -44.90240312803386, -44.92110496299759, -44.93923786480189, -44.95644989690881, -44.97248135989918, -44.98717810285559, -44.99785080615394])","array('d', [0.6030623316764829, 0.5762665029710529, 0.5441445039166452, 0.5089642422283182, 0.4724501469554268, 0.43587200786662317, 0.40013593009673176, 0.3658650262120737, 0.3334659225371638, 0.30318137744876233, 0.27513096788844155, 0.24934216305148324, 0.2257739137837211, 0.20433451800798483, 0.18489514327182904, 0.16730005919772015])","array('d', [-0.021158283576369247, -0.0104645956918078, -0.00362352839536776, 0.0007774327091722789, 0.003611295353270094, 0.005420605202597291, 0.006543998705595708, 0.0071935051334262165, 0.007502394017970575, 0.007555424905536466, 0.007408631288209324, 0.007102917183945213, 0.006673972900790806, 0.006159861804521698, 0.005606826058599757, 0.005073266362656419])","array('d', [0.9110326329853873, 0.8847887488696471, 0.8601877014791468, 0.8373898186005106, 0.8164363634579986, 0.7972916632407878, 0.7798737903183647, 0.764075380221168, 0.7497771259774296, 0.7368562571622347, 0.725191747376508, 0.7146674527156102, 0.7051739684530626, 0.6966097026855833, 0.6888814759848391, 0.6801619520952942])",-67.45337455899211,-170.48595598065424,-44.8330393982345,0.43587200786662317,0.005420605202597291,0.7972916632407878,25.00000024862048,-1.0,"[-177.80763245372808, -75.65770338103654, 44.84466875117407]","[-175.77192012896418, -63.39358179522526, 53.23795160469702]","[-163.9225165613999, -70.82352760831007, 47.81692399845683]",10000000000.0,0.013007164001464844
11,-178.1053009033203,-76.14511108398438,44.8808708190918,0.5851895213127134,0.013528139330446715,0.903029636540685,23.207132979456784,"array('d', [-76.49300384521484, -74.54411749628129, -72.63480331651637, -70.76355126463861, -68.92836851775003, -67.12700289401967, -65.35709014214899, -63.616252421065695, -61.90216380493997, -60.212592954345666, -58.54542975917083, -56.898700605658426, -55.270575471884634, -53.65936907005964, -52.06353758353705, -50.79933683258954])","array('d', [-178.41697692871094, -176.85158475679552, -175.2378796762704, -173.58012633748234, -171.88253481101495, -170.14911988162638, -168.38361861889652, -166.58945218403116, -164.76971690089363, -162.92719299699064, -161.06436312387567, -159.18343566738764, -157.28636985465727, -155.37490094632287, -153.45056459022496, -151.900707446842])","array('d', [-44.8781623840332, -44.846591478215615, -44.834270749629155, -44.83427475100706, -44.84219098191706, -44.855162230905655, -44.871298201207885, -44.889311616249934, -44.9082922301721, -44.92756704036033, -44.946615943231116, -44.96502465914228, -44.9824642185249, -44.99869050874168, -45.01355938336147, -45.02435501193157])","array('d', [0.5944881439208984, 0.5679613641987382, 0.5362571323160822, 0.5015795373713599, 0.4656069304573394, 0.42957765868739184, 0.3943774571846169, 0.3606170130918198, 0.3286960310367557, 0.298854061788745, 0.2712099211117506, 0.24579188194207754, 0.22256065575806902, 0.20142683892477903, 0.1822641448699939, 0.1649194331769739])","array('d', [-0.017423078417777974, -0.007991745260762328, -0.0019654235696051907, 0.001904073715706155, 0.004387494748071929, 0.005963264989546496, 0.006929482820791961, 0.007472318368138213, 0.00770838055056717, 0.007711567062968545, 0.007530719466397979, 0.007201872104239147, 0.006757304807467992, 0.0062325721245813795, 0.0056719500485755085, 0.005132192781667916])","array('d', [0.9071008721974235, 0.8813335739205277, 0.8571728076190789, 0.8347738656729445, 0.8141777183887403, 0.7953510179148469, 0.778215354562495, 0.7626672308476277, 0.7485911070446426, 0.7358676712203291, 0.7243789716557048, 0.714011549521965, 0.7046583221989051, 0.696219696224078, 0.6886042090084166, 0.6800104837185189])",-67.12700289401967,-170.14911988162638,-44.855162230905655,0.42957765868739184,0.005963264989546496,0.7953510179148469,25.000000246198667,-1.0,"[-177.80763245372808, -75.65770338103654, 44.84466875117407]","[-175.77192012896418, -63.39358179522526, 53.23795160469702]","[-163.9225165613999, -70.82352760831007, 47.81692399845683]",10000000000.0,0.012143611907958984
12,-177.7936553955078,-75.80130767822266,44.88583755493164,0.5751200318336483,0.009590716101229167,0.8988903323796134,23.212831229948772,"array('d', [-76.14511108398438, -74.20213510323926, -72.29817546814648, -70.43169838559193, -68.60072512210526, -66.80303435412625, -65.03629936405842, -63.298181525894144, -61.5863933251073, -59.898739833089635, -58.23314483280569, -56.587665930737735, -54.96050168893998, -53.34999290203428, -51.75461951478316, -50.49058953153152])","array('d', [-178.1053009033203, -176.53242943204202, -174.91237310292817, -173.24924577062174, -171.54712548547855, -169.80991131561044, -168.04123988471375, -166.24444600357972, -164.42255226581923, -162.5782761788413, -160.71404710395282, -158.83202811567705, -156.9341398310531, -155.0220845061711, -153.09736946666732, -151.54737321171604])","array('d', [-44.8808708190918, -44.85736177579953, -44.85040294091073, -44.85401931973781, -44.86440208262029, -44.87908126410176, -44.89641772214919, -44.91528902987419, -44.934894541897265, -44.95463510369462, -44.974041011171764, -44.99273271782192, -45.01040522826864, -45.02683070505659, -45.041875445658334, -45.052797697591934])","array('d', [0.5851895213127134, 0.5589958357186696, 0.5277709280911984, 0.4936537331536706, 0.4582758600201575, 0.4228439812804759, 0.3882235079930312, 0.3550129226632281, 0.3236053328780491, 0.2942374605145714, 0.2670277576885221, 0.24200569234196873, 0.21913410357364388, 0.1983262157390696, 0.17945857036449175, 0.16238084415546442])","array('d', [-0.013528139330446715, -0.0054147715630653345, -0.00023865769681219584, 0.0030764602752448127, 0.005194443205909548, 0.00652674476983728, 0.007329147391260997, 0.0077608406309150465, 0.007921056894451146, 0.007872368721867572, 0.007656120499718066, 0.00730327031870538, 0.00684254165188081, 0.006306870418536039, 0.005738476709543549, 0.005192388599187362])","array('d', [0.903029636540685, 0.8777720963951472, 0.8540809508530156, 0.8321068599022683, 0.8118909006265876, 0.7934024229091883, 0.776566872621385, 0.7612849192823032, 0.7474450531221457, 0.7349316480158491, 0.7236300217565684, 0.7134295663868652, 0.7042256618210584, 0.6959208317960114, 0.6884254312821011, 0.679966624822983])",-66.80303435412625,-169.80991131561044,-44.87908126410176,0.4228439812804759,0.00652674476983728,0.7934024229091883,25.000000246200685,-1.0,"[-177.176535011847, -74.96740901206259, 44.86057922903853]","[-175.02169680961194, -62.57691526045971, 53.035683932568524]","[-163.24467609039405, -70.23187753688771, 47.772288115647925]",10000000000.0,0.012028217315673828
13,-177.7936553955078,-75.80130767822266,44.88583755493164,0.5751200318336483,0.009590716101229167,0.8988903323796134,23.212831229948772,"array('d', [-75.80130767822266, -73.86437077934922, -71.9658264997776, -70.10412971222742, -68.27732383706577, -66.48322434579794, -64.71954679785966, -62.983995751181546, -61.27432550577252, -59.58838050154059, -57.92412100707037, -56.27963813702824, -54.65316106963677, -53.04305849875692, -51.44783576519554, -50.18371758882631])","array('d', [-177.7936553955078, -176.21324500463672, -174.58682656652175, -172.9183581970139, -171.21178024845747, -169.47087070735802, -167.6991610323099, -165.8998956617362, -164.07602008067474, -162.23018625489914, -160.3647678998005, -158.481880805155, -156.5834053142445, -154.67100926419042, -152.74617044428814, -151.19624640825143])","array('d', [-44.88583755493164, -44.870475441744475, -44.86892939813915, -44.87618785743334, -44.88905345275438, -44.905448269244545, -44.9239873550992, -44.94371509937503, -44.963941766155834, -44.9841429472269, -45.00389997390819, -45.02286849488656, -45.04076782739007, -45.05738664881981, -45.07260184914508, -45.083646790050366])","array('d', [0.5751200318336483, 0.5493432481017414, 0.5186737954006978, 0.4851851470014694, 0.4504624073700523, 0.4156810976276648, 0.38168696752075376, 0.3490670128519878, 0.31820846620996934, 0.2893459145817381, 0.262598091483408, 0.23799624192031463, 0.21550584187280553, 0.19504317290343987, 0.17648794803497153, 0.15969291367349617])","array('d', [-0.009590716101229167, -0.00281215537955197, 0.0015033285472266674, 0.00425750369124559, 0.006005853254968263, 0.007091975780228257, 0.007728805359297847, 0.00804822521037338, 0.008131888923617258, 0.008030916084353008, 0.007779070953706837, 0.007402178689296508, 0.006925363876977271, 0.0063789072142444265, 0.005802936593141346, 0.005250714319036254])","array('d', [0.8988903323796134, 0.8741765364558108, 0.8509844431377278, 0.829460752433059, 0.8096472355334264, 0.7915164394582663, 0.7749980867841054, 0.7599973679018378, 0.7464070992640737, 0.7341155874869113, 0.7230116246662249, 0.7129876227534233, 0.7039415632583471, 0.6957782015073208, 0.6884098047041591, 0.6800937178365847])",-66.48322434579794,-169.47087070735802,-44.905448269244545,0.4156810976276648,0.007091975780228257,0.7915164394582663,25.00000024620264,-1.0,"[-176.85998011090686, -74.62740669852239, 44.8714517013217]","[-174.64361985590736, -62.16711005676103, 52.92308227030394]","[-162.90461005890467, -69.94095084298614, 47.74978076968583]",10000000000.0,0.01161956787109375
14,-176.84759521484375,-74.77960968017578,44.91014862060547,0.5420925021171568,-0.0029089655727148663,0.8860817114498951,23.22483266823016,"array('d', [-75.11856842041016, -73.19405632843063, -71.3065529131493, -69.4545210484889, -67.63606629725119, -65.84908960552339, -64.09139995807678, -62.360795441157414, -60.655120042027086, -58.972302200889345, -57.31037979906885, -55.667515098379766, -54.04200220959389, -52.432268957341485, -50.836874489509796, -49.57214387219349])","array('d', [-177.1647491455078, -175.56914530009536, -173.92994643004218, -172.25080042292598, -170.53536880055904, -168.78718239810664, -167.00955706834574, -165.2055514582816, -163.37795221754632, -161.52927609642768, -159.66178186391707, -157.7774875247194, -155.87819004740697, -153.9654859397913, -152.0407917141517, -150.49130055587088])","array('d', [-44.90033721923828, -44.90229040133845, -44.912235405965866, -44.92721582430477, -44.94533720666843, -44.96535640312054, -44.98642942732656, -45.00795559040187, -45.02948111848805, -45.0506406560549, -45.0711241787848, -45.090662308060566, -45.109026192011285, -45.12603973589431, -45.14160241424793, -45.15289766153092])","array('d', [0.5534961223602294, 0.5287207706355209, 0.49930938732434527, 0.4672069210718806, 0.433907760268226, 0.4005271245960113, 0.3678731673615399, 0.3365114230292167, 0.3068187229755972, 0.2790266000583744, 0.25325544653204296, 0.2295410405457257, 0.2078549908083306, 0.188120426078417, 0.17022400143889652, 0.1540250598956184])","array('d', [-0.0012188056716694767, 0.002715716797070944, 0.005198885649787623, 0.006759487887532987, 0.007721693862250369, 0.008284446679396843, 0.00856941832475165, 0.008650374265403691, 0.008571575344034256, 0.008359789693840188, 0.008032668784412576, 0.007605125988341981, 0.007094629410425958, 0.006525800024825925, 0.005934290700343421, 0.005369568431415666])","array('d', [0.8904605070736746, 0.8668891136297693, 0.8447431437077995, 0.8241627305627596, 0.8051919442497157, 0.787810368752231, 0.7719567718810758, 0.7575457907814223, 0.7444792431767456, 0.7326536071772053, 0.721964892517351, 0.7123117862612256, 0.7035976775040431, 0.6957319615104375, 0.6886308829995303, 0.6806155019684625])",-65.84908960552339,-168.78718239810664,-44.96535640312054,0.4005271245960113,0.008284446679396843,0.787810368752231,25.00000024620647,-1.0,"[-176.22116867712987, -73.95252701576322, 44.89850901118341]","[-173.8797291390634, -61.34706615550731, 52.68439479188524]","[-162.2193150925941, -69.3665644501979, 47.712233152682764]",10000000000.0,0.0204012393951416
15,-176.84759521484375,-74.77960968017578,44.91014862060547,0.5420925021171568,-0.0029089655727148663,0.8860817114498951,23.22483266823016,"array('d', [-74.77960968017578, -72.86163671983657, -70.97992452008404, -69.13295470734366, -67.31887126429253, -65.5356221423509, -63.7810659900289, -62.05305001419799, -60.349465100719286, -58.668283559359224, -57.00758380572195, -55.36556527787842, -53.74055603707184, -52.13101484345015, -50.53552900917768, -49.27052741981831])","array('d', [-176.84759521484375, -175.24416418046928, -173.59836010157454, -171.91368241805694, -170.19365527333096, -168.44168583562487, -166.66098106017017, -164.85450514705204, -163.0249636046744, -161.17480383329308, -159.30622545050412, -157.42119599671958, -155.52146930628768, -153.60860490472606, -151.68398747364924, -150.13478600593183])","array('d', [-44.91014862060547, -44.92063510459377, -44.93623600039158, -44.955011535435766, -44.975711167675044, -44.997504019236416, -45.019813157586846, -45.04221306281262, -45.064366413455446, -45.08598636423362, -45.10681654194543, -45.126624615771085, -45.14520736607928, -45.16240612907882, -45.17813154706339, -45.18954353583053])","array('d', [0.5420925021171568, 0.5178680224947523, 0.48913151652712017, 0.45776448227050637, 0.4252164510974044, 0.39257274979913354, 0.3606228537492778, 0.3299216325909772, 0.3008407783086761, 0.27361037674440614, 0.2483517552865012, 0.2251030880839161, 0.2038391972172655, 0.18448679228106352, 0.16693615963424627, 0.1510500973368349])","array('d', [0.0029089655727148663, 0.005438058069967165, 0.007016410683380983, 0.007987951759875732, 0.008562361022983134, 0.008867057978360893, 0.00897862819895518, 0.008942144212093247, 0.00878341599868913, 0.008517201095242751, 0.008153205987419435, 0.00770096317158025, 0.007174162095744289, 0.00659462473926832, 0.005995782570759072, 0.005425208590899335])","array('d', [0.8860817114498951, 0.8631005017818947, 0.8414952448516997, 0.8214030237414556, 0.8028691177214445, 0.7858766232066435, 0.7703688178160762, 0.7562650665249507, 0.7434717142206876, 0.731889369862061, 0.7214177097624308, 0.7119586232870437, 0.7034182705474209, 0.6957084332695347, 0.6887474086083115, 0.6808893052048144])",-65.5356221423509,-168.44168583562487,-44.997504019236416,0.39257274979913354,0.008867057978360893,0.7858766232066435,25.000000246208447,-1.0,"[-175.89892126107122, -73.61771524013153, 44.914512062810566]","[-173.49263602253615, -60.938276811360076, 52.55922477695501]","[-161.8736916220937, -69.0823841341915, 47.69366757005357]",10000000000.0,0.013507604598999023
16,-176.20828247070312,-74.10648345947266,44.93594741821289,0.5188496112823484,-0.010803393088281286,0.8769987384465077,23.229226212554885,"array('d', [-74.44225311279297, -72.53110300048813, -70.65544144072379, -68.8137766177971, -67.00429417246048, -65.22499052970578, -63.47377482825321, -61.74854402568258, -60.047236503406346, -58.36786905243722, -56.7085612519346, -55.06755035071167, -53.44319898489182, -51.833997451113895, -50.23856179340635, -48.973236880105844])","array('d', [-176.52874755859375, -174.91726190304587, -173.26462344447413, -171.57419050144944, -169.84935348311836, -168.09339760247397, -166.30942153396865, -164.50029500194742, -162.66864196423774, -160.81683984715016, -158.94702838518478, -157.0611238838637, -155.16083627749668, -153.24768737480434, -151.32302933804195, -149.77383405075432])","array('d', [-44.92207336425781, -44.9409761937169, -44.96214989657049, -44.984660222511785, -45.007893118429585, -45.03142505651255, -45.05494289647224, -45.078194123826684, -45.100956432289536, -45.12302053201504, -45.14418306841716, -45.16424834226545, -45.18303849460987, -45.20041211548623, -45.21629089504887, -45.22781428530407])","array('d', [0.5304404497146603, 0.5067771612425964, 0.4787260574026544, 0.4481057274026371, 0.41632097731006484, 0.38442710115991574, 0.35319461934036833, 0.3231674184211395, 0.2947117487871785, 0.2680559919555924, 0.24332220920236933, 0.22055082692335776, 0.19971979109092225, 0.18075935200059623, 0.16356343141998445, 0.14799832637528373])","array('d', [0.006981739308685144, 0.00812165299391033, 0.008806094128568906, 0.009195907047389033, 0.009387481229593231, 0.009437512434077743, 0.00937802915232542, 0.009225760874390688, 0.008988298707467314, 0.008668544270801555, 0.008268362817742356, 0.007791975688818217, 0.007249340001821004, 0.0066595082113960835, 0.006053706897046129, 0.005477620903114993])","array('d', [0.8815577785160875, 0.8591717576185564, 0.8381127509555252, 0.8185147167325518, 0.8004239613883463, 0.7838268931623329, 0.768671125629863, 0.7548806203551891, 0.7423661609180013, 0.7310324349900568, 0.7207827615322607, 0.7115222288464329, 0.7031597788623717, 0.6956095996453101, 0.6887920657723605, 0.68109612259648])",-65.22499052970578,-168.09339760247397,-45.03142505651255,0.38442710115991574,0.009437512434077743,0.7838268931623329,25.00000024862552,-1.0,"[-175.2491462552512, -72.95331602778943, 44.95215219262223]","[-172.708620130957, -60.1292826067084, 52.306735377737176]","[-161.1769458141247, -68.52059360565765, 47.65846826305629]",10000000000.0,0.02107524871826172
17,-176.20828247070312,-74.10648345947266,44.93594741821289,0.5188496112823484,-0.010803393088281286,0.8769987384465077,23.229226212554885,"array('d', [-74.10648345947266, -72.2022734624715, -70.33277766970475, -68.49653705162416, -66.69178063971762, -64.91655332306968, -63.168814121018585, -61.44650900081675, -59.74762314796337, -58.070217250307536, -56.4124515788981, -54.77260082012132, -53.14906189030381, -51.54035638687151, -49.945128892934704, -48.67958176077032])","array('d', [-176.20828247070312, -174.5887089275354, -172.92917007811226, -171.23289367008644, -169.50314327852655, -167.74308694314516, -165.95571845262452, -164.14381547783324, -162.30992214596793, -160.45634711875493, -158.58517108719937, -156.69825969622505, -154.79727936638244, -152.88371444459042, -150.9588847389125, -149.40955895360074])","array('d', [-44.93594741821289, -44.96274413256958, -44.9891387928104, -45.01514315877541, -45.04074165216274, -45.06589360530601, -45.09053374086781, -45.11457207953423, -45.13789437122856, -45.16036420406589, -45.181828065501925, -45.202124714726814, -45.22110016598443, -45.238629258506066, -45.254644079172415, -45.26626662480042])","array('d', [0.5188496112823484, 0.49574224009128964, 0.4683684118951587, 0.4384859423540828, 0.40745618209040463, 0.3763050192423877, 0.3457842252351545, 0.3164266619895919, 0.28859296826329395, 0.2625095984765653, 0.2382991176736293, 0.21600399294316455, 0.19560511525957697, 0.1770361366853106, 0.1601945190033872, 0.1449500080826574])","array('d', [0.010803393088281286, 0.010637161790641109, 0.010481554365579291, 0.010324926252697026, 0.010157027039745985, 0.00996802765622446, 0.009748069143550036, 0.009487248994239125, 0.009176046371286876, 0.008806231113033577, 0.008372307669457416, 0.007873511024052192, 0.0073162913335010574, 0.006717093490735579, 0.006105060705469914, 0.005524084953203373])","array('d', [0.8769987384465077, 0.8551972232479101, 0.8346756054672337, 0.8155647204764659, 0.7979116948534728, 0.7817059644350706, 0.7668991933102017, 0.7534196884519321, 0.7411824667300044, 0.730096134294969, 0.7200675319730068, 0.7110048585004846, 0.7028197744392882, 0.6954288301797199, 0.6887544476665904, 0.681220444692319])",-64.91655332306968,-167.74308694314516,-45.06589360530601,0.3763050192423877,0.00996802765622446,0.7817059644350706,25.00000024621256,-1.0,"[-175.2491462552512, -72.95331602778943, 44.95215219262223]","[-172.708620130957, -60.1292826067084, 52.306735377737176]","[-161.1769458141247, -68.52059360565765, 47.65846826305629]",10000000000.0,0.010791778564453125
18,-175.5628204345703,-73.43963623046875,44.96964645385742,0.4956983327865598,-0.017727585509419618,0.8681658665325979,23.227606045725096,"array('d', [-73.43963623046875, -71.54900169530295, -69.69151230771567, -67.86579505504692, -66.07017425763563, -64.3027949392314, -62.56171669642113, -60.84498326292818, -59.15067272555988, -57.47693269449476, -55.822003924621455, -54.184235111128366, -52.56209092451054, -50.95415482665428, -49.35912781066824, -48.092378072352844])","array('d', [-175.5628204345703, -173.92770972372887, -172.25491257935326, -170.54741723534164, -168.80824863379326, -167.0403518820964, -165.24651999845247, -163.4293537401446, -161.59124334543526, -159.73436458687016, -157.86068380497161, -155.97196833986524, -154.06980002704196, -152.15559027401977, -150.23059579721433, -148.68042751066514])","array('d', [-44.96964645385742, -45.010735015157735, -45.04656473770818, -45.07886840195515, -45.108718347062734, -45.13676946997906, -45.16340663037734, -45.18883497930904, -45.2131364974081, -45.23630717926939, -45.25828414288439, -45.27896888181305, -45.29825093511226, -45.31603479778737, -45.33227151375103, -45.34406168025086])","array('d', [0.4956983327865598, 0.47377532877924433, 0.4477980399237988, 0.4194124589459453, 0.3899001765526298, 0.3602332724737048, 0.3311294137101325, 0.3031016709949734, 0.27650094457058194, 0.25155080180547396, 0.228375437581396, 0.20702179132041246, 0.18747687681136327, 0.16968127094930438, 0.15353955469122052, 0.13892834681222452])","array('d', [0.017727585509419618, 0.015187131955614346, 0.013505680513700024, 0.012357131337535878, 0.01153707282992576, 0.010914679314518403, 0.010403971866378356, 0.009946686466900596, 0.0095022482768134, 0.009042236502165549, 0.008547808888323781, 0.008009156892684614, 0.007426360959237522, 0.006811112829539426, 0.006188733882973268, 0.005599798120716843])","array('d', [0.8681658665325979, 0.8475083634187883, 0.8280377180143843, 0.8098797131233305, 0.7930834873170759, 0.7776444569972181, 0.7635221115937119, 0.7506531114411881, 0.7389606101862326, 0.7283607577844108, 0.7187671902293908, 0.7100941213434925, 0.7022584804525764, 0.695181405186408, 0.6887893003373975, 0.681577988554674])",-64.3027949392314,-167.0403518820964,-45.13676946997906,0.3602332724737048,0.010914679314518403,0.7776444569972181,25.000000246216587,-1.0,"[-174.59363173197997, -72.29509866820042, 44.996236439343384]","[-171.92289916828048, -59.33396326170141, 52.058541767463424]","[-160.47752354559725, -67.95716136505152, 47.62640556399822]",10000000000.0,0.011880159378051758
19,-175.23802185058594,-73.10847473144531,44.989437103271484,0.48422491550445534,-0.02067273296415814,0.8637880245831346,23.22557849327764,"array('d', [-73.10847473144531, -71.22463304633936, -69.3731564279728, -67.5527196076972, -65.76169566422502, -63.998279347786124, -62.26057968101909, -60.546688298706684, -58.85472880215827, -57.182891431283856, -55.52945646715257, -53.89280900025901, -52.271447059682295, -50.66398459461499, -49.06915041651461, -47.80278223118719])","array('d', [-175.23802185058594, -173.5952500507695, -171.91588772363392, -170.20281365552296, -168.45894101165638, -166.68710921470787, -164.89001538624777, -163.07017530720367, -161.2299049571743, -159.3713157278647, -157.49631836663153, -155.6066322741148, -153.70379792557992, -151.78919097903793, -149.86403716525126, -148.31448463658475])","array('d', [-44.989437103271484, -45.03659841554576, -45.076426741226804, -45.11139087301574, -45.14302803482661, -45.1722901673634, -45.19975428731172, -45.22575151615565, -45.25044760908162, -45.27389512397562, -45.296069940860534, -45.316900429160505, -45.336294809620114, -45.35417032233277, -45.3704861449121, -45.3823287687775])","array('d', [0.48422491550445534, 0.4629001244224477, 0.43761909034897833, 0.4099755106815538, 0.3812135152826256, 0.3522797677498746, 0.32387571812167004, 0.2965049513740676, 0.2705136477332811, 0.24612393094541046, 0.22346073307080783, 0.20257311903422748, 0.18345104767981155, 0.16603845258585725, 0.15024338885922625, 0.13594585236134615])","array('d', [0.02067273296415814, 0.017117876667146543, 0.014785054917959695, 0.013213383672551055, 0.01211533994808661, 0.011308363038656689, 0.010673958166468833, 0.010133220394494465, 0.009632331128663768, 0.00913426456143394, 0.00861449243256959, 0.008059351938743818, 0.007466203046264518, 0.006844697036092069, 0.00621850000595011, 0.0056267316435105455])","array('d', [0.8637880245831346, 0.8436871054142249, 0.8247284151304837, 0.8070354085059318, 0.7906581208371788, 0.7755947080611661, 0.7618082822471003, 0.7492394045428176, 0.7378150580301518, 0.7274549683742769, 0.7180760133917669, 0.709595293523079, 0.7019322800146908, 0.6950103340895698, 0.6887577990909012, 0.6817009265920506])",-63.998279347786124,-166.68710921470787,-45.1722901673634,0.3522797677498746,0.011308363038656689,0.7755947080611661,25.000000246218544,-1.0,"[-174.2638869399929, -71.96825556449264, 45.02044399408037]","[-171.5287269818877, -58.941704031966154, 51.93621258289318]","[-160.12653531236094, -67.67473760478306, 47.609071523553055]",10000000000.0,0.010967016220092773
20,-174.9119873046875,-72.77876281738281,45.011653900146484,0.4729420542716978,-0.023268293589353742,0.859581426778112,23.222820593207153,"array('d', [-72.77876281738281, -70.90147548231361, -69.05578470286137, -67.24041524493846, -65.45378950716182, -63.69415167616366, -61.95965949822792, -60.24845162394585, -58.55869622326484, -56.888625224422405, -55.23655753163207, -53.600913782732675, -51.98022457961168, -50.37313363683792, -48.77839692457389, -47.512098980149595])","array('d', [-174.9119873046875, -173.26188868929296, -171.57625377708322, -169.85785744537847, -168.10950604590468, -166.33393775004345, -164.53375766922244, -162.71139995718372, -160.8691091866536, -159.00893477944692, -157.13273392084872, -155.24217978137995, -153.33877291559284, -151.42385444627214, -149.49862014522992, -147.94944908721354])","array('d', [-45.011653900146484, -45.06416230046681, -45.107502938351445, -45.14479629118562, -45.177991001563974, -45.20830179712683, -45.23647565948689, -45.262955137252135, -45.28798011489139, -45.31165324013633, -45.33398476298068, -45.35492692579687, -45.37440457676614, -45.39234631541177, -45.40871855824306, -45.420599468191945])","array('d', [0.4729420542716978, 0.45223047657687726, 0.4276493952606745, 0.400743968496772, 0.37272365027856724, 0.3445116651117662, 0.3167946066983511, 0.2900674880101419, 0.26467236863670957, 0.2408303104911917, 0.21866721496511715, 0.1982344015961737, 0.17952483185329424, 0.16248580314855918, 0.14702881556111302, 0.13303718589483945])","array('d', [0.023268293589353742, 0.018815826256480542, 0.015906958711650817, 0.013961292195763312, 0.012617672472384168, 0.011647739238318801, 0.010904231257343324, 0.010289993887170322, 0.009739505866651245, 0.009208141618639025, 0.00866635241600056, 0.008097070603093143, 0.007495247512841582, 0.006868718473365457, 0.0062396634141636724, 0.005645881103642071])","array('d', [0.859581426778112, 0.8400210455690734, 0.8215591838165404, 0.8043173711845458, 0.7883466646078694, 0.7736479263691909, 0.7601877807752462, 0.7479105505171988, 0.7367469059849244, 0.7266200159461111, 0.7174498817151221, 0.7091563871727502, 0.7016614565527168, 0.6948905984515172, 0.6887740296659531, 0.6818689878481963])",-63.69415167616366,-166.33393775004345,-45.20830179712683,0.3445116651117662,0.011647739238318801,0.7736479263691909,25.00000024622038,-1.0,"[-173.93312041494136, -71.64271631673044, 45.04655319117378]","[-171.136116983767, -58.553217940860435, 51.8172107718003]","[-159.77565197724329, -67.3901938337987, 47.59255789811025]",10000000000.0,0.011245012283325195
21,-174.58656311035156,-72.45204162597656,45.03688430786133,0.4619766771793364,-0.025548459962010495,0.8555496493962147,23.21949323987867,"array('d', [-72.45204162597656, -70.58106264721958, -68.7409337249214, -66.93043006986106, -65.14802272086625, -63.39200408644031, -61.66057919188115, -59.95193219753066, -58.26427436565675, -56.59587791273357, -54.94509906319087, -53.3103928030567, -51.69032121045833, -50.083556766115514, -48.488881689826684, -47.22264193063571])","array('d', [-174.58656311035156, -172.9294684963472, -171.23784302032513, -169.51436387862316, -167.76173641295006, -165.9826027772528, -164.17948066138882, -162.3547265357565, -160.51051691395128, -158.6488420700793, -156.77150799946278, -154.8801436358857, -152.97621129107137, -151.06101896898682, -149.135733682596, -147.58697235033873])","array('d', [-45.03688430786133, -45.09408450454058, -45.14049701900587, -45.17981826876397, -45.21436033011053, -45.2455699962439, -45.274344328214575, -45.30122428325908, -45.32651525327577, -45.35036420105354, -45.37281183982934, -45.39383162394795, -45.41336321639346, -45.431345357132116, -45.447750912092296, -45.45965331665318])","array('d', [0.4619766771793364, 0.4418778540779479, 0.4179868035269784, 0.3918037932918822, 0.36450623359961243, 0.3369957169112053, 0.30994516910235165, 0.2838417786915507, 0.25902392821849374, 0.23571185680992904, 0.21403253927795662, 0.19403956656685692, 0.17572886453094078, 0.15905102287726294, 0.14392089647044157, 0.13022502415475434])","array('d', [0.025548459962010495, 0.020303243831687027, 0.01688592639324717, 0.014610338407907646, 0.013050218427218393, 0.01193673914983305, 0.01109723967857352, 0.01041846226864404, 0.009824566335709283, 0.009264228885633928, 0.008703477955051933, 0.008122243693471498, 0.0075133469257000285, 0.006883005175842657, 0.006252058543960903, 0.005657096687589744])","array('d', [0.8555496493962147, 0.836508541788544, 0.818523890061788, 0.8017155856409705, 0.7861357344648177, 0.7717877907441408, 0.7586417130127185, 0.7466453899575715, 0.7357329904035581, 0.7258309549594988, 0.716862258343763, 0.708749438761593, 0.7014167634377269, 0.6947917950462804, 0.6888065448056575, 0.6820481330723436])",-63.39200408644031,-165.9826027772528,-45.2455699962439,0.3369957169112053,0.01193673914983305,0.7717877907441408,25.000000246222115,-1.0,"[-173.60317864510867, -71.32001393883152, 45.07520282891839]","[-170.7469577949606, -58.17078467070204, 51.70391100693819]","[-159.42668092351025, -67.10558945378342, 47.57830862159711]",10000000000.0,0.012558221817016602
22,-173.93234252929688,-71.8021469116211,45.09204864501953,0.4410647749900816,-0.029129037633538343,0.8479439775135851,23.21060854865731,"array('d', [-71.8021469116211, -69.94313196591766, -68.11355200160244, -66.31227885242433, -64.53787607508514, -62.78872743284294, -61.06312735795026, -59.35934602543085, -57.67567615247109, -56.01046614175582, -54.36214282825235, -52.72922621952453, -51.11033800675426, -49.50420517253141, -47.90965968579931, -46.64339630979609])","array('d', [-173.93234252929688, -172.26210175116532, -170.55920591765016, -168.82615225388741, -167.06545970135588, -165.2795929329049, -163.47090772450906, -161.64161635181878, -159.79376871091392, -157.92924479145614, -156.0497549389966, -154.15684526581984, -152.25190635335255, -150.33618398245798, -148.41079105228548, -146.86262263142336])","array('d', [-45.09204864501953, -45.15660180853284, -45.20780196019655, -45.25025914034267, -45.28686149884857, -45.31942347490909, -45.34907984078661, -45.37652746335024, -45.40217561398746, -45.42624165707021, -45.44881484293409, -45.46990255682406, -45.48946826321779, -45.5074670423973, -45.52388211922985, -45.53578787614625])","array('d', [0.4410647749900816, 0.4221673420043966, 0.3996100972286953, 0.3748129775221239, 0.34889600611380883, 0.32272201128195516, 0.2969394491856985, 0.2720215716008772, 0.24830033360852757, 0.22599473643613396, 0.20523397677165933, 0.18607605834263552, 0.1685225870725959, 0.15253042819521562, 0.1380208162144087, 0.12488641028631363])","array('d', [0.029129037633538343, 0.022627778493077202, 0.01840567007479416, 0.015608382103345461, 0.01370628583229349, 0.012366385509241089, 0.01137578951486955, 0.010595762444369045, 0.009934155121986907, 0.009329070827691471, 0.008739557593060743, 0.008140802103546153, 0.007522241724813112, 0.006887494961977468, 0.006255208767516296, 0.005659947127865621])","array('d', [0.8479439775135851, 0.8298777218562553, 0.8127892344960794, 0.7967957062804766, 0.781951263330126, 0.768264117469422, 0.7557103224505776, 0.744244296657369, 0.7338066357084401, 0.7243298128513208, 0.7157423052310101, 0.707971579888138, 0.7009462683874313, 0.6945977702829222, 0.6888614569310285, 0.6823819589838342])",-62.78872743284294,-165.2795929329049,-45.31942347490909,0.32272201128195516,0.012366385509241089,0.768264117469422,25.000000246225326,-1.0,"[-172.94047387992578, -70.67774129289464, 45.1357360227288]","[-169.97266749783068, -57.41857126672246, 51.49077618746835]","[-158.72861131056612, -66.5316848373231, 47.55093335976927]",10000000000.0,0.011759042739868164
