,current_time,x_pos,y_pos,z_pos,roll,pitch,yaw,vel,x_traj,y_traj,z_traj,roll_traj,pitch_traj,yaw_traj,x_cmd,y_cmd,z_cmd,roll_cmd,pitch_cmd,yaw_cmd,vel_cmd,effector_dmg,effector_x,effector_y,effector_z,cost,time_solution
0,11.849853277206421,-248.54025268554688,-210.3946990966797,49.92417907714844,0.6314128637313838,0.035875190049409894,1.5430540657278635,23.128843995872312,"array('d', [-210.86050415039062, -208.36357287012586, -205.86994681443764, -203.38231541711878, -200.9033456528018, -198.43556925380193, -195.9810260796033, -193.5410983205119, -191.11652529219174, -188.70750225263706, -186.31380844629703, -183.93493078429495, -181.57016844057475, -179.21871463257827, -176.87971667772086, -175.01894713635247])","array('d', [-248.58084106445312, -248.48591793031844, -248.3171895259801, -248.0727425330762, -247.75107964416762, -247.35207972945423, -246.87820356209252, -246.33392209336026, -245.72478754858724, -245.05673727538988, -244.3356418447584, -243.5670449735571, -242.75603352684652, -241.90718885254904, -241.02458708698137, -240.29148491392164])","array('d', [-49.926090240478516, -49.84979336841768, -49.79628669880968, -49.758487298954385, -49.731565323574905, -49.7122114656491, -49.69814586435407, -49.68778845663786, -49.68003696225852, -49.67411698463155, -49.669480915235845, -49.66574011487663, -49.6626199039955, -49.65993022021613, -49.65754697289502, -49.65582980233708])","array('d', [0.6310846209526059, 0.6457694843079529, 0.6590568992991838, 0.6710798504475336, 0.6758850043249977, 0.6617824238998098, 0.6341703239834044, 0.59775945836204, 0.5563546623768753, 0.5128569165333178, 0.4693773363971395, 0.42738136247168046, 0.3878211218826009, 0.35124122917675654, 0.3178569557883533, 0.2876088932284934])","array('d', [-0.036034185439348235, -0.025193928550508993, -0.017739135943809825, -0.012587508969567876, -0.009010176009764819, -0.006514698413276703, -0.0047669984340166765, -0.0035394301669569327, -0.0026761762000403902, -0.0020699238501201826, -0.001646005584288235, -0.0013515479410552622, -0.001148016698177979, -0.0010060982044077787, -0.0009022326090781346, -0.0008163740080580057])","array('d', [1.5472891433772185, 1.5181608014971828, 1.4881730988351036, 1.457391846245952, 1.4260780819610048, 1.3950711102658222, 1.3653770288889266, 1.337614851678986, 1.3120848492471613, 1.2888642878245242, 1.267891825157683, 1.2490286104401618, 1.2320982022272853, 1.216911423009972, 1.2032818059286134, 1.1879741241589374])",-198.43556925380193,-247.35207972945423,-49.7122114656491,0.6617824238998098,-0.006514698413276703,1.3950711102658222,25.000000248110112,-1.0,"[-248.5409261701286, -209.31545741939212, 49.87188394283449]","[-258.11741656907697, -195.34585564576548, 60.50866249299417]","[-238.13611054228338, -195.30738123032486, 59.64499057439412]",10000000000.0,0.023098230361938477
1,11.86462926864624,-248.54025268554688,-210.3946990966797,49.92417907714844,0.6314128637313838,0.035875190049409894,1.5430540657278635,23.128843995872312,"array('d', [-210.3946990966797, -207.8981823774937, -205.40529222969755, -202.91872649500033, -200.44115781172542, -197.97511000382318, -195.52260090804617, -193.08498322435187, -190.6629648593983, -188.25671103037968, -185.8659738187634, -183.49021629103672, -181.12871699926689, -178.78065144235907, -176.44515173754448, -174.58726750702263])","array('d', [-248.54025268554688, -248.43473124926706, -248.25537367706468, -248.00028186834072, -247.66798512920943, -247.2584296608178, -246.7741319847939, -246.21959349928167, -245.60037736042975, -244.92241907437497, -244.19158011799396, -243.4133916592929, -242.5929269128654, -241.7347538201205, -240.84293605081797, -240.10255180938435])","array('d', [-49.92417907714844, -49.848240295210765, -49.79502027419483, -49.757447585165885, -49.7307039417168, -49.711490336895075, -49.697535539809095, -49.68726644866733, -49.67958625150447, -49.67372476555524, -49.66913758133135, -49.66543845464575, -49.662354468445216, -49.65969682317374, -49.65734229110369, -49.655645863897355])","array('d', [0.6314128637313838, 0.6460664906824442, 0.6593256418024729, 0.6713230187303967, 0.6756777580890195, 0.6612652820026153, 0.6334628401823672, 0.5969545128167859, 0.5555190441421213, 0.5120352414689092, 0.46859689815496985, 0.4266566667287817, 0.3871576890498616, 0.3506386670211928, 0.31731145222239826, 0.2871153011456435])","array('d', [-0.035875190049409894, -0.02506580091739621, -0.017637450107235282, -0.012507444369149787, -0.008947280252093529, -0.006465165362025131, -0.0047277157030984306, -0.0035079292112910505, -0.0026505412503864895, -0.0020486918759807975, -0.0016280742921494752, -0.0013360988493696898, -0.0011344545453344484, -0.0009940050309709127, -0.0008913336496632744, -0.0008065122208720006])","array('d', [1.5430540657278635, 1.513906711167355, 1.4839014393131904, 1.4531039752657464, 1.4217893163402042, 1.3908055528674026, 1.3611493005828958, 1.3334316572293698, 1.3079474591209104, 1.2847707850728076, 1.2638387166440554, 1.2450118368878094, 1.2281137134382398, 1.2129554738495534, 1.1993510808981611, 1.1840713443216915])",-197.97511000382318,-247.2584296608178,-49.711490336895075,0.6612652820026153,-0.006465165362025131,1.3908055528674026,25.00000024811768,-1.0,"[-248.49867140410103, -208.89624108148007, 49.87037783443636]","[-258.00825222471167, -194.8981670509953, 60.52973035010741]","[-238.0288120220502, -194.92269898972714, 59.62343714575459]",10000000000.0,0.013889551162719727
2,11.90491771697998,-248.4062042236328,-208.9998779296875,49.918819427490234,0.6319438815116881,0.03521861135959624,1.530147419371877,23.13670652607406,"array('d', [-209.46438598632812, -206.96884003847686, -204.47757789533898, -201.99330916020648, -199.51871408463575, -197.05629628128287, -194.60802587317514, -192.1751941424356, -189.7584447709499, -187.35788223030033, -184.97320409634995, -182.60382585965402, -180.24898510643894, -177.90782225966595, -175.5794394315251, -173.72741722891683])","array('d', [-248.4529571533203, -248.3258826377272, -248.12495336580972, -247.84829906465427, -247.49450031520638, -247.06363790440466, -246.55833805221195, -245.9831596207638, -245.34368364829763, -244.64583807368723, -243.89546268987576, -243.0980605458478, -242.25867499389864, -241.38184500724935, -240.47160751045948, -239.71667862552408])","array('d', [-49.9205436706543, -49.845708362518444, -49.79333264601386, -49.75640433092893, -49.73015298696505, -49.711317148781845, -49.69765449460686, -49.68761389483313, -49.68011506879835, -49.67440017551965, -49.66993395933565, -49.666336913374316, -49.663341016302795, -49.66076093931751, -49.65847579601156, -49.656829472038694])","array('d', [0.6317940950393673, 0.6464114429210895, 0.6596377672730601, 0.671605440837101, 0.6750522368694064, 0.6600224478548278, 0.6318481256007279, 0.5951572785831589, 0.5536745215381562, 0.5102330561351355, 0.46689127678434666, 0.42507584322300546, 0.3857117252814595, 0.34932573177779325, 0.3161228883168265, 0.286039843944495])","array('d', [-0.035374063998460846, -0.02468178206588945, -0.017344353982703283, -0.012283823676949319, -0.008776162842844623, -0.0063334039765273395, -0.004625270076896693, -0.00342721764135247, -0.00258588736587884, -0.001995873861093528, -0.001583972315191581, -0.0012984288619384817, -0.0011015732923624377, -0.0009647707820692014, -0.0008650083364355147, -0.0007826922967197254])","array('d', [1.5344309742238855, 1.5052615266704958, 1.4752358398897183, 1.4444195392228643, 1.4131164140727015, 1.3821923711925035, 1.3526242313859198, 1.3250068703738533, 1.2996241710537775, 1.276543913159333, 1.2557001654699806, 1.2369525307580795, 1.2201247362996748, 1.2050286427241523, 1.191479175327084, 1.1762602954300496])",-197.05629628128287,-247.06363790440466,-49.711317148781845,0.6600224478548278,-0.0063334039765273395,1.3821923711925035,25.00000024485073,-1.0,"[-248.39845526396803, -207.96631548120754, 49.86749364007165]","[-257.7562583549943, -193.90062879016577, 60.572071129119465]","[-237.78198495338663, -194.06994333894815, 59.57220380722145]",10000000000.0,0.011838436126708984
3,11.926738739013672,-248.35733032226562,-208.5357666015625,49.917579650878906,0.6323264241218565,0.035004641860723475,1.5259352410819864,23.141309248135034,"array('d', [-208.9998779296875, -206.50488936471265, -204.01450766182847, -201.5314494612475, -199.05839904092568, -196.59784931885804, -194.1517461259812, -191.72134997550003, -189.30727264271823, -186.90958857879232, -184.52796851874206, -182.16180458418438, -179.81031427665573, -177.47262084573393, -175.14781172756992, -173.298730523888])","array('d', [-248.4062042236328, -248.26842956160732, -248.05679847320545, -247.76945407458572, -247.4050020289067, -246.96358948379745, -246.4478963503854, -245.8625091461089, -245.2130169917216, -244.5053434099858, -243.74531690098073, -242.93842613382566, -242.08969929860865, -241.20366071333424, -240.2843337989559, -239.52222939196614])","array('d', [-49.918819427490234, -49.84433378978428, -49.79223718064902, -49.755528959621344, -49.72945022539725, -49.71074973468067, -49.69719369350925, -49.68723782509485, -49.67980721405722, -49.674148142178375, -49.6697284763223, -49.66617104281464, -49.66320953451892, -49.6606598488215, -49.6584019352371, -49.65677528002249])","array('d', [0.6319438815116881, 0.6465469753355481, 0.6597604020772464, 0.6717164053582835, 0.6747136858119913, 0.6593794775418811, 0.6310228551589626, 0.5942436781470267, 0.5527395535861129, 0.5093210057864322, 0.46602886216851896, 0.42427689961503845, 0.3849810898800704, 0.3486623586575896, 0.31552236049103866, 0.2854964638479718])","array('d', [-0.03521861135959624, -0.024556861232990106, -0.01724550407877802, -0.012206224284691772, -0.008715386072060186, -0.006285681878793801, -0.0045875338979119605, -0.0033970420555766057, -0.002561395885015134, -0.0019756371277004437, -0.0015669156768188576, -0.001283755743114285, -0.0010887052587491349, -0.0009533024234014661, -0.0008546739914125943, -0.0007733413938139157])","array('d', [1.530147419371877, 1.5009692881796843, 1.4709355775253108, 1.440111873496347, 1.4088163076566294, 1.377923593857433, 1.3484006505601545, 1.3208343038458639, 1.295503033608654, 1.2724715301866156, 1.2516723976266566, 1.2329647752056383, 1.2161724864763146, 1.2011077687021696, 1.1875860347652833, 1.1723978866495366])",-196.59784931885804,-246.96358948379745,-49.71074973468067,0.6593794775418811,-0.006285681878793801,1.377923593857433,25.00000024487119,-1.0,"[-248.34528545235275, -207.50204640773705, 49.866002430629884]","[-257.62739955207763, -193.4032947325513, 60.592957219438084]","[-237.6563125927384, -193.64343738084534, 59.5450940742803]",10000000000.0,0.02082538604736328
4,11.945375680923462,-248.30621337890625,-208.07203674316406,49.9162712097168,0.6329210996627804,0.03457915410399436,1.5219434658673148,23.14619136928428,"array('d', [-208.5357666015625, -206.0413681746566, -203.55189976986645, -201.0700855497274, -198.59861465873993, -196.13997012891352, -193.69607428898854, -191.26815751905062, -188.85680009807416, -186.46204665606314, -184.0835411237028, -181.7206521779517, -179.372577088319, -177.0384217409157, -174.71725868227617, -172.87117946255105])","array('d', [-248.35733032226562, -248.2090187334045, -247.98681788077238, -247.68888678402655, -247.3138583042594, -246.86194696660127, -246.33588813399746, -245.74029852839544, -245.08077813937302, -244.36324872989155, -243.59352985567804, -242.77709779820836, -241.91896724108136, -241.02364921344244, -240.09515476202154, -239.32580666441572])","array('d', [-49.917579650878906, -49.84356659730978, -49.791833705006574, -49.7554041889883, -49.72953892324385, -49.71100244814967, -49.69757327506565, -49.6877165657687, -49.680364555733675, -49.67476889431814, -49.67040144666711, -49.66688799208856, -49.66396437504897, -49.661448020973936, -49.659219910290744, -49.657614772534714])","array('d', [0.6323264241218565, 0.6468931142319715, 0.6600736015241863, 0.6719997999126024, 0.6745443336736233, 0.6588980388338124, 0.6303486629198883, 0.5934693799704771, 0.5519318578312, 0.5085246094247186, 0.4652712461830793, 0.42357280165064326, 0.38433626283985667, 0.348076619886531, 0.3149920776393051, 0.2850166440381517])","array('d', [-0.035004641860723475, -0.024391776688401496, -0.01711890870033831, -0.012109335631092405, -0.008641113226704042, -0.006228454158172986, -0.00454305299735334, -0.00336203695283822, -0.002533402930153763, -0.0019528153170390757, -0.0015478993751304882, -0.001267542112231635, -0.001074571172937794, -0.0009407448976494475, -0.0008433683036361206, -0.0007631115835603344])","array('d', [1.5259352410819864, 1.4967349242155708, 1.4666807140387679, 1.4358380962509805, 1.404539122711764, 1.3736672116954307, 1.3441798210407976, 1.3166559282146981, 1.291368625196622, 1.2683794228409346, 1.247619329158527, 1.2289468850913934, 1.2121858895425583, 1.197148854960321, 1.1836515995528443, 1.1684905794749418])",-196.13997012891352,-246.86194696660127,-49.71100244814967,0.6588980388338124,-0.006228454158172986,1.3736672116954307,25.000000244891183,-1.0,"[-248.29010247137035, -207.03819371158204, 49.865083410446154]","[-257.4976413816783, -192.90939658328094, 60.61674927776531]","[-237.53000284860548, -193.21963172987577, 59.522598663652715]",10000000000.0,0.017403364181518555
5,11.972110509872437,-248.30621337890625,-208.07203674316406,49.9162712097168,0.6329210996627804,0.03457915410399436,1.5219434658673148,23.14619136928428,"array('d', [-208.07203674316406, -205.57822595198792, -203.0896623912723, -200.60907524458457, -198.13915788177596, -195.6823840205411, -193.24065383553614, -190.81516913658837, -188.40648015424546, -186.01460290452403, -183.63915546583127, -181.2794837989082, -178.93476548880523, -176.60408946461402, -174.28651368126523, -172.443389581171])","array('d', [-248.30621337890625, -248.14790065080473, -247.9156368459133, -247.60759875063863, -247.2224474336095, -246.76046315902687, -246.22443629880496, -245.61901508861712, -244.94981267695783, -244.22275172020787, -243.44364546224367, -242.6179602162874, -241.75069929444456, -240.8463622812694, -239.90894942653674, -239.13254799750842])","array('d', [-49.9162712097168, -49.843176845689406, -49.79211806278132, -49.756185153531824, -49.730687858980026, -49.712426190903855, -49.69920437161841, -49.689506191371045, -49.68227738368071, -49.67677938433264, -49.67249115604122, -49.6690436147079, -49.66617629014026, -49.66370919213321, -49.66152502059921, -49.659951590081555])","array('d', [0.6329210996627804, 0.6474311989593176, 0.660560480757311, 0.6724403464505936, 0.6745471336022143, 0.6585937734439241, 0.6298491695301068, 0.5928623072279635, 0.5512809911772648, 0.5078732504840592, 0.4646465118388959, 0.4229897134723722, 0.38380123305258196, 0.34759031430004333, 0.31455177578768345, 0.28461824241151273])","array('d', [-0.03457915410399436, -0.02408008676953687, -0.016889815978231238, -0.011940101629275387, -0.008515231143450002, -0.006133960901008016, -0.00447128175873951, -0.003306709645584302, -0.0024899695220073183, -0.0019179755182220776, -0.0015192601527882423, -0.0012433760658447552, -0.0010536490959361503, -0.0009222220766039416, -0.0008267087095708003, -0.000748037358130077])","array('d', [1.5219434658673148, 1.492708636729684, 1.4626225387930152, 1.4317505013120373, 1.4004375359549854, 1.3695753220312856, 1.340112658187774, 1.3126211759786586, 1.287368805671127, 1.2644139167783335, 1.2436858574326033, 1.2250424635697927, 1.2083073933819584, 1.1932933252301388, 1.1798163866468045, 1.1646778852072448])",-195.6823840205411,-246.76046315902687,-49.712426190903855,0.6585937734439241,-0.006133960901008016,1.3695753220312856,25.000000244909938,-1.0,"[-248.23300702101326, -206.5747219679657, 49.864412814671205]","[-257.36979131361744, -192.41901392805113, 60.6410125882139]","[-237.40559431097253, -192.79800118015993, 59.506461266182356]",10000000000.0,0.02528548240661621
6,12.009973287582397,-248.138916015625,-206.6829833984375,49.911766052246094,0.6360923051834106,0.030907995998859426,1.5110955322769026,23.16775533298153,"array('d', [-207.14566040039062, -204.65299441557326, -202.16622420546216, -199.6880736724475, -197.2212391466642, -194.76817525713875, -192.33073992600814, -189.9100805518945, -187.50668976246368, -185.12052830059574, -182.7511639413047, -180.3978981500279, -178.05986972313406, -175.73613399215736, -173.42571985407398, -171.58850044112643])","array('d', [-248.1970672607422, -248.01988198249074, -247.76853077149272, -247.44123232721807, -247.03670861977426, -246.55537029159072, -246.0001196887682, -245.37567392006883, -244.68768014891262, -243.94207087646896, -243.14465429641848, -242.3008835100302, -241.41574488029715, -240.49372002257533, -239.53879174966903, -238.74851812131766])","array('d', [-49.91334915161133, -49.844627846185965, -49.796685977104524, -49.762990704276255, -49.73911343223898, -49.7220364108265, -49.7096912929689, -49.70065137441603, -49.693925559349346, -49.6888200943085, -49.68484587052559, -49.681656590067135, -49.67900795323253, -49.676731205326234, -49.674716443245316, -49.6732651979142])","array('d', [0.6347857713699339, 0.6491184238407732, 0.6620871450891908, 0.673821729486188, 0.6750727966416362, 0.6585024984602701, 0.6293485572248301, 0.5921177207782891, 0.5504149191597582, 0.5069706063413935, 0.46376199571499827, 0.4221550834032483, 0.3830316636329083, 0.3468897295581519, 0.3139173269507497, 0.28404416931206206])","array('d', [-0.03252727910876281, -0.022622154146916488, -0.01584679223494241, -0.011187984692512924, -0.007967849740708877, -0.0057311883306571795, -0.004170974477692483, -0.0030791895614910108, -0.0023142301088286245, -0.0017790722703362014, -0.0014065229470931508, -0.001149194839148296, -0.0009726599603076606, -0.0008507719347676631, -0.0007625102693209657, -0.0006899482020086026])","array('d', [1.5144321965661385, 1.48508896125706, 1.4549027130153371, 1.4239382874638948, 1.3925645046834185, 1.361688736255924, 1.3322443479658201, 1.304789335370805, 1.2795816654249652, 1.2566733478337522, 1.235990120399062, 1.2173880484442823, 1.200690153574864, 1.1857091288207704, 1.172261450878633, 1.157155388692383])",-194.76817525713875,-246.55537029159072,-49.7220364108265,0.6585024984602701,-0.0057311883306571795,1.361688736255924,25.000000244944935,-1.0,"[-248.11261052263177, -205.6488346439693, 49.86456683615261]","[-257.11622648911526, -191.44465818738135, 60.68936571272283]","[-237.15854973683108, -191.96676794444141, 59.498340921663115]",10000000000.0,0.013084888458251953
7,12.044708967208862,-248.01390075683594,-205.75311279296875,49.908180236816406,0.6396046280860896,0.026475530117750126,1.5046249190953114,23.188009966126458,"array('d', [-206.6829833984375, -204.190837229402, -201.7049034002769, -199.22789665434752, -196.76251276830806, -194.31119778861645, -191.8757910247843, -189.4574155248031, -187.0565377203468, -184.67309286727564, -182.30662527188892, -179.95641543307892, -177.62158371240815, -175.30116935318927, -172.99418724383634, -171.15980142240522])","array('d', [-248.138916015625, -247.953311719505, -247.69338193775178, -247.3573694064458, -246.9440281700098, -246.45383098566103, -245.8897353794353, -245.256495277458, -244.5597789896378, -243.80552872568848, -242.99955490592083, -242.1473084016701, -241.2537709733489, -240.32341860549388, -239.36022826746736, -238.56339862298418])","array('d', [-49.911766052246094, -49.84648242751192, -49.80096873350869, -49.7690022498222, -49.74636704820957, -49.73019183779709, -49.71850964160355, -49.70996430323557, -49.70361411581873, -49.698800117881376, -49.695057847513645, -49.6920585141552, -49.68957019616379, -49.68743271201458, -49.68554178245055, -49.684179832432044])","array('d', [0.6360923051834106, 0.6503006246284481, 0.6631568446894306, 0.6747896337508145, 0.6756420856669116, 0.6587739063741413, 0.6294119283987476, 0.5920464040051525, 0.5502646372020539, 0.5067810994959725, 0.46355980470304825, 0.4219564921930829, 0.3828453824771616, 0.34671921773416337, 0.31376279487614045, 0.2839043428960123])","array('d', [-0.030907995998859426, -0.021482275230285165, -0.015038253773837468, -0.01060953078332778, -0.007549925166810009, -0.005425770892371173, -0.0039447275939187764, -0.0029088373649177293, -0.0021834195080865535, -0.0016762419571370137, -0.0013234605380167206, -0.001080066995813304, -0.0009133685705123663, -0.0007985346006123746, -0.0007155928143150416, -0.0006474955293576065])","array('d', [1.5110955322769026, 1.4816761676178194, 1.4514195987534138, 1.4203903126139066, 1.3889672775962396, 1.3580649089661814, 1.3286103110684395, 1.3011555619616961, 1.2759540516634278, 1.2530546823229098, 1.232381278978106, 1.2137888374385426, 1.1970998585711425, 1.1821268506076044, 1.1686862948283787, 1.1535881331530484])",-194.31119778861645,-246.45383098566103,-49.73019183779709,0.6587739063741413,-0.005425770892371173,1.3580649089661814,25.000000244960344,-1.0,"[-247.9791479904944, -204.69361594007637, 49.86671789281496]","[-256.86184646772153, -190.4509998321111, 60.74079505659283]","[-236.9100070246488, -191.12389808894235, 59.52781905773676]",10000000000.0,0.03363990783691406
8,12.077646970748901,-248.01390075683594,-205.75311279296875,49.908180236816406,0.6396046280860896,0.026475530117750126,1.5046249190953114,23.188009966126458,"array('d', [-206.21780395507812, -203.72618409581665, -201.24110470607508, -198.7652690948967, -196.30137227018645, -193.85185214888483, -191.41852986532598, -189.00250426780437, -186.6042154403716, -184.22357277547468, -181.86009659865664, -179.51304586456905, -177.18152190304022, -174.86454728052897, -172.56112231128694, -170.72967574343977])","array('d', [-248.07763671875, -247.88369551919885, -247.61522731454932, -247.27050230203298, -246.84830980788107, -246.34918739240334, -245.77615126411936, -245.13399618190064, -244.4284155037403, -243.66536460591723, -242.850659044582, -241.98974984219242, -241.08761608330917, -240.14872968002143, -239.17706302733407, -238.37349998778788])","array('d', [-49.90994644165039, -49.84892590925901, -49.806415173782646, -49.77658132421418, -49.75547477659176, -49.74040705674284, -49.729537335309494, -49.72159700242685, -49.71570548783665, -49.71124680425696, -49.70778687699455, -49.70501846774319, -49.7027248740745, -49.70075644450758, -49.699015799611935, -49.697762213466284])","array('d', [0.6377075910568234, 0.6517621958582716, 0.6644793291423198, 0.6759862672283938, 0.6764285839865057, 0.659247406077609, 0.6296606359883986, 0.5921435220677499, 0.5502666774348716, 0.506729064021545, 0.4634816526087234, 0.4218698952383452, 0.3827603145907433, 0.34664024549168765, 0.31369108546046737, 0.28383945752761314])","array('d', [-0.02889762260019783, -0.020071055536304897, -0.014039836261260572, -0.009896938637857908, -0.00703622803444989, -0.005051137954050961, -0.0036677449529031424, -0.0027006650388232516, -0.0020238417996120807, -0.0015509949801326068, -0.0012224288364039962, -0.0009960750325863055, -0.0008413807522438451, -0.0007351354326853675, -0.0006586564050685767, -0.0005959773312086818])","array('d', [1.5078009153392649, 1.4782872344118816, 1.4479435582879419, 1.416833939550045, 1.3853472166289167, 1.3544048949438598, 1.32492819896267, 1.2974633752869973, 1.272259136615809, 1.2493610941175228, 1.2286909604971057, 1.2101024795920226, 1.193417478082399, 1.1784481558867825, 1.1650109015232284, 1.1499164067566148])",-193.85185214888483,-246.34918739240334,-49.74040705674284,0.659247406077609,-0.005051137954050961,1.3544048949438598,25.000000244975638,-1.0,"[-247.91475082478195, -204.25692012034014, 49.86847158100735]","[-256.7444838430758, -189.9995781372303, 60.766361945766235]","[-236.79524820802774, -190.74530707700694, 59.553148887104044]",10000000000.0,0.03146958351135254
9,12.093959093093872,-247.87899780273438,-204.82505798339844,49.905269622802734,0.6433532238006587,0.02058230899274353,1.4983613351967666,23.211899125677412,"array('d', [-205.75311279296875, -203.26201258469445, -200.77778513666823, -198.30312056841268, -195.84071308111209, -193.39299322340244, -190.96176486927493, -188.54810338067597, -186.1524229214793, -183.77460719513695, -181.41415253482526, -179.07029621638407, -176.7421203281301, -174.42863050730637, -172.12881222015045, -170.30034832072207])","array('d', [-248.01390075683594, -247.81189750280654, -247.53512673230964, -247.18188905092015, -246.75101160483732, -246.2430980373757, -245.66122551488823, -245.01023285875962, -244.29584195350486, -243.52402463470253, -242.70060450296498, -241.83103520731314, -240.92029522517333, -239.97285411400927, -238.99268112251985, -238.18235336821238])","array('d', [-49.908180236816406, -49.85229093063348, -49.81338609826908, -49.78610733433805, -49.76682832499958, -49.7530818925234, -49.74317952833229, -49.73595809249448, -49.7306105176575, -49.72657239161532, -49.7234460542195, -49.72095006305064, -49.718885913884534, -49.71711653568829, -49.71555278361531, -49.714426737957304])","array('d', [0.6396046280860896, 0.6534787060997505, 0.6660324919735244, 0.6773916271535068, 0.6774220875798476, 0.659919972212092, 0.6300965502389164, 0.5924140061891913, 0.5504276547127231, 0.5068218268152013, 0.46353493810068824, 0.4219023783892573, 0.38278303622164145, 0.3466588121830083, 0.3137076333020425, 0.2838544306352145])","array('d', [-0.026475530117750126, -0.018374897283571053, -0.012842555104099613, -0.00904426513670529, -0.006422830251271363, -0.00460470255218412, -0.0033383354944953036, -0.002453580812577692, -0.0018348047627743435, -0.0014029024598110303, -0.0011031682570198233, -0.0008970632359508535, -0.0007565994847434449, -0.0006605062041690149, -0.000591644277239372, -0.0005353422450569895])","array('d', [1.5046249190953114, 1.4750001915602695, 1.4445539745844918, 1.4133498059793443, 1.3817858615440113, 1.3507906128340543, 1.3212799449354893, 1.293794501393611, 1.2685783240841841, 1.2456736207041528, 1.224999834585544, 1.2064092979041248, 1.1897230197545643, 1.1747527705965686, 1.1613147469857263, 1.1462194081882682])",-193.39299322340244,-246.2430980373757,-49.7530818925234,0.659919972212092,-0.00460470255218412,1.3507906128340543,25.00000024499044,-1.0,"[-247.9021343225445, -204.17579833334747, 49.86899121184248]","[-256.7221755866282, -189.91526675613025, 60.77055583509957]","[-236.7733958435888, -190.67551545524998, 59.55885922324274]",10000000000.0,0.014340400695800781
10,12.110983848571777,-247.80776977539062,-204.36170959472656,49.90433883666992,0.645309269428253,0.01731907017529016,1.495245293774877,23.221138093089536,"array('d', [-204.82505798339844, -202.3350480334784, -199.85257761952042, -197.38030719474702, -194.92092737625708, -192.4768522069981, -190.04984989901564, -187.6409483610533, -185.2505099030204, -182.87836712391402, -180.52396879683346, -178.1865093258588, -175.86503280925274, -173.55851149597214, -171.2659015889368, -169.44339576633575])","array('d', [-247.87899780273438, -247.66109621383777, -247.36795408204242, -246.99793201685466, -246.54993218976418, -246.0246895195518, -245.42540194102082, -244.75699525623818, -244.02524743278968, -243.23616248472842, -242.39557957316018, -241.5089572377678, -240.5812724979398, -239.61699003789542, -238.62007270084754, -237.7964302779519])","array('d', [-49.905269622802734, -49.86185299561762, -49.83169106936394, -49.81059225326601, -49.79572290765661, -49.78515705324339, -49.77757776703607, -49.77207860318361, -49.768031007075294, -49.76499558973912, -49.762662823146975, -49.76081361607329, -49.75929340502762, -49.75799546666223, -49.75685049567357, -49.75602636411711])","array('d', [0.6433532238006587, 0.6568705760716199, 0.6691015831101584, 0.6801686557977945, 0.6793830952348634, 0.6612456255899029, 0.6309541037064179, 0.5929446099545075, 0.5507420274872342, 0.5070016579386325, 0.46363704465257743, 0.42196366286653736, 0.38282530114191965, 0.3466931157451698, 0.3137381743118205, 0.2838820652861491])","array('d', [-0.02058230899274353, -0.014258294006253737, -0.00994382494700667, -0.0069847968207624725, -0.0049447832502899, -0.003531502407649943, -0.002548337186571969, -0.0018624396239057433, -0.001383626237515885, -0.001050269273532124, -0.0008197891246688669, -0.0006622054653655755, -0.000555739498914375, -0.0004838111379967828, -0.0004330130876983552, -0.00039180679624092207])","array('d', [1.4983613351967666, 1.4685162832736227, 1.437866675914727, 1.4064750185986754, 1.3747581120568584, 1.3436582477472419, 1.3140805866322225, 1.2865545925739401, 1.2613150250762193, 1.2383973458820243, 1.2177165083515469, 1.1991220554251383, 1.1824333827411775, 1.1674614145779696, 1.1540219704149786, 1.1389250752499076])",-192.4768522069981,-246.0246895195518,-49.78515705324339,0.6612456255899029,-0.003531502407649943,1.3436582477472419,25.000000245019233,-1.0,"[-247.7704632972732, -203.3293082633695, 49.87439833909576]","[-256.4888795785787, -189.03632783577217, 60.815144567858546]","[-236.54554997819312, -189.9481288345034, 59.618389208941046]",10000000000.0,0.014870405197143555
11,12.127029418945312,-247.73402404785156,-203.89881896972656,49.90355682373047,0.6471624970436096,0.013893349096179031,1.4919902021673064,23.23252481638831,"array('d', [-204.36170959472656, -201.8722935329829, -199.3907465272838, -196.91971808221297, -194.4618989575186, -192.01969557255106, -189.59485837906178, -187.18839142980872, -184.8006309134177, -182.43138367595512, -180.08007452470056, -177.745876261993, -175.42781384369542, -173.12484269229836, -170.83590425829152, -169.01643236463823])","array('d', [-247.80776977539062, -247.58195487469158, -247.2806519019578, -246.90225255392141, -246.4456977140432, -245.91178922717074, -245.30378668717404, -244.62666053425392, -243.88621774374803, -243.08847920043584, -242.23929246324258, -241.34411899972025, -240.40793547651148, -239.4352044362592, -238.42988575342667, -237.59956165841055])","array('d', [-49.90433883666992, -49.867823871785376, -49.84249077662188, -49.82479904468083, -49.81235643802546, -49.80353777206612, -49.797232280687396, -49.792675696125606, -49.789338189482166, -49.786849423719616, -49.78494849286933, -49.78345067340997, -49.78222560422158, -49.78118326622224, -49.78026526415467, -49.77960474928032])","array('d', [0.645309269428253, 0.6586404795056712, 0.670703058104063, 0.6816177303675535, 0.6804192527641348, 0.6619589740063511, 0.6314283959359184, 0.5932507604692069, 0.5509358377201615, 0.5071244392712047, 0.4637176485916441, 0.4220209346802018, 0.3828704783364807, 0.346732007859562, 0.3137731141290256, 0.28391368014299795])","array('d', [-0.01731907017529016, -0.011982991503271043, -0.00834453916137516, -0.005850572410726267, -0.004132220672741333, -0.002942572770884768, -0.0021156209781228517, -0.0015392634950830426, -0.0011374457251781018, -0.0008582251557845449, -0.0006657308467561223, -0.000534710462312242, -0.00044681125195016145, -0.00038803959146426826, -0.00034704592668993175, -0.00031402048527284245])","array('d', [1.495245293774877, 1.4652847997945089, 1.4345286542118123, 1.403038815664767, 1.3712414321726303, 1.3400857620685898, 1.3104716059199113, 1.2829227924692879, 1.2576693758995685, 1.2347433790157862, 1.2140574509002728, 1.195459690364254, 1.1787686467572214, 1.1637947904669315, 1.1503537287330403, 1.1352550506339263])",-192.01969557255106,-245.91178922717074,-49.80353777206612,0.6619589740063511,-0.002942572770884768,1.3400857620685898,25.000000245033455,-1.0,"[-247.6945679852093, -202.86621284306068, 49.87836153010211]","[-256.3574046489696, -188.5553250887012, 60.83982824852689]","[-236.4174479600911, -189.5536273686657, 59.65597023192722]",10000000000.0,0.012108802795410156
12,12.149714231491089,-247.65773010253906,-203.43638610839844,49.903385162353516,0.6490247249603269,0.010368854738771922,1.4886194626477103,23.241783038113716,"array('d', [-203.89881896972656, -201.41006888889655, -198.9295199600255, -196.4598141057955, -194.00364334053464, -191.5634057561977, -189.14083268342839, -186.73690296708713, -184.35192554469842, -181.98568064274082, -179.63756846759156, -177.30673976580593, -174.99220003052028, -172.6928876333939, -170.4077291160577, -168.59137757126473])","array('d', [-247.73402404785156, -247.4999600042285, -247.19017609125822, -246.8030943892419, -246.3376944258901, -245.79484667053651, -245.17787309572705, -244.49178820289097, -243.7424266792743, -242.93582470099722, -242.07783662354424, -241.17392535023583, -240.22906586382686, -239.2477174049635, -238.23383587943658, -237.39670667629534])","array('d', [-49.90355682373047, -49.874284528987246, -49.854013868004934, -49.8398906531688, -49.82998742187538, -49.82299538591406, -49.81802041641449, -49.814447512952825, -49.81185040611789, -49.80993113600202, -49.808479726123004, -49.80734743156628, -49.80642921640007, -49.805652533683904, -49.804970394187315, -49.80447990159292])","array('d', [0.6471624970436096, 0.6603173493463798, 0.6722203528133923, 0.6829906354472055, 0.6813661136985594, 0.6625769262873576, 0.6318064813532339, 0.5934634815019704, 0.5510411912192227, 0.5071649067408948, 0.46372254700182397, 0.4220091154748221, 0.3828529027013111, 0.3467140513811049, 0.3137566069741426, 0.2838987438502424])","array('d', [-0.013893349096179031, -0.009596716119076818, -0.006668838855209157, -0.004663252088178121, -0.0032823897557016455, -0.0023271812448866854, -0.0016638624935651097, -0.0012021633080654538, -0.0008808821319542117, -0.0006582480789724519, -0.0005054292022897018, -0.00040212970669477067, -0.00033358588288618523, -0.0002885122119878414, -0.00025771317456521517, -0.00023318886125350046])","array('d', [1.4919902021673064, 1.461920031059396, 1.4310626874581087, 1.399479606624833, 1.3676069784512757, 1.33640134244131, 1.3067565641882275, 1.279190476189278, 1.253928253984274, 1.23099843232279, 1.210311374565021, 1.191713784385607, 1.1750234234317642, 1.1600503659942216, 1.1466100594350705, 1.1315122287436121])",-191.5634057561977,-245.79484667053651,-49.82299538591406,0.6625769262873576,-0.0023271812448866854,1.33640134244131,25.00000024504816,-1.0,"[-247.61594857409992, -202.40361868085014, 49.88271747052117]","[-256.2205323688385, -188.0722608178212, 60.86330577539446]","[-236.2845285171529, -189.16137912686628, 59.6930187445863]",10000000000.0,0.016607999801635742
13,12.167095422744751,-247.65773010253906,-203.43638610839844,49.903385162353516,0.6490247249603269,0.010368854738771922,1.4886194626477103,23.241783038113716,"array('d', [-203.43638610839844, -200.94837679167864, -198.46890157659445, -196.00060006097698, -193.54616784535258, -191.1079948819642, -188.68779260694566, -186.28651361624284, -183.90443856872122, -181.54132016681967, -179.19653325866562, -176.86920591336442, -174.55832365306392, -172.26280738094474, -169.98156838311345, -168.16845057213325])","array('d', [-247.65773010253906, -247.41513190978623, -247.09658180097375, -246.70053291318374, -246.22600456479518, -245.67393843677385, -245.04772081568856, -244.3524111482507, -243.59387199231548, -242.77815454583467, -241.9111194752647, -240.99823055044266, -240.04446049291641, -239.05426469565037, -238.03159459987086, -237.18748305079686])","array('d', [-49.903385162353516, -49.88156126116426, -49.86649109291055, -49.856029668537815, -49.848729255635774, -49.843607301932046, -49.83999283296482, -49.83742446469992, -49.835582415770375, -49.83424309621443, -49.83324882988358, -49.83248780141091, -49.83188095977201, -49.831373678892454, -49.83093066154303, -49.83061253003555])","array('d', [0.6490247249603269, 0.6620023629971331, 0.6737450163470027, 0.6843702081020165, 0.6823034692368087, 0.663174518762855, 0.6321577318431567, 0.593646198934381, 0.5511156978824276, 0.5071752113930862, 0.4636988869568263, 0.4219708215368575, 0.38281110833117105, 0.34667410348894934, 0.3137201914963401, 0.28386579376034793])","array('d', [-0.010368854738771922, -0.0071442876089033045, -0.004948551578813342, -0.003445683880642241, -0.002411900510965191, -0.0016975816274230925, -0.0012022575470696727, -0.000858177358987949, -0.0006194444473576998, -0.0004547585283435319, -0.00034252679852970043, -0.00026754679865284244, -0.00021874069513996695, -0.00018760343807085867, -0.00016715161532285678, -0.0001512453664761208])","array('d', [1.4886194626477103, 1.4584387826642535, 1.4274794933360535, 1.3958024987432966, 1.3638545838551104, 1.3325998805599437, 1.3029259140833318, 1.2753442113224394, 1.2500748711502305, 1.2271428304138885, 1.2064561152493996, 1.1878600174247944, 1.171171513230494, 1.156200292788681, 1.1427616593978946, 1.1276656939205048])",-191.1079948819642,-245.67393843677385,-49.843607301932046,0.663174518762855,-0.0016975816274230925,1.3325998805599437,25.000000245063305,-1.0,"[-247.53461011413776, -201.94152839860098, 49.88783215894092]","[-256.07866101053185, -187.58890477430597, 60.887895312357664]","[-236.14722487989903, -188.77187889487894, 59.73099168605187]",10000000000.0,0.013063192367553711
14,12.20130467414856,-247.49755859375,-202.5130157470703,49.90525436401367,0.6528135538101195,0.0032254511024803695,1.481489666798387,23.259795556287152,"array('d', [-202.5130157470703, -200.02674385281276, -197.5496743443484, -195.0844606698817, -192.63381387307388, -190.2001084730008, -187.78501362783868, -185.38942598131058, -183.0135661777062, -180.65712879542548, -178.31943536513802, -175.99956644628267, -173.69646584190377, -171.4090180459408, -169.13610260211303, -167.32984641294382])","array('d', [-247.49755859375, -247.2369345273679, -246.89988849504235, -246.4849386799824, -245.99118834048986, -245.41973065736417, -244.7740874644188, -244.0594115146229, -243.28162206503788, -242.44679982633528, -241.56081676976507, -240.6291367421709, -239.65672620988073, -238.648031203794, -237.60699270519368, -236.74829413783124])","array('d', [-49.90525436401367, -49.89851664678146, -49.89396159688253, -49.89089125985682, -49.8888350806581, -49.887473970919174, -49.8865901005897, -49.88603358544487, -49.8857003041489, -49.88551711576665, -49.88543205148769, -49.885407884316564, -49.88541801782923, -49.88544398278384, -49.88547404935543, -49.88549688336988])","array('d', [0.6528135538101195, 0.665430637417349, 0.6768470475899027, 0.6871770420944089, 0.6841699329784943, 0.6643231270331798, 0.632789947758045, 0.5939287909432952, 0.551177249073043, 0.507109035278561, 0.46356872288954465, 0.4218171036721508, 0.3826568252765997, 0.3465299744805936, 0.31358920657617945, 0.28374727369265906])","array('d', [-0.0032254511024803695, -0.0021821340083158156, -0.0014737256303066922, -0.000990604037810777, -0.0006598570169112147, -0.0004328182779154819, -0.00027687936570191423, -0.0001701138116553285, -9.771891430427575e-05, -4.9633943124404776e-05, -1.8929687312312425e-05, -7.080227224559948e-07, 8.658579719342916e-06, 1.2056697312552768e-05, 1.1997548551244983e-05, 1.0855514921814277e-05])","array('d', [1.481489666798387, 1.4510832154793305, 1.419915711506532, 1.3880469615857132, 1.3559467795550615, 1.3245955348157308, 1.2948667432027638, 1.267258288086166, 1.2419794385182603, 1.2190475466422632, 1.1983657694590821, 1.1797764987459531, 1.1630951313088325, 1.1481306156758384, 1.134698009718581, 1.1196087461984543])",-190.2001084730008,-245.41973065736417,-49.887473970919174,0.6643231270331798,-0.0004328182779154819,1.3245955348157308,25.000000245095066,-1.0,"[-247.53461011413776, -201.94152839860098, 49.88783215894092]","[-256.07866101053185, -187.58890477430597, 60.887895312357664]","[-236.14722487989903, -188.77187889487894, 59.73099168605187]",10000000000.0,0.016629695892333984
15,12.215900421142578,-247.4136505126953,-202.0520782470703,49.90745162963867,0.6546714901924129,-0.0001651240017962788,1.47758869926003,23.267970532619046,"array('d', [-202.0520782470703, -199.56684878121334, -197.09116604445182, -194.62769971189775, -192.17917236676024, -189.74795011234482, -187.33567833448947, -184.94322268345906, -182.57077098338166, -180.21798634860627, -177.88416167953363, -175.56835218721633, -173.2694795296796, -170.98640895337408, -168.7180032762405, -166.91546041473458])","array('d', [-247.4136505126953, -247.1431886894738, -246.7960779566368, -246.3708701603905, -245.866712833591, -245.28478113635623, -244.62866903819622, -243.90357745190067, -243.11545361659986, -242.27039159609146, -241.374267148445, -240.4325421739482, -239.45017809204361, -238.43161448832012, -237.38078553858733, -236.5143187704193])","array('d', [-49.90745162963867, -49.90786915042691, -49.90829209322175, -49.9087141517304, -49.90913103518286, -49.90953971101246, -49.90993787776528, -49.91032359361512, -49.91069502764855, -49.91105031869177, -49.911387534472375, -49.91170473006313, -49.91200010836109, -49.91227228510636, -49.91252065501669, -49.91270080535206])","array('d', [0.6546714901924129, 0.667111767926337, 0.6783681975099083, 0.6885534349443274, 0.6850344088493951, 0.6648021298061452, 0.6329964220655951, 0.5939551294947191, 0.5510939147259634, 0.5069666018729512, 0.46340129839503974, 0.4216459480423965, 0.38249366074724894, 0.34637986844710733, 0.31345307373398895, 0.28362409559205315])","array('d', [0.0001651240017962788, 0.00016883079044767403, 0.00016951207848237668, 0.0001681573266969143, 0.00016539550623713653, 0.00016160833331655935, 0.00015700191150946498, 0.00015165988232769767, 0.00014558862340650498, 0.00013875815531817098, 0.00013114152809402726, 0.00012275484957426278, 0.00011369885956143689, 0.00010420097951158648, 9.46542085950189e-05, 8.564636047367299e-05])","array('d', [1.47758869926003, 1.4470710745600324, 1.4158010732385193, 1.383837955556877, 1.3516645833716623, 1.3202702683692706, 1.2905203726694225, 1.2629051263568454, 1.237627882095307, 1.2147019460051494, 1.1940279436119523, 1.1754468083701952, 1.1587731842677789, 1.143815705815993, 1.1303893703392476, 1.1153070652199661])",-189.74795011234482,-245.28478113635623,-49.90953971101246,0.6648021298061452,0.00016160833331655935,1.3202702683692706,25.000000245112368,-1.0,"[-247.3637772989841, -201.01900130359977, 49.90041619574897]","[-255.77910025787514, -186.62280213498707, 60.94268901411368]","[-235.85890767826788, -188.00075351150906, 59.8081505197025]",10000000000.0,0.012844562530517578
16,12.241142272949219,-247.3264617919922,-201.58946228027344,49.91085433959961,0.656254351139068,-0.0034474446438253013,1.4734737733986711,23.27613061396705,"array('d', [-201.58946228027344, -199.10539167126873, -196.63121402523709, -194.16961887656757, -191.723340899034, -189.29473581698434, -186.88542275345128, -184.4962342993163, -182.12732398290237, -179.7783225071384, -177.44849359493898, -175.1368668399809, -172.84234167004, -170.56376411572077, -168.2999803725668, -166.5012371617648])","array('d', [-247.3264617919922, -247.0456574929033, -246.68801862938548, -246.25212830641865, -245.73717674783705, -245.14442196638973, -244.47752915559255, -243.74174453156976, -242.94303962450468, -242.08751805221212, -241.18105582778998, -240.22910978670774, -239.23663361985925, -238.20805818947838, -237.1473089384154, -236.27298047806397])","array('d', [-49.91085433959961, -49.91819441282051, -49.92342630344927, -49.92721691616986, -49.93001520665167, -49.93212499246415, -49.93375297628803, -49.93504052340391, -49.936084792394915, -49.93695284569448, -49.93769110316342, -49.93833169901165, -49.9388967823866, -49.9394014604747, -49.9398558568259, -49.94018445657485])","array('d', [0.656254351139068, 0.6685439998651217, 0.679664134667232, 0.6897260477483106, 0.6856821895575939, 0.6650628842637768, 0.6329910300601839, 0.5937808756057215, 0.5508238448663386, 0.5066522904959775, 0.4630768469407649, 0.421332011734609, 0.3822010335990083, 0.3461125456230596, 0.3132108699502236, 0.28340494052588666])","array('d', [0.0034474446438253013, 0.0024414053003764557, 0.001755551702930967, 0.0012847928293072536, 0.0009592703743232329, 0.0007323440461578901, 0.0005727061713033539, 0.0004592246551504621, 0.0003775529999644994, 0.00031788502771875666, 0.0002734620148754187, 0.0002395798861105251, 0.00021293136432857417, 0.00019117406119120267, 0.00017265200548869373, 0.0001562216919476565])","array('d', [1.4734737733986711, 1.4428611934976123, 1.4115036635590932, 1.3794599738545175, 1.3472271001819294, 1.3158036771176829, 1.2860459600107466, 1.25843602159818, 1.2331711330521213, 1.2102605863551503, 1.1896025981333378, 1.1710367944134017, 1.1543772146273392, 1.1394323120321015, 1.126017136887549, 1.1109472117205708])",-189.29473581698434,-245.14442196638973,-49.93212499246415,0.6650628842637768,0.0007323440461578901,1.3158036771176829,25.00000024513004,-1.0,"[-247.2740414244654, -200.5585892979531, 49.907699315640244]","[-255.61856752516286, -186.1396330610861, 60.97398076850837]","[-235.7053815369333, -187.6182302954875, 59.84315186164505]",10000000000.0,0.012116193771362305
17,12.258636951446533,-247.23675537109375,-201.12750244140625,49.91517639160156,0.6576682925224303,-0.006664853077381831,1.469264299669538,23.284065154036213,"array('d', [-201.12750244140625, -198.64467818965747, -196.1720886225591, -193.71244699055384, -191.26850107859156, -188.8425952754095, -186.43632112362133, -184.05047714277597, -181.68518193877387, -179.34003349759715, -177.0142662851808, -174.70688434233085, -172.4167650155898, -170.14273531357742, -167.88362502308522, -166.08872006749544])","array('d', [-247.23675537109375, -246.94539344064114, -246.57703657042694, -246.1302977456092, -245.60440883337324, -245.00071072382116, -244.32293878802184, -243.57638249875237, -242.76703528988048, -241.9010079996165, -240.9841747972328, -240.02198564295836, -239.01938496849257, -237.98079362854108, -236.91012725602354, -236.02794541518452])","array('d', [-49.91517639160156, -49.92929796533778, -49.939233973459956, -49.94631480653371, -49.95143551054763, -49.955201513972824, -49.95802470032164, -49.96018695881008, -49.96188241578313, -49.96324559114714, -49.96437019579281, -49.965321678225486, -49.96614558767512, -49.96687314050208, -49.967524932191864, -49.96799574578317])","array('d', [0.6576682925224303, 0.6698233870484789, 0.6808217721581548, 0.6907735212310496, 0.6862006508290337, 0.6651959532640677, 0.6328634267270887, 0.5934920686391717, 0.5504478740646588, 0.5062409527138304, 0.4626640053321852, 0.4209378316579038, 0.3818357007127067, 0.3457794100111826, 0.3129091133280952, 0.2831318998183231])","array('d', [0.006664853077381831, 0.004665815695579206, 0.0033057016773050327, 0.0023745066923814995, 0.0017327649440186264, 0.0012874673811724808, 0.0009762734986308904, 0.000757188272242688, 0.0006017700832710997, 0.0004906243836576572, 0.000410397695861722, 0.0003517663493664781, 0.00030808982791434943, 0.00027451257286289154, 0.00024737351596706986, 0.00022383251661336963])","array('d', [1.469264299669538, 1.4385667090312164, 1.4071308299118654, 1.3750150292792427, 1.3427309377898409, 1.31128666527872, 1.2815288477166844, 1.2539311596808105, 1.2286847390224294, 1.2057949122863172, 1.1851575761762674, 1.1666111459615653, 1.1499691462070118, 1.1350399265031217, 1.1216386548677975, 1.106584148849544])",-188.8425952754095,-245.00071072382116,-49.955201513972824,0.6651959532640677,0.0012874673811724808,1.31128666527872,25.00000024514794,-1.0,"[-247.12766708992862, -199.84164474709195, 49.921081851726164]","[-255.35484563656834, -185.38119828346376, 61.021037763091485]","[-235.45433277934222, -187.02015263065985, 59.88815795164413]",10000000000.0,0.012418985366821289
18,12.30208683013916,-247.04983520507812,-200.20556640625,49.926727294921875,0.6598578691482542,-0.012907147407531728,1.4607997397568562,23.301399992133522,"array('d', [-200.20556640625, -197.72542823102398, -195.25617403152424, -192.80057372972922, -190.3614030567185, -187.94098127706775, -185.5408424647046, -183.1617161347086, -180.80365144197307, -178.46618216381367, -176.14848592902533, -173.84951753593745, -171.56811205577216, -169.30306027387445, -167.05316086930793, -165.26580870298403])","array('d', [-247.04983520507812, -246.73731569558805, -246.34757302995575, -245.87927350762425, -245.33172591741493, -244.7064308254644, -244.00725544348285, -243.23956609900603, -242.4093908839091, -241.52284717167737, -240.5857989315734, -239.60367712686858, -238.58140347222107, -237.52337543585946, -236.43348629727285, -235.53609950902617])","array('d', [-49.926727294921875, -49.953993658082105, -49.97302767498714, -49.98645748841391, -49.99604890296619, -50.002994934284004, -50.008106452368814, -50.011938138225084, -50.01487207387439, -50.01717337004093, -50.0190271988041, -50.02056339373824, -50.021872706105114, -50.02301745428644, -50.02403842804158, -50.024775167067126])","array('d', [0.6598578691482542, 0.671804598081924, 0.6826144461758612, 0.692395598112687, 0.6867894488797471, 0.6650468391959777, 0.6322290324257727, 0.5925711025866254, 0.5493862612303545, 0.5051392949852312, 0.46158686526864134, 0.4199225567181112, 0.38090001208883234, 0.3449277247144918, 0.31213784376147424, 0.2824340261918558])","array('d', [0.012907147407531728, 0.0089720350590939, 0.006299906417607508, 0.00447444964751793, 0.003219634071863901, 0.0023516774967925324, 0.001747616778301224, 0.0013247867467726716, 0.0010273245589560056, 0.0008172176219785114, 0.0006683292659398088, 0.0005623939596276964, 0.00048632495500665866, 0.0004304064466207532, 0.0003870950948666893, 0.00035025784062583286])","array('d', [1.4607997397568562, 1.4299701507241376, 1.3984126407612638, 1.3661849147718501, 1.3338285380019297, 1.3023703564008298, 1.2726368742030971, 1.2450848426845944, 1.2198934277642757, 1.1970604717970486, 1.1764776820218041, 1.1579814450024541, 1.1413845757425842, 1.1264954689616695, 1.1131297246460907, 1.0981146149689744])",-187.94098127706775,-244.7064308254644,-50.002994934284004,0.6650468391959777,0.0023516774967925324,1.3023703564008298,25.00000024518299,-1.0,"[-247.08472223943977, -199.63526050969423, 49.925173597204164]","[-255.2774743944632, -185.16252106452922, 61.03456714855174]","[-235.38091530496962, -186.84791091217465, 59.90037251810112]",10000000000.0,0.014160633087158203
19,12.320062637329102,-246.9526824951172,-199.74559020996094,49.933956146240234,0.660748720169067,-0.015827437862753896,1.4563759575274327,23.307400290142702,"array('d', [-199.74559020996094, -197.26694274966977, -194.7995046201891, -192.3460784061098, -189.90945475213059, -187.49193847319182, -185.09503253343289, -182.71943005086152, -180.36514414221784, -178.03167565995514, -175.7181733534434, -173.42356718233395, -171.14667101952008, -168.88625757485178, -166.6411100667232, -164.85764913263054])","array('d', [-246.9526824951172, -246.62913653194195, -246.22828522397606, -245.74882021584494, -245.19008793785673, -244.55366989476505, -243.8434986765493, -243.0649768145721, -242.22414679408922, -241.32712621456471, -240.37977110321467, -239.38750040172718, -238.35522228386986, -237.28732066056963, -236.1876760499725, -235.28258038837362])","array('d', [-49.933956146240234, -49.96736517271835, -49.990639876274635, -50.00702115217047, -50.01868499708828, -50.02710060964204, -50.03326600185691, -50.03786355969133, -50.04136320635189, -50.04409099893907, -50.046274748490575, -50.04807428232709, -50.04960139830522, -50.050932888195966, -50.05211892619724, -50.05297453183033])","array('d', [0.660748720169067, 0.6726106734883531, 0.6833438134179136, 0.6930555576354185, 0.6869187777753231, 0.6648033564341023, 0.63174614945142, 0.5919526356956084, 0.5487076542053917, 0.5044519630526376, 0.4609233140376176, 0.41930113377792555, 0.3803289336476963, 0.344408393863544, 0.31166760789616743, 0.2820085391471208])","array('d', [0.015827437862753896, 0.010981445760346348, 0.007693444732335316, 0.00544911233679391, 0.0039077119159644435, 0.0028425599520208547, 0.0021021110467739543, 0.00158457089952978, 0.0012212089327107989, 0.0009652947136768143, 0.0007847175224686422, 0.0006570395808122046, 0.0005661691664198813, 0.0005001245435297297, 0.0004495495781812683, 0.0004067689991112021])","array('d', [1.4563759575274327, 1.4254925398918072, 1.3938854375952827, 1.3616120838025612, 1.3292299469589177, 1.2977755742928843, 1.2680645844679916, 1.2405448374932586, 1.2153893648830483, 1.19259227806013, 1.17204327445949, 1.1535778360388607, 1.1370085334010207, 1.122143884472199, 1.1087997926045359, 1.0938086917058425])",-187.49193847319182,-244.55366989476505,-50.02710060964204,0.6648033564341023,0.0028425599520208547,1.2977755742928843,25.000000245200678,-1.0,"[-246.7814476446827, -198.25558516616584, 49.957696311822666]","[-254.73756486345656, -183.69118876381154, 61.119172748039276]","[-234.87083094618876, -185.68701221009715, 59.966101964549594]",10000000000.0,0.013415336608886719
20,12.343185186386108,-246.85311889648438,-199.28628540039062,49.94239044189453,0.6614201068878172,-0.018568152561783777,1.4519758457925658,23.31285218648204,"array('d', [-199.28628540039062, -196.80917653967728, -194.34359085471854, -191.8923645413671, -189.45830275338128, -187.04369482509475, -184.6500120460507, -182.27791121388432, -179.9273699292214, -177.59785688744122, -175.28849282721552, -172.99818375050128, -170.72572317710555, -168.4698665283638, -166.22938228291574, -164.44973576756877])","array('d', [-246.85311889648438, -246.5186299794004, -246.10678532149942, -245.6162994767207, -245.04655391084222, -244.39920797170245, -243.67825594903334, -242.88913293070743, -242.03789261398964, -241.1306502365889, -240.1732518531325, -239.17110281382725, -238.1290965388478, -237.05160243671878, -235.9424875162301, -235.0299141286673])","array('d', [-49.94239044189453, -49.981559756380015, -50.00880366523507, -50.02794187929512, -50.04153726782986, -50.05131912442293, -50.058461456614694, -50.06376659771197, -50.067786887107076, -50.07090551538847, -50.07339024091193, -50.075428981389294, -50.07715324196865, -50.07865336301145, -50.079988294099024, -50.08095109420624])","array('d', [0.6614201068878172, 0.673218169364417, 0.683893498454651, 0.6935529321589905, 0.6868996894917692, 0.664426490200517, 0.6311444146267702, 0.5912285722401037, 0.5479351388488165, 0.5036808547662933, 0.46018472514778697, 0.41861223768203254, 0.3796969930862349, 0.34383405199895606, 0.31114760373685263, 0.2815380198836354])","array('d', [0.018568152561783777, 0.012863783879295558, 0.008996305314948399, 0.006358424893831804, 0.004548140086095546, 0.00329821680102814, 0.0024301381305451447, 0.001824088078108144, 0.001399232258276362, 0.001100651913762288, 0.0008906323612114079, 0.0007428258937566234, 0.0006383259344983293, 0.0005630270963233245, 0.0005058712901289706, 0.00045773099609035446])","array('d', [1.4519758457925658, 1.4210518129197147, 1.3894072950096428, 1.3570995195890834, 1.3247018591588446, 1.2932603689873094, 1.2635796371814352, 1.2360987122518905, 1.2109846688961932, 1.1882280805257104, 1.1677168054660225, 1.1492855588169144, 1.1327467729443406, 1.117909169011174, 1.1045890137263343, 1.089624456001709])",-187.04369482509475,-244.39920797170245,-50.05131912442293,0.664426490200517,0.00329821680102814,1.2932603689873094,25.000000245218107,-1.0,"[-246.7814476446827, -198.25558516616584, 49.957696311822666]","[-254.73756486345656, -183.69118876381154, 61.119172748039276]","[-234.87083094618876, -185.68701221009715, 59.966101964549594]",10000000000.0,0.01535487174987793
21,12.362151384353638,-246.75115966796875,-198.82766723632812,49.95182800292969,0.6620334386825559,-0.021180314943194365,1.4475466097381453,23.318688765992583,"array('d', [-198.82766723632812, -196.3521630972923, -193.88849282513078, -191.43952819415736, -189.0080893633964, -186.59644957050452, -184.2060477601944, -181.83750400784743, -179.4907602310545, -177.1652529629914, -174.86007502337506, -172.57410859927492, -170.30612702211954, -168.05486859388557, -165.81908721725927, -164.04328533158582])","array('d', [-246.75115966796875, -246.4056684895077, -245.9827804944782, -245.48123296159176, -244.90044212646956, -244.24214502431306, -243.51039701184575, -242.71066479566628, -241.8490123079748, -240.93155153217694, -239.96411778114236, -238.95210216729473, -237.90038281895593, -236.8133141941505, -235.69474941773487, -234.77471662963754])","array('d', [-49.95182800292969, -49.99648302986567, -50.02749992924887, -50.0492536296728, -50.06467752073743, -50.075749622035275, -50.08381200475022, -50.08978139548498, -50.09428864568823, -50.097771323880494, -50.100535184105496, -50.10279485106096, -50.1047005620479, -50.10635553161521, -50.10782703938576, -50.10888814251269])","array('d', [0.6620334386825559, 0.6737731349680738, 0.6843956521306831, 0.6940072967753257, 0.6868364029617654, 0.6640063013466369, 0.6305014701885615, 0.5904660466916649, 0.5471271570236006, 0.5028772945204768, 0.45941658913547334, 0.4178965222319438, 0.3790407531397685, 0.34323771432158295, 0.31060769590037546, 0.2810494910266575])","array('d', [0.021180314943194365, 0.014654533007251556, 0.010233396579931912, 0.007220058317445009, 0.0051536074176122, 0.003727887099399814, 0.0027385348203125873, 0.0020484936153152325, 0.001565367998164809, 0.0012264296104374554, 0.000988626041035882, 0.000821889256078825, 0.0007046356909213241, 0.00062073960239811, 0.0005575212815729056, 0.0005044658451724452])","array('d', [1.4475466097381453, 1.4165854378597047, 1.384906709155104, 1.352567462678151, 1.320157149142785, 1.2887313548005797, 1.2590834635401555, 1.2316436520597291, 1.2065730407462536, 1.183858693426464, 1.1633866643044133, 1.1449909350234895, 1.1284838288695194, 1.1136742947704865, 1.100378983103332, 1.08544197578363])",-186.59644957050452,-244.24214502431306,-50.075749622035275,0.6640063013466369,0.003727887099399814,1.2887313548005797,25.000000245235505,-1.0,"[-246.67029976556827, -197.77587146915914, 49.97086104230089]","[-254.54144565643028, -183.17750637136913, 61.14819519836834]","[-234.68641856724219, -185.27951698851413, 59.98224037376515]",10000000000.0,0.01264643669128418
