,x_pos,y_pos,z_pos,roll,pitch,yaw,vel,x_traj,y_traj,z_traj,roll_traj,pitch_traj,yaw_traj,x_cmd,y_cmd,z_cmd,roll_cmd,pitch_cmd,yaw_cmd,vel_cmd,effector_dmg,effector_x,effector_y,effector_z,cost,time_solution
0,-203.78463745117188,-146.78302001953125,44.88596725463867,0.6316537857055662,0.03336933627724644,1.6668872843172888,23.175082497940284,"array('d', [-150.51417541503906, -148.03222836721892, -145.54215383723806, -143.0463741651286, -140.5473103986172, -138.04746597592998, -135.54938055366287, -133.0553811971389, -130.5673432813293, -128.08660788983835, -125.61401481214129, -123.14998977696428, -120.69464441192801, -118.24786778957889, -115.80940131474398, -113.86569088435145])","array('d', [-203.6130828857422, -203.904415980737, -204.12219837465702, -204.26412955456388, -204.3281624697338, -204.31272470282892, -204.2179251676364, -204.0465984532682, -203.80359515552078, -203.49479019751976, -203.1263643311301, -202.704353574094, -202.234400179264, -201.72163642528568, -201.17065053928297, -200.69922252581162])","array('d', [-44.89726257324219, -44.82993224045486, -44.79009316441915, -44.769504003187585, -44.76229930973192, -44.764295609712114, -44.77249750969719, -44.784746961838515, -44.79947462929072, -44.81552501290123, -44.832036179941085, -44.84836078305275, -44.864018808486634, -44.87867494263817, -44.8921348920151, -44.901911962979206])","array('d', [0.6318882703781125, 0.6464966564720872, 0.6597148719994388, 0.6716752090344625, 0.6824973702456112, 0.683609195178356, 0.6655564325422978, 0.6342026529655784, 0.5945708380089988, 0.5506355007793139, 0.505359163274533, 0.46083808470312115, 0.4184667685475923, 0.3790798714341615, 0.3430600348134691, 0.3104135842454099])","array('d', [-0.0335262045264245, -0.02056123660739097, -0.01146325623471425, -0.005114201599184478, -0.0007228227341986273, 0.002269938240142464, 0.004258422653690133, 0.005520131016912832, 0.0062498972861156615, 0.00658490908285008, 0.006623477057574611, 0.006439369414026069, 0.0060929123657005564, 0.005639623859778835, 0.005136776178367642, 0.004647947604494966])","array('d', [1.702156574526105, 1.672981667514943, 1.6429509360463594, 1.6121299807600948, 1.5805804255205071, 1.5486492929443865, 1.517275752199685, 1.487465106901469, 1.4597964936717784, 1.4345150994915143, 1.411643750066647, 1.391074410272482, 1.3726311894481327, 1.3561101448784003, 1.3413037758788182, 1.3246957260675039])",-138.04746597592998,-204.31272470282892,-44.764295609712114,0.683609195178356,0.002269938240142464,1.5486492929443865,25.000000247588403,-1.0,"[-192.53286472299504, -191.03077676700468, 44.82766190367122]","[-205.7721683719234, -185.62012944530616, 49.349357874396006]","[-193.06188602222315, -178.9484859297105, 53.70112709986149]",10000000000.0,0.024356842041015625
1,-203.79669189453125,-146.31640625,44.88486862182617,0.6318886280059811,0.033225711435079505,1.6622715453293662,23.17747448183353,"array('d', [-149.11798095703125, -146.63251122019264, -144.13985151436015, -141.64245848983293, -139.14277978022977, -136.64333706514736, -134.14665970644165, -131.65502190546837, -129.17021936002521, -126.69350381349423, -124.22562671181107, -121.76693185837848, -119.3174575091819, -116.87702827765962, -114.44532951743209, -112.5073675135894])","array('d', [-203.69300842285156, -203.9523980830841, -204.13818010481117, -204.24808132946364, -204.2800828299601, -204.23266596079944, -204.10607907184726, -203.90326874850496, -203.62914296717787, -203.28959387275052, -202.89079442809913, -202.43875945896224, -201.93910421260713, -201.39693264039923, -200.81680574766742, -200.32228092357275])","array('d', [-44.89324951171875, -44.82523994576094, -44.78499258477486, -44.764147663255976, -44.756771927491265, -44.75864416374534, -44.76674869857462, -44.77891702583483, -44.79357462605605, -44.80956346928245, -44.826020291167794, -44.84229685416175, -44.857912346398415, -44.872530642789556, -44.885956669700555, -44.895709237917664])","array('d', [0.6316002011299129, 0.6462360005199698, 0.6594790205800729, 0.6714618015801246, 0.6823042703911097, 0.6825572718703244, 0.663954068079068, 0.6323011075311411, 0.5925558347702691, 0.5486328843758972, 0.5034466025842077, 0.459057447932339, 0.41683488457594886, 0.37759722914815, 0.3417177313000867, 0.3091990176809803])","array('d', [-0.03386874869465826, -0.020764611893772256, -0.011587867833993218, -0.005194937920723504, -0.0007793252724232341, 0.002226964057198397, 0.004223372113475677, 0.005490195552298339, 0.006223715385519719, 0.006561806303942966, 0.0066030580021352765, 0.006421316097413786, 0.006076904344462513, 0.005625332523548681, 0.005123905465451999, 0.004636301485622756])","array('d', [1.6892879540708403, 1.6601297444792031, 1.6301144419882903, 1.5993077226902137, 1.567771284133746, 1.5358812054079953, 1.5045931536003112, 1.4748908820996205, 1.4473372049557482, 1.422167235282265, 1.3993986855730722, 1.3789216178469148, 1.360560055207162, 1.3441108750989799, 1.3293677587740256, 1.3128295246901927])",-136.64333706514736,-204.23266596079944,-44.75864416374534,0.6825572718703244,0.002226964057198397,1.5358812054079953,25.000000243454682,-1.0,"[-192.53286472299504, -191.03077676700468, 44.82766190367122]","[-205.7721683719234, -185.62012944530616, 49.349357874396006]","[-193.06188602222315, -178.9484859297105, 53.70112709986149]",10000000000.0,0.02749323844909668
2,-203.8065948486328,-145.8498992919922,44.88383483886719,0.632121682167053,0.03302461281418798,1.6576386551049092,23.17978394175085,"array('d', [-148.65074157714844, -146.16417478816888, -143.67073712994167, -141.17289403948885, -138.6731007240408, -136.17388417892693, -133.6777693610163, -131.1870121121389, -128.70338115432412, -126.22809825194871, -123.76188533344913, -121.30505889272816, -118.85763275944304, -116.4194101030045, -113.99005763629671, -112.05408336149488])","array('d', [-203.7154541015625, -203.96413507553962, -204.1391904117135, -204.23835671409665, -204.25962478328688, -204.20149417919393, -204.06426007198684, -203.85090647295888, -203.56636038666124, -203.2165195159217, -202.8075540150128, -202.3454714292308, -201.83587779608595, -201.28386743195767, -200.69399209435042, -200.19174153813722])","array('d', [-44.89179229736328, -44.823883664129404, -44.7837379557939, -44.762981354507446, -44.75567616226334, -44.75760155644804, -44.765744383748846, -44.77793930781054, -44.79261486944724, -44.8086156500609, -44.825080440932865, -44.841362515611195, -44.856982094134686, -44.871603691827104, -44.885032579955734, -44.894787203228624])","array('d', [0.6315106153488157, 0.6461549399448042, 0.6594056739300855, 0.6713954347760032, 0.6822442191740978, 0.6822080159392917, 0.6634194315225237, 0.6316655752327405, 0.591881827566143, 0.5479627084199505, 0.5028063894510372, 0.4584613054508083, 0.41628850447504767, 0.3771008055829011, 0.34126829492592725, 0.308792350795812])","array('d', [-0.03383062034845354, -0.020722038056771835, -0.01154904606590454, -0.005162986268245222, -0.0007547192635953714, 0.002244994118255253, 0.004236065221413816, 0.005498847548973312, 0.006229480918565764, 0.006565623379545128, 0.006605636909001466, 0.006423158911120748, 0.00607833745871014, 0.005626544189739982, 0.005124985010415397, 0.004637278298389229])","array('d', [1.684977651634488, 1.6558246333362139, 1.6258141278608869, 1.5950118347416864, 1.5634794744163687, 1.5316028854550243, 1.5003432619841404, 1.470677119225201, 1.4431618017655592, 1.418029047521079, 1.3952948521255608, 1.3748486341179316, 1.3565143816895469, 1.3400892421725143, 1.3253672893268447, 1.3088524213411938])",-136.17388417892693,-204.20149417919393,-44.75760155644804,0.6822080159392917,0.002244994118255253,1.5316028854550243,25.000000243491908,-1.0,"[-192.53286472299504, -191.03077676700468, 44.82766190367122]","[-205.7721683719234, -185.62012944530616, 49.349357874396006]","[-193.06188602222315, -178.9484859297105, 53.70112709986149]",10000000000.0,0.020842313766479492
3,-203.81997680664062,-144.9171600341797,44.88196563720703,0.6328337192535397,0.03273795917630192,1.6484155590322356,23.186390794110583,"array('d', [-148.18360900878906, -145.69597063541363, -143.20178718744776, -140.70353266460134, -138.20366989316722, -135.7047312457494, -133.2092369417761, -130.7194239343092, -128.23703339643595, -125.76325655466658, -123.29878530389385, -120.84390836560199, -118.39861473410654, -115.96268577600635, -113.53576924947198, -111.60185641296954])","array('d', [-203.73583984375, -203.9736124145917, -204.13773827728124, -204.22596439624058, -204.23629182925268, -204.16723901293057, -204.0191491630495, -203.795044718979, -203.49987231993492, -203.13953553226654, -202.72020180273879, -202.2478713708327, -201.7281409685862, -201.16609514881335, -200.56627628313692, -200.05614521066198])","array('d', [-44.89031219482422, -44.82257809980845, -44.782587637098466, -44.76195842805692, -44.75475233785305, -44.756751850459196, -44.764948450772344, -44.77718151025865, -44.79188374675216, -44.80790316387377, -44.82438119683235, -44.84067305541209, -44.85630029520875, -44.87092828284067, -44.884362772032354, -44.89412142527326])","array('d', [0.6314483880996702, 0.6460986343952668, 0.6593547265555462, 0.67134933567611, 0.6822025069310159, 0.6818691600156401, 0.6628895006568153, 0.6310309317749201, 0.591206352311609, 0.5472897721229645, 0.5021628506698933, 0.4578617297461915, 0.41573883844188325, 0.3766013552843538, 0.34081611309477367, 0.3083831997181991])","array('d', [-0.0337583050131797, -0.020654588935931653, -0.01149210671250863, -0.005117811795367057, -0.0007204300946577272, 0.0022701520501901625, 0.004254045662815305, 0.005511465268454065, 0.006238267363685081, 0.0065717901469221265, 0.006610092585082073, 0.006426548310017933, 0.006081087857998684, 0.00562891220852352, 0.005127102092919845, 0.004639193914031717])","array('d', [1.6805896545436718, 1.6514402417866545, 1.6214330680369184, 1.5906338491038603, 1.5591043213189189, 1.5272402854813296, 1.4960085880259948, 1.4663783706510762, 1.438901395110527, 1.4138059414310495, 1.3911062337649664, 1.3706910141350939, 1.352384217828409, 1.3359832538334497, 1.3212825860254946, 1.3047912202843124])",-135.7047312457494,-204.16723901293057,-44.756751850459196,0.6818691600156401,0.0022701520501901625,1.5272402854813296,25.000000243529353,-1.0,"[-192.53286472299504, -191.03077676700468, 44.82766190367122]","[-205.7721683719234, -185.62012944530616, 49.349357874396006]","[-193.06188602222315, -178.9484859297105, 53.70112709986149]",10000000000.0,0.024355173110961914
4,-203.82437133789062,-143.9846954345703,44.87991714477539,0.6339194178581237,0.03203444182872768,1.6394869024541714,23.195696976380873,"array('d', [-147.249755859375, -144.7600485240054, -142.26447082123215, -139.76551502017438, -137.26566089113714, -134.76745307712562, -132.2734022302696, -129.78570634395865, -127.30604974861737, -124.83556059064755, -122.37486864397367, -119.92420510735789, -117.48350746682647, -115.05251181132728, -112.6308264857925, -110.70133478386548])","array('d', [-203.7704620361328, -203.98566213361428, -204.1271409337572, -204.19266974713668, -204.18027356452768, -204.08851246027046, -203.91783155886944, -203.67133559065755, -203.35401466172277, -202.97178705924796, -202.53081681306327, -202.03709080708919, -201.4961879059373, -200.91317354675934, -200.29257153879928, -199.7659639936833])","array('d', [-44.88737487792969, -44.820181706986034, -44.78064128755442, -44.76036828041718, -44.75343408569275, -44.75563542883855, -44.76397865355045, -44.776316628462695, -44.791093407224984, -44.80716601399338, -44.823682756311555, -44.84000386317872, -44.85565437919295, -44.87030193835386, -44.88375362298304, -44.89352465109375])","array('d', [0.6315734386444088, 0.6462117848155002, 0.6594571092950479, 0.6714419754078848, 0.6822863307166942, 0.6813237495083341, 0.6619338480134592, 0.6298441760550454, 0.5899217704268549, 0.5459985204695046, 0.5009219629645316, 0.4567026782193912, 0.4146750600608557, 0.37563440409815835, 0.3399406302701575, 0.30759103002794097])","array('d', [-0.03352456539869302, -0.020454859170557484, -0.011331107985371945, -0.004993231139287006, -0.0006269740387138806, 0.0023385780818872322, 0.004303240601933395, 0.00554644088032067, 0.006263095870697287, 0.006589630802388494, 0.00662329742565536, 0.006436791995464609, 0.00608949612982696, 0.005636180446712019, 0.005133603201105954, 0.004645076360511273])","array('d', [1.6715227598932123, 1.6423661011963224, 1.6123522318059609, 1.5815468348184956, 1.5500116146277183, 1.5181629419945355, 1.4869794776321594, 1.45741527794833, 1.4300105373498708, 1.4049862508773883, 1.38235280516183, 1.3619973744821154, 1.3437436414871495, 1.3273894429479431, 1.3127299630444156, 1.2962840816886672])",-134.76745307712562,-204.08851246027046,-44.75563542883855,0.6813237495083341,0.0023385780818872322,1.5181629419945355,25.00000024360563,-1.0,"[-194.57533690764836, -186.84655226958247, 44.816022543285406]","[-207.49547940429835, -180.95326353388666, 49.64707478311681]","[-194.45001290849765, -174.72828489645693, 53.65524704369705]",10000000000.0,0.03715157508850098
5,-203.822998046875,-143.5223388671875,44.879310607910156,0.6349153518676756,0.031137285754084552,1.635467411079679,23.200391826923973,"array('d', [-146.31640625, -143.82479467764088, -141.32800315023857, -138.82854286487589, -136.3289116399178, -133.8316672059353, -131.33930976895783, -128.85399692280322, -126.37735468848244, -123.91044673439787, -121.4538394224149, -119.00770525529794, -116.57192915384725, -114.14620098111266, -111.73008881878673, -109.80529814298157])","array('d', [-203.79669189453125, -203.98882866797106, -204.1071480750534, -204.14944851826263, -204.11378152137664, -203.9987517070377, -203.8049102438608, -203.53544781986272, -203.1954007344254, -202.79070388686395, -202.32751911332625, -201.81182067306963, -201.2491699564554, -200.6446134623466, -200.00265648753845, -199.45911656325757])","array('d', [-44.88486862182617, -44.81835539116016, -44.779364146889314, -44.75951793037986, -44.75290583468947, -44.75534468153571, -44.76385987305927, -44.77632078916126, -44.79118498542729, -44.807320066112744, -44.82388233516639, -44.840237848928474, -44.855915715243405, -44.87058623094513, -44.88405805967737, -44.89384357907422])","array('d', [0.6318886280059811, 0.6464969799673401, 0.6597151645592235, 0.6716754734771081, 0.682497608367991, 0.6808802633364565, 0.6610596184404702, 0.628722909549471, 0.5886906377017895, 0.5447518091046137, 0.4997190856265759, 0.4555768113621029, 0.41364078480267086, 0.3746939893613843, 0.33908913825685616, 0.30682056812340874])","array('d', [-0.033225711435079505, -0.020208680625259247, -0.01113702044859111, -0.004845107453957741, -0.0005167844572762961, 0.002418890015491621, 0.0043608811001260815, 0.005587432272183717, 0.006292237382735324, 0.006610605693284073, 0.006638835417935474, 0.006448838354779273, 0.006099366737091576, 0.005644697960623418, 0.005141216291167017, 0.004651964969891435])","array('d', [1.6622715453293662, 1.633096617583778, 1.6030658669635471, 1.5722448940198632, 1.540695322557751, 1.50885455434236, 1.4777134088720516, 1.4482106121169052, 1.4208745178451299, 1.395918582818191, 1.373349147721659, 1.3530516616334962, 1.3348494430551288, 1.318540681489876, 1.3039212327083352, 1.2875195648336786])",-133.8316672059353,-203.9987517070377,-44.75534468153571,0.6808802633364565,0.002418890015491621,1.50885455434236,25.000000243681512,-1.0,"[-194.57533690764836, -186.84655226958247, 44.816022543285406]","[-207.49547940429835, -180.95326353388666, 49.64707478311681]","[-194.45001290849765, -174.72828489645693, 53.65524704369705]",10000000000.0,0.02132391929626465
6,-203.81307983398438,-142.5970916748047,44.87797927856445,0.6382535099983213,0.0280444677919149,1.6278471546855313,23.212538431643623,"array('d', [-145.8498992919922, -143.35741114221227, -140.86009066750535, -138.3604581665829, -135.86102056088959, -133.36434225181284, -130.87291791321752, -128.38888464448723, -125.91383913781097, -123.4488127179629, -120.99433996841265, -118.55056398293172, -116.11734334037816, -113.69434472944926, -111.2811160358227, -109.35875424660827])","array('d', [-203.8065948486328, -203.98717006215352, -204.09387157789274, -204.12451232985094, -204.07715800379492, -203.95043635370803, -203.74495240555447, -203.46394063823695, -203.11246120471998, -202.69645796762114, -202.22209220230212, -201.69533227333596, -201.12173115061506, -200.50632610172548, -199.8536133471711, -199.30154398172314])","array('d', [-44.88383483886719, -44.817771695129544, -44.77913341028535, -44.75955660837691, -44.75314581091393, -44.75573250687924, -44.7643548786807, -44.7768928589889, -44.79181238521606, -44.80798751572291, -44.82457938760303, -44.84095757085098, -44.8566536333734, -44.87133950206046, -44.884824826688664, -44.89462005743618])","array('d', [0.632121682167053, 0.6467078561107431, 0.6599059731995853, 0.6718481242846418, 0.6826538291904978, 0.6807042613030433, 0.660663534859682, 0.6281988933057082, 0.5881076933093862, 0.5441575532748154, 0.49914368756804434, 0.45503727087383344, 0.4131447348481763, 0.37424283753420906, 0.3386806310476861, 0.30645093548155505])","array('d', [-0.03302461281418798, -0.020048889039364488, -0.011013798567174016, -0.004752283253796802, -0.00044816556620260476, 0.0024688615862018455, 0.00439688722404569, 0.0056132482682958815, 0.006310807019949761, 0.006624160241918693, 0.006649019870686851, 0.00645682651814437, 0.006105959111259906, 0.005650402989465523, 0.0051463181975142346, 0.004656581366078844])","array('d', [1.6576386551049092, 1.6284502138006465, 1.5984069765191165, 1.5675744826920557, 1.5360142964568357, 1.5041743469806186, 1.4730515719897985, 1.443577059927103, 1.416273230945758, 1.3913497320778403, 1.3688108299928359, 1.3485410616533076, 1.3303635212783251, 1.3140765412833242, 1.2994762877430683, 1.2830958233295728])",-133.36434225181284,-203.95043635370803,-44.75573250687924,0.6807042613030433,0.0024688615862018455,1.5041743469806186,25.000000243718734,-1.0,"[-194.57533690764836, -186.84655226958247, 44.816022543285406]","[-207.49547940429835, -180.95326353388666, 49.64707478311681]","[-194.45001290849765, -174.72828489645693, 53.65524704369705]",10000000000.0,0.020219087600708008
7,-203.81307983398438,-142.5970916748047,44.87797927856445,0.6382535099983213,0.0280444677919149,1.6278471546855313,23.212538431643623,"array('d', [-144.9171600341797, -142.42309217176012, -139.92488083271527, -137.42506834253302, -134.9261824641942, -132.43080265067903, -129.94141291426442, -127.46010956271621, -124.98843086699088, -122.52734366753224, -120.07731912353695, -117.63844156749664, -115.21051688538057, -112.79316535664694, -110.38589437607749, -108.4685431471764])","array('d', [-203.81997680664062, -203.9775051130908, -204.06101814004242, -204.06836025842927, -203.99762796409902, -203.8474976249229, -203.6186838312186, -203.31451083392665, -202.94008895311524, -202.5013823613337, -202.00455331873687, -201.4555601624522, -200.85994045281785, -200.22271414522393, -199.54836023408046, -198.97912344657027])","array('d', [-44.88196563720703, -44.81655399626797, -44.77844047170576, -44.75926990238416, -44.75316406278222, -44.75597400697155, -44.764756452191904, -44.77740737431776, -44.79240581928232, -44.80863610917263, -44.82526713139283, -44.841674096798386, -44.857392498249844, -44.87209682474023, -44.88559823496495, -44.89540503271059])","array('d', [0.6328337192535397, 0.6473521339657589, 0.6604889399588139, 0.6723756144569236, 0.6831311220363652, 0.6805081846444754, 0.6600162052810964, 0.6272836225524142, 0.5870624727641174, 0.5430782266044557, 0.4980915173227759, 0.45404727144169743, 0.41223314679312834, 0.3734133503678463, 0.3379294989011124, 0.3057712829479623])","array('d', [-0.03273795917630192, -0.019813301689564647, -0.010828683643809296, -0.004611659262237915, -0.00034421054102771575, 0.0025439862387276455, 0.004450186172796147, 0.0056505704330964855, 0.006336809797928507, 0.006642415144516023, 0.006662171070901886, 0.006466755295734075, 0.006113934417775947, 0.0056572136100056245, 0.005152388589320812, 0.004662074090780883])","array('d', [1.6484155590322356, 1.6191858028767991, 1.5891043920199415, 1.558236678710886, 1.5266440443609808, 1.4947952956806285, 1.4636996333325336, 1.434273125179485, 1.4070263843996627, 1.3821613659782963, 1.3596780539110624, 1.3394590139578604, 1.3213267580482229, 1.3050797930396483, 1.2905148169567215, 1.2741733449108315])",-132.43080265067903,-203.8474976249229,-44.75597400697155,0.6805081846444754,0.0025439862387276455,1.4947952956806285,25.00000024379283,-1.0,"[-194.57533690764836, -186.84655226958247, 44.816022543285406]","[-207.49547940429835, -180.95326353388666, 49.64707478311681]","[-194.45001290849765, -174.72828489645693, 53.65524704369705]",10000000000.0,0.016116619110107422
8,-203.804443359375,-142.13421630859375,44.877357482910156,0.6404525637626646,0.02575829438865178,1.6240045549955704,23.218374015551554,"array('d', [-144.45089721679688, -141.95611901787896, -139.4575428887279, -136.9577210403803, -134.45919132138212, -131.96454061388874, -129.4762472531604, -126.99638697410363, -124.52646886603512, -122.06742765878514, -119.61970296501549, -117.18334989911654, -114.75814814340274, -112.34369489016011, -109.93947738069929, -108.02469227325274])","array('d', [-203.82333374023438, -203.96941033259208, -204.04139257297564, -204.0371415308767, -203.95476995407174, -203.7929792271464, -203.55253912778602, -203.23681925590418, -202.8509555900565, -202.40092305714208, -201.89288496741824, -201.33279512788167, -200.72618379697542, -200.07806260347354, -199.39290219723785, -198.81509200566825])","array('d', [-44.88109588623047, -44.81619873970713, -44.77848242286829, -44.75961191237666, -44.75372879238917, -44.75670171865722, -44.76560216226866, -44.778337987513076, -44.79339753396467, -44.809672207193074, -44.826336167329984, -44.84276844879817, -44.858507223241205, -44.873228761301974, -44.88674530679774, -44.89656299565987])","array('d', [0.6332652568817135, 0.6477426053933291, 0.6608422531470844, 0.6726953054730468, 0.6834203903579972, 0.6804589450868352, 0.6597385883875647, 0.626868720245131, 0.5865790586266605, 0.5425742532409803, 0.4975977995241709, 0.4535815723868847, 0.41180386228552396, 0.3730225906919307, 0.33757563380772476, 0.3054510925415422])","array('d', [-0.0325061716139316, -0.019632497612990428, -0.010690964202012185, -0.0045087434376642555, -0.0002684962063002814, 0.0025990029642370864, 0.004489825275999631, 0.005679041005670804, 0.006357353528799991, 0.006657470391259104, 0.006673528429553963, 0.006475691612160788, 0.006121322642904458, 0.005663611402429885, 0.00515811046640137, 0.0046672514597297845])","array('d', [1.6438369984414913, 1.6145821826765936, 1.5844776188476228, 1.5535885454301532, 1.5219762327873019, 1.4901198470958572, 1.4590347058629158, 1.4296294589297716, 1.4024088524604166, 1.377570987091664, 1.3551136722489392, 1.3349184464373598, 1.3168074900130948, 1.3005793620319086, 1.2860309978630822, 1.2697078795544492])",-131.96454061388874,-203.7929792271464,-44.75670171865722,0.6804589450868352,0.0025990029642370864,1.4901198470958572,25.000000243828104,-1.0,"[-194.57533690764836, -186.84655226958247, 44.816022543285406]","[-207.49547940429835, -180.95326353388666, 49.64707478311681]","[-194.45001290849765, -174.72828489645693, 53.65524704369705]",10000000000.0,0.014175176620483398
9,-203.77952575683594,-141.20802307128906,44.8769645690918,0.6456687450408933,0.02007042802870267,1.6166291544821596,23.234834259735013,"array('d', [-143.9846954345703, -141.4892762898518, -138.99039590670196, -136.49061348694428, -133.99247620890534, -131.49857861900279, -129.01139426795947, -126.53297981602073, -124.06481686116481, -121.60780960774966, -119.16236748252072, -116.72851749786633, -114.3060140268654, -111.89443188284434, -109.49323871087927, -107.5809949353811])","array('d', [-203.82437133789062, -203.95954748775537, -204.02052087018438, -204.00517154539511, -203.91163046203448, -203.73862521853664, -203.48697999842506, -203.1601100074014, -202.76317846936018, -202.30217329411317, -201.78326122194508, -201.212393788343, -200.59509596945995, -199.93637281881067, -199.24068813857767, -198.65452184275784])","array('d', [-44.87991714477539, -44.816046904763624, -44.77909483557825, -44.760789395695745, -44.75532209606058, -44.75860019596697, -44.76772463524953, -44.780625532945386, -44.795807868499516, -44.812175368953426, -44.828911222274485, -44.845400985278225, -44.86118743880174, -44.87594998800517, -44.88950286073501, -44.89934672831685])","array('d', [0.6339194178581237, 0.6483345147748625, 0.6613778349502026, 0.673179919967372, 0.6838588876151629, 0.6805679934479907, 0.6596201132307729, 0.6266080117307445, 0.5862413055675753, 0.5422055449783764, 0.49722828037285816, 0.4532290933321081, 0.4114773497489261, 0.3727249131833459, 0.3373060036871468, 0.3052071210973266])","array('d', [-0.03203444182872768, -0.019280421270998778, -0.010430049417491696, -0.004316443368113502, -0.00012728651972021747, 0.0027025605499190384, 0.004565923462893298, 0.005735332910487733, 0.006399530164955271, 0.006689722672442965, 0.006698906651261994, 0.006496377887418555, 0.00613883336576971, 0.00567894645949551, 0.005171864006084584, 0.004679696178180745])","array('d', [1.6394869024541714, 1.610194069945745, 1.5800543837054295, 1.5491329092640236, 1.5174907482023476, 1.4856167051987452, 1.4545319460550121, 1.4251383530842563, 1.3979351550049037, 1.3731167101129216, 1.3506786237488955, 1.3305013121461764, 1.3124065093927884, 1.2961927153589345, 1.2816570042490527, 1.2653478692164262])",-131.49857861900279,-203.73862521853664,-44.75860019596697,0.6805679934479907,0.0027025605499190384,1.4856167051987452,25.00000024386115,-1.0,"[-194.57533690764836, -186.84655226958247, 44.816022543285406]","[-207.49547940429835, -180.95326353388666, 49.64707478311681]","[-194.45001290849765, -174.72828489645693, 53.65524704369705]",10000000000.0,0.02930426597595215
10,-203.77952575683594,-141.20802307128906,44.8769645690918,0.6456687450408933,0.02007042802870267,1.6166291544821596,23.234834259735013,"array('d', [-143.5223388671875, -141.02634396319093, -138.5272139009794, -136.02750968039126, -133.52978634743795, -131.03664642521906, -128.55056022965334, -126.07356773006273, -123.60712556991844, -121.15210971895239, -118.70890132718355, -116.27750083188546, -113.85763849252332, -111.44886766942942, -109.05063712406778, -107.14088393608196])","array('d', [-203.822998046875, -203.94807209685413, -203.99878864879827, -203.97305035281326, -203.86900939745396, -203.68542153064058, -203.4231644699806, -203.08569976132767, -202.67822055521782, -202.20673131640467, -201.6774059501666, -201.09619722590463, -200.46862795170264, -199.7996992958071, -199.0938705063274, -198.49963935970555])","array('d', [-44.879310607910156, -44.81737483677424, -44.78183510049788, -44.76456062766822, -44.75984663367856, -44.763676532763164, -44.77320707652971, -44.786409218027686, -44.80181775694475, -44.818358149341364, -44.83522936231234, -44.851828331947175, -44.86770592401494, -44.88254711153192, -44.89616971447627, -44.90606384037395])","array('d', [0.6349153518676756, 0.6492356732134369, 0.6621932368972622, 0.6739177262219116, 0.6845264822613658, 0.6809183714424815, 0.659743128921525, 0.6265805369454639, 0.5861234109009261, 0.5420407265559095, 0.4970458183638939, 0.4530470618414304, 0.41130552525214326, 0.37256733016283194, 0.3371631513731382, 0.30507786296665534])","array('d', [-0.031137285754084552, -0.018625448715950937, -0.009952076744918565, -0.003967467395521161, 0.00012794763790445487, 0.0028898989147567926, 0.004704287916127906, 0.005838553036410596, 0.006477694088533847, 0.00675017082674602, 0.006746955506946131, 0.0065358395032683115, 0.006172382678320126, 0.005708377601607705, 0.005198268353971053, 0.004703587822285914])","array('d', [1.635467411079679, 1.6061166316760476, 1.5759234145471952, 1.544952560811458, 1.5132649140487648, 1.4813578693692981, 1.4502580705454757, 1.420861589350311, 1.3936626339522216, 1.3688519653177096, 1.3464229253196425, 1.3262546568398368, 1.3081682713616412, 1.2919620406269883, 1.2774330292907718, 1.2611313040584742])",-131.03664642521906,-203.68542153064058,-44.763676532763164,0.6809183714424815,0.0028898989147567926,1.4813578693692981,25.00000024389138,-1.0,"[-194.57533690764836, -186.84655226958247, 44.816022543285406]","[-207.49547940429835, -180.95326353388666, 49.64707478311681]","[-194.45001290849765, -174.72828489645693, 53.65524704369705]",10000000000.0,0.023326396942138672
11,-203.72244262695312,-139.81785583496094,44.87954330444336,0.6541629433631895,0.009617915377020832,1.6049566129830222,23.257481130927363,"array('d', [-142.5970916748047, -140.1000491502864, -137.6005325915416, -135.10109677576244, -132.60431258598592, -130.11280279558676, -127.629036925616, -125.15502701784837, -122.69218392877278, -120.2413297128785, -117.8027901907767, -115.37651290380236, -112.9621794922052, -110.55929961523034, -108.16728323674234, -106.2627593277015])","array('d', [-203.81307983398438, -203.9188908341658, -203.94984817739868, -203.903915185877, -203.7793005129102, -203.57482817776196, -203.2914909370977, -202.93285500808813, -202.50418856453382, -202.0115445908325, -201.46112535670528, -200.85889816101144, -200.21039154324714, -199.5206072062751, -198.79400213609128, -198.1832168788811])","array('d', [-44.87797927856445, -44.82268387283583, -44.791949381631355, -44.77816141476411, -44.775986303374495, -44.7816742963499, -44.79257424682257, -44.80679561252055, -44.82297318761704, -44.84010469295044, -44.85744131249546, -44.874417578524785, -44.89061111800272, -44.90572543095572, -44.919590391473086, -44.92965922081802])","array('d', [0.6382535099983213, 0.652256163869804, 0.6649262901090329, 0.6763906952496007, 0.6867641170764693, 0.6824982660871637, 0.6608226715098086, 0.6273008834962686, 0.5865997865773418, 0.5423602870446134, 0.4972701750647798, 0.45321677077741634, 0.4114449605292773, 0.37268927694066, 0.3372729598492016, 0.30517722179360385])","array('d', [-0.0280444677919149, -0.01639013383159439, -0.00833256173428758, -0.0027903371929890466, 0.0009872294708204092, 0.0035209032774412515, 0.005171549566387798, 0.006188637678227453, 0.006744244142906671, 0.006957509589124121, 0.006912645500292247, 0.006672478071910716, 0.006288843844036444, 0.005810657288228262, 0.005290052743583915, 0.004786637779829906])","array('d', [1.6278471546855313, 1.5983015483232044, 1.5679283901296177, 1.5367915850395815, 1.5049511026314757, 1.472919778025441, 1.4417351067951405, 1.4122835392310258, 1.3850498532431506, 1.3602173463239926, 1.3377741626829127, 1.3175961295411496, 1.2995023956328426, 1.2832901651779387, 1.2687559859274267, 1.252448578924844])",-130.11280279558676,-203.57482817776196,-44.7816742963499,0.6824982660871637,0.0035209032774412515,1.472919778025441,25.00000024394885,-1.0,"[-194.57533690764836, -186.84655226958247, 44.816022543285406]","[-207.49547940429835, -180.95326353388666, 49.64707478311681]","[-194.45001290849765, -174.72828489645693, 53.65524704369705]",10000000000.0,0.029495954513549805
12,-203.697998046875,-139.35435485839844,44.882102966308594,0.6571009159088131,0.005803477950394079,1.6007268457349875,23.264393592508565,"array('d', [-142.13421630859375, -139.63667514542607, -137.13701319978105, -134.6377768805869, -132.14154459720822, -129.65095077034476, -127.16846603640037, -124.69608930044065, -122.2352085561317, -119.78661829322854, -117.35061565191795, -114.92712049585293, -112.51578884678999, -110.11610720811345, -107.72746488907764, -105.82578062694664])","array('d', [-203.804443359375, -203.90049966610482, -203.9213798241539, -203.86508429006778, -203.72985611614402, -203.51455934229776, -203.22025026951485, -202.85055440195003, -202.4107844608956, -201.90702399462404, -201.34549472194232, -200.7321754433805, -200.07260091630388, -199.37177575761174, -198.63415792881966, -198.01458691042558])","array('d', [-44.877357482910156, -44.826960702357496, -44.7997554427428, -44.78851958247458, -44.7881986099035, -44.79524173866461, -44.8071399599169, -44.82210453441514, -44.8388433543144, -44.85640674851763, -44.87408380972154, -44.891336329872516, -44.907761344721486, -44.92307581450522, -44.937118396268126, -44.94731526457926])","array('d', [0.6404525637626646, 0.6542459501798156, 0.6667267233782208, 0.6780197947842188, 0.6882381872182495, 0.6836166807375478, 0.6616615968239292, 0.6279310214423106, 0.5870805593533135, 0.5427378750505291, 0.4975781579176688, 0.4534780183556171, 0.4116739130812564, 0.37289421077068124, 0.3374581086220155, 0.30534475134631117])","array('d', [-0.02575829438865178, -0.014745776918020493, -0.007145697457074642, -0.0019300388208007713, 0.0016141366964992562, 0.003980892816937447, 0.005512176102928161, 0.006444010452999878, 0.006938889953657738, 0.007109101406965035, 0.007033919449832722, 0.0067725660276651296, 0.006374186118850699, 0.0058856166560790745, 0.005357320894586396, 0.004847504525343508])","array('d', [1.6240045549955704, 1.5943300940318832, 1.5638379593446354, 1.5325914569727663, 1.5006499728279337, 1.468533981066443, 1.437286697016846, 1.407790090858807, 1.38052412227926, 1.3556680385994169, 1.3332070109688692, 1.3130148619261437, 1.294909469866022, 1.2786872773173157, 1.2641443984268588, 1.247827399409572])",-129.65095077034476,-203.51455934229776,-44.79524173866461,0.6836166807375478,0.003980892816937447,1.468533981066443,25.00000024397801,-1.0,"[-194.57533690764836, -186.84655226958247, 44.816022543285406]","[-207.49547940429835, -180.95326353388666, 49.64707478311681]","[-194.45001290849765, -174.72828489645693, 53.65524704369705]",10000000000.0,0.02011847496032715
13,-203.6705780029297,-138.8939666748047,44.886268615722656,0.6601093411445615,0.001928229467011956,1.5964307645943505,23.269033273735584,"array('d', [-141.67120361328125, -139.17320413724923, -136.67343745970135, -134.17444088609653, -131.6788014033288, -129.18916675963882, -126.70801041050153, -124.23731953858287, -121.77846022407938, -119.33219989303385, -116.8988071603151, -114.47817413116314, -112.06993098030864, -109.67354074075868, -107.28837170721171, -105.3896118505189])","array('d', [-203.79327392578125, -203.87982065310516, -203.89081757918882, -203.82430640254373, -203.678568470368, -203.4525113311775, -203.147257448938, -202.7664952457753, -202.31558631965515, -201.80064904815038, -201.22792841059993, -200.60341794238852, -199.93266129189655, -199.22066817941976, -198.47189933658558, -197.84342339160284])","array('d', [-44.877017974853516, -44.83240232645545, -44.809352861418496, -44.80111677821228, -44.80297211288783, -44.81160418006086, -44.82467205755222, -44.84050703268778, -44.857902964148764, -44.87597192847129, -44.894047451623834, -44.91162325300622, -44.92831909801809, -44.94386771735556, -44.958118066760015, -44.968464699391255])","array('d', [0.643017530441284, 0.6565668282164592, 0.6688267408576395, 0.6799199693464344, 0.6899575366013428, 0.6849726858485069, 0.6627248056324281, 0.6287691200492491, 0.5877519413501809, 0.5432889706547136, 0.4980434982119067, 0.45388173374772606, 0.4120317772354951, 0.3732157807800023, 0.3377487924205341, 0.3056077729478481])","array('d', [-0.023057656362652775, -0.012807900759313139, -0.005749715571053147, -0.0009197429115730747, 0.0023494743600764845, 0.004519985931135023, 0.005911156910068379, 0.006743030834569104, 0.00716675799877029, 0.007286540964148217, 0.007175849964042762, 0.006889680756243671, 0.006474028420129223, 0.005973300401799817, 0.005436004075655352, 0.004918700018119921])","array('d', [1.6202720227327685, 1.5904467498980368, 1.5598153982419487, 1.5284405664893865, 1.496380951644583, 1.4641642590453874, 1.4328394332525136, 1.403284450913054, 1.3759745696306105, 1.3510848802957338, 1.328597380334391, 1.3083836700544818, 1.2902601594790009, 1.2740223630812542, 1.2594658270899806, 1.2431337594862113])",-129.18916675963882,-203.4525113311775,-44.81160418006086,0.6849726858485069,0.004519985931135023,1.4641642590453874,25.000000244006728,-1.0,"[-194.57533690764836, -186.84655226958247, 44.816022543285406]","[-207.49547940429835, -180.95326353388666, 49.64707478311681]","[-194.45001290849765, -174.72828489645693, 53.65524704369705]",10000000000.0,0.01582193374633789
14,-203.6705780029297,-138.8939666748047,44.886268615722656,0.6601093411445615,0.001928229467011956,1.5964307645943505,23.269033273735584,"array('d', [-141.20802307128906, -138.709612170657, -136.20978365461355, -133.71106573309396, -131.21605435895836, -128.72741105162567, -126.2476124622076, -123.77863445838364, -121.32182161802699, -118.87791468025623, -116.44715406204534, -114.02940438564437, -111.6242702052029, -109.2311912659669, -106.8495149926452, -104.95369435489191])","array('d', [-203.77952575683594, -203.85677753125972, -203.8580941373962, -203.78155934969934, -203.6254937040472, -203.3888490166326, -203.07281416519436, -202.6811410213301, -202.21924089049145, -201.69326790030163, -201.1094911768848, -200.4739197846735, -199.79210694829777, -199.06906807137614, -198.30926714244308, -197.67197869627404])","array('d', [-44.8769645690918, -44.838738899825124, -44.820274915032506, -44.81534386400252, -44.8195940127664, -44.82997281720813, -44.84432551603459, -44.86111603059328, -44.87923302932627, -44.89785657750239, -44.916369064781506, -44.93429929300034, -44.951291994125626, -44.967097222004796, -44.98157524827528, -44.992085995303626])","array('d', [0.6456687450408933, 0.6589657466063986, 0.6709973721754362, 0.681884037958367, 0.6917346994004282, 0.6863884599732023, 0.6638470917313326, 0.6296638294024409, 0.5884764295885881, 0.5438891745163968, 0.4985538209681076, 0.4543264047533048, 0.4124267977544004, 0.3735709983350061, 0.3380699249946965, 0.3058983457434026])","array('d', [-0.02007042802870267, -0.010668259294073362, -0.004210811704745096, 0.000192508950043211, 0.0031581402632406288, 0.005112328627652907, 0.006349259658455987, 0.007071209573628056, 0.007416751871581656, 0.007481150040417788, 0.0073314719347779105, 0.007018061844462692, 0.006583453840369329, 0.006069388354234193, 0.005522225226346668, 0.004996716148470153])","array('d', [1.6166291544821596, 1.586647409249047, 1.5558716538137451, 1.5243637456620005, 1.492181660381504, 1.4598601385613368, 1.4284537949828442, 1.3988367896113072, 1.371479750375155, 1.3465536147161272, 1.3240371733843992, 1.303799758103704, 1.2856562630422745, 1.2694012315347412, 1.2548296050682628, 1.2384808908590093])",-128.72741105162567,-203.3888490166326,-44.82997281720813,0.6863884599732023,0.005112328627652907,1.4598601385613368,25.000000244034215,-1.0,"[-194.57533690764836, -186.84655226958247, 44.816022543285406]","[-207.49547940429835, -180.95326353388666, 49.64707478311681]","[-194.45001290849765, -174.72828489645693, 53.65524704369705]",10000000000.0,0.018042325973510742
15,-203.60733032226562,-137.9727325439453,44.89720916748047,0.6662067174911497,-0.00580073287710552,1.5873125913229327,23.27885231671007,"array('d', [-140.28134155273438, -137.78222694500545, -135.28241524866837, -132.78442453351968, -130.29087455822585, -127.80445830465987, -125.32765957636283, -122.86243004781763, -120.41006852120911, -117.97125912900862, -115.54618264216631, -113.13464566851087, -110.73619875852353, -108.35023261896143, -105.97605075204731, -104.08653139688684])","array('d', [-203.74415588378906, -203.8020073411384, -203.7831022831646, -203.68561340604597, -203.5079449252655, -203.24914358988042, -202.91054068515734, -202.49602385091737, -202.01111049538525, -201.46203087413372, -200.855105412254, -200.19637608324965, -199.49141634579604, -198.74525356432437, -197.96235854089764, -197.30662363921388])","array('d', [-44.878108978271484, -44.85419864612757, -44.84598319796024, -44.84842236434261, -44.85800149841142, -44.87225909148862, -44.88945900817858, -44.90836270188645, -44.928071054144255, -44.94791601722881, -44.96738896941777, -44.98609686737561, -45.00374001410116, -45.02010699699478, -45.03508323892261, -45.04595307292288])","array('d', [0.6513330340385433, 0.6640910078041478, 0.67563490085986, 0.686080248111549, 0.6955315893780156, 0.6894144390276634, 0.6662468995262969, 0.6315780247605227, 0.5900273063739498, 0.5451746563239944, 0.4996472368686029, 0.455279402786528, 0.4132734992060055, 0.3743324194947658, 0.3387582883342878, 0.3065212027156361])","array('d', [-0.013371893204748643, -0.005881661092776736, -0.000775890871746764, 0.002669745139654735, 0.004955452310197294, 0.006426150720514701, 0.0073189970527723965, 0.007796142290106979, 0.007967838458860569, 0.00790927553341089, 0.0076731821392221925, 0.00729950945497383, 0.006823072994790089, 0.00627967190193688, 0.005710881899261724, 0.005167419989504014])","array('d', [1.609033518531594, 1.5787154391584186, 1.5476294250685532, 1.5158357144168866, 1.4833907086505922, 1.4508442503880448, 1.4192630803561268, 1.3895130985613233, 1.3620549611082093, 1.3370506845556063, 1.314472184379726, 1.2941839331442055, 1.2759975793446956, 1.2597055865652256, 1.2451016002473745, 1.2287171845320908])",-127.80445830465987,-203.24914358988042,-44.87225909148862,0.6894144390276634,0.006426150720514701,1.4508442503880448,25.000000247857713,-1.0,"[-194.57533690764836, -186.84655226958247, 44.816022543285406]","[-207.49547940429835, -180.95326353388666, 49.64707478311681]","[-194.45001290849765, -174.72828489645693, 53.65524704369705]",10000000000.0,0.018703460693359375
16,-203.49134826660156,-136.59048461914062,44.921409606933594,0.6741600036621092,-0.016550567001104362,1.5728287597328907,23.29121122601993,"array('d', [-139.81785583496094, -137.31845777996182, -134.8187392326551, -132.32121772407, -129.82852754278753, -127.34337860378591, -124.86825738927368, -122.40510131067171, -119.95518371516452, -117.51915791844303, -115.09717261026006, -112.68900344279737, -110.2941723122279, -107.9120440113021, -105.54189890212146, -103.65576674169591])","array('d', [-203.72244262695312, -203.76989225710412, -203.74017564201645, -203.63151046786126, -203.44234375566364, -203.1717716907831, -202.821201470838, -202.39459209912263, -201.89751553412455, -201.33624024606146, -200.71711168500428, -200.0461872814729, -199.32904948604508, -198.57073052674767, -197.77570357172954, -197.11028452533262])","array('d', [-44.87954330444336, -44.86364795178419, -44.86115701277355, -44.867703544205035, -44.88024583685, -44.89665543541236, -44.91543151779277, -44.93550238911619, -44.956087677790364, -44.976604162159774, -44.99660398927161, -45.01573763633176, -45.03373632133242, -45.05041005224327, -45.065658220129, -45.07672403087992])","array('d', [0.6541629433631895, 0.6666516157798285, 0.6779518348211234, 0.6881766965438542, 0.697428529838221, 0.6908983674595409, 0.6674001597844379, 0.6324789051242028, 0.5907427973024539, 0.5457576437634127, 0.5001367963331261, 0.4557026585185629, 0.41364804025383406, 0.3746687801731243, 0.33906231750795907, 0.306796299704021])","array('d', [-0.009617915377020832, -0.0032054470849868875, 0.0011401998934888861, 0.004048516509541236, 0.005953580851239867, 0.007154164796843156, 0.007855148678517774, 0.008196034145755563, 0.008271129987685606, 0.008144356433862245, 0.007860412571649914, 0.0074534435292230835, 0.006953961237101269, 0.006394456097782127, 0.005813839754028809, 0.005260579908356358])","array('d', [1.6049566129830222, 1.574469448563973, 1.5432275283415648, 1.5112902626387976, 1.4787132494099675, 1.4460548724839228, 1.4143884600569523, 1.3845750118990747, 1.3570696333995877, 1.332029538863626, 1.3094230323960192, 1.2891120888777399, 1.2709067249448045, 1.2545983849471576, 1.239980099259463, 1.2235799239174288])",-127.34337860378591,-203.1717716907831,-44.89665543541236,0.6908983674595409,0.007154164796843156,1.4460548724839228,25.000000244120653,-1.0,"[-197.0728314532254, -180.94526108186685, 44.829385930732315]","[-209.46217509307053, -174.34608746253892, 50.11664152468605]","[-195.9540257494556, -168.86654778436645, 53.6528183056077]",10000000000.0,0.038042306900024414
17,-203.49134826660156,-136.59048461914062,44.921409606933594,0.6741600036621092,-0.016550567001104362,1.5728287597328907,23.29121122601993,"array('d', [-138.8939666748047, -136.3941995678629, -133.89486897809513, -131.3985121417675, -128.90780399187884, -126.4254944431507, -123.95407617088274, -121.49545578029051, -119.0508521182772, -116.62085293997386, -114.20553900364429, -111.80462063954882, -109.4175594309306, -107.04366572362606, -104.68217131920133, -102.80329280400557])","array('d', [-203.6705780029297, -203.69626446591568, -203.64392608101411, -203.51187415692254, -203.29864615662294, -203.00344352880282, -202.62783570551423, -202.1759334263109, -201.65342382623942, -201.06665546398062, -200.42202578392704, -199.7256239679348, -198.98305062380328, -198.19934751265038, -197.37899215984842, -196.69336021731928])","array('d', [-44.886268615722656, -44.88677270511063, -44.895961889774256, -44.9108645226781, -44.929416410907486, -44.95017582546265, -44.972126028286596, -44.994537826694014, -45.01687411556723, -45.03872513732793, -45.059767116043105, -45.079739274663844, -45.09843580225332, -45.115710286357036, -45.13149047844448, -45.1429396170015])","array('d', [0.6601093411445615, 0.6720321394812263, 0.6828203344330271, 0.6925818975513701, 0.7014145215386468, 0.6940052415449227, 0.669805171315337, 0.6343499098823377, 0.5922229253272208, 0.5469595475224678, 0.5011434808689568, 0.45657157903116663, 0.41441632675143125, 0.3753585586786379, 0.3396857694610722, 0.3073604224106282])","array('d', [-0.001928229467011956, 0.0022616064179387203, 0.0050433550525866505, 0.00684870652533945, 0.00797416601058493, 0.008622737165894841, 0.008932483433796313, 0.008996133473118293, 0.008875153394036358, 0.008610304681749637, 0.008229824164302126, 0.007755977397183954, 0.007210484063729472, 0.006619079080617804, 0.006015231882670409, 0.005442807058341443])","array('d', [1.5964307645943505, 1.5655859879339111, 1.5340144850909743, 1.501773884275093, 1.468918055937909, 1.4360238553166347, 1.4041786935043268, 1.3742328114465818, 1.3466293199380712, 1.321515148855261, 1.2988509175714613, 1.278493313667354, 1.2602489159399346, 1.243907032577771, 1.2292594128886847, 1.21282688498367])",-126.4254944431507,-203.00344352880282,-44.95017582546265,0.6940052415449227,0.008622737165894841,1.4360238553166347,25.000000244183802,-1.0,"[-197.0728314532254, -180.94526108186685, 44.829385930732315]","[-209.46217509307053, -174.34608746253892, 50.11664152468605]","[-195.9540257494556, -168.86654778436645, 53.6528183056077]",10000000000.0,0.01858353614807129
18,-203.4000701904297,-135.6691436767578,44.942840576171875,0.6786674857139587,-0.023053409531712497,1.562870484837566,23.29786629819648,"array('d', [-137.9727325439453, -135.47289307711233, -132.97425649918102, -130.47940821605323, -127.99107856787536, -125.51206427979618, -123.0448633116159, -120.59134653626073, -118.15267213442417, -115.7293561900221, -113.32140602680622, -110.92846190506224, -108.54992106816054, -106.18503601188112, -103.83298709046252, -101.96201417409637])","array('d', [-203.60733032226562, -203.6097539558188, -203.53327471325213, -203.37630051098367, -203.1374638056399, -202.81607825513584, -202.4138887669635, -201.93516807887136, -201.38572391683627, -200.77198689487372, -200.10040630790513, -199.37710180840546, -198.60769036383863, -197.7972213177599, -196.95017464677383, -196.24325460850199])","array('d', [-44.89720916748047, -44.91417034507024, -44.93503589971784, -44.95825865482696, -44.98276894430633, -45.00782142053499, -45.032888683950254, -45.057586711693446, -45.08162285951051, -45.104761231341385, -45.126802126562524, -45.14757333625291, -45.16693178308408, -45.184774388198974, -45.201057021786504, -45.21286806513997])","array('d', [0.6662067174911497, 0.6775492742501072, 0.6878124448618407, 0.6970989462626073, 0.7055017112790221, 0.6971424307924152, 0.6721918827391529, 0.6361724091631062, 0.5936381890796567, 0.5480898761158559, 0.5020781194425169, 0.4573716515163997, 0.41512079379531536, 0.37599014267098757, 0.3402565087841197, 0.30787684875277405])","array('d', [0.00580073287710552, 0.007736030657794472, 0.008936580149232971, 0.009630318382520589, 0.009972518662629463, 0.010068201405225534, 0.009987294865084586, 0.009774990251599301, 0.009459487370247207, 0.009058169113197498, 0.008582707147292982, 0.008043447755484951, 0.007453309243100151, 0.006831272937392685, 0.006205367484195834, 0.00561484888048079])","array('d', [1.5873125913229327, 1.5560978027111618, 1.5241855162227516, 1.4916314701179139, 1.4584877069611148, 1.4253518847761386, 1.39332678994366, 1.3632501259492351, 1.3355516247485621, 1.3103670309801814, 1.2876487642958132, 1.267247966078454, 1.248967672034839, 1.2325950345975456, 1.2179205456632949, 1.201458392944435])",-125.51206427979618,-202.81607825513584,-45.00782142053499,0.6971424307924152,0.010068201405225534,1.4253518847761386,25.000000244248923,-1.0,"[-197.0728314532254, -180.94526108186685, 44.829385930732315]","[-209.46217509307053, -174.34608746253892, 50.11664152468605]","[-195.9540257494556, -168.86654778436645, 53.6528183056077]",10000000000.0,0.013676166534423828
19,-203.3502960205078,-135.2086181640625,44.955081939697266,0.6806040406227107,-0.025837428867816908,1.557971596778605,23.30090758305773,"array('d', [-137.51199340820312, -135.01223863890635, -132.5140738599813, -130.0201169393186, -127.53312917371956, -125.05593111833483, -122.59102115107002, -120.14024921136132, -117.70474031560965, -115.28497242484397, -112.88091441860507, -110.49217026160866, -108.11810412044214, -105.75793891542692, -103.41082880823748, -101.54398182891592])","array('d', [-203.57147216796875, -203.5616843754654, -203.47258761615635, -203.3026362031973, -203.05050877168452, -202.71557478098254, -202.29966909058624, -201.80714578388182, -201.2438711184486, -200.616313954127, -199.93094645011342, -199.19390055178144, -198.41079875397196, -197.5866918762341, -196.7260591305192, -196.0083141377346])","array('d', [-44.90409469604492, -44.92893784628843, -44.95537780809326, -44.98255925940256, -45.009894275976535, -45.03697395180438, -45.063506697562644, -45.08927441290497, -45.114101685769015, -45.13783581165955, -45.16033634051425, -45.18147328267422, -45.201133415985446, -45.21923424780747, -45.23574497135936, -45.24772026061462])","array('d', [0.6690365076065061, 0.6801097745673744, 0.6901292817277633, 0.6991953074486319, 0.7073985865884609, 0.6985479917954391, 0.6732170368271096, 0.6369181938535012, 0.5941880615143025, 0.5485077090699131, 0.5024097067120148, 0.4576477283473087, 0.41536041308110005, 0.3762039104523312, 0.34044954786538395, 0.308051517761572])","array('d', [0.009507454931736003, 0.010353282681935009, 0.01079176627539016, 0.01095116395814484, 0.010917840735465785, 0.010749137695020748, 0.010481915069082574, 0.010138353406964088, 0.009730593558326575, 0.009264763344780453, 0.008744580477088378, 0.008174681823351362, 0.007563778124886506, 0.006927626239201248, 0.006291657939926702, 0.0056929279299663205])","array('d', [1.582515233257089, 1.5511275603956105, 1.5190561264339737, 1.4863557700359187, 1.4530776647880144, 1.4198309253623287, 1.3877264105533247, 1.3575946051466263, 1.3298580288712203, 1.3046466380531445, 1.281908747795272, 1.2614928113426656, 1.2432002085590352, 1.2268171311602403, 1.212133548312192, 1.1956613753191938])",-125.05593111833483,-202.71557478098254,-45.03697395180438,0.6985479917954391,0.010749137695020748,1.4198309253623287,25.0000002479275,-1.0,"[-197.87815013641537, -178.78131403263458, 44.83718061599294]","[-210.07367751385135, -171.9569898971539, 50.28674133958388]","[-196.42190480151484, -166.72680780214336, 53.64446334471404]",10000000000.0,0.01633930206298828
20,-203.29783630371094,-134.74822998046875,44.96794128417969,0.6823638081550597,-0.028350079432129815,1.5531080896642546,23.30291590835833,"array('d', [-137.05123901367188, -134.5516500418926, -132.05402990200335, -129.56103328346106, -127.07545376150674, -124.60013550948321, -122.13757608412942, -119.68960330421909, -117.2573082862957, -114.8411305643372, -112.4410005870862, -110.05648623766537, -107.6869189306088, -105.33149238588828, -102.98933496117203, -101.12662116397851])","array('d', [-203.53280639648438, -203.5108005891903, -203.409106132985, -203.22622180485754, -202.96087078126322, -202.6124769429807, -202.1829640976746, -201.676765866032, -201.09980468755657, -200.4585852932715, -199.75960057015175, -199.00899294302786, -198.21238893629797, -197.37483961965532, -196.50082243545324, -195.77241873300386])","array('d', [-44.91224670410156, -44.944691357512845, -44.97649551015861, -45.00747750569391, -45.037517608508395, -45.06653328623372, -45.09446129527511, -45.121243930969584, -45.14681892733704, -45.171113756385104, -45.19404500042685, -45.215523266387514, -45.23546401423331, -45.25380450989711, -45.27052671365917, -45.282654251975316])","array('d', [0.6716901063919065, 0.682510850258037, 0.6923018650522685, 0.7011611423098897, 0.7091773476014016, 0.6998392894515165, 0.6741346481100059, 0.6375646141263864, 0.5946471574187375, 0.5488431235663271, 0.5026666808039221, 0.4578563242352961, 0.4155390040236957, 0.37636247087783864, 0.34059263532109396, 0.30818098865727533])","array('d', [0.013085664249956639, 0.0128743126882809, 0.012574693854052379, 0.012217495715165042, 0.011821766359600012, 0.011398360196906617, 0.010951958600902745, 0.010482393092895795, 0.0099862377512716, 0.009458731306746139, 0.008895910216710743, 0.008296906597109854, 0.007666379396964591, 0.007016982104669336, 0.006371646257130514, 0.005765304358900949])","array('d', [1.5777097191337985, 1.54615924808785, 1.513937998488761, 1.4810999520496688, 1.4476954557562223, 1.4143453379509217, 1.3821685207736982, 1.3519879588211494, 1.3242188710389642, 1.298985469464773, 1.2762320634987117, 1.255804526716475, 1.2375026811547025, 1.2211118392242843, 1.2064215123469852, 1.1899419110832514])",-124.60013550948321,-202.6124769429807,-45.06653328623372,0.6998392894515165,0.011398360196906617,1.4143453379509217,25.000000247939507,-1.0,"[-197.87815013641537, -178.78131403263458, 44.83718061599294]","[-210.07367751385135, -171.9569898971539, 50.28674133958388]","[-196.42190480151484, -166.72680780214336, 53.64446334471404]",10000000000.0,0.0163116455078125
21,-203.2427520751953,-134.2907257080078,44.98256301879883,0.6840523481369015,-0.030680878087878168,1.5483371923354006,23.30301222596349,"array('d', [-136.59048461914062, -134.09114288330605, -131.59414652876188, -129.10219093480512, -126.61810303529646, -124.14475023732678, -121.68462766277709, -119.23953932656865, -116.81054119705253, -114.39803359640636, -112.00190812837279, -109.62169643804444, -107.2566971958632, -104.90607502703403, -102.56893264457631, -100.71039918478769])","array('d', [-203.49134826660156, -203.45695100661123, -203.34251321212153, -203.14657632193092, -202.86790650044998, -202.50598089561606, -202.062811999577, -201.54291165643303, -200.9522562731446, -200.29738398798997, -199.58480607184137, -198.8206733597005, -198.010614643902, -197.15967976802426, -196.27234317263003, -195.53333919313977])","array('d', [-44.921409606933594, -44.96120791106657, -44.99818972154878, -45.032831435557306, -45.065469777551556, -45.096339815239254, -45.125600107089355, -45.15334847397248, -45.17963217885451, -45.20445619020082, -45.22779214340567, -45.249589788677696, -45.269792213632165, -45.28835569615084, -45.30527446054247, -45.31754347296682])","array('d', [0.6741600036621092, 0.6847457058223869, 0.6943240460065726, 0.7029908871357465, 0.7108329669609714, 0.7010058392443452, 0.6749309375236445, 0.6380962737022351, 0.5949996574961565, 0.5490806625614787, 0.5028344171057603, 0.45798388870089823, 0.41564417449894403, 0.37645457275531663, 0.340675585881645, 0.30825604542618923])","array('d', [0.016550567001104362, 0.015310116170318647, 0.014293373606537261, 0.013435201148441612, 0.012688668237639365, 0.012019158514057361, 0.01139993938848684, 0.010809066975855933, 0.010227978123819176, 0.00964134363557451, 0.00903775913819834, 0.008411033189968976, 0.007761911455422358, 0.007100052297243762, 0.006445973990507895, 0.005832558683792407])","array('d', [1.5728287597328907, 1.5411261652687975, 1.5087649651766317, 1.475798331656945, 1.4422758317269657, 1.4088304620565355, 1.3765892976427796, 1.3463672997164586, 1.3185721971803162, 1.293322446400666, 1.2705584257031262, 1.250123531709696, 1.2318161306216346, 1.215420745377511, 1.2007265044841284, 1.184242598022869])",-124.14475023732678,-202.50598089561606,-45.096339815239254,0.7010058392443452,0.012019158514057361,1.4088304620565355,25.000000244353224,-1.0,"[-197.87815013641537, -178.78131403263458, 44.83718061599294]","[-210.07367751385135, -171.9569898971539, 50.28674133958388]","[-196.42190480151484, -166.72680780214336, 53.64446334471404]",10000000000.0,0.020297765731811523
22,-203.2427520751953,-134.2907257080078,44.98256301879883,0.6840523481369015,-0.030680878087878168,1.5483371923354006,23.30301222596349,"array('d', [-135.6691436767578, -133.17053686527873, -130.67502479027888, -128.18539417349157, -125.70454139193282, -123.23537920767455, -120.78039332136314, -118.3413354605783, -115.91918785835219, -113.51427024833588, -111.12639538107108, -108.75502195288117, -106.39938311131547, -104.05858551632588, -101.73168095611952, -99.88166795805435])","array('d', [-203.4000701904297, -203.34043821991116, -203.20012833822705, -202.97776355912652, -202.67219271533563, -202.28299710631143, -201.8123664532822, -201.2649661150899, -200.64687511171712, -199.96469237026133, -199.2249601537773, -198.4338409947892, -197.59696384480944, -196.7193724166241, -195.8055320686115, -195.04545180997235])","array('d', [-44.942840576171875, -44.996418203438026, -45.04306653965576, -45.084514150930275, -45.121963759886235, -45.15625123971062, -45.187953552508105, -45.21746110586262, -45.24502669214843, -45.2708003639789, -45.294856614057935, -45.317218196755846, -45.33787964491163, -45.35683257606183, -45.374093944568635, -45.3866094309159])","array('d', [0.6786674857139587, 0.6888242446119422, 0.6980144608452414, 0.7063301128594409, 0.7138544142065167, 0.7030422151964977, 0.6762330076105634, 0.6388835986800477, 0.595447561587341, 0.5493192333919829, 0.5029540038197977, 0.45804285711870923, 0.41567672552859014, 0.3764778290122881, 0.34069584713752726, 0.3082743785701198])","array('d', [0.023053409531712497, 0.01986517785860753, 0.01749520133712966, 0.015694451143218685, 0.014289791309226458, 0.013159902549072837, 0.012218335368862488, 0.011401876042625539, 0.010663360064718637, 0.009967550373750083, 0.009289065358375282, 0.008611738681275141, 0.007928997661320797, 0.007244904694286746, 0.0065754675227828775, 0.005949729273725475])","array('d', [1.562870484837566, 1.5308887738861876, 1.4982708977257648, 1.465068520839379, 1.4313297598699442, 1.397713152478406, 1.3653623346765544, 1.3350750756825214, 1.3072436177439668, 1.2819748518170468, 1.259201459885438, 1.2387621247791358, 1.220452543134315, 1.204055873989764, 1.189360660244051, 1.1728757065796371])",-123.23537920767455,-202.28299710631143,-45.15625123971062,0.7030422151964977,0.013159902549072837,1.397713152478406,25.000000244414885,-1.0,"[-197.87815013641537, -178.78131403263458, 44.83718061599294]","[-210.07367751385135, -171.9569898971539, 50.28674133958388]","[-196.42190480151484, -166.72680780214336, 53.64446334471404]",10000000000.0,0.019002914428710938
