,current_time,x_pos,y_pos,z_pos,roll,pitch,yaw,vel,x_traj,y_traj,z_traj,roll_traj,pitch_traj,yaw_traj,x_cmd,y_cmd,z_cmd,roll_cmd,pitch_cmd,yaw_cmd,vel_cmd,effector_dmg,effector_x,effector_y,effector_z,cost,time_solution
0,3.492302656173706,-253.95428466796875,-80.10388946533203,49.98186111450195,0.6305081844329833,0.03483254835009562,-0.22100798686477144,23.052799823836732,"array('d', [-79.18304443359375, -79.66964498188247, -80.20860952557628, -80.78528767989495, -81.38780707332118, -82.00612433044255, -82.63148778342186, -83.2561047552883, -83.87291991710285, -84.47546294359293, -85.05774178563772, -85.61416702195179, -86.13949805251353, -86.62880498505338, -87.0774419774494, -87.48262260612815])","array('d', [-257.5317077636719, -255.08049254301972, -252.63941309860047, -250.20685360578346, -247.78055375811988, -245.35822623740793, -242.93770596236237, -240.5169930937279, -238.0942823888138, -235.66798592246755, -233.23675092169, -230.79947393833913, -228.35531182780565, -225.90368977913806, -223.4443065044285, -220.97739793877406])","array('d', [-49.97379684448242, -49.90876485865877, -49.89143670331467, -49.893640916026186, -49.893946019210084, -49.894790475081734, -49.895487397815145, -49.896226278533405, -49.89695071392923, -49.897673894945044, -49.89838964146266, -49.89909762247654, -49.899796160807924, -49.90048430181522, -49.90116115533708, -49.89659824419984])","array('d', [0.6302071809768678, 0.49549463644166575, 0.37360167442592496, 0.26330835140817194, 0.16351081674231305, 0.07321026496939194, -0.008497060545011273, -0.08242891269450552, -0.14932522496279066, -0.20985551691305954, -0.26462559495219834, -0.31418361543242596, -0.359025570768171, -0.3996002534471539, -0.4363137470901033, -0.39012128859113787])","array('d', [-0.03621090203523629, -0.016155991652560726, 0.0019904430293427363, -0.0001906867043708301, 0.00042450660392611653, 0.00025390408997002443, 0.00030281811512129124, 0.00028852490144858344, 0.0002909824212043964, 0.00028761851045972815, 0.0002850220203549915, 0.0002814228342478586, 0.00027747371177617617, 0.000273111859886967, 0.00026844874878079487, -0.0038500788722779736])","array('d', [-0.18297235568496206, -0.20772115292997154, -0.22591302645115882, -0.23882411029136094, -0.2473010276380239, -0.25194056565962125, -0.2531846215342285, -0.2513743560005232, -0.24678295054992078, -0.23963634799454622, -0.23012685500750207, -0.2184223017165791, -0.20467232587614362, -0.18901273555736542, -0.1715685549762377, -0.15437766173344936])",-80.20860952557628,-252.63941309860047,-49.89143670331467,0.37360167442592496,0.0019904430293427363,-0.22591302645115882,25.000000249985984,-1.0,[],[],[],10000000000.0,0.05264592170715332
1,3.5493357181549072,-253.0699920654297,-80.3539047241211,49.98423385620117,0.6303557753562925,0.03489821404218669,-0.22958044608565797,23.04930728224756,"array('d', [-79.39945983886719, -79.90953735815373, -80.47186881725999, -81.07182330582046, -81.6975528802961, -82.33903715284836, -82.98754610763088, -83.63530696222242, -84.27528230210183, -84.90101754834815, -85.50653408286011, -86.08625347980608, -86.63494360521128, -87.14768043462657, -87.61982135172164, -88.04857795165158])","array('d', [-256.6385498046875, -254.1920921055434, -251.75628449527215, -249.32936130489625, -246.90894335322426, -244.49264768376506, -242.07822559858633, -239.66360284623943, -237.24690682192508, -234.82648784049042, -232.40093594325103, -229.96909434536056, -227.53006989722738, -225.08324074816818, -222.62826127904336, -220.16534087920041])","array('d', [-49.97467803955078, -49.91039989481657, -49.893754059916056, -49.8961795070515, -49.8964123530475, -49.897266937883906, -49.89795089800732, -49.898683319422496, -49.899399428045484, -49.90011474960913, -49.90082241341086, -49.90152226417617, -49.90221255698737, -49.9028923450364, -49.90356072865841, -49.898989752316794])","array('d', [0.6301400661468507, 0.49543390842665597, 0.37354672544063816, 0.26325863150569057, 0.16346582831004247, 0.07316955774879536, -0.008533893964744015, -0.08246224095395557, -0.14935538162178386, -0.2098828037890426, -0.2646502851409322, -0.31420595604123946, -0.35904578538918025, -0.3996185443955505, -0.4363302974359549, -0.3901359751361071])","array('d', [-0.035893924534320755, -0.015869178524152074, 0.002249962255849108, -0.0002676056910722878, 0.00044204411800791843, 0.0002449123098185346, 0.00030131488310436997, 0.00028489614874629374, 0.0002879399746746045, 0.00028437672049972057, 0.00028179735178905825, 0.000278144203958835, 0.0002741565682050572, 0.00026974742555998724, 0.0002650380350876911, -0.0038531264018759207])","array('d', [-0.19255952437850446, -0.2173048061132621, -0.23549391780877887, -0.24840272369199676, -0.25687769537902766, -0.261515528489273, -0.26275806183897293, -0.26094641739626895, -0.2563537500515117, -0.24920598388017798, -0.23969541205678332, -0.22798985477722244, -0.21423894232904472, -0.19857847703471887, -0.18113347856191836, -0.16394185508154185])",-80.47186881725999,-251.75628449527215,-49.893754059916056,0.37354672544063816,0.002249962255849108,-0.23549391780877887,25.000000249985828,-1.0,[],[],[],10000000000.0,0.05458259582519531
2,3.6067328453063965,-251.74266052246094,-80.7455062866211,49.987083435058594,0.6292648315429686,0.03501736372709267,-0.24266843398543825,23.051744325488826,"array('d', [-79.73958587646484, -80.2851905217907, -80.88293559260791, -81.5182107230665, -82.17919939063528, -82.85591186032946, -83.53964825294138, -84.22266416585332, -84.8979481546114, -85.55906871235052, -86.20006703739672, -86.81538098892834, -87.39979097769933, -87.94838163080962, -88.45651498803231, -88.92139879715364])","array('d', [-255.3031463623047, -252.86432526347585, -250.43695593711152, -248.01903898785713, -245.60801134344192, -243.2013441487864, -240.79666070677393, -238.39177266709262, -235.98470396581004, -233.57370990570436, -231.15729240309477, -228.73421233680997, -226.30349922846213, -223.8644583556505, -221.41667530215648, -218.96031786279667])","array('d', [-49.9780158996582, -49.91529516672038, -49.90005897128263, -49.902931187667555, -49.90299727801676, -49.90385710691888, -49.90449797468804, -49.90520091496758, -49.905883739755176, -49.90656692955517, -49.907242234666874, -49.90790992189125, -49.90856814966761, -49.90921602296613, -49.909852649677404, -49.90525172197696])","array('d', [0.6306142807006835, 0.4958629955380034, 0.3739349795497439, 0.2636099383831282, 0.16378370394674263, 0.07345718354520045, -0.008273639358213073, -0.08222675282645177, -0.14914230313326202, -0.2096900023822597, -0.2644758311981488, -0.3140481035720273, -0.35890295455612736, -0.39948930570348734, -0.43621335743528744, -0.39003220383738807])","array('d', [-0.03523906692862498, -0.015276638807604477, 0.002786114257923229, -0.0004346115291571542, 0.00047235382122372445, 0.00021972368277138406, 0.00029176867915246916, 0.0002709311576286813, 0.00027525651815053315, 0.0002713603195322505, 0.00026892440687468187, 0.0002652860683737383, 0.0002613616211184537, 0.0002570096183865038, 0.0002523691630875102, -0.00386444130602364])","array('d', [-0.20708744128676843, -0.23185756877311342, -0.2500661979587884, -0.26299110094393907, -0.27147982097806245, -0.276129700889265, -0.2773829920566058, -0.2755810905048633, -0.2709973391510879, -0.26385779450411045, -0.2543548451454723, -0.24265638146684962, -0.2289120865273643, -0.21325780327665686, -0.19581858352314577, -0.1786321192300304])",-80.88293559260791,-250.43695593711152,-49.90005897128263,0.3739349795497439,0.002786114257923229,-0.2500661979587884,25.000000249985582,-1.0,[],[],[],10000000000.0,0.05641508102416992
3,3.6600518226623535,-250.41162109375,-81.15766143798828,49.98880386352539,0.6172931790351865,0.03365715965628613,-0.25646154483291095,23.072888547626924,"array('d', [-80.10388946533203, -80.68338838872334, -81.31484716097022, -81.98368983217432, -82.67813991442551, -83.3882447581821, -84.10533917479749, -84.82171054152452, -85.53037603875984, -86.22492941675026, -86.89943359051799, -87.54834445040547, -88.16645663740817, -88.74886512283183, -89.29093835138302, -89.78988223225265])","array('d', [-253.95428466796875, -251.5232694339423, -249.10444586071876, -246.6955990049481, -244.29399551802064, -241.89696863550512, -239.50202112976834, -237.10685739451316, -234.70940427904054, -232.30782805092812, -229.90054814608044, -227.48624845869838, -225.06388626657434, -222.63269880909374, -220.19220746261772, -217.74254145814422])","array('d', [-49.98186111450195, -49.92010719478736, -49.9057460693614, -49.90888995028471, -49.90884308345301, -49.909697874466744, -49.9103033349994, -49.91097941415188, -49.91163298711735, -49.91228765340148, -49.91293430196302, -49.91357347001486, -49.914203260714096, -49.914822816886, -49.91543125684793, -49.91080374007514])","array('d', [0.6305081844329833, 0.4957669956563727, 0.3738481152568417, 0.26353134031349007, 0.16371258546589437, 0.07339283287676993, -0.008331866256180645, -0.08227943870727167, -0.14918997529399242, -0.20973313794106296, -0.2645148618694528, -0.31408341998729306, -0.35893491017353396, -0.39951822034612827, -0.43623952050132836, -0.39005542073782334])","array('d', [-0.03483254835009562, -0.014908805555080708, 0.003118943396010751, -0.0005427522029194069, 0.00048806269042856484, 0.00020056614431790515, 0.00028243652092050167, 0.0002588207601802033, 0.00026395201339986176, 0.0002598494535211842, 0.0002575084489280794, 0.0002538864157306185, 0.0002500107969897487, 0.00024570595400447696, 0.00024112247700778407, -0.003874486000870058])","array('d', [-0.22100798686477144, -0.24577255435510853, -0.26397681623399766, -0.27689811746273774, -0.28538376139755756, -0.29003094599566837, -0.2912818302938836, -0.28947774897889533, -0.2848920028860675, -0.2777506188856482, -0.2682459642076827, -0.25654591353489603, -0.24280013811711812, -0.22714447181265432, -0.2097039592375673, -0.19251634063353576])",-81.31484716097022,-249.10444586071876,-49.9057460693614,0.3738481152568417,0.003118943396010751,-0.26397681623399766,25.000000249985334,-1.0,[],[],[],10000000000.0,0.05154275894165039
4,3.702810049057007,-249.52769470214844,-81.4425277709961,49.990882873535156,0.5997812151908873,0.03089886717498287,-0.266272350153651,23.087315610947932,"array('d', [-80.48196411132812, -81.09269802194889, -81.75520987642585, -82.45495710683079, -83.18020181800574, -83.92102853454689, -84.66880634363561, -85.41585386157115, -86.15521633778187, -86.8805122953886, -87.58582600971597, -88.265631216243, -88.9147368014018, -89.52824831959573, -90.1015410986209, -90.63182003903081])","array('d', [-252.62863159179688, -250.20528111484361, -247.79477926031103, -245.3947274913627, -243.0022433395511, -240.61453259634237, -238.22898730820586, -235.84321337386342, -233.45504852370973, -231.06257730430528, -228.66414344727258, -226.25836017717407, -223.84411843734276, -221.42059297114974, -218.98724614917373, -216.54417175506424])","array('d', [-49.985416412353516, -49.92341450685762, -49.908828928234115, -49.91189177587519, -49.91185511777046, -49.91269485917631, -49.91329237855056, -49.91395852776274, -49.91460268557022, -49.91524769985592, -49.915884635530496, -49.91651394904962, -49.91713374452348, -49.9177431493699, -49.91834127861167, -49.91370393442157])","array('d', [0.630312442779541, 0.4955898812680212, 0.3736878555164654, 0.2633863312906491, 0.1635813758641788, 0.07327410950876355, -0.0084392916116982, -0.0823766411974215, -0.14927792775221238, -0.20981272062353812, -0.26458687126500896, -0.31414857678893926, -0.3589938664914938, -0.39957156623496387, -0.43628778987359734, -0.39009825448516955])","array('d', [-0.03493681922554953, -0.015003153753655043, 0.0030335736464471743, -0.0005239470887031171, 0.0004779076709022196, 0.00019854577463788566, 0.00027814190274063553, 0.00025516083791878117, 0.00026008329227723885, 0.0002559963157494411, 0.0002535923276412999, 0.00024991975379063096, 0.00024598230982520114, 0.00024161443216111605, 0.0002369664978432993, -0.0038781994064852])","array('d', [-0.23388259013625576, -0.2586369016272479, -0.27683310705182806, -0.2897477637620008, -0.29822773273043524, -0.3028699447424328, -0.30411638852809053, -0.3023082856439576, -0.2977188593087991, -0.29057408172526106, -0.2810662807402033, -0.26936330206028625, -0.2556147951519074, -0.23995657710305712, -0.2225136792622828, -0.20532393083668762])",-81.75520987642585,-247.79477926031103,-49.908828928234115,0.3736878555164654,0.0030335736464471743,-0.27683310705182806,25.00000024998509,-1.0,[],[],[],10000000000.0,0.040711402893066406
5,3.742830514907837,-248.64663696289062,-81.73583221435547,49.99515151977539,0.5754854679107666,0.02667477726936326,-0.27649359305831395,23.101218611645404,"array('d', [-80.7455062866211, -81.37743708044997, -82.06091559379891, -82.78144384450168, -83.52732467786794, -84.2886780843113, -85.05690390063151, -85.82434763133989, -86.58407804424634, -87.32973410106491, -88.05541761001994, -88.75561704031243, -89.42515328132342, -90.0591412085651, -90.6529628307394, -91.20382463232775])","array('d', [-251.74266052246094, -249.32475556176655, -246.92011548923193, -244.52622015601665, -242.14008889655304, -239.75884385459807, -237.37980474161708, -235.0005133885994, -232.61874979193033, -230.2325457617302, -227.8401963553205, -225.44026951675622, -223.0316138224124, -220.61336421660684, -218.18494559163696, -215.74642980651367])","array('d', [-49.987083435058594, -49.92488997226671, -49.9101310138552, -49.913135520144735, -49.913113892076, -49.91394833295406, -49.91454628563891, -49.9152112442308, -49.915854596647314, -49.91649857098673, -49.91713436412322, -49.91776235848942, -49.91838065182284, -49.9189883534871, -49.91958457129287, -49.9149453190654])","array('d', [0.6292648315429686, 0.4946419633357462, 0.37283014382441665, 0.26261024158748975, 0.1628791407973896, 0.07263870088650856, -0.009014233160950215, -0.08289686987151015, -0.14974865016512856, -0.2102386479148747, -0.26497226625055054, -0.31449729662429654, -0.35930940127581334, -0.3998570739413403, -0.43654612796042774, -0.3903274984901189])","array('d', [-0.03501736372709267, -0.015076033439253903, 0.00296762940218421, -0.0005060742808856515, 0.00047244812250769256, 0.0001996553150031742, 0.00027740973422700434, 0.0002549321117468266, 0.0002596707717200534, 0.00025557699274426167, 0.00025309885708016215, 0.0002493590240050065, 0.00024534264404381086, 0.00024089291759428241, 0.00023616027665477818, -0.0038789210508533727])","array('d', [-0.24266843398543825, -0.26736789667338157, -0.2855210054814728, -0.2984001121040464, -0.3068497144079398, -0.3114653156221816, -0.31268799430482175, -0.3108583673136273, -0.30624924294164946, -0.2990863011165892, -0.2895616591071411, -0.27784300767341724, -0.2640798797856953, -0.2484080028357291, -0.23095233720264638, -0.21375118959243936])",-82.06091559379891,-246.92011548923193,-49.9101310138552,0.37283014382441665,0.00296762940218421,-0.2855210054814728,25.000000249984915,-1.0,[],[],[],10000000000.0,0.038771629333496094
6,3.798565626144409,-247.76849365234375,-82.03780364990234,50.00326919555664,0.5465577840805051,0.02161620929837216,-0.2877045114848278,23.116558800441748,"array('d', [-81.01829528808594, -81.67153057322568, -82.37552060219113, -83.11592896536467, -83.88117546738137, -84.66146606996314, -85.44826788234333, -86.23398052423666, -87.01171725709723, -87.7751541611144, -88.51842428576597, -89.23604249116642, -89.92285193403684, -90.5739861620026, -91.18484265549634, -91.75264054215882])","array('d', [-250.85462951660156, -248.44236019451088, -246.0436372920078, -243.65581617930656, -241.27582463421606, -238.90071742676488, -236.5277570135758, -234.15443599559043, -231.77849130214162, -229.3979165887761, -227.01097276446578, -224.61619697024912, -222.2124098258486, -219.79872078171297, -217.37453139872756, -214.93990365073108])","array('d', [-49.988136291503906, -49.92715684623704, -49.91349669856027, -49.91685360419753, -49.91670888241829, -49.917553355798226, -49.91812376656651, -49.91877161340624, -49.91939481472089, -49.92001945019072, -49.920635666181845, -49.921244187017166, -49.92184305047297, -49.92243141937191, -49.92300841910056, -49.918351054761516])","array('d', [0.6232294440269468, 0.48918091838421635, 0.36788878556308413, 0.25813911533169737, 0.1588334980939084, 0.06897805165678947, -0.012326525858357371, -0.08589395651511646, -0.15246052655103667, -0.21269245536424658, -0.2671925632485856, -0.31650630460937834, -0.3611272270387973, -0.4015019108610815, -0.43803443809399933, -0.3916481101343593])","array('d', [-0.03450690582394594, -0.014614151988355965, 0.0033855567001496306, -0.0006329921568421611, 0.0004983418237452131, 0.00018250566519420982, 0.0002723245904511007, 0.00024638559604711635, 0.0002520804542745365, 0.0002477009801463949, 0.0002453116712451853, 0.00024156745788749364, 0.00023758966407256025, 0.00023317903283120184, 0.00022849882476366106, -0.003885762970980929])","array('d', [-0.25165085395308967, -0.27603567542108237, -0.2939412043492533, -0.3066158761635194, -0.3148907222298744, -0.3193530980797635, -0.32043888145628063, -0.31848523078912233, -0.31376257959764897, -0.30649493400800487, -0.29687320470135703, -0.28506419414595796, -0.27121676707690745, -0.25546613605028046, -0.23793685379960075, -0.22066998940895294])",-82.37552060219113,-246.0436372920078,-49.91349669856027,0.36788878556308413,0.0033855567001496306,-0.2939412043492533,25.000000249984723,-1.0,[],[],[],10000000000.0,0.05260968208312988
7,3.8578648567199707,-246.0076446533203,-82.67308044433594,50.03886032104492,0.4822593629360198,0.009669459424912824,-0.31040935119124863,23.146960020234907,"array('d', [-81.29906463623047, -81.97476639455434, -82.69956782774264, -83.45947639193538, -84.24314288627485, -85.04093579623557, -85.84444497460757, -86.6461657553125, -87.43928807822519, -88.21755082072048, -88.97513940968852, -89.70661306272216, -90.40685298489095, -91.0710257101763, -91.69455756918123, -92.27469711176587])","array('d', [-249.9693145751953, -247.56311856123554, -245.17057971210144, -242.78889254089003, -240.41490183605316, -238.04561591550132, -235.6782605082211, -233.31029930001742, -230.93944641940348, -228.56367765312592, -226.18124010480634, -223.79066050671696, -221.39075192824075, -218.98061867718823, -216.55965919116775, -214.12794343512437])","array('d', [-49.98973083496094, -49.93362421594226, -49.922840130049906, -49.92656572532661, -49.92623504429145, -49.927047982109094, -49.9275428994277, -49.92812729662015, -49.92868363976722, -49.92924264808453, -49.929793400595486, -49.9303371472249, -49.930871964634065, -49.93139716470879, -49.93191196267329, -49.92719625686096])","array('d', [0.6094956994056704, 0.4767541112354626, 0.3566445444496228, 0.24796490431319343, 0.14962749043144852, 0.06064811069850159, -0.019863768810212547, -0.09271393658458124, -0.15863150026716477, -0.21827618379415145, -0.2722449301218442, -0.3210778756201841, -0.36526375592357196, -0.4052447973167891, -0.4414211421245534, -0.3946526657557626])","array('d', [-0.0324580892920493, -0.012760305965981366, 0.0038557195675208962, -0.0007976126599076644, 0.0005112336504227582, 0.00014522240868589592, 0.0002489805525509134, 0.00021903672369821844, 0.00022592291775591644, 0.00022135985630101132, 0.00021927689948878504, 0.00021577875906662354, 0.00021213593678687552, 0.00020809158964842526, 0.00020381807154289659, -0.003907799655970158])","array('d', [-0.26133243640395626, -0.2850096457257375, -0.30235617324114894, -0.3145679613183149, -0.3224463125349178, -0.32656051868421104, -0.3273348898914641, -0.3250988731379346, -0.32011759620770147, -0.3126113193622025, -0.30276824896166044, -0.290753193608782, -0.27671351573634273, -0.2607832683825553, -0.2430860842794282, -0.22566938683783128])",-82.69956782774264,-245.17057971210144,-49.922840130049906,0.3566445444496228,0.0038557195675208962,-0.30235617324114894,25.0000002499845,-1.0,[],[],[],10000000000.0,0.05741119384765625
8,3.9032673835754395,-245.13302612304688,-83.00265502929688,50.06647872924805,0.4506870508193969,0.003531450638547416,-0.3209921558711192,23.157806382808637,"array('d', [-81.88572692871094, -82.60803399856866, -83.3740028578633, -84.17074610518867, -84.98762993975761, -85.81553023145027, -86.64641503006561, -87.47307177669876, -88.28892243219508, -89.08789485111731, -89.86433190909385, -90.61292681297398, -91.32867708783503, -92.00685215898946, -92.64297096844253, -93.23438619207211])","array('d', [-248.2071990966797, -245.81418599143686, -243.4344549743583, -241.06482741307752, -238.70205845040024, -236.34312320108359, -233.98523652037682, -231.62586528807535, -229.26273828408722, -226.893855311979, -224.51749536855164, -222.13222367131354, -219.73689723060258, -217.33066869373974, -214.9129882381385, -212.48399261873683])","array('d', [-49.99864196777344, -49.96212730340966, -49.95769416600549, -49.9593342534667, -49.959278526534796, -49.95970095418527, -49.95999036215974, -49.9603165904592, -49.96063028465624, -49.960943996861246, -49.96125295656377, -49.961557507823834, -49.961856713111814, -49.962150187255304, -49.962437533753295, -49.957508818622486])","array('d', [0.5614702105522155, 0.43329884796503, 0.31732459267016494, 0.2123867374449468, 0.11743503086779557, 0.031519166068063285, -0.04622073024727583, -0.11656270367892012, -0.18021075906293593, -0.23780190637484644, -0.2899125361275852, -0.3370641880696548, -0.3797287709151458, -0.4183332853210923, -0.45326409690343045, -0.40515311105331847])","array('d', [-0.024221343919634698, -0.005307389911197157, 0.0016448928548112773, -0.00030037170585796346, 0.0002466645067530302, 9.382724211667875e-05, 0.00013697927385641147, 0.00012421627606259744, 0.00012669768487968012, 0.0001243118773000225, 0.00012287977321893539, 0.0001207959945731299, 0.0001186047876890384, 0.00011621440169464629, 0.00011370466236249059, -0.003988255312458286])","array('d', [-0.28195516665908305, -0.3032427598367331, -0.3186791028732689, -0.3292957513756423, -0.3357992940518753, -0.3387007343258339, -0.3383866919387566, -0.33516129733455846, -0.3292721534901388, -0.32092708434491934, -0.3103052757024568, -0.2975648541818669, -0.2828481218962495, -0.26628520342343887, -0.24799659366287238, -0.23005270263092367])",-83.3740028578633,-243.4344549743583,-49.95769416600549,0.31732459267016494,0.0016448928548112773,-0.3186791028732689,25.00000024998396,-1.0,[],[],[],10000000000.0,0.04417586326599121
9,3.9489572048187256,-244.2621307373047,-83.33943176269531,50.101036071777344,0.4211402833461762,-0.0021644106600435037,-0.33081810077163193,23.167160390728583,"array('d', [-82.19351196289062, -82.94177160902048, -83.73039853253181, -84.54714098595507, -85.38177999321712, -86.22549061479748, -87.07046576214984, -87.90966749041878, -88.7366571134318, -89.5454765046165, -90.3305640137361, -91.08669457325068, -91.80893715169542, -92.49262488683874, -93.13333460211257, -93.72848579701513])","array('d', [-247.3268280029297, -244.94163212861602, -242.5693002133286, -240.206487988653, -237.84993121434675, -235.4966039829998, -233.14373003735383, -230.78879219079275, -228.42954102115124, -226.06400303711413, -223.69048810201707, -221.3075957851147, -218.9142203002481, -216.50955373684818, -214.09308735650768, -211.66500609444037])","array('d', [-50.00985336303711, -49.986141299202444, -49.98582865214693, -49.98605406631146, -49.98613044837269, -49.986249464887926, -49.98635678029113, -49.98646705035284, -49.98657561975996, -49.98668333147078, -49.98678953923211, -49.98689408611506, -49.98699673950045, -49.98709735148478, -49.98719580070107, -49.98209036935832])","array('d', [0.5309593677520751, 0.40569149324286125, 0.292344422841746, 0.18978374302782405, 0.09698299390688891, 0.013013396074442296, -0.06296544490388989, -0.13171394942704145, -0.19392017438757883, -0.2502066994637018, -0.30113685809419716, -0.3472203754972616, -0.38891847015699804, -0.42664846980988946, -0.4607879876562966, -0.41181884453938156])","array('d', [-0.018839495256543094, -0.00043769151206779445, 0.0001773143430512472, 5.876905090810409e-06, 5.4418965073546874e-05, 4.1017804246408725e-05, 4.477189182913306e-05, 4.346594252360902e-05, 4.339083526693023e-05, 4.278857937920937e-05, 4.218765350752339e-05, 4.146195808092375e-05, 4.067389587941275e-05, 3.982977246030684e-05, 3.894437008848861e-05, -0.004055002114217008])","array('d', [-0.2935547073695324, -0.3133860576840361, -0.3276415407306145, -0.33726191570447694, -0.3429003226544565, -0.34503434319590054, -0.34402872161985826, -0.34017275437131245, -0.33370369654109117, -0.3248219801623547, -0.3137013964302723, -0.3004960508644196, -0.28534517934479525, -0.2683765072191326, -0.24970859572523946, -0.23142709323558094])",-83.73039853253181,-242.5693002133286,-49.98582865214693,0.292344422841746,0.0001773143430512472,-0.3276415407306145,25.000000249983632,-1.0,[],[],[],10000000000.0,0.04351091384887695
10,4.008704423904419,-242.95919799804688,-83.85750579833984,50.16707992553711,0.3826035559177398,-0.00973855238407864,-0.3443793495509286,23.17751765061141,"array('d', [-82.51119995117188, -83.28458607209006, -84.09496268128608, -84.93069752806025, -85.78198216773569, -86.64029191928304, -87.49804700247819, -88.34838682184296, -89.18501485073928, -90.0020897731523, -90.79414820096183, -91.55604961216075, -92.28293731547382, -92.97021117663097, -93.6135090698348, -94.21032231469987])","array('d', [-246.44639587402344, -244.06912201843338, -241.7041316739964, -239.3479683988362, -236.99737240245636, -234.64933012263808, -232.3010852413901, -229.95014689861176, -227.59429734660532, -225.23159934007796, -222.86040287586317, -220.47935090498478, -218.08738364471472, -215.6837411876414, -213.26796418206294, -210.8402927926387])","array('d', [-50.02751922607422, -50.01628533088684, -50.019247262100194, -50.01823433992859, -50.01833154274136, -50.01811700512488, -50.01798970787188, -50.01783853987555, -50.017695439662816, -50.01755200959377, -50.01741115966297, -50.017272497094496, -50.0171364885232, -50.01700326809245, -50.016872997719496, -50.011553735364636])","array('d', [0.49852108955383284, 0.3763401226936624, 0.26578620209243653, 0.16575286896056984, 0.07523895789305633, -0.006661423112230679, -0.08076795910972226, -0.1478223318747788, -0.20849564289066064, -0.26339512994540276, -0.31307024456025784, -0.35801815107388707, -0.398688702415634, -0.4354889423422432, -0.46878717872911174, -0.41890090040180333])","array('d', [-0.012755722738802346, 0.0034973408684010085, -0.0010519028108847135, 0.00022034143583160443, -0.00013662428684006606, -3.667318826812317e-05, -6.46971182057484e-05, -5.637608905686874e-05, -5.807572670763625e-05, -5.669142042603037e-05, -5.600005647175873e-05, -5.494755507295902e-05, -5.387715729441281e-05, -5.271851475488287e-05, -5.1517812717632025e-05, -0.004135767066849483])","array('d', [-0.3048723181101939, -0.3232020205401261, -0.33622672971884515, -0.34480066248581004, -0.3495251891362917, -0.3508451269037775, -0.3491035755097947, -0.34457504634870895, -0.33748641868751067, -0.32803067368193795, -0.31637613760023864, -0.30267282109489246, -0.28705681924114984, -0.26965338322276244, -0.2505790649913881, -0.23193627250163157])",-84.09496268128608,-241.7041316739964,-50.019247262100194,0.26578620209243653,-0.0010519028108847135,-0.33622672971884515,25.000000249983295,-1.0,[],[],[],10000000000.0,0.058194875717163086
11,4.078226566314697,-241.65826416015625,-84.3895034790039,50.24868392944336,0.3517407476902007,-0.014549393206834923,-0.35634164412948094,23.184074750046868,"array('d', [-83.00265502929688, -83.81166427512564, -84.65288646151807, -85.51549805923635, -86.39025548701414, -87.26905035781814, -88.14462077703408, -89.01035612571819, -89.86016166841826, -90.6883630016596, -91.48963805183827, -92.25896866087116, -92.9916064103759, -93.68304895222835, -94.32902415612945, -94.92713075251108])","array('d', [-245.13302612304688, -242.76757833863707, -240.4133743753168, -238.0669146527753, -235.7249513313072, -233.384498696114, -231.04283870670906, -228.6975272518452, -226.34640056449325, -223.98758160508513, -221.61948588056936, -219.2408262558993, -216.85061636194874, -214.44817229401664, -212.03311238411112, -209.6057621677137])","array('d', [-50.06647872924805, -50.06307450716207, -50.063394759992356, -50.062665016672966, -50.06222331386073, -50.061698711231486, -50.06119790110302, -50.06069363398997, -50.06019592567368, -50.059704005725074, -50.059219832227065, -50.058744273126365, -50.05827820532759, -50.05782221457209, -50.057376736248386, -50.05176301920479])","array('d', [0.4506870508193969, 0.3330580906702961, 0.22662299644149497, 0.13031653186738387, 0.04317483122849475, -0.035674247323086626, -0.10701985043662976, -0.17157602759331586, -0.22998887754042313, -0.2828430146528719, -0.3306674199393623, -0.3739407352511843, -0.4130960536766274, -0.4485252540403593, -0.48058292242658884, -0.4293346689851027])","array('d', [-0.003531450638547416, 0.0007368660081926853, -0.0004606861742069536, -0.00012864755189084367, -0.0002231384008126994, -0.00019698007445167643, -0.00020355828926735302, -0.00019991615787827113, -0.0001982778244712668, -0.0001953076809272485, -0.0001920848787839298, -0.00018842347969388694, -0.0001844962714115102, -0.00018036524510895233, -0.00017608875259145863, -0.004246983506727254])","array('d', [-0.3209921558711192, -0.3371848840695456, -0.34843562622922913, -0.3554872277284067, -0.3588731417981228, -0.3589945721120844, -0.35616548048344093, -0.3506402952043297, -0.34263169567697305, -0.33232239752883835, -0.31987314805036154, -0.3054282389413296, -0.28911934372776343, -0.2710681985112414, -0.2513884712344224, -0.2322083695409665])",-84.65288646151807,-240.4133743753168,-50.063394759992356,0.22662299644149497,-0.0004606861742069536,-0.34843562622922913,25.000000249982772,-1.0,[],[],[],10000000000.0,0.0616302490234375
12,4.145851373672485,-239.93507385253906,-85.11315155029297,50.373497009277344,0.3192687630653381,-0.016563154757022948,-0.3697010715815683,23.189218173560775,"array('d', [-83.51026916503906, -84.35110150268285, -85.2199872961668, -86.10675820097016, -87.0026418802009, -87.89988285030088, -88.79149158586712, -89.6710737224735, -90.53271057897419, -91.37087453613987, -92.18036872658419, -92.9562841813126, -93.69396974456816, -94.38901145226181, -95.03721896493354, -95.6362898456637])","array('d', [-243.8280029296875, -241.47367634259138, -239.1295390355081, -236.79210056344127, -234.4581365985886, -232.12469353027842, -229.78909407407411, -227.44894184457704, -225.10212697256307, -222.7468316285899, -220.38153505670732, -218.00501757878604, -215.61636318197608, -213.21496038409106, -210.8005011743662, -208.3733917425731])","array('d', [-50.12105178833008, -50.124726522963805, -50.1224486049076, -50.121818161860276, -50.12071883164398, -50.11974798647631, -50.11874428971796, -50.11775804715439, -50.11677966667672, -50.115815753813784, -50.11486770203464, -50.11393775237854, -50.11302730242454, -50.1121374275611, -50.11126884229248, -50.105260146230016])","array('d', [0.4073682725429534, 0.29386163563158707, 0.19115657405540692, 0.09822518290160896, 0.014137375258668958, -0.06194842638919469, -0.13079371293737607, -0.19308750990386017, -0.24945327341562867, -0.30045512995566387, -0.34660352231975416, -0.3883603182889935, -0.42614343314403236, -0.4603310122605724, -0.49126521519055943, -0.43877299299980854])","array('d', [0.004926094319671537, -0.0018728792756015833, 1.8984268273697094e-05, -0.0005144401311323371, -0.0003674757212669243, -0.0004085157945292663, -0.0003946725584441008, -0.00039432726516971944, -0.0003884747605523246, -0.0003827510245012514, -0.00037580626188580033, -0.00036827904172978743, -0.00036021544711010956, -0.0003518244304275795, -0.00034318786658964586, -0.004396167657766037])","array('d', [-0.3354393680903572, -0.34976590629236615, -0.359446445294958, -0.36513723495171235, -0.3673178124896119, -0.36635420775074773, -0.3625365918977428, -0.35610283190431913, -0.34725379795193445, -0.33616360172589743, -0.3229865882014908, -0.307862176332689, -0.29091823514838094, -0.27227344206725723, -0.25203892427469504, -0.2323674145453219])",-85.2199872961668,-239.1295390355081,-50.1224486049076,0.19115657405540692,1.8984268273697094e-05,-0.359446445294958,25.000000249982264,-1.0,[],[],[],10000000000.0,0.07049298286437988
13,4.205488204956055,-238.64697265625,-85.66503143310547,50.47297286987305,0.2981736361980439,-0.015471050515771051,-0.3781365593287607,23.18944155960638,"array('d', [-84.21102905273438, -85.08980106444166, -85.99234045959048, -86.90911058127702, -87.83180805739117, -88.75303553642763, -89.66608328977095, -90.56478167433394, -91.44339671464911, -92.2965560608325, -93.11919616854749, -93.90652491174251, -94.65399554117622, -95.35728909042601, -96.01230308666021, -96.61684100377256])","array('d', [-242.0910186767578, -239.7506333622638, -237.41925034968054, -235.0934128526284, -232.76991905254098, -230.44584208240428, -228.11854161129415, -225.78566591633196, -223.44515686115983, -221.09525435951255, -218.73450051663715, -216.36174270042434, -213.97613519978503, -211.57713915820725, -209.16452059784086, -206.73877110900216])","array('d', [-50.220130920410156, -50.23049355217793, -50.225235546274035, -50.22431271581696, -50.222167887801064, -50.220363772875146, -50.218474411031664, -50.216628460588986, -50.21479811421492, -50.21299824779462, -50.21123045527477, -50.20949888466251, -50.2078058140534, -50.20615300091444, -50.2045415160993, -50.19783979750525])","array('d', [0.36129990220069885, 0.2521772465820281, 0.15343897567877463, 0.0640968854804876, -0.016743188059124215, -0.08989031810027277, -0.15607658437852004, -0.2159644000915177, -0.27015314154085035, -0.31918514688049276, -0.3635511440090974, -0.4036951619295556, -0.4400189747271704, -0.4728861226194688, -0.5026255498725269, -0.4487984600380351])","array('d', [0.013217052444815788, -0.004629099869881402, 0.0003397965766725612, -0.0010547964216712229, -0.000667526626543934, -0.0007739894144088858, -0.0007380989142333121, -0.0007386523273042944, -0.0007258386458533661, -0.0007142479561676728, -0.0007002201747685896, -0.0006852855512258723, -0.0006694354375288117, -0.0006530878667932368, -0.0006363788022016848, -0.004657921482309834])","array('d', [-0.3525978763911389, -0.36500092391992817, -0.37304323896829267, -0.3773015128728183, -0.3782048005184336, -0.37608571517177375, -0.37121156490629625, -0.36380415032698143, -0.3540527905274232, -0.3421231150144258, -0.3281631051446588, -0.3123072920114441, -0.2946796879578625, -0.2753958326021306, -0.2545642129775969, -0.23436490978499513])",-85.99234045959048,-237.41925034968054,-50.225235546274035,0.15343897567877463,0.0003397965766725612,-0.37304323896829267,25.000000249981618,-1.0,[],[],[],10000000000.0,0.05729484558105469
14,4.263037204742432,-237.35914611816406,-86.22390747070312,50.57292175292969,0.2784673571586608,-0.012238664552569545,-0.38503436645003747,23.192897310681495,"array('d', [-84.74948120117188, -85.65211200961232, -86.57608236860236, -87.51219930566101, -88.45241756192804, -89.38953986611445, -90.31701422061793, -91.22879880049514, -92.11926544927557, -92.9831313205215, -93.81541009509942, -94.61137756436156, -95.36654779571266, -96.07665719777128, -96.73765448291542, -97.34740466947916])","array('d', [-240.79519653320312, -238.46393552521357, -236.14096667456045, -233.8228480203874, -231.50638956910134, -229.18867720830144, -226.86708978872483, -224.53929926318608, -222.2032754289469, -219.8572897161822, -217.49991879869395, -215.1300470977752, -212.746867883108, -210.34988265080221, -207.9388986060669, -205.51445720190696])","array('d', [-50.3093376159668, -50.32182444117207, -50.314973828306165, -50.31348647157193, -50.31048952155882, -50.307916868959886, -50.30524351247214, -50.302629598698566, -50.300041792138586, -50.29749923174249, -50.295004458832146, -50.29256297433099, -50.29017780565686, -50.28785119044214, -50.28558442006542, -50.27827178288722])","array('d', [0.33461743593215937, 0.22803395050976824, 0.1315932160189891, 0.04433002292432239, -0.03462898655729483, -0.10607405929887084, -0.17072024030532051, -0.2292145291112043, -0.2821423551577312, -0.330033436956604, -0.3733670836809189, -0.41257699224250377, -0.4480555878632927, -0.48015795155908064, -0.5092053733986837, -0.45459910336782683])","array('d', [0.01622261852025998, -0.005864449767423125, 0.00028141853988782506, -0.0014425449855017015, -0.0009630151115820261, -0.001092939907363941, -0.001046520044985491, -0.001044642652610647, -0.0010259153530596096, -0.0010084250669523786, -0.0009877386630650319, -0.0009658149598656874, -0.0009427057574028654, -0.0009189824170474402, -0.0008948369098686395, -0.004888663170015145])","array('d', [-0.3633754690501352, -0.3746893511424815, -0.3817954145130487, -0.3852293992420087, -0.38539398977555495, -0.38260414361665324, -0.3771149788834173, -0.3691396648517625, -0.3588612726989702, -0.3464408132535843, -0.332022777928428, -0.3157389954089504, -0.29771132583445875, -0.2780535395295971, -0.256872618481459, -0.23636510310778083])",-86.57608236860236,-236.14096667456045,-50.314973828306165,0.1315932160189891,0.00028141853988782506,-0.3817954145130487,25.00000024998117,-1.0,[],[],[],10000000000.0,0.05655312538146973
15,4.305758476257324,-236.5032958984375,-86.5991439819336,50.63862228393555,0.2648996114730834,-0.009454566054046262,-0.38936643203231325,23.197663561878574,"array('d', [-85.29618835449219, -86.21936852724792, -87.16185872767528, -88.11475080973386, -89.07021063218751, -90.02120538330806, -90.96131341964718, -91.88459907677041, -92.78552247127288, -93.65887570739065, -94.49973735244131, -95.30344042773032, -96.06555036869696, -96.78185044219474, -97.44833273055596, -98.06291458327897])","array('d', [-239.50599670410156, -237.1827949079554, -234.8672802473988, -232.5560068406603, -230.2457945887654, -227.93374119613665, -225.617242682552, -223.2939918823067, -220.96198299733013, -218.619514829164, -216.26519394348972, -213.8979366939052, -211.5169698490327, -209.12182949846516, -206.71235807603762, -204.28914012978245])","array('d', [-50.40644836425781, -50.418483619294825, -50.4106667866873, -50.408348605091355, -50.40448364225291, -50.40105843353674, -50.397538274992485, -50.394090106832174, -50.390682209075955, -50.38733611672652, -50.38405592519068, -50.38084833645835, -50.37771714507887, -50.37466499926372, -50.37169334254682, -50.36372386512019])","array('d', [0.31204286217689514, 0.2076076296294887, 0.11311071489947709, 0.027606362817592163, -0.04976118135912421, -0.11976623661287975, -0.18310943579569736, -0.24042473778574597, -0.2922857723493081, -0.3392115812097283, -0.38167181278162327, -0.4200914225602894, -0.4548549262062488, -0.4863102478678924, -0.5147722018169698, -0.4595030469562415])","array('d', [0.01633653603494182, -0.006329958137488686, -2.8647040334671813e-05, -0.0017964089337778582, -0.0013037805909318929, -0.0014342113687252512, -0.0013827744397984286, -0.001375876014969295, -0.001350860318789371, -0.0013264220128927518, -0.0012982026969523429, -0.0012683666913795098, -0.001237108491210737, -0.00120514200776735, -0.0011727246873914504, -0.005136747669456423])","array('d', [-0.3726716478678843, -0.38307660760603096, -0.389396735442056, -0.3921357464080891, -0.3916755067690048, -0.3883169326076064, -0.3823053897609222, -0.3738471072597493, -0.3631201091181914, -0.35028165763685826, -0.33547339726799646, -0.31882493925779504, -0.3004563659292727, -0.28047997528870977, -0.2590014873286123, -0.238231736476446])",-87.16185872767528,-234.8672802473988,-50.4106667866873,0.11311071489947709,-2.8647040334671813e-05,-0.389396735442056,25.000000249980754,-1.0,[],[],[],10000000000.0,0.04109549522399902
16,4.346120119094849,-235.64927673339844,-86.9763412475586,50.702796936035156,0.25039777159690846,-0.006515434943139627,-0.39300052722426887,23.198312723719862,"array('d', [-85.66503143310547, -86.60023990222906, -87.55352462336634, -88.51614861965803, -89.48040340976615, -90.43935413781031, -91.38665704902108, -92.3164400737196, -93.22321635352212, -94.10182314372769, -94.94737822396908, -95.75524932243314, -96.52103314675809, -97.24054160873375, -97.90979341824671, -98.52673838086777])","array('d', [-238.64697265625, -236.32857576529162, -234.01748474630418, -231.7102480795453, -229.40369398945626, -227.09493030855955, -224.78136613302513, -222.4607094870783, -220.13097175428206, -217.79047060448175, -215.437832896687, -213.07199641866958, -210.69221022874572, -208.2980332754509, -205.8893311408685, -203.46671600578708])","array('d', [-50.47297286987305, -50.483869219033984, -50.47561405032955, -50.472657635536414, -50.46821147749999, -50.46419361671211, -50.460091867976736, -50.456069651209916, -50.452098599127766, -50.44820119791029, -50.44438273353357, -50.44065061925162, -50.4370091288975, -50.43346112736334, -50.43000810687403, -50.421590249090876])","array('d', [0.2981736361980439, 0.19505823386784943, 0.10175555101200352, 0.017331784713557993, -0.059058004924336806, -0.12817835120557303, -0.19072103253347086, -0.2473119959489718, -0.2985176218075917, -0.34485039229396236, -0.38677402050609455, -0.4247080914422565, -0.45903226133590624, -0.4900900573438187, -0.5181923151777729, -0.46251417009430607])","array('d', [0.015471050515771051, -0.006389091905488822, -0.0003163704124802384, -0.002020336682987217, -0.0015445290383894865, -0.0016677061067355739, -0.0016145805612267584, -0.0016033810386239034, -0.0015739528521065654, -0.001544461331056753, -0.0015108716701063363, -0.0014754123665365216, -0.001438398384864996, -0.0014006337562890254, -0.001362420951734416, -0.005306097460578884])","array('d', [-0.3781365593287607, -0.38798832531580063, -0.39382809995279194, -0.3961410297467574, -0.3952968280040459, -0.39158817011852, -0.38525467363231536, -0.37649846150387234, -0.36549456126340396, -0.3523980017613707, -0.3373487244598929, -0.32047500815912117, -0.3018958613796042, -0.28172268783218885, -0.2600604365624311, -0.23912889441441565])",-87.55352462336634,-234.01748474630418,-50.47561405032955,0.10175555101200352,-0.0003163704124802384,-0.39382809995279194,25.00000024998049,-1.0,[],[],[],10000000000.0,0.038530588150024414
17,4.399249076843262,-234.37118530273438,-87.54535675048828,50.795448303222656,0.22735305130481714,-0.0016007485101000708,-0.3970035751673838,23.205281995810555,"array('d', [-86.03705596923828, -86.98269524130096, -87.94524574743716, -88.91613046962215, -89.88775730329766, -90.85328172722195, -91.80643197675514, -92.74139481094328, -93.65273251394392, -94.5353242824878, -95.38432443631224, -96.19513317511475, -96.96337660697883, -97.6848937250206, -98.35572856857927, -98.97386226366459])","array('d', [-237.78782653808594, -235.47364476387887, -233.16639680948, -230.86262482502823, -228.5591677060941, -226.2531468210402, -223.94198705960696, -221.62341407920505, -219.29545856534588, -216.95645892592117, -214.60506395776608, -212.24023433122082, -209.86124266829063, -207.46767189534836, -205.05941172315815, -202.63710192682552])","array('d', [-50.5396728515625, -50.54852424906308, -50.54007902095094, -50.53641187713075, -50.531402224543804, -50.52678508883877, -50.52210270147752, -50.51750600587593, -50.51297243491221, -50.50852466986459, -50.50416932822219, -50.499914420413255, -50.49576465995592, -50.49172307109025, -50.48779114843734, -50.478927318460144])","array('d', [0.28496801853179926, 0.18310929579276844, 0.09094370375649125, 0.007548819872496322, -0.06790999837371416, -0.13618796682832865, -0.19796843310953272, -0.25386971576772377, -0.3044512926141059, -0.35021940015237357, -0.391632100154216, -0.4291038640859314, -0.46300972126552925, -0.4936890122433727, -0.521448784535354, -0.4653799554195434])","array('d', [0.01357277669012556, -0.006162303153627426, -0.0006852685452123844, -0.0022227987556473587, -0.0017921107211795026, -0.0018998033795069428, -0.0018469896999118915, -0.001830641536583829, -0.001796782030135786, -0.0017620118849076664, -0.0017229153646985593, -0.001681700045602326, -0.0016388250521098256, -0.001595175576897277, -0.001551099094554176, -0.005474537269957317])","array('d', [-0.38290505012008164, -0.39223352655128063, -0.39761753909816017, -0.3995252935173919, -0.39831536092893605, -0.3942728321362081, -0.38763201725841345, -0.37859123762796343, -0.36732273920291814, -0.3539794719283639, -0.33869978730344963, -0.3216107157756136, -0.3028302558517341, -0.2824689664736869, -0.26063106529673, -0.23954498628991003])",-87.94524574743716,-233.16639680948,-50.54007902095094,0.09094370375649125,-0.0006852685452123844,-0.39761753909816017,25.000000249980243,-1.0,[],[],[],10000000000.0,0.049744367599487305
18,4.453130006790161,-233.52496337890625,-87.92288208007812,50.854087829589844,0.21092312037944788,0.0015494760591535522,-0.3995340307566781,23.209775076272674,"array('d', [-86.5991439819336, -87.55879458575116, -88.53360690822917, -89.51523723794774, -90.49626424998252, -91.46997537212671, -92.43020435581708, -93.37122428405456, -94.28766973911256, -95.17448181470208, -96.02686898411976, -96.84027982326981, -97.61038451407859, -98.33306293214206, -99.00439764441518, -99.62241826438662])","array('d', [-236.5032958984375, -234.19485642639933, -231.8927598954715, -229.59354779876912, -227.29408051650253, -224.99150694855553, -222.68328187223065, -220.3671633687536, -218.04121669107076, -215.70381670887664, -213.35365023158027, -210.98971712982657, -208.61133002440445, -206.21811224119318, -203.80999389532158, -201.38765881670307])","array('d', [-50.63862228393555, -50.64329413807201, -50.63487521206147, -50.63005927105048, -50.62423331789255, -50.61871698372731, -50.613173208604536, -50.60772314177781, -50.60235582086088, -50.597093202011685, -50.59194398485764, -50.586916855834055, -50.58201706778703, -50.577247751523146, -50.57261029578325, -50.56308968441909])","array('d', [0.2648996114730834, 0.16495064852077715, 0.07451307875551923, -0.007318225776823652, -0.08136225879143529, -0.14836007651405506, -0.20898221440730066, -0.2638353981027565, -0.3134686157039511, -0.35837861223371226, -0.3990148612159154, -0.43578406314819135, -0.46905421588473845, -0.4991582976440517, -0.5263975990691361, -0.46973262275802136])","array('d', [0.009454566054046262, -0.0054681037697481005, -0.0013359865011051506, -0.0024973942739354485, -0.0021688531653152932, -0.002242981103201466, -0.0021928783987885067, -0.002167600163955623, -0.002126938148957213, -0.0020838783216135053, -0.0020362921062735315, -0.0019862486083279305, -0.0019344484301934502, -0.0018818837412409944, -0.0018289657196663782, -0.005722597149955938])","array('d', [-0.38936643203231325, -0.39790564051568655, -0.4025997526459362, -0.40389253824166377, -0.4021264017083322, -0.397575377643617, -0.390466009637948, -0.3809910371149419, -0.369318608556072, -0.3555986010120733, -0.33996700674936936, -0.3225489956588765, -0.30346105337853746, -0.2828124667080217, -0.2607063460119894, -0.23938450046159065])",-88.53360690822917,-231.8927598954715,-50.63487521206147,0.07451307875551923,-0.0013359865011051506,-0.4025997526459362,25.00000024997988,-1.0,[],[],[],10000000000.0,0.05305075645446777
19,4.512396335601807,-232.25633239746094,-88.49200439453125,50.93764877319336,0.18447764217853535,0.0064942655153571545,-0.4035966833445687,23.213984199695393,"array('d', [-86.9763412475586, -87.94371204220093, -88.92500042563498, -89.91201990934053, -90.89746628969355, -91.87471722182603, -92.83767872692773, -93.78068304500584, -94.69841442804008, -95.58585666895331, -96.43825583241464, -97.25109435559844, -98.02007358634823, -98.74110264861157, -99.41029202315427, -100.02570745586398])","array('d', [-235.64927673339844, -233.3440462985973, -231.0447011914253, -228.74779898225685, -226.4502237343656, -224.14915215773144, -221.84206768132165, -219.52675845674435, -217.20132093834584, -214.86416222551753, -212.5140021669029, -210.1498742451349, -207.77112499907574, -205.37741170061875, -202.96869815781363, -200.54570229720198])","array('d', [-50.702796936035156, -50.70451849075514, -50.69617539068596, -50.69059234939224, -50.684239152910315, -50.6781367876476, -50.672034435640626, -50.66603153989117, -50.660125143442905, -50.654336410801186, -50.648675299006634, -50.64315078578324, -50.63776835635798, -50.63253110153713, -50.627440249066524, -50.61749768041443])","array('d', [0.25039777159690846, 0.15182883998181856, 0.06263997432164839, -0.018061455910008014, -0.09108313628707328, -0.15715589100501848, -0.21694099720177368, -0.27103680322955886, -0.3199847171153865, -0.36427462514460074, -0.4043497947982026, -0.4406113111135114, -0.4734220908656855, -0.5031105147225219, -0.5299737132928377, -0.4728760687988361])","array('d', [0.006515434943139627, -0.004946966828043263, -0.0017803537807380722, -0.00267122162031682, -0.002415605189999117, -0.0024654601399346087, -0.00241723082618049, -0.0023856177099876056, -0.002340260446952595, -0.0022915424716067052, -0.0022382399814494603, -0.0021823072205021687, -0.0021246022378360535, -0.0020661792538530692, -0.002007484640259893, -0.005881966200912922])","array('d', [-0.39300052722426887, -0.4009735439602558, -0.4051709435945661, -0.4060197690187563, -0.40385129140307136, -0.39893189496385467, -0.3914827277945366, -0.3816926377365816, -0.369726906722659, -0.35573325412413254, -0.3398460087381219, -0.3221890223178848, -0.30287770293508326, -0.2820204261270927, -0.2597195046431143, -0.23822659254794554])",-88.92500042563498,-231.0447011914253,-50.69617539068596,0.06263997432164839,-0.0017803537807380722,-0.4051709435945661,25.00000024997965,-1.0,[],[],[],10000000000.0,0.05747342109680176
20,4.571911334991455,-230.9886016845703,-89.06405639648438,51.01604080200195,0.15721389651298515,0.010666040703654185,-0.4075875719401498,23.223454231977964,"array('d', [-87.54535675048828, -88.52090023547262, -89.50841439389164, -90.49994351769953, -91.48835919375337, -92.4671739738667, -93.43040218398744, -94.37246480840194, -95.28812087492167, -96.1724188105493, -97.02066203492612, -97.82838517654322, -98.59133820084506, -99.30547646711094, -99.9669551970445, -100.57389962353233])","array('d', [-234.37118530273438, -232.06939012084564, -229.77270940691602, -227.47775323922926, -225.1814563370501, -222.8810526159295, -220.5740826600624, -218.25839342272263, -215.93214130106466, -213.5937944333387, -211.2421344915618, -208.8762572242118, -206.49557147239884, -204.09979641526152, -201.68895693125148, -199.26382904894496])","array('d', [-50.795448303222656, -50.792321229117185, -50.78425171899824, -50.77751971771964, -50.77042372395321, -50.763479614191354, -50.75658121825438, -50.74979065456683, -50.74311780760369, -50.73658197318946, -50.7301947896136, -50.723965389825196, -50.717899406051686, -50.71199970128381, -50.70626713636724, -50.69572739558504])","array('d', [0.22735305130481714, 0.13097711288452352, 0.043772549704248716, -0.03513340923225654, -0.10653047985129688, -0.17113322673731698, -0.22958821472245503, -0.2824804799129394, -0.33033938491640097, -0.37364391687102577, -0.41282748130075164, -0.4482822397743341, -0.4803630347779808, -0.5093909410602507, -0.5356564785627698, -0.4778679194719552])","array('d', [0.0016007485101000708, -0.004008832613868511, -0.00247241772611462, -0.0029059574873284287, -0.0027730620562255465, -0.002782082364510366, -0.0027373869423203134, -0.0026957649711764845, -0.002643392561262799, -0.002586234386848971, -0.0025245470500738732, -0.0024600537651333918, -0.002393842503457223, -0.002327040043382826, -0.0022601320228252068, -0.0061075130937595125])","array('d', [-0.3970035751673838, -0.40408335295609144, -0.40749413842081367, -0.4076379006062414, -0.4048291160281879, -0.3993225696033022, -0.3913311940069885, -0.38103788870514543, -0.368603537261353, -0.35417253465320675, -0.3378766346514716, -0.3198376375127643, -0.3001692641310856, -0.27897845425206647, -0.25636625621181247, -0.234600283402265])",-89.50841439389164,-229.77270940691602,-50.78425171899824,0.043772549704248716,-0.00247241772611462,-0.40749413842081367,25.000000249979333,-1.0,[],[],[],10000000000.0,0.057179927825927734
21,4.630830526351929,-230.1437530517578,-89.44684600830078,51.065242767333984,0.1393050998449325,0.012883188202977089,-0.41009776195022085,23.22897623480225,"array('d', [-88.11224365234375, -89.09532164201124, -90.08827813981856, -91.08338983806557, -92.07371102803235, -93.05289504693748, -94.01506996059238, -94.95475042473545, -95.86677486770486, -96.74626079175124, -97.58857334218791, -98.38930372448515, -99.14425498820877, -99.84943332266593, -100.50104344508604, -101.09727707865689])","array('d', [-233.10182189941406, -230.80324075243732, -228.50890591252212, -226.21550440463722, -223.9200314122086, -221.6197882139099, -219.3123822227005, -216.99572889826462, -214.66805419569673, -212.3278968286754, -209.9741097067809, -207.6058600962004, -205.22262818264252, -202.82420383798114, -200.41068149340126, -197.9829020561873])","array('d', [-50.882469177246094, -50.87462690533872, -50.866839646798304, -50.85900771286123, -50.851209753819774, -50.84347000764439, -50.835822451776494, -50.82829257737517, -50.82090233442367, -50.813668840662764, -50.80660502462755, -50.799719867392774, -50.79301887997038, -50.78650448108917, -50.78017699202746, -50.76908383149554])","array('d', [0.20227141678333274, 0.10828230940818981, 0.023237440463730524, -0.05371434613967628, -0.12334320835026814, -0.1863460139605106, -0.24335331508152955, -0.2949356589091051, -0.3416092979413608, -0.3838413567977731, -0.4220545073505107, -0.4566311989577066, -0.48791748613322466, -0.5162264919388864, -0.5418415413344352, -0.4832961086298858])","array('d', [-0.0031855003908275786, -0.0030899218051821296, -0.0031390750655120384, -0.0031266888961852626, -0.003111934522859705, -0.003080398333245583, -0.0030383571723932327, -0.0029864178484732113, -0.0029267799441611768, -0.002861118446575035, -0.002791109730364617, -0.0027182386022291836, -0.0026437994950052842, -0.0025689737000678054, -0.002494269125453954, -0.006316535682437172])","array('d', [-0.4007728536936899, -0.40688850680412675, -0.4094462664204114, -0.40882277354636354, -0.4053154051443442, -0.39916706063122454, -0.39058220866587434, -0.37973758957391257, -0.3667895096015688, -0.35187888485346625, -0.3351347572777137, -0.31667675093063125, -0.2966167826324039, -0.2750602441636583, -0.2521068099307983, -0.2300419140876679])",-90.08827813981856,-228.50890591252212,-50.866839646798304,0.023237440463730524,-0.0031390750655120384,-0.4094462664204114,25.000000249979013,-1.0,[],[],[],10000000000.0,0.055459022521972656
22,4.683471202850342,-228.46026611328125,-90.20883178710938,51.15777587890625,0.10602744668722144,0.01649106293916691,-0.4156861742350718,23.238579930667484,"array('d', [-88.49200439453125, -89.48076736739566, -90.47793712520954, -91.47594592081028, -92.46797412135359, -93.44777269627396, -94.4095491628852, -95.34788397390999, -96.25767164506746, -97.13407872030028, -97.97251436620637, -98.76861028774981, -99.51820764123372, -100.21734917403805, -100.86227523828948, -101.45122549039095])","array('d', [-232.25633239746094, -229.9602052913531, -227.66769753957266, -225.37555796796357, -223.08082415548182, -220.78084509643674, -218.47327546800844, -216.15607932863182, -213.82753202580108, -211.48622242238773, -209.1310540527777, -206.76124499443299, -204.37632609401055, -201.97613738369844, -199.56082260098168, -197.13126863330692])","array('d', [-50.93764877319336, -50.92656722980472, -50.919012125048816, -50.91045532698751, -50.90220946978578, -50.89395797909979, -50.8858315220667, -50.87782999674394, -50.86998343390105, -50.862307219254255, -50.8548149700338, -50.84751539062019, -50.8404137656442, -50.83351209328449, -50.826810233280376, -50.815369008451164])","array('d', [0.18447764217853535, 0.09218183487922121, 0.00866912734212384, -0.06689630216385001, -0.1352707364842944, -0.19713848869848694, -0.25311875094225933, -0.30377179147974687, -0.3496045620462614, -0.39107577158230994, -0.4286004771381444, -0.4625542378954792, -0.49327687387819946, -0.5210758669479398, -0.5462294376968009, -0.4871438276734577])","array('d', [-0.0064942655153571545, -0.0024386598577891172, -0.003586288684122599, -0.003264530656554191, -0.003331057205789626, -0.003271146690246832, -0.003230704969026652, -0.003171513585230237, -0.0031068260505287674, -0.0030353476581732467, -0.002959722214846392, -0.0028812584880006163, -0.002801381584037146, -0.002721299197022099, -0.002641525952345065, -0.006447996848093956])","array('d', [-0.4035966833445687, -0.40903281265023567, -0.41098694338082153, -0.40981890190875636, -0.4058146349235935, -0.3992090522828597, -0.39020090541725916, -0.3789627553389373, -0.3656477877413227, -0.3503945346671398, -0.3333301685349106, -0.31457280291658846, -0.2942330931724165, -0.2724153405762166, -0.2492182448461112, -0.2269401767004761])",-90.47793712520954,-227.66769753957266,-50.919012125048816,0.00866912734212384,-0.003586288684122599,-0.41098694338082153,25.00000024997878,-1.0,[],[],[],10000000000.0,0.05266261100769043
23,4.723389625549316,-228.03924560546875,-90.4000015258789,51.17981719970703,0.09835116565227499,0.017049828544258953,-0.4169855554911751,23.24146549611112,"array('d', [-89.25533294677734, -90.25453767838052, -91.25917838913095, -92.26198401227617, -93.25638003206836, -94.23630881013624, -95.19613464603493, -96.13056873811274, -97.03461784601855, -97.90354738068908, -98.73285590628348, -99.51825795402475, -100.25567311809874, -100.94121982384097, -101.57121254215845, -102.14399129671013])","array('d', [-230.56614685058594, -228.2745851605082, -225.9853413077452, -223.69530205700704, -221.40159765009523, -219.10167922205716, -216.79330276762764, -214.47453621910856, -212.14376029116676, -209.79967057113024, -207.4412780726639, -205.0679084854501, -202.6791996903828, -200.27509744299266, -197.8558491604749, -195.42243717697912])","array('d', [-51.04098129272461, -51.02457269780334, -51.01721163335814, -51.00733718966423, -50.99821909873424, -50.98900130578158, -50.97996735373475, -50.97107658976206, -50.96237154907056, -50.953864572506966, -50.94556999477442, -50.93749568991667, -50.92964618102167, -50.92202240077222, -50.914623105245155, -50.90253369819487])","array('d', [0.14823813736438743, 0.05939097194194878, -0.021001275100882847, -0.0937431949343783, -0.1595628118215537, -0.21911886941647332, -0.273007423680183, -0.32176780839826546, -0.36588803300479666, -0.40580966673579133, -0.44193225799414315, -0.47461733315587706, -0.5041920148361118, -0.5309522958051484, -0.5551660008979564, -0.4949715244086198])","array('d', [-0.011822551488876232, -0.001477061422232905, -0.0043636466307394916, -0.0035495104179126217, -0.003741771144973395, -0.0036342731365134155, -0.003593582951268738, -0.003520266219105314, -0.003445035339562905, -0.0033619450897525646, -0.003275176676247049, -0.0031857698611443496, -0.003095355798660899, -0.0030051820723701202, -0.00291575476010907, -0.006692810809741386])","array('d', [-0.4088564356181283, -0.41291815445424307, -0.41364553795627873, -0.41136688812073574, -0.40634654368543116, -0.39880420709648323, -0.38892768151354745, -0.37688147790894305, -0.36281273417337784, -0.3468553297823272, -0.32913275950854715, -0.30976013873895974, -0.2888455947326028, -0.266491222256498, -0.24279373154932635, -0.22007861749477303])",-91.25917838913095,-225.9853413077452,-51.01721163335814,-0.021001275100882847,-0.0043636466307394916,-0.41364553795627873,25.000000249978303,-1.0,[],[],[],10000000000.0,0.03866696357727051
