,x_pos,y_pos,z_pos,roll,pitch,yaw,vel,x_traj,y_traj,z_traj,roll_traj,pitch_traj,yaw_traj,x_cmd,y_cmd,z_cmd,roll_cmd,pitch_cmd,yaw_cmd,vel_cmd,effector_dmg,effector_x,effector_y,effector_z,cost,time_solution
0,-211.3153533935547,-153.85548400878906,50.28003692626953,0.668980002403259,0.03983501717448238,1.7981109927084782,23.159924686018357,"array('d', [-156.56707763671875, -154.1394474207885, -151.69339355173796, -149.23181861182056, -146.7572090136634, -144.272104693336, -141.77920554355143, -139.2813535014357, -136.7815173596965, -134.28277715553415, -131.78830922337644, -129.301371673413, -126.82529041043044, -124.36344568777267, -121.91925924429704, -120.46961475501382])","array('d', [-210.78651428222656, -211.379057789823, -211.89448794724038, -212.3304818454188, -212.6850618374037, -212.95646476632797, -213.1431180615036, -213.24364220565153, -213.25685217543398, -213.1817583223137, -213.01756661435903, -212.76367829890796, -212.41968902497948, -211.98538746916202, -211.46075352874982, -211.0761626263819])","array('d', [-50.27503204345703, -50.205908249618616, -50.18487642439319, -50.18421803397987, -50.18219995425482, -50.18069487587911, -50.179140482907805, -50.17769382692056, -50.176299093517535, -50.17496495764616, -50.17368114062343, -50.17244322756616, -50.1712434369297, -50.17007457654077, -50.16886950231096, -50.16814756982048])","array('d', [0.6688339710235592, 0.6799265119300999, 0.68996345891073, 0.6990452649204714, 0.7072628235579502, 0.7146983787553802, 0.7214263478974906, 0.7275140666041302, 0.7330224626218202, 0.7380066655431312, 0.7425165583700181, 0.7465972760938596, 0.7502896544520026, 0.7536306183725634, 0.7566531761104737, 0.6846462435276897])","array('d', [-0.03793148323893543, -0.01771283804861875, 0.0005817498865068264, -0.001080728820462998, -0.0005427103577492926, -0.0006594056936194616, -0.0005853442438815676, -0.0005721998732484132, -0.000544056385407348, -0.0005235937099866256, -0.0005037903035475341, -0.00048682321802616797, -0.00047323598138057383, -0.00046203914187508115, -0.000501364254198487, -0.00046187107694088686])","array('d', [1.8258280316975453, 1.7944527574024565, 1.7623927351424322, 1.7297028684490199, 1.6964343934853687, 1.6626350148485143, 1.6283490518988484, 1.5936175935216519, 1.5584786590225368, 1.5229673628469682, 1.4871160809354673, 1.4509546167425258, 1.4145103652756115, 1.3778084744064554, 1.3408720162378802, 1.2834619131125176])",-151.69339355173796,-211.89448794724038,-50.18487642439319,0.68996345891073,0.0005817498865068264,1.7623927351424322,25.000000249947718,-1.0,[],[],[],10000000000.0,0.020318984985351562
1,-211.39625549316406,-153.40179443359375,50.28022384643555,0.6691552400588986,0.039948966354131726,1.7933984110739567,23.15741486058089,"array('d', [-156.11647033691406, -153.68620822760846, -151.23785456536532, -148.77433364868696, -146.2981479534775, -143.81184456871517, -141.31812947750146, -138.8198500724994, -136.31997976552353, -133.8216024170395, -131.32789736944085, -128.8421249269767, -126.36761237308434, -123.9077405266188, -121.46593088272124, -120.01802435430524])","array('d', [-210.87974548339844, -211.46127310426127, -211.96562457793922, -212.39048569626425, -212.73388737473968, -212.99407699802805, -213.16949332156995, -213.25876879912678, -213.26073097953235, -213.1744033140836, -212.99900533246554, -212.73395224045746, -212.37885397964976, -211.93351379289118, -211.39792635950658, -211.00684317372549])","array('d', [-50.276119232177734, -50.20593803817912, -50.183949095337674, -50.182992000039526, -50.18108555673682, -50.17956968257178, -50.17803876614142, -50.176603706280645, -50.17522265148125, -50.173900252299084, -50.172627588202225, -50.17139994741104, -50.17020971659356, -50.16904971050103, -50.16785221771683, -50.16713409047473])","array('d', [0.6687318086624142, 0.6798340715946418, 0.6898798154286832, 0.6989695811612597, 0.7071943420544208, 0.714636414122814, 0.7213702799740174, 0.7274633342438637, 0.732976558078521, 0.7379651293879773, 0.7424789748919441, 0.746563269133851, 0.7502588836167845, 0.7536027754889468, 0.7566279794027035, 0.6846234448708927])","array('d', [-0.03837612643837933, -0.01811516788858543, 0.00021770681817850896, -0.0009636753050077249, -0.0005680788169359869, -0.0006433646597953049, -0.0005823857978458659, -0.0005659365486208332, -0.000539350838710768, -0.000518909547350365, -0.000499544806588558, -0.0004828464187851563, -0.0004695599079180363, -0.00045862736845441474, -0.0004986984265840137, -0.0004594590072471949])","array('d', [1.8212925056603289, 1.7899234839296112, 1.7578692166636034, 1.7251846400873512, 1.691921021919603, 1.6581260970747698, 1.6238442139088038, 1.589116488916714, 1.5539809675844223, 1.5184727890846124, 1.482624352626761, 1.4464654834874906, 1.410023597075923, 1.3733238602881066, 1.3363893630283272, 1.2789820414662871])",-151.23785456536532,-211.96562457793922,-50.183949095337674,0.6898798154286832,0.00021770681817850896,1.7578692166636034,25.000000249948137,-1.0,[],[],[],10000000000.0,0.020673274993896484
2,-211.39625549316406,-153.40179443359375,50.28022384643555,0.6691552400588986,0.039948966354131726,1.7933984110739567,23.15741486058089,"array('d', [-155.66531372070312, -153.23244656496362, -150.78182278743103, -148.31638847198695, -145.838662589656, -143.3511996244775, -140.85671181034706, -138.35805212309867, -135.858198697658, -133.36023929870265, -130.8673563356509, -128.38281234492132, -125.90993600678215, -123.45210870486406, -121.01275167196412, -119.56663176823733])","array('d', [-210.97096252441406, -211.5413617274399, -212.03452045551848, -212.44813365113774, -212.78024110708893, -213.02910102100114, -213.19316375413288, -213.2710740125765, -213.2616721963501, -213.16399513286828, -212.97727618601107, -212.70094478814036, -212.3346254364112, -211.8781361971467, -211.33148678257635, -210.93384793489693])","array('d', [-50.27732849121094, -50.20608852779081, -50.183141219716795, -50.18188452712381, -50.180088690911994, -50.17856085796097, -50.17705245328441, -50.17562802228198, -50.17425975172866, -50.172948230743096, -50.17168590332925, -50.170467752668564, -50.169286331454245, -50.16813445782668, -50.16694385469189, -50.166229146918056])","array('d', [0.6686453223228452, 0.6797558155113564, 0.6898090063899115, 0.6989055104876147, 0.7071363685062019, 0.7145839574822591, 0.7213228152382608, 0.7274203863704517, 0.7329376972308205, 0.737929966632677, 0.7424471583049003, 0.7465344802726591, 0.7502328343115955, 0.7535792048160611, 0.7566066482616468, 0.6846041438824562])","array('d', [-0.03882135078310966, -0.01851802357065614, -0.0001468120643603985, -0.0008468638056138795, -0.0005940231623040296, -0.0006276817698491283, -0.0005798401265551264, -0.0005600351127768319, -0.0005349990254560353, -0.0005145587846770035, -0.0004956191305830837, -0.00047917573575677466, -0.00046617808886739937, -0.00045549898702754876, -0.0004963028629992937, -0.0004572914761276854])","array('d', [1.8167160610344748, 1.7853523317007922, 1.753302935722943, 1.7206228369879455, 1.687363329914735, 1.6535721750711625, 1.6192937453490401, 1.5845691806073678, 1.5494365484871844, 1.5139310090872664, 1.478084981309675, 1.4419283088997286, 1.4054884245337322, 1.3687905112109076, 1.3318576739249377, 1.2744527070991025])",-150.78182278743103,-212.03452045551848,-50.183141219716795,0.6898090063899115,-0.0001468120643603985,1.753302935722943,25.000000249948553,-1.0,[],[],[],10000000000.0,0.02100229263305664
3,-211.6257781982422,-152.04135131835938,50.27986145019531,0.6696351766586303,0.04048936441540712,1.7793459604170663,23.15433592551285,"array('d', [-154.76144409179688, -152.32343726723434, -149.86836216744177, -147.39920262505916, -144.91850750188638, -142.4288472594441, -139.93294777532319, -137.43367410184138, -134.93401462110705, -132.4370655759095, -129.9460160623431, -127.46413352048705, -124.9947497571993, -122.54124751825692, -120.10704765013838, -118.66466458643124])","array('d', [-211.14727783203125, -211.6950935375438, -212.16552223407004, -212.55628111078175, -212.86543041866202, -213.09125153688134, -213.2322195583323, -213.2870052071592, -213.25447607055506, -213.13369718409652, -212.92393100320734, -212.62463680107237, -212.23546953565994, -211.75627822984532, -211.18710392942026, -210.77611662334314])","array('d', [-50.279090881347656, -50.206341338614294, -50.18202759191418, -50.1803476752083, -50.178715045763184, -50.177173958167124, -50.17570139226183, -50.17429524169574, -50.17294799245454, -50.17165440935627, -50.170408950004855, -50.169206189303196, -50.16803895373671, -50.16690009784915, -50.16572065411282, -50.165011587695474])","array('d', [0.6685926914215087, 0.6797081930981571, 0.6897659158445842, 0.6988665205462556, 0.7071010889450262, 0.7145520352120825, 0.7212939307705918, 0.7273942506197649, 0.7329140486208526, 0.7379085684773379, 0.7424277964361574, 0.7465169608861789, 0.7502169819812328, 0.7535648604427391, 0.756593661627453, 0.6845923932275711])","array('d', [-0.03945615515112883, -0.019092418366621462, -0.0006665459637219987, -0.0006772095980299893, -0.0006296868126573143, -0.0006036182062558492, -0.0005749134272550826, -0.0005504157438783523, -0.0005277616066725249, -0.0005074438485607621, -0.0004892275482039097, -0.0004732476180774423, -0.00046074935637623163, -0.0004505062531720887, -0.0004923507179931781, -0.0004537155372077865])","array('d', [1.807445676126752, 1.7760851671183187, 1.7440387352524334, 1.7113613612429834, 1.6781043557511615, 1.6443154949507481, 1.6100391666600262, 1.5753165249519325, 1.5401856509463598, 1.5046817174735825, 1.4688371554171444, 1.432681819760013, 1.396243153687397, 1.359546350010562, 1.3226145230940363, 1.2652109898162662])",-149.86836216744177,-212.16552223407004,-50.18202759191418,0.6897659158445842,-0.0006665459637219987,1.7440387352524334,25.000000249949373,-1.0,[],[],[],10000000000.0,0.050333499908447266
4,-211.69805908203125,-151.58682250976562,50.27941131591797,0.6698864698410031,0.04038853198289867,1.77469086746243,23.155855245997724,"array('d', [-154.3087158203125, -151.86818784147013, -149.41093807279748, -146.93996935557988, -144.45784619600138, -141.96714879946575, -139.47061147421994, -136.97110671975196, -134.4716292895923, -131.9752807524296, -129.48525448408398, -127.00482117032607, -124.53731484154629, -122.08611945987157, -119.65465609747942, -118.21424704462179])","array('d', [-211.2323455810547, -211.7687372335624, -212.22764208850643, -212.606791203423, -212.90425742951322, -213.11833573382665, -213.24751552289126, -213.2904824365827, -213.24611951269145, -213.11350769605025, -212.89192573829342, -212.58084952652982, -212.17995088395878, -211.68909588657024, -211.10834276092402, -210.69048975213244])","array('d', [-50.279659271240234, -50.20632318402812, -50.181478505380724, -50.179636459669034, -50.17807060853921, -50.176526855757864, -50.175070710768836, -50.173673862361646, -50.17233682548514, -50.171052079430495, -50.1698148954616, -50.16861970054809, -50.16745944401421, -50.16632700859671, -50.16515320677313, -50.16444707322898])","array('d', [0.6687552928924559, 0.67985532100662, 0.6898990426934465, 0.698986978711338, 0.7072100840099192, 0.7146506580339932, 0.7213831683979484, 0.727474996170818, 0.7329871102220583, 0.7379746773507508, 0.7424876142160387, 0.7465710862352053, 0.75026595655835, 0.7536091741710261, 0.7566337545535419, 0.6846286703822305])","array('d', [-0.03970281034708023, -0.019315601236937974, -0.0008684901770204633, -0.0006094675286585063, -0.0006426597325809964, -0.0005931681764779403, -0.0005720993391611649, -0.0005458178610170161, -0.0005241727638788321, -0.0005039612826732218, -0.000486084149339302, -0.0004703345435073843, -0.00045807521837019634, -0.00044804053773487933, -0.0004902960457114665, -0.0004518564494756578])","array('d', [1.8027688870814187, 1.7713984281495057, 1.7393428380468028, 1.7066570454847458, 1.6733923109298763, 1.6395963623288703, 1.6053135413736506, 1.5705849582136489, 1.5354486523177462, 1.4999397571757036, 1.4640906666497533, 1.4279312010034682, 1.391488770965601, 1.35478853910179, 1.3178535917897478, 1.2604456326965763])",-149.41093807279748,-212.22764208850643,-50.181478505380724,0.6898990426934465,-0.0008684901770204633,1.7393428380468028,25.000000249949778,-1.0,[],[],[],10000000000.0,0.019713163375854492
5,-211.76817321777344,-151.13172912597656,50.2789192199707,0.6701532602310177,0.040033128112554564,1.7700381288912634,23.15963762736812,"array('d', [-153.85548400878906, -151.41248957335662, -148.95312283450502, -146.48040316441853, -143.99690899355735, -141.505230663299, -139.0081113634744, -136.50843140567804, -134.00919223979082, -131.51350103591233, -129.0245556821168, -126.54563030139182, -124.08006130148993, -121.63123397991855, -119.20256972168228, -117.76417338020649])","array('d', [-211.3153533935547, -211.84035252193613, -212.2877566710705, -212.65531227370658, -212.94110588453884, -213.14344668225607, -213.26083897022477, -213.29198386809742, -213.23578040352209, -213.09132594561407, -212.8579160325327, -212.53504363076058, -212.12239786929933, -211.61986229306024, -211.02751270065426, -210.60278312583804])","array('d', [-50.28003692626953, -50.20638645374925, -50.18125719682304, -50.179330862811, -50.17780468996569, -50.176262313828275, -50.174817605204204, -50.17342796430093, -50.172098348229135, -50.170820014559474, -50.1695887119656, -50.168398811895116, -50.16724335641893, -50.16611526771173, -50.16494532875737, -50.1642412482987])","array('d', [0.668980002403259, 0.680058646598596, 0.6900830193137648, 0.6991534476565006, 0.7073607113540337, 0.7147869513033542, 0.7215064916588002, 0.7275865836812682, 0.7330880787846948, 0.73806603748936, 0.7425702802875339, 0.7466458855751043, 0.7503336377369779, 0.7536704143303036, 0.7566891630960082, 0.6846788055170245])","array('d', [-0.03983501717448238, -0.019435226931757296, -0.0009767319821557445, -0.0005711020895559375, -0.000648544359352988, -0.0005863934181894019, -0.0005696528007014457, -0.0005425127187305874, -0.0005215302083447816, -0.0005014713829893697, -0.00048386444114174404, -0.000468315037081047, -0.00045625062670011547, -0.00044638494164386095, -0.000488857721547828, -0.0004505550425176484])","array('d', [1.7981109927084782, 1.7667267792786148, 1.7346585293648684, 1.701961099733276, 1.6686856814113642, 1.6348799356337795, 1.600588140291102, 1.5658513447827127, 1.5307075309743825, 1.4951917779515962, 1.4593364283825152, 1.4231712545222626, 1.3867236222219097, 1.3500186522251805, 1.3130793921651256, 1.2556653160911393])",-148.95312283450502,-212.2877566710705,-50.18125719682304,0.6900830193137648,-0.0009767319821557445,1.7346585293648684,25.000000249950176,-1.0,[],[],[],10000000000.0,0.025259017944335938
6,-211.9017333984375,-150.21974182128906,50.27771759033203,0.671070039272308,0.03823304921388634,1.7600085298207144,23.177145284566013,"array('d', [-153.40179443359375, -150.9563581813185, -148.49490601290938, -146.0204728289138, -143.53565015807905, -141.04303802138017, -138.54538807988177, -136.04558806989, -133.5466457790978, -131.05167364584125, -128.5638737615355, -126.08652339983996, -123.62296107998061, -121.1765731878532, -118.75078119145992, -117.31444263936389])","array('d', [-211.39625549316406, -211.90972103882265, -212.34549109944885, -212.7013273758495, -212.97532992574986, -213.16582185670399, -213.2713220963223, -213.29054698594487, -213.22241129823337, -213.06602859508266, -212.82071098275247, -212.48596830148568, -212.0615067929348, -211.54722728982642, -210.94322299327598, -210.51158574894643])","array('d', [-50.28022384643555, -50.20630240589129, -50.18092787096816, -50.17893062672911, -50.17744129375925, -50.175902132456166, -50.17446928215088, -50.17308765102841, -50.1717661088194, -50.17049485267815, -50.16927006318325, -50.16808607310791, -50.16693601605021, -50.16581285818739, -50.164647384186374, -50.16394571392266])","array('d', [0.6691552400588986, 0.6802172082008254, 0.6902264917975102, 0.6992832669399858, 0.7074781767098981, 0.714893238362168, 0.7216026641751071, 0.7276736041798825, 0.7331668181937188, 0.7381372838560945, 0.7426347466637475, 0.7467042171476299, 0.7503864182602704, 0.7537181718094764, 0.7567323718909233, 0.6847179019929288])","array('d', [-0.039948966354131726, -0.01953833242225872, -0.0010700256883013483, -0.0005366673551270239, -0.0006528607429119943, -0.0005796890154349363, -0.0005668061912712837, -0.0005389632280581496, -0.0005186101084557747, -0.0004987265359058447, -0.0004813942270479034, -0.0004660537689344285, -0.00045418981561172814, -0.0004444981734713859, -0.0004871692191800313, -0.00044902727057134165])","array('d', [1.7933984110739567, 1.7620034680581127, 1.729925342726661, 1.6972188356752809, 1.6639350837222402, 1.6301216960259235, 1.5958229006766043, 1.5610796996585505, 1.5259300298817362, 1.490408927975142, 1.4545486966581072, 1.418379070725023, 1.3819273810113728, 1.345218715633189, 1.3082760920307226, 1.2508572454058102])",-148.49490601290938,-212.34549109944885,-50.18092787096816,0.6902264917975102,-0.0010700256883013483,1.729925342726661,25.00000024995057,-1.0,[],[],[],10000000000.0,0.02414536476135254
7,-212.02615356445312,-149.3049774169922,50.27690887451172,0.6724534034729002,0.03463321924209597,1.7488880018380024,23.20418842271441,"array('d', [-152.495361328125, -150.04523903897274, -147.5798069278001, -145.1021328199764, -142.61483594481996, -140.1205352899905, -137.6219989595502, -135.1221290822162, -132.62394567767788, -130.13057130058405, -127.64521604981351, -125.1711631229958, -122.71175490653135, -120.27037962891318, -117.85045861134681, -116.41830558765398])","array('d', [-211.5513916015625, -212.04189175442397, -212.45450516533185, -212.78702335460724, -213.0375729208345, -213.2045046263275, -213.2863664362969, -213.28190490401607, -213.19006604254318, -213.0099955326725, -212.74103833437454, -212.38273773837665, -211.93483390122665, -211.39726190866733, -210.77014943308836, -210.32482182397837])","array('d', [-50.280147552490234, -50.20545638968719, -50.17938510561317, -50.17718415225632, -50.17579597144673, -50.174263639378424, -50.17286272093739, -50.17150265298044, -50.170203330237115, -50.1689518748099, -50.16774564164049, -50.166578806132456, -50.16544471797886, -50.16433642636924, -50.16318455361676, -50.16249023021347])","array('d', [0.6694849133491514, 0.6805155089565834, 0.6904964055075742, 0.6995274949865634, 0.7076991634048792, 0.715093195410538, 0.7217835928103089, 0.7278373151926004, 0.7333149500543668, 0.7382713191119021, 0.7427560267729904, 0.7468139558934841, 0.7504857138485875, 0.7538080175358622, 0.7568136595899424, 0.6847914532815051])","array('d', [-0.040272656828165006, -0.019831219700773176, -0.0013350410617440432, -0.00044064224624310424, -0.0006661406867174756, -0.0005614711296390465, -0.0005592998912331585, -0.0005292557138905959, -0.0005105151472095073, -0.000490975191846117, -0.0004742897185935586, -0.0004594266582106991, -0.00044803394068223477, -0.00043875417383640986, -0.0004820222590211862, -0.0004443702445671958])","array('d', [1.7840285013106205, 1.752613365040077, 1.7205166545517296, 1.6877930646151247, 1.654493629927339, 1.6206658615535703, 1.5863538937871262, 1.5515986393160588, 1.516437950393193, 1.4809067837034486, 1.4450373667497936, 1.408859363799972, 1.3724000397708238, 1.3356844213601105, 1.298735469197841, 1.2413076469075632])",-147.5798069278001,-212.45450516533185,-50.17938510561317,0.6904964055075742,-0.0013350410617440432,1.7205166545517296,25.00000024995133,-1.0,[],[],[],10000000000.0,0.023984432220458984
8,-212.19190979003906,-147.92813110351562,50.28092956542969,0.675401449203491,0.026634937152266485,1.7303811917689182,23.27020296446587,"array('d', [-151.58682250976562, -149.1322294637315, -146.6630407652068, -144.18235212501796, -141.69280661280752, -139.1970422988581, -136.6978440202677, -134.1981284663958, -131.70092801316935, -129.2093753940828, -126.7266887269988, -124.25615709665789, -121.80112667634205, -119.36498741758089, -116.95116034006814, -115.52332611788493])","array('d', [-211.69805908203125, -212.1656276175309, -212.55511250241577, -212.86433746750959, -213.0914573617073, -213.2348514714604, -213.29309758719978, -213.26497322153932, -213.14945632748234, -212.94572535779096, -212.65315873262125, -212.27133375336538, -211.80002500587332, -211.2392022982129, -210.58902819908673, -210.13004217651124])","array('d', [-50.27941131591797, -50.2044446086374, -50.1781239018651, -50.17586188157204, -50.17452804242545, -50.173012044002405, -50.171636089721076, -50.17029581054348, -50.169015593604584, -50.167781434340576, -50.16659125078924, -50.16543923462065, -50.16431889969748, -50.16322340199999, -50.16208353909682, -50.16139588297918])","array('d', [0.6698864698410031, 0.6808788523287681, 0.6908251722160792, 0.6998249754331175, 0.7079683348683226, 0.7153367518443375, 0.7220039718044152, 0.7280367223694209, 0.7334953811428442, 0.7384345799201265, 0.7429037512576344, 0.7469476225007569, 0.7506066602594553, 0.7539174537205232, 0.7569126732065158, 0.6848810434544322])","array('d', [-0.04038853198289867, -0.019936067885612786, -0.0014299116223565767, -0.0003969369961424219, -0.0006656516684650955, -0.0005490915871411162, -0.0005516295443217348, -0.0005211030806655326, -0.0005033663883861711, -0.00048427946111534226, -0.0004681366999959258, -0.00045371681110608074, -0.0004427343583782279, -0.000433812652352541, -0.0004773513851138156, -0.00044014398793628924])","array('d', [1.77469086746243, 1.7432511212123731, 1.7111317615229371, 1.6783873539917595, 1.6450688086843472, 1.61122351696756, 1.576895498694993, 1.5421255576209818, 1.5069514427370974, 1.4714080132274974, 1.4355274048705164, 1.3993391959369899, 1.3628705709726603, 1.3261464817944542, 1.2891898197238998, 1.2317510628421036])",-146.6630407652068,-212.55511250241577,-50.1781239018651,0.6908251722160792,-0.0014299116223565767,1.7111317615229371,25.00000024995206,-1.0,[],[],[],10000000000.0,0.0578305721282959
9,-212.24136352539062,-147.4674835205078,50.283851623535156,0.6766726970672604,0.023479448631405907,1.7237862209465837,23.298643464410457,"array('d', [-150.21974182128906, -147.75838608863032, -145.2836632534997, -142.79865509402316, -140.3060004366801, -137.808369992841, -135.30857927931714, -132.80957110070722, -130.3144002033096, -127.82621777100833, -125.34825657679586, -122.8838166157554, -120.43625130979297, -118.00895427971403, -115.60534672335437, -114.18470816326048])","array('d', [-211.9017333984375, -212.333149074794, -212.68608281260643, -212.95842955614705, -213.14840188110693, -213.25443015114752, -213.27514485996153, -213.2093778470753, -213.05616271813741, -212.8147346711089, -212.48452973432813, -212.06518346011822, -211.55652911985212, -210.95859544397393, -210.271603974416, -209.79080870238545])","array('d', [-50.27771759033203, -50.207876645027866, -50.186195683063694, -50.1854046729282, -50.183576275085514, -50.182151584050466, -50.18069160994821, -50.179320659138014, -50.17799407411258, -50.17671887125415, -50.17548659267202, -50.17429346058508, -50.17313256726617, -50.17199745587803, -50.170823030710885, -50.17011818376754])","array('d', [0.671070039272308, 0.6819497903340498, 0.6917941970833963, 0.700701785471417, 0.708761705471172, 0.7160546233167931, 0.7226535288319796, 0.7286244659243315, 0.7340271935470667, 0.7389157837154058, 0.7433391624691559, 0.7473415988173394, 0.7509631445615642, 0.7542400129899858, 0.7572045230538896, 0.6851451170094174])","array('d', [-0.03823304921388634, -0.017985706248163535, 0.0003348485939683111, -0.0009462848909570572, -0.0005234866269218767, -0.0006147438987956714, -0.0005542446852649916, -0.0005427084542351989, -0.0005189558461818664, -0.0005014977111703294, -0.0004846069562179489, -0.0004701400767583972, -0.0004587643726087782, -0.000449479649374721, -0.0004893946530616915, -0.0004510409418025756])","array('d', [1.7600085298207144, 1.7284961589751726, 1.6963099671047992, 1.6635041373377022, 1.630129210830252, 1.5962322247543732, 1.5618568604333691, 1.5270435994735807, 1.4918298855784755, 1.4562502897497023, 1.4203366767208516, 1.3841183706991484, 1.3476223188319663, 1.3108732517733643, 1.2738938558081256, 1.2164228578271774])",-145.2836632534997,-212.68608281260643,-50.186195683063694,0.6917941970833963,0.0003348485939683111,1.6963099671047992,25.000000249953167,-1.0,[],[],[],10000000000.0,0.028540372848510742
10,-212.3311767578125,-146.5430145263672,50.292537689208984,0.6799232363700863,0.016726817935705195,1.7106343964722495,23.362820087033548,"array('d', [-149.76272583007812, -147.29897814810957, -144.8223467630572, -142.33588669744424, -139.84222489803975, -137.34404619639108, -134.8441791766102, -132.34557751044963, -129.85130531986044, -127.36452153367544, -124.88846512296826, -122.42644075539364, -119.98180504344427, -117.5579533566251, -115.15830724225908, -113.74044444612976])","array('d', [-211.9650115966797, -212.38315440540586, -212.72263567429994, -212.98138328029478, -213.15763484745742, -213.24984178487188, -213.25665620683878, -213.17693210425875, -213.00972563537798, -212.75429486402743, -212.41009891312555, -211.97679657619705, -211.4542444361337, -210.84249453289655, -210.14179164846686, -209.6528717218391])","array('d', [-50.277191162109375, -50.21104739390513, -50.19271292854778, -50.19297152964286, -50.1907704112826, -50.189400003795015, -50.187867583448956, -50.18646413584914, -50.18509439604366, -50.18378069963252, -50.182509820792944, -50.181279402802325, -50.180082154182, -50.178911833339114, -50.17770609108612, -50.17698521791405])","array('d', [0.6717228889465329, 0.6825405132011454, 0.692328705285639, 0.7011854285368346, 0.7091993238533116, 0.7164505968394962, 0.7230118205239986, 0.7289486616824578, 0.7343205380246198, 0.7391812127949553, 0.7435793326434609, 0.7475589137686582, 0.7511597791857668, 0.7544179349511563, 0.7573655081554168, 0.6852907806352773])","array('d', [-0.03667839244008065, -0.016578994502130986, 0.0016076938712467756, -0.001351448516426393, -0.00042490306855286593, -0.000667378003389267, -0.0005603438808787027, -0.0005623802756254208, -0.0005338869383246402, -0.0005173461616496092, -0.0004996521157644598, -0.0004849279356596698, -0.0004730688220330403, -0.0004633500079961544, -0.0005006220555977862, -0.00046119967015193327])","array('d', [1.754631937542234, 1.7230794511569099, 1.690856347217657, 1.658016596764958, 1.6246105364625305, 1.5906850072180894, 1.556283502837694, 1.5214463265457614, 1.4862107530541109, 1.4506111938896609, 1.4146793638370498, 1.3784444465852594, 1.341933258011232, 1.3051704064980125, 1.268178464918966, 1.210689675892769])",-144.8223467630572,-212.72263567429994,-50.19271292854778,0.692328705285639,0.0016076938712467756,1.690856347217657,25.00000024995357,-1.0,[],[],[],10000000000.0,0.029895544052124023
11,-212.3311767578125,-146.5430145263672,50.292537689208984,0.6799232363700863,0.016726817935705195,1.7106343964722495,23.362820087033548,"array('d', [-148.846435546875, -146.37765764833205, -143.89710822185683, -141.40772396495862, -138.9121163532998, -136.4130023550393, -133.9132390680857, -131.41580431926513, -128.92378287982638, -126.44035070969562, -123.96876032838054, -121.51232653913239, -119.07441277471612, -116.65841800548742, -114.26776425870382, -112.85617421306542])","array('d', [-212.08438110351562, -212.47339724912504, -212.7833451409427, -213.01223362731886, -213.15835449433675, -213.220206718987, -213.19649127010072, -213.086112029922, -212.8881758569438, -212.60199212427685, -212.22707168873288, -211.76312532377395, -211.2100616719478, -210.56798475572563, -209.83719111596912, -209.33044642545732])","array('d', [-50.27751541137695, -50.222028332122306, -50.21013498384262, -50.21128923088107, -50.20867331057101, -50.207286850206316, -50.20562199960016, -50.204125481489825, -50.20265433449956, -50.20124525110603, -50.199880405548086, -50.19855876282239, -50.19727280823435, -50.19601666679523, -50.194735805541356, -50.193977178769686])","array('d', [0.6732594966888428, 0.683930893509165, 0.6935867735275678, 0.7023237758596262, 0.7102293431988526, 0.7173825969687395, 0.7238551291902025, 0.7297117189860235, 0.7350109808836077, 0.7398059513759719, 0.7441446195155595, 0.7480704064634806, 0.7516225967454084, 0.7548367086764903, 0.75774441804711, 0.6856336284298182])","array('d', [-0.032197605818510056, -0.012524610746233037, 0.0027549082881495692, -0.0017562546073362048, -0.0003597781817550583, -0.0007429973044575774, -0.0005914120114375244, -0.0006055664127966611, -0.0005719126475041527, -0.0005556258126914679, -0.0005365685896371353, -0.0005210052573847741, -0.0005079758061324087, -0.0004971185007020246, -0.0005270708773814215, -0.0004851309748422357])","array('d', [1.7428526739266257, 1.711205609389973, 1.6788954910271214, 1.6459757875170902, 1.6124963513675281, 1.5785035590170717, 1.5440404606930997, 1.509146937823992, 1.4738598656838278, 1.4382132789927444, 1.4022385383551745, 1.36596449565846, 1.329417656903187, 1.2926223419151779, 1.2556008559716618, 1.1980701732137133])",-143.89710822185683,-212.7833451409427,-50.21013498384262,0.6935867735275678,0.0027549082881495692,1.6788954910271214,25.000000249954436,-1.0,[],[],[],10000000000.0,0.025908470153808594
12,-212.4423828125,-145.1483917236328,50.31454849243164,0.6838526725769039,0.007052845321595622,1.6903952444579937,23.468643416737002,"array('d', [-147.92813110351562, -145.45441253254194, -142.9701046332388, -140.47799723637547, -137.9807139316505, -135.4810082180184, -132.9817694619267, -130.48600408232068, -127.99682101943186, -125.51741625515915, -123.05105823640216, -120.60107373410229, -118.17083430918815, -115.7637433515773, -113.38322372725297, -111.97866500121361])","array('d', [-212.19190979003906, -212.5499793645608, -212.82849010371854, -213.02554164240684, -213.13948532433835, -213.16887675620416, -213.11247455434088, -212.96924103861997, -212.73834212768668, -212.41914666209095, -212.01122517320405, -211.51434812920812, -210.92848371166968, -210.25379516317966, -209.49063777372598, -208.9647194399485])","array('d', [-50.28092956542969, -50.238673627326136, -50.230986940858024, -50.230738686720535, -50.22838741752626, -50.22677273945094, -50.22503197296006, -50.22341751138408, -50.22184490699264, -50.22033281563788, -50.218868753542125, -50.21744997112702, -50.21606975692972, -50.214722388170664, -50.21336296877794, -50.21256562827146])","array('d', [0.675401449203491, 0.6858690124676254, 0.6953404562406145, 0.7039105737414255, 0.7116651374270722, 0.7186817574283679, 0.725030658291796, 0.7307753817976554, 0.7359734228786428, 0.74067680497433, 0.7449326004821952, 0.748783401118924, 0.7522677408111857, 0.7554204581480548, 0.7582726026148882, 0.6861115439152741])","array('d', [-0.026634937152266485, -0.007491299553617109, 0.001196983054312046, -0.0013530468293384906, -0.0005415069381737898, -0.0007468107252560583, -0.0006474599356560324, -0.000644164378480612, -0.0006144154760972583, -0.0005955720159366845, -0.0005760041471633875, -0.0005593004852771456, -0.0005451076826925582, -0.0005329895229324407, -0.0005541923348008645, -0.0005096708927642818])","array('d', [1.7303811917689182, 1.6986019170876472, 1.6661701880524293, 1.6331387655553982, 1.5995568204840538, 1.5654700758634927, 1.5309209583489023, 1.495948756828057, 1.4605897858092372, 1.424877551340482, 1.3888429173812584, 1.3525142707973374, 1.3159176835043436, 1.279077071279583, 1.2420143647410862, 1.1844252392427526])",-142.9701046332388,-212.82849010371854,-50.230986940858024,0.6953404562406145,0.001196983054312046,1.6661701880524293,25.000000249955324,-1.0,[],[],[],10000000000.0,0.02709197998046875
13,-212.47427368164062,-144.66188049316406,50.32497787475586,0.6849146485328671,0.003827934619039264,1.6833711350944378,23.50753836053873,"array('d', [-147.4674835205078, -144.99132853876137, -142.50519673373395, -140.01181087261946, -137.51380654054483, -135.01395799766817, -132.51517238159477, -130.02047183105003, -127.53297852718372, -125.05589939315396, -122.59251154734831, -120.14614824402528, -117.72018541031936, -115.31802876247482, -112.94310152760275, -111.54240674132879])","array('d', [-212.24136352539062, -212.58302887543465, -212.84486421149163, -213.0250156059262, -213.12186690537078, -213.1340054120428, -213.06022194761636, -212.89951138266412, -212.65107243331758, -212.31430687257546, -211.888818192771, -211.37440975379596, -210.77108246769293, -210.07903206151468, -209.29864598488356, -208.76252227754827])","array('d', [-50.283851623535156, -50.24910176479021, -50.24379160036782, -50.24273780939861, -50.240531448429444, -50.23877989445831, -50.23698997740329, -50.23530234426461, -50.23366628152271, -50.23208998835538, -50.23056406382737, -50.22908474324429, -50.22764576120107, -50.226241459486644, -50.2248323467634, -50.22401011643208])","array('d', [0.6766726970672604, 0.6870192852065523, 0.696381266150008, 0.7048523375777808, 0.7125172806622687, 0.7194528085827582, 0.7257283342902775, 0.7314066652029391, 0.7365446317745395, 0.7411936561980333, 0.7454002668369887, 0.7492065631344275, 0.7526506335415304, 0.7557669132568765, 0.7585860804946897, 0.6863951870488145])","array('d', [-0.023479448631405907, -0.0046360952282115155, 0.0003055201364537153, -0.0011246941757816547, -0.0006483413417139231, -0.0007511862781073185, -0.0006819032530522135, -0.0006684281387184996, -0.0006408816652719973, -0.000620493062174902, -0.0006005788330671624, -0.0005831681361741799, -0.0005682661462333339, -0.0005553900736926422, -0.0005716292575298151, -0.0005254480891657954])","array('d', [1.7237862209465837, 1.6919282729870988, 1.6594241925747992, 1.6263263163311117, 1.5926834068492193, 1.55854079603081, 1.5239405375234187, 1.4889215659983372, 1.4535198609457618, 1.4177686127485987, 1.3816983889805141, 1.3453372991286625, 1.3087111562992046, 1.271843635466269, 1.2347564440258951, 1.177132608111503])",-142.50519673373395,-212.84486421149163,-50.24379160036782,0.696381266150008,0.0003055201364537153,1.6594241925747992,25.000000249955782,-1.0,[],[],[],10000000000.0,0.029166460037231445
14,-212.50088500976562,-144.18850708007812,50.33684539794922,0.6859155297279355,0.0007717707194388236,1.6766126538303234,23.547630364084196,"array('d', [-147.0057830810547, -144.52732989089668, -142.03949569210693, -139.54494663301077, -137.0463370248357, -134.5464650293142, -132.04825784913828, -129.55475537273327, -127.06909475903598, -124.5944953576103, -122.13424420284304, -119.69168205552167, -117.27019002746839, -114.87317679190338, -112.50406639562217, -111.10738244284256])","array('d', [-212.28781127929688, -212.6131496772532, -212.85834304872265, -213.02158553875796, -213.10129678568347, -213.0960994968082, -213.00482029952698, -212.8264900761434, -212.56034365249494, -212.2058188982626, -211.76255528175892, -211.23039192124526, -210.609365178769, -209.89970584037786, -209.10183594746456, -208.55534949293474])","array('d', [-50.28774642944336, -50.26102785607162, -50.25825285580623, -50.256329226347816, -50.25427350112422, -50.252369557003966, -50.25052212922348, -50.24875119756308, -50.24704252817286, -50.2453929623435, -50.24379643093676, -50.24224804801428, -50.240742015005026, -50.239272723954, -50.23780641785091, -50.23695526189307])","array('d', [0.6782822012901304, 0.6884756249838077, 0.6976990169931963, 0.706044687956321, 0.7135961639978334, 0.7204290226827211, 0.7266116494155317, 0.7322059218516022, 0.7372678291600424, 0.7418480323066599, 0.7459923708646534, 0.749742321022026, 0.7531354072363424, 0.7562055540672286, 0.7589829712132167, 0.6867543043254316])","array('d', [-0.02010331675410272, -0.0015812445466462331, -0.000654220782051104, -0.00088090143967782, -0.0007656023277944543, -0.000757685174312706, -0.0007208712986697186, -0.0006962842942279193, -0.0006710719036825416, -0.0006489498818924752, -0.0006286145516036228, -0.000610395779064517, -0.0005946926495748138, -0.0005809691839864022, -0.0005918935206728515, -0.0005437835036797752])","array('d', [1.7172407219794137, 1.6852829451070404, 1.6526870733741843, 1.619504901689668, 1.5857846716514923, 1.5515712163763034, 1.5169061141038616, 1.4818278482952691, 1.446371971906115, 1.410571273617715, 1.3744559440045614, 1.338053739876898, 1.3013901453982162, 1.2644885295884332, 1.2273703162551188, 1.1697025075447858])",-142.03949569210693,-212.85834304872265,-50.25825285580623,0.6976990169931963,-0.000654220782051104,1.6526870733741843,25.000000249956226,-1.0,[],[],[],10000000000.0,0.030635595321655273
15,-212.54443359375,-143.23971557617188,50.364601135253906,0.6876471042633053,-0.004781687166541817,1.663132877149854,23.62419381805601,"array('d', [-146.5430145263672, -144.0623772828235, -141.57294338328356, -139.07733676998762, -136.57823531085876, -134.07846167721604, -131.58096315243571, -129.08879734291904, -126.60511629448209, -124.13315165491615, -121.67620020868343, -119.23761002429526, -116.82076716942252, -114.42908301854318, -112.06598215810257, -110.67342983692672])","array('d', [-212.3311767578125, -212.64001587126197, -212.86839613809084, -213.0145575106663, -213.07695566972814, -213.0542495280213, -212.94530230604636, -212.7491816549038, -212.46515922801024, -212.0927096729076, -211.63150907780292, -211.0814329268038, -210.44255360354387, -209.71513748955877, -208.89964172015675, -208.34271218193456])","array('d', [-50.292537689208984, -50.27385155796508, -50.273605072341994, -50.270804136918244, -50.26889483835585, -50.26683274430647, -50.264922917855024, -50.263063644029764, -50.26127754415657, -50.2595499504648, -50.257878164932684, -50.25625615350261, -50.25467858011686, -50.253139873829674, -50.25161197748695, -50.250729385550414])","array('d', [0.6799232363700863, 0.6899604950629613, 0.699042583123428, 0.7072603969746505, 0.714696183106626, 0.7214243612228867, 0.7275122690514348, 0.7330208362703885, 0.7380051942830432, 0.7425152279152744, 0.7465960744561372, 0.7502885746285116, 0.75362967784633, 0.7566527880194766, 0.7593876369894526, 0.6871204566640441])","array('d', [-0.016726817935705195, 0.0014739379909485368, -0.0016195214830786193, -0.0006376076709638575, -0.000885692762733556, -0.0007659797006010741, -0.0007619488367427422, -0.0007260688947076804, -0.0007031927311695936, -0.0006792812103668821, -0.0006584940727530703, -0.0006394331244348998, -0.0006229014377440621, -0.0006083071218511012, -0.0006139164480385182, -0.0005637101831349626])","array('d', [1.7106343964722495, 1.6785745781506023, 1.6458848989206714, 1.6126165960638945, 1.578817375251515, 1.5445315568708915, 1.5098002307843057, 1.4746614172217618, 1.4391502314967854, 1.4032990503530127, 1.367137677954537, 1.3306935097993282, 1.2939916931987296, 1.257055283985469, 1.219905415785019, 1.1621927425114147])",-141.57294338328356,-212.86839613809084,-50.273605072341994,0.699042583123428,-0.0016195214830786193,1.6458848989206714,25.000000249956663,-1.0,[],[],[],10000000000.0,0.022752761840820312
16,-212.5751190185547,-142.28829956054688,50.39757537841797,0.6896318197250364,-0.01021349523216488,1.6496155271914341,23.699147817739544,"array('d', [-145.6143341064453, -143.12968535602744, -140.63736312949223, -138.1399757021713, -135.640247596687, -133.1410431645195, -130.64534581085172, -128.15624415161304, -125.67691617424231, -123.21061457241508, -120.76065242972405, -118.33038953410677, -115.92321926183548, -113.54255605785441, -111.19182350755955, -109.80773176001158])","array('d', [-212.40850830078125, -212.68382446961496, -212.87814836856126, -212.98979579836728, -213.01728996788802, -212.95935830860105, -212.81493326316973, -212.58315217400926, -212.2633566133109, -211.85509115660645, -211.35810162138515, -210.77233283069347, -210.09792593908364, -209.33521536774697, -208.48472540907406, -207.90709162811177])","array('d', [-50.305904388427734, -50.29559281767465, -50.29549079421042, -50.292485448495306, -50.29048284049954, -50.2882972033199, -50.28627683117581, -50.28430639866115, -50.2824125170705, -50.28057908380161, -50.278803720097216, -50.277080271343856, -50.27540380530961, -50.273769123183044, -50.272159055050686, -50.27123635920172])","array('d', [0.6826982498168941, 0.6924714312926233, 0.7013145723841021, 0.7093161780572295, 0.7165563309217581, 0.7231074927211562, 0.7290352295475657, 0.7343988680361361, 0.7392520890957627, 0.7436434650879477, 0.7476169457271326, 0.751212297148716, 0.7544654963323963, 0.7574090666009362, 0.7600719286683015, 0.6877396219043882])","array('d', [-0.010192885994911203, 0.0017444178111996132, -0.0017674516200031551, -0.0006553772474183893, -0.0009419290552270038, -0.0008088017240325207, -0.000807517573220522, -0.0007694634053865161, -0.0007460328650752713, -0.0007211293079416176, -0.0006995222104464658, -0.0006795697352044788, -0.0006618979803968008, -0.0006461111588816579, -0.0006420118152404054, -0.0005891313102586649])","array('d', [1.6972160647299626, 1.6649830986509275, 1.6321342857061978, 1.5987199078336183, 1.5647867534256348, 1.5303782661211502, 1.4955347014277822, 1.4602932888566649, 1.4246883972795308, 1.3887517013628763, 1.3525123471549592, 1.3159971151758343, 1.279230579728595, 1.2422352641865755, 1.205031809191534, 1.147243199901673])",-140.63736312949223,-212.87814836856126,-50.29549079421042,0.7013145723841021,-0.0017674516200031551,1.6321342857061978,25.000000249957516,-1.0,"[-212.6827401057501, -141.74612263834274, 50.37177363867099]","[-241.5685208329325, -110.12157629006751, 76.1690552793193]","[-191.78208957196097, -106.71013389025084, 79.27925190482208]",10000000000.0,0.03701138496398926
17,-212.58560180664062,-141.8116455078125,50.41615676879883,0.6907374858856198,-0.012785391882061929,1.6428242782738547,23.738648554337075,"array('d', [-144.66188049316406, -142.1736125824882, -139.67880681398844, -137.18008835766864, -134.68022352103748, -132.18211180204347, -129.68876796011753, -127.20330690821453, -124.728928331008, -122.268902040875, -119.82655382840063, -117.40525191125377, -115.00839396892414, -112.63939477338415, -110.30167440647926, -108.92642803044075])","array('d', [-212.47427368164062, -212.71499269741415, -212.8742852891819, -212.95053297828633, -212.9423224147296, -212.8484456448641, -212.66790052014977, -212.39989039027347, -212.0438232023056, -211.5993100512208, -211.06616321499706, -210.44439372523888, -209.73420851500853, -208.9360071885636, -208.0503784714885, -207.4519916833637])","array('d', [-50.32497787475586, -50.31998805966091, -50.31813216209158, -50.31548595332735, -50.3132127971589, -50.31095042422371, -50.308798093193374, -50.30671589227856, -50.30470719158461, -50.3027628337631, -50.300878173929526, -50.29904773472629, -50.29726671904834, -50.29553035350987, -50.293831930799975, -50.292865365104376])","array('d', [0.6849146485328671, 0.6944769119657709, 0.7031292065026529, 0.7109581270563863, 0.7180420279490838, 0.7244518071046664, 0.730251615612521, 0.7354994997597997, 0.7402479819474255, 0.7445445862725781, 0.7484323139325737, 0.7519500727814297, 0.7551330630776637, 0.7580131045871608, 0.7606184656934551, 0.6882341430486989])","array('d', [-0.003827934619039264, -0.00022404236555541852, -0.0012436665140724149, -0.0008793779420314105, -0.0009381665149314839, -0.0008728221368300152, -0.0008494330593814512, -0.0008168710477053186, -0.0007905291005387169, -0.0007653768871256644, -0.0007427289209387354, -0.0007219688772687727, -0.0007031575823104001, -0.0006862175422763731, -0.0006727454648300965, -0.0006169395908845382])","array('d', [1.6833711350944378, 1.6509993355641348, 1.618022964643423, 1.5844915298475015, 1.550451076827008, 1.515944340061775, 1.4810109008846841, 1.4456873505110834, 1.4100074558066125, 1.3740023256905496, 1.3377005763038896, 1.3011284933512834, 1.2643101903970901, 1.2272677629507134, 1.1900214559099211, 1.1321721341042135])",-139.67880681398844,-212.8742852891819,-50.31813216209158,0.7031292065026529,-0.0012436665140724149,1.618022964643423,25.000000249958354,-1.0,"[-212.69321928165053, -140.79303449167884, 50.41289535491118]","[-241.02356469727192, -108.82517552115044, 76.40226859614167]","[-191.18139573500397, -106.11185353006363, 79.29986706891472]",10000000000.0,0.022145748138427734
18,-212.58560180664062,-141.8116455078125,50.41615676879883,0.6907374858856198,-0.012785391882061929,1.6428242782738547,23.738648554337075,"array('d', [-144.18850708007812, -141.69865731288755, -139.2028199249241, -136.70363469161984, -134.2038879478871, -131.70649528351845, -129.21448574490339, -126.73098611224154, -124.25920575947947, -121.80242201473877, -119.36396609159503, -116.94720960079842, -114.55555165620365, -112.19240657616649, -109.86119216918458, -108.49035076674316])","array('d', [-212.50088500976562, -212.72470286858115, -212.86690083568965, -212.92589083991402, -212.90028987263892, -212.78892092069273, -212.59081316788297, -212.305201578297, -211.93152588873667, -211.46942905086598, -210.91875516921277, -210.2795469790575, -209.55204290881318, -208.7366737702788, -207.8340591343404, -207.22564929168612])","array('d', [-50.33684539794922, -50.33439259471387, -50.33167094210451, -50.329180507604676, -50.32675839426902, -50.32444201858146, -50.32220926932731, -50.320057046605946, -50.31797728376191, -50.315964197780225, -50.31401198936053, -50.312115479491226, -50.31026989842004, -50.30847064278849, -50.30671598541456, -50.305720534869664])","array('d', [0.6859155297279355, 0.6953825468041049, 0.7039486588656643, 0.7116995982838579, 0.7187129389207697, 0.725058872510779, 0.7308009111563996, 0.7359965229652745, 0.7406977071792734, 0.7449515145201945, 0.7488005178533729, 0.7522832374480325, 0.7554345228025526, 0.7582858759203339, 0.7608652695970411, 0.6884574577327452])","array('d', [-0.0007717707194388236, -0.0011836020118502974, -0.000996836114220214, -0.0009955335250265065, -0.0009430332368445093, -0.0009106084696001358, -0.000876165726954357, -0.0008461139688694415, -0.0008181627635271435, -0.0007927304417155692, -0.0007694252150441437, -0.0007481379256956843, -0.0007286521138709021, -0.0007110462053396076, -0.0006929811632820869, -0.0006352491574003037])","array('d', [1.6766126538303234, 1.6441780014331877, 1.6111438936849996, 1.5775594850161103, 1.5434704826823749, 1.5089192982959938, 1.4739452064552296, 1.4385845081479607, 1.402870696674222, 1.366834624005297, 1.3305046657336397, 1.293906883049985, 1.257065180556448, 1.220001459788566, 1.182735786336173, 1.1248590296965422])",-139.2028199249241,-212.86690083568965,-50.33167094210451,0.7039486588656643,-0.000996836114220214,1.6111438936849996,25.000000249958745,-1.0,"[-212.69354151452166, -140.3156571253541, 50.43533433413119]","[-240.7426321922295, -108.18484648267493, 76.52861928635629]","[-190.87635277694972, -105.81758918880558, 79.31254999344375]",10000000000.0,0.01904582977294922
19,-212.59780883789062,-140.37808227539062,50.479515075683594,0.6940258145332333,-0.020119184628129103,1.6224521035936215,23.849440197959435,"array('d', [-143.23971557617188, -140.7470712343905, -138.24953012497465, -135.74977086744116, -133.25061775634316, -130.75501557417857, -128.26601911585624, -125.78677629202112, -123.32051348143902, -120.87052088811123, -118.44013862471901, -116.03274333878997, -113.65173545003822, -111.30052698215086, -108.98252997401504, -107.62060305279117])","array('d', [-212.54443359375, -212.73453122975542, -212.84267485000265, -212.86733304085791, -212.8071808071936, -212.6611003756542, -212.42818100636381, -212.10771833123897, -211.6992131463322, -211.2023696392039, -210.61709313749134, -209.94348740436476, -209.18185153273652, -208.33267647855834, -207.396641288961, -206.76853097470934])","array('d', [-50.364601135253906, -50.36672206871343, -50.36237844316036, -50.36013523471222, -50.35740224284885, -50.354950927165795, -50.352535422704, -50.350220601057956, -50.34797712299506, -50.345805409123486, -50.343697444874, -50.34164854496159, -50.3396539215376, -50.33770921666731, -50.33582169258988, -50.33475636711886])","array('d', [0.6876471042633053, 0.6969493403777342, 0.7053663524458013, 0.7129823805985809, 0.7198736484632555, 0.7261091260309479, 0.7317512199248634, 0.7368563979730494, 0.741475754325744, 0.7456555207408961, 0.7494375290459839, 0.7528596289625114, 0.7559560631301881, 0.7587577836524027, 0.7612922488729978, 0.6888437998322604])","array('d', [0.004781687166541817, -0.002955857998517123, -0.0005590288838239524, -0.0012244377850645525, -0.0009662629949724051, -0.0009943217699339775, -0.0009390048770423647, -0.0009132817981658124, -0.0008820223451744699, -0.0008557866175968515, -0.0008309984807761039, -0.0008084969865963505, -0.0007875513225347948, -0.0007685300307403286, -0.0007419330579337065, -0.0006795415645860571])","array('d', [1.663132877149854, 1.6305892519554888, 1.5974550583714568, 1.563778834952152, 1.5296056990698972, 1.4949774998592869, 1.4599329778530352, 1.4245079289870701, 1.3887353707440075, 1.3526457083898773, 1.3162668995030775, 1.2796246152799664, 1.2427423974762537, 1.205641810926766, 1.168342610195148, 1.110418363242301])",-138.24953012497465,-212.84267485000265,-50.36237844316036,0.7053663524458013,-0.0005590288838239524,1.5974550583714568,25.000000249959495,-1.0,"[-212.69354151452166, -140.3156571253541, 50.43533433413119]","[-240.7426321922295, -108.18484648267493, 76.52861928635629]","[-190.87635277694972, -105.81758918880558, 79.31254999344375]",10000000000.0,0.033596038818359375
20,-212.5954132080078,-139.8991241455078,50.50308609008789,0.6950540542602538,-0.02227925881743431,1.6157078305867054,23.886031517247073,"array('d', [-142.7643280029297, -140.2704647037276, -137.77224639000212, -135.27237699580456, -132.77370079357337, -130.27917744432236, -127.79187482065473, -125.31495151009088, -122.85164244142143, -120.40524424091191, -117.97910139932101, -115.57659296035392, -113.20111982919025, -110.85609267448184, -108.54492040688991, -107.18758247094773])","array('d', [-212.56138610839844, -212.7346130212133, -212.82571256605388, -212.8331824784508, -212.75572800539322, -212.59226214942976, -212.3419053100882, -212.00398448475215, -211.5780319666201, -211.0637834639303, -210.46117575556926, -209.77034389655032, -208.99161802982852, -208.12551984290033, -207.17275872392446, -206.53479275462936])","array('d', [-50.380455017089844, -50.38476137843343, -50.379617642232326, -50.37747930082016, -50.37458062818905, -50.3720497803301, -50.36953175968915, -50.36712464360056, -50.3647886307913, -50.362527163160216, -50.36033110800147, -50.35819599806554, -50.356117008056536, -50.35408987177845, -50.35212614649331, -50.35102023877057])","array('d', [0.6885924339294431, 0.6978047101095088, 0.7061403230554548, 0.7136826982300454, 0.7205073221180075, 0.7266824977162838, 0.7322700281266328, 0.7373258350880257, 0.7419005186282328, 0.7460398634031049, 0.7497852966808678, 0.7531743021075806, 0.7562407910204573, 0.7590154153335867, 0.7615253528532716, 0.6890547184474266])","array('d', [0.007453677710145683, -0.0038204921092951944, -0.00035235720727476184, -0.0013418101381196055, -0.0009831122703995315, -0.0010406072125022368, -0.000974905653930986, -0.0009511832325421474, -0.0009181778635705567, -0.0008914424697618712, -0.0008658291471814956, -0.0008426457381898242, -0.0008209090564751239, -0.0008011300829282617, -0.0007703635463205954, -0.0007052658931018862])","array('d', [1.656396918990884, 1.6237936757770304, 1.5906047352451722, 1.5568782970074937, 1.5226591539991088, 1.4879888461744275, 1.4529058206688883, 1.4174455961072363, 1.381640928841998, 1.3455219790983861, 1.3091164752497015, 1.272449874734264, 1.2355455205006953, 1.1984247929616993, 1.161107276358884, 1.1031570881535202])",-137.77224639000212,-212.82571256605388,-50.379617642232326,0.7061403230554548,-0.00035235720727476184,1.5906047352451722,25.000000249959857,-1.0,"[-212.68456620484534, -139.35930404909067, 50.483888798235334]","[-240.1661934040061, -106.91117737731753, 76.78748630844129]","[-190.2594501184866, -105.2330042076438, 79.33713519521811]",10000000000.0,0.021390199661254883
21,-212.58895874023438,-139.41546630859375,50.52788543701172,0.6959237456321714,-0.024081105366349286,1.6090879487481455,23.925261483998316,"array('d', [-142.28829956054688, -139.79332900935455, -137.294546437969, -134.79468574136817, -132.29661240343566, -129.80330150002573, -127.31783444703935, -124.84338085614064, -122.38318446965201, -119.94054851480881, -117.5188219629195, -115.12138628551409, -112.75164284015352, -110.41300084823096, -108.10886594582047, -106.75625121123254])","array('d', [-212.5751190185547, -212.73134605566707, -212.80526167021182, -212.79539402709344, -212.70048009518712, -212.51946505960333, -212.25150181631528, -211.89595002292717, -211.45237470641243, -210.92054427248405, -210.30042806903, -209.59219350192888, -208.79620276530406, -207.91300922240058, -206.94335349066523, -206.29543412317366])","array('d', [-50.39757537841797, -50.4041333348342, -50.398157104187796, -50.39612352186421, -50.39304897567331, -50.39043193660612, -50.38780387105883, -50.38529745011972, -50.38286194323526, -50.38050394305013, -50.37821313918372, -50.37598528587426, -50.37381550921703, -50.37169962944253, -50.369653618906334, -50.36850375343911])","array('d', [0.6896318197250364, 0.6987451853543196, 0.70699130032476, 0.7144526943749119, 0.721204043504628, 0.7273129173536992, 0.7328404554547289, 0.7378419791241857, 0.7423675451044307, 0.7464624464646881, 0.7501676656624959, 0.7535202838468849, 0.7565538480944458, 0.759298680291211, 0.7617816502846629, 0.6892866231006503])","array('d', [0.01021349523216488, -0.004717986190316638, -0.0001393872347855055, -0.0014653590548928646, -0.0010020081314894064, -0.0010901530516068683, -0.0010135771908157385, -0.0009919211424249974, -0.0009570661054643061, -0.0009297893345553035, -0.0009032959593318951, -0.000879385776435999, -0.0008568123214018101, -0.0008362349576500057, -0.0008011587865792381, -0.0007331298832504587])","array('d', [1.6496155271914341, 1.6169466312319798, 1.5836974095575669, 1.5499156868805068, 1.5156458974455964, 1.4809292395363909, 1.4458038361953047, 1.410304899844052, 1.3744648986051733, 1.3383137223251826, 1.3018788465514979, 1.2651854930037862, 1.2282567854570257, 1.1911139010570728, 1.1537762363409143, 1.095797513929408])",-137.294546437969,-212.80526167021182,-50.398157104187796,0.70699130032476,-0.0001393872347855055,1.5836974095575669,25.000000249960213,-1.0,"[-212.66274110579377, -138.4010085568895, 50.5365022137195]","[-239.57492324496693, -105.65632008030335, 77.06045043187314]","[-189.6377369576902, -104.6448887657952, 79.35270530554102]",10000000000.0,0.019130706787109375
22,-212.58895874023438,-139.41546630859375,50.52788543701172,0.6959237456321714,-0.024081105366349286,1.6090879487481455,23.925261483998316,"array('d', [-141.8116455078125, -139.31568525337119, -136.8164560857112, -134.31672493492198, -131.81937913041722, -129.32740943878602, -126.8439110206734, -124.37206464237475, -121.9151229330261, -119.47639573987765, -117.05923648512491, -114.66702899418684, -112.30317496329276, -109.97108201726212, -107.67415233651204, -106.3263644215133])","array('d', [-212.58560180664062, -212.72479164869458, -212.7814794715147, -212.75422491116188, -212.64179774651618, -212.44317634453316, -212.1575470517276, -211.78430308407994, -211.3230430489574, -210.77356884408618, -210.1358831301166, -209.41018635774742, -208.59687341772693, -207.6965299473979, -206.7099283461525, -206.05202783286225])","array('d', [-50.41615676879883, -50.42479889437807, -50.41802728938371, -50.41607650874647, -50.412821763097995, -50.410109321891746, -50.40736372994379, -50.40475026229325, -50.402207828649054, -50.39974597798101, -50.39735325756154, -50.39502560757653, -50.39275808211869, -50.39054655672706, -50.38841110117399, -50.38721303431161])","array('d', [0.6907374858856198, 0.6997456335588871, 0.7078965433770388, 0.7152717922351791, 0.7219451939646556, 0.7279835380828192, 0.7334472582381288, 0.7383910370363547, 0.7428643532898361, 0.7469119771333775, 0.7505744178490245, 0.7538883284227335, 0.7568868684446468, 0.7596000087419493, 0.7620542917836293, 0.689533316287985])","array('d', [0.012785391882061929, -0.005565447748317022, 5.439966572378945e-05, -0.0015876321311285243, -0.0010255419157828892, -0.0011424610111679366, -0.0010554642467597714, -0.0010356409261187722, -0.0009989189159565412, -0.0009710272065743097, -0.0009436068289894342, -0.000918925149689907, -0.0008954864526685322, -0.0008740909955231059, -0.0008349269802483806, -0.000763683843662341])","array('d', [1.6428242782738547, 1.6100854241272249, 1.5767719767670296, 1.5429313595079606, 1.508607622745517, 1.4738415993034666, 1.43867106572437, 1.4031309071971216, 1.3672532839417293, 1.331067797078618, 1.2946016522651114, 1.2578798196715586, 1.220925189246968, 1.1837587213378755, 1.1463996123189164, 1.0883905224486172])",-136.8164560857112,-212.7814794715147,-50.41802728938371,0.7078965433770388,5.439966572378945e-05,1.5767719767670296,25.00000024996056,-1.0,"[-212.64636548883763, -137.9170004453764, 50.56400360400641]","[-239.27798663042955, -105.03256786374837, 77.19802037119861]","[-189.32912452318422, -104.33483202429855, 79.34844797745255]",10000000000.0,0.021317481994628906
23,-212.56666564941406,-138.44729614257812,50.5806770324707,0.6976271867752073,-0.02695760503411285,1.5965667749431471,24.00085675024879,"array('d', [-140.85650634765625, -138.35892553415366, -135.85916060981526, -133.36005214882596, -130.8645313761306, -128.37561932483, -125.89643760754713, -123.43018822473294, -120.98014053465491, -118.54961659680055, -116.14197773188138, -113.76061149469261, -111.40891930724992, -109.09030467756672, -106.80816197903826, -105.47024999020373])","array('d', [-212.59698486328125, -212.70204518904208, -212.72423699657853, -212.6621832971345, -212.51472000627422, -212.2808921716503, -211.95995331569551, -211.55136396825148, -211.0547900356841, -210.4701004772189, -209.79736460080656, -209.0368489155344, -208.18901362450418, -207.25450878575802, -206.23417019092338, -205.5564126554231])","array('d', [-50.4571533203125, -50.469852843660505, -50.46148895984741, -50.45967605909654, -50.45604024423841, -50.45311537243688, -50.45011391942801, -50.44726594077159, -50.444489654933726, -50.44180047791214, -50.439184632961364, -50.436638396694605, -50.43415663658751, -50.43173529458481, -50.42940242281214, -50.42809732324668])","array('d', [0.6929210424423214, 0.7017213974147422, 0.7096842886049165, 0.7168894111577073, 0.7234088762262371, 0.7293079326806541, 0.7346456201338334, 0.7394753598153454, 0.7438454891957289, 0.7477997456774577, 0.7513777040775734, 0.7546151718092987, 0.7575445432135469, 0.7601950957541385, 0.762592723893556, 0.6900205037753427])","array('d', [0.017824595794081726, -0.007246421623590963, 0.00042727287952025293, -0.0018397750233985558, -0.0010815270162550638, -0.001255469235745575, -0.0011474949514449233, -0.0011311609278297785, -0.0010905457195610686, -0.001061284427945527, -0.0010318823787590665, -0.0010055463053568617, -0.0009802835215886121, -0.0009571758493075018, -0.0009099103139679214, -0.00083152986764514])","array('d', [1.6292264061656332, 1.5963490313494437, 1.5629084403299882, 1.528951255770701, 1.49452076301533, 1.459657067031132, 1.4243972547514048, 1.3887755605312884, 1.3528235325793372, 1.3165701984476523, 1.2800422279252068, 1.2432640919707842, 1.2062582167004445, 1.1690451325799187, 1.1316436392956235, 1.0735745362518598])",-135.85916060981526,-212.72423699657853,-50.46148895984741,0.7096842886049165,0.00042727287952025293,1.5629084403299882,25.000000249961236,-1.0,"[-212.64636548883763, -137.9170004453764, 50.56400360400641]","[-239.27798663042955, -105.03256786374837, 77.19802037119861]","[-189.32912452318422, -104.33483202429855, 79.34844797745255]",10000000000.0,0.020745515823364258
