,current_time,x_pos,y_pos,z_pos,roll,pitch,yaw,vel,x_traj,y_traj,z_traj,roll_traj,pitch_traj,yaw_traj,x_cmd,y_cmd,z_cmd,roll_cmd,pitch_cmd,yaw_cmd,vel_cmd,effector_dmg,effector_x,effector_y,effector_z,cost,time_solution
0,21.47894597053528,-229.4084014892578,-90.52294158935547,49.89973449707031,0.6327189207077025,0.03315974771976463,-0.4833485325190684,23.139243831560304,"array('d', [-88.91747283935547, -90.03804043802005, -91.20672665312907, -92.40979656952042, -93.63637565335223, -94.8773508502086, -96.1248360480845, -97.37183222923963, -98.61200437881014, -99.83952686435745, -101.04897487273287, -102.23524700133775, -103.39350997342001, -104.51915939172858, -105.60779238608298, -106.65665450883483])","array('d', [-232.2136993408203, -229.9797670256412, -227.769855245968, -225.5783960330328, -223.3999879807437, -221.22974312452519, -219.06323087021815, -216.896437279627, -214.72573272514225, -212.54785336095748, -210.3598896100079, -208.15927960592637, -205.94380537908137, -203.71159042485135, -201.4610976056612, -199.19180137479964])","array('d', [-49.890235900878906, -49.832437351890114, -49.82165618777289, -49.82678426025201, -49.827777497185615, -49.829977768463415, -49.831858977129485, -49.83383341101603, -49.83576784561996, -49.83768495185761, -49.8395653172513, -49.841403730384656, -49.84319316097768, -49.8449292849377, -49.84660890369399, -49.84297253058533])","array('d', [0.6340402960777283, 0.49896298272665973, 0.376739964207469, 0.26614799368824577, 0.1660802315637354, 0.0755351678526413, -0.0063934012326989234, -0.0805254428619337, -0.14760289407879246, -0.208297087342789, -0.2632154694375596, -0.31290768099021943, -0.35787105744459574, -0.3985556065216976, -0.4353685115646789, -0.38928247038753566])","array('d', [-0.033169463276863036, -0.01340398383770977, 0.0044805570168820535, -0.0002983701858986115, 0.0010701304898712472, 0.0006963226121092395, 0.0008068014416181638, 0.0007733046099557897, 0.0007742278113078582, 0.0007596996720977075, 0.0007448406477820184, 0.0007262009244773772, 0.0007056858895220824, 0.0006835821113116888, 0.0006604980692085061, -0.0035001925939356945])","array('d', [-0.4518374641749521, -0.47678751953234677, -0.49513737769242194, -0.5081786939102592, -0.5167668003539182, -0.5215037399057777, -0.5228347580538024, -0.5211032387505856, -0.5165838882617584, -0.5095037230288216, -0.5000558229789505, -0.4884085870148373, -0.47471208036461676, -0.4591024400950675, -0.44170495060043047, -0.4245557461812174])",-91.20672665312907,-227.769855245968,-49.82165618777289,0.376739964207469,0.0044805570168820535,-0.49513737769242194,25.000000249978612,-1.0,[],[],[],10000000000.0,0.0348207950592041
1,21.518895626068115,-228.6186981201172,-90.99608612060547,49.902957916259766,0.6322046518325805,0.03362115845084175,-0.49241511424514267,23.13856491070664,"array('d', [-89.36787414550781, -90.50837057283253, -91.69674146972052, -92.91930951513172, -94.16525318049, -95.42550552455606, -96.69222192177453, -97.95844062301826, -99.21786013302165, -100.46468484451538, -101.69351664779958, -102.89927762669247, -104.07715484181718, -105.22256113065869, -106.33110779230486, -107.40004557356053])","array('d', [-231.4058837890625, -229.18205110335404, -226.9826605261632, -224.8020192436186, -222.63462857412657, -220.47552085269, -218.3201962336931, -216.1645793639871, -214.00498503564188, -211.83809831702703, -209.660962080422, -207.4709697635027, -205.2658610669546, -203.0437191753192, -200.80296841574037, -198.54305932739808])","array('d', [-49.89261245727539, -49.83514339121325, -49.82466042213055, -49.82989188164576, -49.83086656936074, -49.83308451260307, -49.83497379135042, -49.83695911485807, -49.83890314569092, -49.84082920626577, -49.84271727709243, -49.84456200170927, -49.84635617832066, -49.84809541675487, -49.84977650714012, -49.846140758892865])","array('d', [0.6337994933128356, 0.4987450953548795, 0.37654281154270375, 0.26596960256393853, 0.16591881658479155, 0.07538911352662651, -0.006525556663920702, -0.08064502205194071, -0.1477110938141435, -0.20839499052084492, -0.2633040559044679, -0.31298783734753594, -0.3579435859227102, -0.39862123300901114, -0.43542789287527683, -0.3893351680804977])","array('d', [-0.03303093090653415, -0.013278634556042904, 0.004593968413720693, -0.00032670681169423766, 0.0010829413206680516, 0.0006978377929676637, 0.0008116861177177913, 0.0007771489876372818, 0.0007780606121197195, 0.0007630385821673115, 0.0007476745109674517, 0.0007284263985437281, 0.0007072679642765188, 0.0006845026521888111, 0.0006607657232069913, -0.0034999597823899796])","array('d', [-0.4607836445185803, -0.48572102875822204, -0.50406094759047, -0.5170940747290098, -0.5256751921886327, -0.530406011105692, -0.5317315657451341, -0.5299950998759968, -0.5254712236552903, -0.5183868858728038, -0.5089351177445488, -0.49728428235273375, -0.48358441801152824, -0.4679716410805824, -0.45057121958410334, -0.4334193970667084])",-91.69674146972052,-226.9826605261632,-49.82466042213055,0.37654281154270375,0.004593968413720693,-0.50406094759047,25.00000024997819,-1.0,[],[],[],10000000000.0,0.03811478614807129
2,21.55561637878418,-228.22532653808594,-91.23542022705078,49.90423583984375,0.6318610906600952,0.03378662467002853,-0.4969481666896007,23.137082803418362,"array('d', [-89.82563781738281, -90.98594820093929, -92.19387389058929, -93.43579938148356, -94.70095832845084, -95.98033159797339, -97.26611727603243, -98.55139185918556, -99.82988816983008, -101.0958413015318, -102.34388043569065, -103.5689516674685, -104.76626287492971, -105.93124457865301, -107.05952267331271, -108.1483534740741])","array('d', [-230.6022491455078, -228.3886788815546, -226.1999651764439, -224.03029023856348, -221.87405953569132, -219.7262266393029, -217.5822234164939, -215.43791394988526, -213.289558232222, -211.1337909648328, -208.96760813827456, -206.78835911944938, -204.59374186522797, -202.38179979838137, -200.1509192244307, -197.9005271388755])","array('d', [-49.89519119262695, -49.8381479032577, -49.82793716590829, -49.833221913268915, -49.83418934173065, -49.8364189593182, -49.83831517422778, -49.840308869003984, -49.842260348413156, -49.84419308432564, -49.84608659134376, -49.84793533048646, -49.84973194641534, -49.85147198814171, -49.85315224583618, -49.849514949345654])","array('d', [0.6334534883499147, 0.49843201708924106, 0.37625952658751716, 0.26571327571329734, 0.1656868824380711, 0.07517925081313881, -0.006715448316942274, -0.08081684314054026, -0.14786656397841186, -0.2085356657556258, -0.2634313441322522, -0.31310301250940703, -0.35804780072838654, -0.39871553047372604, -0.43551321676128035, -0.3894108880039064])","array('d', [-0.03285191208124141, -0.013116651611800275, 0.004651519103250171, -0.0003404378385054648, 0.0010905096305331872, 0.0006997040842999655, 0.0008153389545894939, 0.0007802031546731317, 0.0007809677604557035, 0.0007654794834102262, 0.0007495913072131867, 0.0007297314292889705, 0.0007079251946124615, 0.000684499079253856, 0.0006601139565347666, -0.003500547664383277])","array('d', [-0.4697214802119393, -0.49464066409622526, -0.512966304701979, -0.5259876669108746, -0.5345587429491908, -0.5392807676440937, -0.5405984719644409, -0.538854898373902, -0.5343245190080146, -0.5272341854971803, -0.517776859096768, -0.506120851440148, -0.49241616218326933, -0.4767988779412802, -0.45939424322247746, -0.4422386587289458])",-92.19387389058929,-226.1999651764439,-49.82793716590829,0.37625952658751716,0.004651519103250171,-0.512966304701979,25.000000249977752,-1.0,[],[],[],10000000000.0,0.03497886657714844
3,21.594817638397217,-227.05133056640625,-91.96438598632812,49.90791702270508,0.6294593214988708,0.03377274051308623,-0.510554953417506,23.138664130450277,"array('d', [-90.0572738647461, -91.22746450156714, -92.44513377977977, -93.6966971836765, -94.97141689555092, -96.26029873364813, -97.55556290321994, -98.8503056121051, -100.13827730979756, -101.41372882453538, -102.67130330756171, -103.90595914098466, -105.11291486199865, -106.2876100611982, -107.42567814420609, -108.52437841167887])","array('d', [-230.20201110839844, -227.99364989939596, -225.81034214445282, -223.64621248451627, -221.49562007575892, -219.3534796263103, -217.21518934417622, -215.07658346408527, -212.9338949773817, -210.78373377228453, -208.62307274715644, -206.4492395641618, -204.2599116232387, -202.05311276686857, -199.8272105765539, -197.58162052482606])","array('d', [-49.89642333984375, -49.83930616518247, -49.82907728781733, -49.834378728325134, -49.83535302963444, -49.83759337102519, -49.83949959746734, -49.84150355502991, -49.843464901463726, -49.84540697337898, -49.847309062471595, -49.84916549660106, -49.850968827279154, -49.8527145592368, -49.854399476476274, -49.850766104845796])","array('d', [0.6331993937492368, 0.4982021027659995, 0.3760514914860601, 0.2655250377521814, 0.16551655767192816, 0.07502513457755176, -0.006854898466263281, -0.08094302286503073, -0.14798073612487667, -0.20863897299521234, -0.26352482039666797, -0.31318759333884144, -0.35812433263471194, -0.3987847794127533, -0.43557587580000096, -0.3894664939109445])","array('d', [-0.03288297727704035, -0.013144760566476696, 0.004664430899803248, -0.000339790456400803, 0.001095291555286113, 0.0007035173644775355, 0.0008195286237932577, 0.0007842264918640005, 0.0007848405566376237, 0.0007690800332284978, 0.0007528619228567063, 0.000732623125816099, 0.0007104120523131251, 0.0006865713242022961, 0.0006617761882388594, -0.003499066988835779])","array('d', [-0.4741975506159922, -0.49910337366475105, -0.5174185313694412, -0.5304312551570081, -0.5389949577966281, -0.5437105246077223, -0.5450224639833491, -0.5432736706465512, -0.5387385154309047, -0.5316437786522653, -0.5221823702128755, -0.5105225639795011, -0.4968143312292441, -0.48119373674076493, -0.4637860077574603, -0.44662766027027617])",-92.44513377977977,-225.81034214445282,-49.82907728781733,0.3760514914860601,0.004664430899803248,-0.5174185313694412,25.000000249977525,-1.0,[],[],[],10000000000.0,0.037394046783447266
4,21.64196467399597,-226.27371215820312,-92.45956420898438,49.91020202636719,0.6228892803192136,0.03285554423928254,-0.5199026306483406,23.145442633463205,"array('d', [-90.75859069824219, -91.9587301109923, -93.2059427164422, -94.48673206540319, -95.79044424269875, -97.10816214582736, -98.43217380666302, -99.75563599644606, -101.0723533587792, -102.37662515501027, -103.6631375833863, -104.92688693551328, -106.16312468523009, -107.3673185030948, -108.53512510788327, -109.66381311901682])","array('d', [-229.0130615234375, -226.82086398995972, -224.65430256468173, -222.50733898598662, -220.37419747471668, -218.24967361103563, -216.12906343002854, -214.00811047858073, -211.88296573266132, -209.75016367927546, -207.6066070198878, -205.4495574044391, -203.27662967671034, -201.0857880578895, -198.87534307722447, -196.64467493870055])","array('d', [-49.90135955810547, -49.843023739799676, -49.83175630864348, -49.8367625372951, -49.837873721684424, -49.84013264120877, -49.842092246255525, -49.84413994817559, -49.846146610680606, -49.848131247604826, -49.8500734330482, -49.85196669959327, -49.85380334709976, -49.855578687619726, -49.85728948195892, -49.85367883358428])","array('d', [0.6324931979179382, 0.49756311029549477, 0.37547330713652693, 0.26500187487080695, 0.16504318027824763, 0.07459680496009082, -0.0072424671665115, -0.08129370955885408, -0.14829805059621737, -0.20892609102820256, -0.2637846155598919, -0.3134226657449371, -0.3583370349631756, -0.39897724045658667, -0.43575002177523037, -0.3896210360430016])","array('d', [-0.03339536115527142, -0.01360838471306084, 0.004295610467009164, -0.00021536931520012772, 0.0010826631420313437, 0.0007303499994804725, 0.0008355787582667082, 0.0008031243488253304, 0.000802220883124147, 0.0007857633515563479, 0.0007682768535305606, 0.0007466965152069688, 0.0007230166350647651, 0.0006976785754103117, 0.0006713954441062111, -0.003490490210601706])","array('d', [-0.48783413966628536, -0.5127028512095474, -0.5309888855241064, -0.5439776068762545, -0.5525208199578592, -0.5572184399488985, -0.5585143573334452, -0.5567510566304363, -0.5522026273794327, -0.545095651854798, -0.5356228973400422, -0.5239525328084618, -0.5102344507114032, -0.49460465516879, -0.4771883254597891, -0.46002229842281483])",-93.2059427164422,-224.65430256468173,-49.83175630864348,0.37547330713652693,0.004295610467009164,-0.5309888855241064,25.0000002499768,-1.0,[],[],[],10000000000.0,0.0452427864074707
5,21.695544719696045,-225.1190643310547,-93.21294403076172,49.915897369384766,0.5995392203330993,0.02931110560894008,-0.5347739895198008,23.160671529837817,"array('d', [-91.23542022705078, -92.45544077815161, -93.72224480972744, -95.02239856801637, -96.34530669925589, -97.68210600504435, -99.02513156874295, -100.36758200112759, -101.7032992682138, -103.02661592537102, -104.33224773657425, -105.61521703361022, -106.8707979408582, -108.094477486538, -109.28192852840264, -110.43042641277594])","array('d', [-228.22532653808594, -226.0441559439568, -223.8889957593334, -221.7537021313206, -219.63241189653496, -217.51984243130738, -215.41122283973124, -213.30223724521647, -211.18898289193794, -209.06794486677273, -206.9359798793046, -204.79030632439546, -202.62849804767663, -200.4484801849307, -198.24852585061257, -196.02799222033659])","array('d', [-49.90423583984375, -49.844969457625815, -49.83285979013104, -49.83761153705007, -49.838844396344555, -49.841121528807676, -49.84312969911468, -49.84521752282084, -49.847265753219624, -49.84928968328467, -49.851269188818776, -49.85319714670361, -49.855065663344604, -49.856869896341834, -49.85860658875983, -49.85501902846491])","array('d', [0.6318610906600952, 0.4969911559445748, 0.37495578139152463, 0.26453359816951105, 0.16461946595853563, 0.07421341235432426, -0.0075893751734375, -0.08160760493257903, -0.14858207490145203, -0.2091830868705087, -0.2640171550353857, -0.3136330761826536, -0.3585274222177504, -0.39914950998450144, -0.4359058977077335, -0.38975936315198983])","array('d', [-0.03378662467002853, -0.013962414612801023, 0.003975272346368232, -0.0001057896276240639, 0.0010724222295174337, 0.0007545861215716979, 0.0008503527040506214, 0.0008204060089007404, 0.0008182150269979128, 0.0008012128164656493, 0.0007827005814297448, 0.0007600438237665142, 0.0007351843193375679, 0.0007086449193996408, 0.0006811674911326085, -0.0034817741400647146])","array('d', [-0.4969481666896007, -0.5217836872938376, -0.5400436677574091, -0.5530109123113974, -0.5615357892488838, -0.5662173469276223, -0.5674989236057448, -0.5657226371394112, -0.5611623255979253, -0.5540443941910651, -0.5445614826771011, -0.5328816662275612, -0.5191547667958295, -0.5035167342450961, -0.48609270494664397, -0.4689198031289059])",-93.72224480972744,-223.8889957593334,-49.83285979013104,0.37495578139152463,0.003975272346368232,-0.5400436677574091,25.00000024997629,-1.0,[],[],[],10000000000.0,0.05132865905761719
6,21.738435983657837,-224.3543701171875,-93.725341796875,49.922054290771484,0.575290560722351,0.025330476462840958,-0.5454386909815927,23.169830537450736,"array('d', [-91.96438598632812, -93.21382970636182, -94.5094620627112, -95.83798437707155, -97.18891393251967, -98.55348133109179, -99.92410183644354, -101.29404368494343, -102.65720993050537, -104.00798694098276, -105.34113786155557, -106.65172654392124, -107.93506316963348, -109.18666564925873, -110.40223276645433, -111.57905237353052])","array('d', [-227.05133056640625, -224.88687845785975, -222.74892445474498, -220.63116432281836, -218.52760827026, -216.43286769149321, -214.34207989373152, -212.25084760111565, -210.1551944762981, -208.05153806027474, -205.93667228011475, -203.80775659413712, -201.66230909060582, -199.49820184369003, -197.31365725540542, -195.10800265915043])","array('d', [-49.90791702270508, -49.848683661809794, -49.83660388138701, -49.84138396266177, -49.84264777428065, -49.84495858404876, -49.84700084510518, -49.84912255064814, -49.85120325439194, -49.8532574233808, -49.85526423836559, -49.85721610593926, -49.85910485882366, -49.86092555843716, -49.862674996579116, -49.859097770135385])","array('d', [0.6294593214988708, 0.4948179451411539, 0.372989378761182, 0.26275432332947524, 0.1630095113604605, 0.07275666506068255, -0.008907494752756186, -0.08280028895744236, -0.14966126013281644, -0.2101595741373202, -0.26490071733271464, -0.3144325564829499, -0.3592508219741709, -0.39980406921226475, -0.43649816744815656, -0.390284939627138])","array('d', [-0.03377274051308623, -0.013949851709198392, 0.003986639664485582, -9.448830340400948e-05, 0.0010858473403064404, 0.0007681013624088953, 0.0008641060985566272, 0.0008337646779800945, 0.0008308471625601154, 0.0008127894358717484, 0.0007929929531053674, 0.0007689031153631329, 0.000742539124707693, 0.0007144886186395521, 0.0006855448351643674, -0.0034778763863594856])","array('d', [-0.510554953417506, -0.5352645935662218, -0.5534257005501906, -0.566311405622345, -0.5747666447852094, -0.5793871859958073, -0.5806142766195597, -0.5787886456784668, -0.5741831784359143, -0.567023609041664, -0.557502093832823, -0.5457863523184159, -0.5320259390848935, -0.5163565981683437, -0.4989033031150984, -0.481704272024161])",-94.5094620627112,-222.74892445474498,-49.83660388138701,0.372989378761182,0.003986639664485582,-0.5534257005501906,25.000000249975464,-1.0,[],[],[],10000000000.0,0.04097485542297363
7,21.776812314987183,-223.59405517578125,-94.245849609375,49.931705474853516,0.5460213422775267,0.02015538513660414,-0.5564264496180675,23.178409691329914,"array('d', [-92.45956420898438, -93.72882714294761, -95.0433679315371, -96.39009754554652, -97.7586823081622, -99.14045943240961, -100.52792927286691, -101.91442912723402, -103.29391945878555, -104.66083504648958, -106.00998028835377, -107.33645439015893, -108.63559789353877, -109.90295473793137, -111.13424590415394, -112.32677504683382])","array('d', [-226.27371215820312, -224.12076104861342, -221.99436899358622, -219.88814218160726, -217.7960293025992, -215.71260064438883, -213.6329559564804, -211.55266481968752, -209.46772111941124, -207.3745154585536, -205.26981717172404, -203.15076311087498, -201.01485045143485, -198.8599318148771, -196.68421142058713, -194.48701112132335])","array('d', [-49.91020202636719, -49.853150098279784, -49.84299582215569, -49.848371328891396, -49.849419284687144, -49.85174353840551, -49.8537335783766, -49.85582060927322, -49.8578604875387, -49.8598742860818, -49.86183930043297, -49.86374855335039, -49.865593856662265, -49.86737049256453, -49.86907544154968, -49.865456002854636])","array('d', [0.6228892803192136, 0.4888731255052558, 0.36761028302388443, 0.25788711579027696, 0.15860547945870887, 0.06877173184477785, -0.012513211761507569, -0.08606287692135628, -0.15261337206962633, -0.21283075572196244, -0.267317702599841, -0.316619535389656, -0.3612296825008129, -0.401594616424517, -0.4381183217150263, -0.3917225376747947])","array('d', [-0.03285554423928254, -0.013119938133086314, 0.004699125925972364, -0.0003150659569992055, 0.0011293351934579007, 0.0007366193252447994, 0.0008534636094103469, 0.0008167733517836386, 0.0008151563993470052, 0.0007961988430624243, 0.0007761472839891929, 0.0007516636194744612, 0.0007250235586284231, 0.0006967568142442183, 0.0006676874017248792, -0.003493820763752172])","array('d', [-0.5199026306483406, -0.5442697862738932, -0.5621613966544462, -0.5748245649651449, -0.5830895710010113, -0.5875433149340803, -0.5886213835381491, -0.5866607415973205, -0.5819316895755251, -0.5746581397672508, -0.5650309351807514, -0.5532168284396449, -0.5393646467632544, -0.5236095737869778, -0.5060761393266677, -0.48880556853450235])",-95.0433679315371,-221.99436899358622,-49.84299582215569,0.36761028302388443,0.004699125925972364,-0.5621613966544462,25.00000024997484,-1.0,[],[],[],10000000000.0,0.036293983459472656
8,21.81710124015808,-222.83831787109375,-94.77439880371094,49.94660949707031,0.5139122605323792,0.013941686600446581,-0.5679945190760753,23.18582963764462,"array('d', [-92.95978546142578, -94.24921905832235, -95.58231231190938, -96.94635152888532, -98.33124163157777, -99.72848998805534, -101.13072485549274, -102.53138347472904, -103.92450628646505, -105.3045934021272, -106.66650344242053, -108.00538120970239, -109.31660599859252, -110.59575497408208, -111.83857780600997, -113.04240435433996])","array('d', [-225.5029754638672, -223.36191712669748, -221.24708776905481, -219.15202601666923, -217.0706698529315, -214.99758467757272, -212.9278666870133, -210.8570822363005, -208.78122297359235, -206.6966783643252, -204.60021779929758, -202.4889793584802, -200.36046254861114, -198.21252331774917, -196.0433700761624, -193.85233985176393])","array('d', [-49.91363525390625, -49.86135006301208, -49.85272583042931, -49.85757568379486, -49.85867723939519, -49.86088807037996, -49.86280928120173, -49.8648126294655, -49.866771274979264, -49.86870189974501, -49.87058360171528, -49.87240945346574, -49.87417180862626, -49.87586631341819, -49.87749031392183, -49.873794966568155])","array('d', [0.6092193126678467, 0.4765040261505135, 0.35641825808648836, 0.2477601519259854, 0.14944222279315136, 0.06048047359165332, -0.0200154531511244, -0.09285118626474202, -0.15875568892513528, -0.21838855434973045, -0.2723466072157312, -0.3211698768701081, -0.36534700211029725, -0.40532012160720604, -0.4414892985149542, -0.39471312367523714])","array('d', [-0.030851405113935308, -0.011306517907224653, 0.0041492144848632615, -0.00019682567492810307, 0.0010571513969006377, 0.0007171849299871249, 0.0008181003931158611, 0.0007851284117811262, 0.0007818429518792968, 0.0007629718070920388, 0.00074272760976039, 0.000718360399487154, 0.0006919641732672536, 0.0006641045053137355, 0.0006355719557844937, -0.003522489842484836])","array('d', [-0.5296391685816905, -0.5533022541331469, -0.5706375930706791, -0.5828400980962967, -0.5907104862492264, -0.5948176924623685, -0.5955857978125431, -0.5933440963171559, -0.588357610366881, -0.5808465257266835, -0.5709989949165489, -0.5589797868013475, -0.5449362338387114, -0.5290023659009585, -0.5113017973090402, -0.49388208043855847])",-95.58231231190938,-221.24708776905481,-49.85272583042931,0.35641825808648836,0.0041492144848632615,-0.5706375930706791,25.000000249974114,-1.0,[],[],[],10000000000.0,0.038050174713134766
9,21.865166425704956,-222.4622344970703,-95.04159545898438,49.956851959228516,0.4974478781223296,0.010619137436151348,-0.573900862536158,23.188668586804457,"array('d', [-93.46812438964844, -94.77873937851865, -96.1306931145793, -97.5118033270249, -98.91230274679042, -100.32392947170516, -101.73948227871823, -103.1525294533462, -104.55721452564373, -105.9481205009055, -107.32017387120646, -108.66857594591335, -109.98875380007819, -111.27632560798676, -112.52707675249044, -113.73837415158874])","array('d', [-224.73617553710938, -222.60782520164133, -220.504976696556, -218.42112382357448, -216.35023741073638, -214.28691526651588, -212.22628276673566, -210.16393214474408, -208.09587962761012, -206.01853878933528, -203.9287032733543, -201.82353585659567, -199.7005613202933, -197.55766146705136, -195.3930710570169, -193.20616340223654])","array('d', [-49.91873550415039, -49.87458529993067, -49.86855168598182, -49.87247032141144, -49.87363221213199, -49.87561598085582, -49.877386580668826, -49.87921446944033, -49.88100313708745, -49.88276227377867, -49.88447446518598, -49.88613313397447, -49.88773169467968, -49.889266439650555, -49.89073527539621, -49.886895474239566])","array('d', [0.5881880521774291, 0.45747415298651795, 0.33919931522746305, 0.23217980671678243, 0.13534454218491795, 0.04772436351429784, -0.031557659903249234, -0.1032950077668272, -0.16820565026354348, -0.2269392337422974, -0.2800835825806466, -0.3281705823169438, -0.3716815029252425, -0.4110518154889811, -0.4466755500825625, -0.3993126460986613])","array('d', [-0.02743129432201371, -0.008211873430668875, 0.0031946665944819746, -6.356199148285348e-06, 0.0009204085510893955, 0.0006707710336983887, 0.0007444793202872989, 0.0007182690520956054, 0.0007127571233225762, 0.0006948510408449884, 0.0006752295047192608, 0.0006520915965655428, 0.0006271727381813682, 0.0006010589336670113, 0.0005744535495479846, -0.0035770442576868898])","array('d', [-0.5400754650447032, -0.5626768100502061, -0.5791675920412088, -0.5906673176808626, -0.5979335642299691, -0.6015088575052212, -0.6018002706642135, -0.5991257095283681, -0.5937423333360583, -0.5858647599348289, -0.5756771112661125, -0.5633411765447028, -0.5490020366805778, -0.5327919780149183, -0.514833226259714, -0.4971832549781736])",-96.1306931145793,-220.504976696556,-49.86855168598182,0.33919931522746305,0.0031946665944819746,-0.5791675920412088,25.000000249973255,-1.0,[],[],[],10000000000.0,0.04038739204406738
10,21.91503381729126,-220.97386169433594,-96.12472534179688,50.02079391479492,0.43466129899024963,-0.0019208870362492016,-0.5961097915980478,23.19365789387384,"array('d', [-93.725341796875, -95.0466926225433, -96.4080174241861, -97.79743922095315, -99.20537816734354, -100.62370447716535, -102.04531416900095, -103.46384983664913, -104.87351310319085, -106.26893340185448, -107.64507503840373, -108.99717068836112, -110.32067391412158, -111.61122566491568, -112.86463126756229, -114.07827967495813])","array('d', [-224.3543701171875, -222.23256567564707, -220.1357592049836, -218.05743614888985, -215.99159976435067, -213.93287672705821, -211.8764180322248, -209.81783875729616, -207.7531765915683, -205.67886583565837, -203.59172059023348, -201.48892407046776, -199.36802160490944, -197.22691568667653, -195.06386187973726, -192.87825882343662])","array('d', [-49.922054290771484, -49.882901279115, -49.87845172724551, -49.88178562658939, -49.88297279254456, -49.884804820560596, -49.886470757200556, -49.88817896010613, -49.88985173509295, -49.891494622403705, -49.89309245329284, -49.89463893327889, -49.89612815980297, -49.89755682420303, -49.89892315627104, -49.89498816844864])","array('d', [0.575290560722351, 0.4458040190620354, 0.3286397404225701, 0.2226251074492604, 0.12669909198644094, 0.039901635970331785, -0.03863595713731566, -0.10969971654036186, -0.17400087093842492, -0.23218296672971916, -0.2848283088276767, -0.332463788552537, -0.3755661569225472, -0.4145667961006119, -0.4498560363543786, -0.40213239681190793])","array('d', [-0.025330476462840958, -0.0063109746707287985, 0.0026026224885386203, 0.0001061446769629657, 0.0008314879635920517, 0.0006373727956282877, 0.0006944248597899723, 0.0006725032534197489, 0.0006658281761001289, 0.000648766378739705, 0.0006298145608899542, 0.0006077377791944238, 0.0005840388440821484, 0.0005593053310333398, 0.0005341795155409055, -0.0036129919005542764])","array('d', [-0.5454386909815927, -0.5674011319546302, -0.583380415241359, -0.5944525460909132, -0.6013499754859573, -0.604599738330962, -0.6045988776048026, -0.6016585549356734, -0.5960312572234504, -0.5879282843661842, -0.5775313501849834, -0.5650004589957078, -0.550479339109811, -0.5340992260379457, -0.5159815054460954, -0.4981898488487979])",-96.4080174241861,-220.1357592049836,-49.87845172724551,0.3286397404225701,0.0026026224885386203,-0.583380415241359,25.00000024997278,-1.0,[],[],[],10000000000.0,0.051860809326171875
11,21.98365306854248,-219.8689727783203,-96.95418548583984,50.0889778137207,0.3944924473762511,-0.00964779127389206,-0.6109346588465828,23.19169681524232,"array('d', [-94.77439880371094, -96.14024788853953, -97.53994170085797, -98.96291209546683, -100.40038043823726, -101.84479316323858, -103.28947283081993, -104.72838838922611, -106.15599668260529, -107.56713106297782, -108.95692193121101, -110.32073987848676, -111.65415524130032, -112.95290986334429, -114.21289807868861, -115.43161209771483])","array('d', [-222.83831787109375, -220.7445294167174, -218.6731215691468, -216.61761440900167, -214.57221268465904, -212.53170570344568, -210.49138755684197, -208.44700218445163, -206.3947084778839, -204.3310575984542, -202.25297845969217, -200.1577683152148, -198.04308641301301, -195.9069492381279, -193.7477262899823, -191.5649479432109])","array('d', [-49.94660949707031, -49.934549137800246, -49.93858869162321, -49.938576529879214, -49.939739012796394, -49.940585505160534, -49.94152472001756, -49.94243016770599, -49.94332743279934, -49.94420075748098, -49.94504775770825, -49.945863985775624, -49.946647214408706, -49.94739603965788, -49.94811001837677, -49.943571282253636])","array('d', [0.5139122605323792, 0.39026663136389905, 0.2783874293812621, 0.17715493195742196, 0.08555597206984178, 0.002673798202788236, -0.07232110079331962, -0.14017929771322502, -0.20157993896796372, -0.2571375416979596, -0.3074081440556104, -0.3528948702108005, -0.3940529657729832, -0.4312943540053596, -0.46499175804177484, -0.415541267102661])","array('d', [-0.013941686600446581, 0.00399402488965955, -0.0006843331048009471, 0.0006523059069984858, 0.00028382741133912564, 0.0003915691398869708, 0.00036032398729377843, 0.0003639732943352561, 0.00035400507827861065, 0.0003448080981920035, 0.00033298925171279943, 0.0003202064498582906, 0.0003066033867836415, 0.00029268893627601254, 0.00027872695455361473, -0.0038409971540987486])","array('d', [-0.5679945190760753, -0.5870310445359269, -0.6006367197843934, -0.6097056202942746, -0.6148630639859308, -0.6165690738132044, -0.6151768198385288, -0.6109677060083557, -0.6041734565612636, -0.5949905368548023, -0.5835898322389671, -0.5701232736970245, -0.5547284316450921, -0.5375317216633916, -0.5186506433275302, -0.5001795796301343])",-97.53994170085797,-218.6731215691468,-49.93858869162321,0.2783874293812621,-0.0006843331048009471,-0.6006367197843934,25.000000249970523,-1.0,[],[],[],10000000000.0,0.06737661361694336
12,22.053837060928345,-218.77267456054688,-97.79547119140625,50.17161178588867,0.36096736788749684,-0.015417084097862323,-0.6241242130610603,23.18597192860148,"array('d', [-95.57957458496094, -96.97929495125123, -98.40834199673726, -99.85699169995361, -101.31704075716233, -102.781352502771, -104.24356302223136, -105.69788294272225, -107.13895964310466, -108.5617796878677, -109.96159906720186, -111.33389331877932, -112.67432224304106, -113.97870555052714, -115.24300681114356, -116.4648009528582])","array('d', [-221.7156982421875, -219.64432033797624, -217.59304090589336, -215.55554660135036, -213.52619989616048, -211.49992495248804, -209.47213390836018, -207.43867898578884, -205.39582154323747, -203.34021206348166, -201.2688772283939, -199.17921142530778, -197.06897082813498, -194.93626872358857, -192.77957112917792, -190.5985188128537])","array('d', [-49.98512268066406, -49.981781343598925, -49.983046386468374, -49.98301611464439, -49.9833588535107, -49.983599719314476, -49.98386903372063, -49.98412688136528, -49.98438166263164, -49.984628668938285, -49.98486741085596, -49.98509672103347, -49.98531609910401, -49.98552526677768, -49.9857242102606, -49.98071006206052])","array('d', [0.46496814489364613, 0.3459801601296416, 0.23831536946583695, 0.14089622944369806, 0.05274773833407667, -0.02701232199010455, -0.09918221557336897, -0.16448424165803827, -0.22357196368466073, -0.2770367503626057, -0.3254136942757959, -0.3691869672583264, -0.40879466613560866, -0.44463319730846385, -0.4770612436784525, -0.4262208528453733])","array('d', [-0.004026583395898268, 0.001265231732979448, -0.00022828251600927178, 0.0001969709816720914, 7.91850141354763e-05, 0.00011294445260730693, 0.00010267832994682891, 0.00010358466461363416, 0.0001002952212559928, 9.735880763438473e-05, 9.36958306364979e-05, 8.981701614838222e-05, 8.575323078784469e-05, 8.164936728354538e-05, 7.757341266861514e-05, -0.00402053495554857])","array('d', [-0.5853873928401133, -0.6022091768214387, -0.6139848214615959, -0.6214885639031527, -0.6252731564184179, -0.6257522717187523, -0.6232482416246455, -0.6180212852878092, -0.6102881896309558, -0.6002346483201029, -0.5880236136262565, -0.5738010462496926, -0.5576999146414918, -0.539842988512473, -0.5203447876380483, -0.5013256788608079])",-98.40834199673726,-217.59304090589336,-49.983046386468374,0.23831536946583695,-0.00022828251600927178,-0.6139848214615959,25.00000024996849,-1.0,[],[],[],10000000000.0,0.0656435489654541
13,22.09821629524231,-217.68557739257812,-98.6432876586914,50.267677307128906,0.3346454799175262,-0.018851647153496794,-0.6357864578578136,23.17576883668119,"array('d', [-96.39973449707031, -97.83004035329773, -99.28578301049647, -100.75790896382856, -102.23869187489451, -103.72134725802515, -105.1997785963752, -106.66840452341735, -108.12203761063687, -109.55579816701079, -110.96505251515933, -112.34536896716955, -113.69248690045872, -115.00229571018042, -116.27082129250981, -117.49571398405863])","array('d', [-220.6045379638672, -218.55415431485716, -216.521729042141, -214.50112909931985, -212.4868607532948, -210.47396938353208, -208.45797499292283, -206.4348295722471, -204.40088960292692, -202.35289817788745, -200.28797337632093, -198.20360048088992, -196.09762635831123, -193.96825479276234, -191.81404190738712, -189.63473215032226])","array('d', [-50.04179763793945, -50.04541124605388, -50.043539126496114, -50.04319482064756, -50.042403835862316, -50.04173306348032, -50.041032419674714, -50.04035261662614, -50.03968671414199, -50.03904254908259, -50.03842232725902, -50.03782843734584, -50.03726195684724, -50.036723270151114, -50.036212130978754, -50.03054412787396])","array('d', [0.4205744564533234, 0.30581108606552426, 0.20196888491234724, 0.10800856722652849, 0.02298974827264422, -0.05393846732232385, -0.1235460016004238, -0.18652950889731337, -0.2435193481803091, -0.29508589188123613, -0.34174523436474324, -0.38396435716371735, -0.42216580267448667, -0.4567319030676111, -0.4880086063595195, -0.43589673362915404])","array('d', [0.00464266724884524, -0.0016468531098061832, 0.00011968772070039305, -0.00038668509362938935, -0.0002484094523502045, -0.0002875554216360541, -0.000273199116351639, -0.00027068525990441505, -0.00026217863581984714, -0.0002533015005546583, -0.00024304702352198623, -0.00023224510427312142, -0.00022112480273010657, -0.00021000997073189668, -0.00019908363889457526, -0.004267459623667729])","array('d', [-0.6012245853755138, -0.616113714271394, -0.626269639136683, -0.6323737096536038, -0.6349211967879131, -0.6342884478746448, -0.6307726407919011, -0.6246165361122478, -0.616024503333367, -0.6051732104278759, -0.5922189097223602, -0.5773024762159862, -0.5605529197026351, -0.5420898383336435, -0.5220251273744901, -0.5025039230627668])",-99.28578301049647,-216.521729042141,-50.043539126496114,0.20196888491234724,0.00011968772070039305,-0.626269639136683,25.000000249966348,-1.0,[],[],[],10000000000.0,0.045180559158325195
14,22.144020080566406,-216.96437072753906,-99.21324920654297,50.336692810058594,0.32017141580581665,-0.01999113708734525,-0.6425399025294444,23.169511326963903,"array('d', [-97.23341369628906, -98.69132788455185, -100.17147280952176, -101.66531242051128, -103.16550104682547, -104.66554192989211, -106.15955895395976, -107.64214400782242, -109.10824838321125, -110.55310557446248, -111.97217591844901, -113.36110726591052, -114.71570757446266, -116.03192654274731, -117.3058441575643, -118.53517585049619])","array('d', [-219.50262451171875, -217.4718182412495, -215.45709906639286, -213.45249752637486, -211.45264077242027, -209.4526728304397, -207.44820312903394, -205.4352668599068, -203.4103004501235, -201.3701252013824, -199.31193664807907, -197.23329726236696, -195.13213100790168, -193.00671861515437, -190.85569278799088, -188.6788881826651])","array('d', [-50.115028381347656, -50.12408967820055, -50.119094234285136, -50.11800896013274, -50.11578499858143, -50.113873860040016, -50.111894847233984, -50.10997894795276, -50.10810964848922, -50.10630743089995, -50.104577974849725, -50.10292703272021, -50.10135676040805, -50.09986738435871, -50.098457456562286, -50.09196354227719])","array('d', [0.3824967741966247, 0.27135697124658054, 0.1707935097948613, 0.07979991874365822, -0.002534494698979531, -0.07703375952216833, -0.14444348805631285, -0.20543833829836247, -0.26062876610350927, -0.31056713482136467, -0.3557532435236577, -0.3966393291511896, -0.43363459264052473, -0.46710929430954173, -0.4973984591152406, -0.444187157153787])","array('d', [0.011812785640359084, -0.004294941987376464, 0.00022320900783378945, -0.0010698574836219628, -0.0007152279111372505, -0.0008120675777483853, -0.000771814321180577, -0.0007610842376672902, -0.0007347940306138992, -0.0007074365289195172, -0.0006766421199080647, -0.0006446454349753189, -0.0006121151547047987, -0.0005799227763730372, -0.0005485429867173119, -0.004579358320919778])","array('d', [-0.6155914505335944, -0.6288723439141114, -0.6376647604483459, -0.642580523917854, -0.6440710997554001, -0.6424839960670391, -0.6380967444935609, -0.6311383490504707, -0.6218033199853366, -0.6102611074434329, -0.5966625660595566, -0.5811444398622825, -0.5638324927067192, -0.5448436942097727, -0.524287739057388, -0.504331959414118])",-100.17147280952176,-215.45709906639286,-50.119094234285136,0.1707935097948613,0.00022320900783378945,-0.6376647604483459,25.000000249964117,-1.0,[],[],[],10000000000.0,0.043569087982177734
15,22.1958646774292,-215.88723754882812,-100.07450103759766,50.44472885131836,0.3004825413227082,-0.019533533602953068,-0.6512183388087416,23.159997004778194,"array('d', [-97.79547119140625, -99.2697183580007, -100.76443048352002, -102.2713457336307, -103.78332290936285, -105.29402300857194, -106.79769138053092, -108.28901617865681, -109.76302622067404, -111.21501861502753, -112.64050679347, -114.03518371420826, -115.39489635748811, -116.71562881698333, -117.9934919713622, -119.22623806712814])","array('d', [-218.77267456054688, -216.753728368822, -214.74979890340356, -212.75500793520126, -210.76405022501143, -208.7721230632956, -206.7748850411433, -204.76841721406777, -202.74920033702048, -200.71409921782535, -198.6603525844661, -196.58556601570334, -194.48770655970912, -192.36509795102114, -190.2164156776423, -188.04154603185603])","array('d', [-50.17161178588867, -50.1831743466928, -50.176200320173955, -50.17437245757051, -50.17104656350945, -50.16813815872408, -50.16515102112393, -50.162260832511045, -50.15944853111304, -50.15674266093724, -50.15415151168405, -50.151682769854574, -50.14933887955282, -50.147119377485495, -50.14502137947737, -50.13789615736371])","array('d', [0.36096736788749684, 0.2518763570653458, 0.15316671956064792, 0.06385053793510662, -0.01696609255634039, -0.09009201044843303, -0.15625908317881437, -0.21612953185003017, -0.2703025589488333, -0.31932034535507225, -0.36367347665999616, -0.4038058531017755, -0.44011913225585336, -0.47297674892433567, -0.5027075520848698, -0.4488707795888005])","array('d', [0.015417084097862323, -0.005812667409817467, 0.00013422462376025572, -0.0015681165553441873, -0.0011004018881744552, -0.0012242563048838898, -0.0011664191590657748, -0.0011460716600057044, -0.0011044640090518774, -0.001060958294718815, -0.0010127654117079402, -0.0009630575789574418, -0.0009128917839713583, -0.0008635334803766944, -0.0008156636702871512, -0.004817765364224293])","array('d', [-0.6241242130610603, -0.6365135809899151, -0.6445441750546961, -0.6487921543566826, -0.6496862327903471, -0.6475587962223596, -0.6426769962225775, -0.635262522877576, -0.6255046154752725, -0.613568844670262, -0.5996031474663035, -0.5837420207151797, -0.5661094495835435, -0.5468209514332978, -0.5259849944381234, -0.5057818617389317])",-100.76443048352002,-214.74979890340356,-50.176200320173955,0.15316671956064792,0.00013422462376025572,-0.6445441750546961,25.000000249962632,-1.0,[],[],[],10000000000.0,0.049785614013671875
16,22.245729684829712,-215.1718292236328,-100.65226745605469,50.517879486083984,0.2875263392925262,-0.017940020188689308,-0.6562499245021004,23.154381746312925,"array('d', [-98.6432876586914, -100.13985460233036, -101.65475467261122, -103.18005597058038, -104.70886124519737, -106.23502394020359, -107.75293841621416, -109.2574120974, -110.74357054172714, -112.20679076662852, -113.64265324064824, -115.04690807532613, -116.41545177077958, -117.74431203775114, -119.02963880832799, -120.2692292434795])","array('d', [-217.68557739257812, -215.68316118249194, -213.69446155887212, -211.71369523990285, -209.7356339763619, -207.75553271283115, -205.76910448285665, -203.77248118537653, -201.76219309252576, -199.73515385918722, -197.68865093984564, -195.62033871897916, -193.5282331602355, -191.4107069160781, -189.26648420076293, -187.0955134798739])","array('d', [-50.267677307128906, -50.28110461034643, -50.27135533486179, -50.26801503557663, -50.262807510861, -50.258134906993725, -50.25339111477798, -50.248804383308325, -50.24435812881619, -50.24009237508657, -50.23601976048774, -50.23215031348827, -50.22848614645172, -50.225024751510986, -50.221760004344326, -50.21356589539761])","array('d', [0.3346454799175262, 0.22805932575931792, 0.13161617649627905, 0.0443507984250983, -0.03461018810523189, -0.10605704975465986, -0.17070484943207245, -0.22920060287222743, -0.2821297541749031, -0.33002203511547606, -0.3733567668686343, -0.4125676572060444, -0.44804714117729894, -0.48015030869759234, -0.5091984579822622, -0.45459300930055363])","array('d', [0.018851647153496794, -0.007667040368780016, -0.00025604800063880085, -0.002380748459363724, -0.0017950450433705358, -0.0019406118485949763, -0.0018558383552645785, -0.0018142427403180965, -0.0017439355575625678, -0.0016699040418494838, -0.0015895298481751457, -0.00150739906236161, -0.0014253050790273432, -0.0013451488961220264, -0.001267937592428644, -0.00522141691371769])","array('d', [-0.6357864578578136, -0.6471014759866505, -0.654208519069429, -0.6576433684182564, -0.657808735169603, -0.6550195947690697, -0.6495310777632741, -0.6415563622526886, -0.6312785258184894, -0.6188585840351504, -0.6044410319114276, -0.5881577009259477, -0.5701304534504161, -0.5504730616516751, -0.529292509087349, -0.5087853192865948])",-101.65475467261122,-213.69446155887212,-50.27135533486179,0.13161617649627905,-0.00025604800063880085,-0.654208519069429,25.000000249960387,-1.0,[],[],[],10000000000.0,0.0485987663269043
17,22.296233415603638,-214.10226440429688,-101.52124786376953,50.625919342041016,0.2671922445297241,-0.013942056335508898,-0.6627454002711438,23.145472573663724,"array('d', [-99.21324920654297, -100.72269885754262, -102.24933013895036, -103.78537819589103, -105.32408313288896, -106.8594021841419, -108.3858111889599, -109.89818287490664, -111.39169607259404, -112.86177195197043, -114.30402814009823, -115.71424649774592, -117.0883510697632, -118.4223938344412, -119.7125464339649, -120.95663049846648])","array('d', [-216.96437072753906, -214.97166625715315, -212.9919547031794, -211.019513716135, -209.04914730406247, -207.07614130604512, -205.09623715525203, -203.10559375560706, -201.10076767931503, -199.07869862885133, -197.03670008947287, -194.97245255772592, -192.88399818847486, -190.76973583479466, -188.6284158062037, -186.46002106737083])","array('d', [-50.336692810058594, -50.35259101067792, -50.342669606836694, -50.33758529653157, -50.331068984767136, -50.324980790941304, -50.318887748193916, -50.3129867355299, -50.30728309382646, -50.30181970254791, -50.296613646175835, -50.29167575551257, -50.287007453109716, -50.28260409112813, -50.27845658926508, -50.26945475582293])","array('d', [0.32017141580581665, 0.21496264977363902, 0.11976581293908663, 0.03362814508991564, -0.04431244694240781, -0.11483601738524703, -0.17864838855551973, -0.2363882149538482, -0.28863337512181947, -0.3359067552340515, -0.3786814823089593, -0.4173856594133423, -0.452406650249687, -0.48409495598833474, -0.5127677227786583, -0.45773765327506466])","array('d', [0.01999113708734525, -0.006824753402421242, -0.0012061308331009805, -0.002834161823292377, -0.0023863636480892, -0.002482590917506095, -0.002393336992225247, -0.0023285581169469596, -0.0022359048019865795, -0.0021364704213900163, -0.00203015126203662, -0.001921968503393765, -0.0018144688618373095, -0.001709965829954327, -0.001609709623921633, -0.00552644200450748])","array('d', [-0.6425399025294444, -0.6532708908384557, -0.6598734087682365, -0.6628624390751859, -0.6626271928968024, -0.6594735509382594, -0.6536503331562888, -0.6453662303850888, -0.6348010594178326, -0.6221134159294741, -0.6074459586253794, -0.5909290901366511, -0.5726835285584944, -0.5528220995845983, -0.5314509765351259, -0.5107758078353182])",-102.24933013895036,-212.9919547031794,-50.342669606836694,0.11976581293908663,-0.0012061308331009805,-0.6598734087682365,25.000000249958926,-1.0,[],[],[],10000000000.0,0.04814553260803223
18,22.33598804473877,-213.39093017578125,-102.10354614257812,50.69628143310547,0.25212809443473816,-0.010675129480660022,-0.6663555343958997,23.143810928375387,"array('d', [-100.07450103759766, -101.6003927530882, -103.14190801000703, -104.69152573046978, -106.24266018008332, -107.78940436177841, -109.32634017943157, -110.84842556582217, -112.35090878737554, -113.82926857367876, -115.27917101188825, -116.69643942330447, -118.07703390877717, -119.41703832937833, -120.71265299254266, -121.96173269102208])","array('d', [-215.88723754882812, -213.90708425128912, -211.93894780753416, -209.97715641576744, -208.01656829983818, -206.05251456187835, -204.08077914638213, -202.09756110431476, -200.0994561436531, -198.0834426153072, -196.04687252234086, -193.98746487781924, -191.90330035224517, -189.79281621763678, -187.654800948501, -185.48928648232382])","array('d', [-50.44472885131836, -50.45953843912132, -50.447843610005194, -50.44046843492749, -50.43180373158188, -50.42356041721756, -50.41538043171519, -50.40746601107215, -50.39984055838858, -50.392554635555115, -50.38562988183479, -50.379077564376026, -50.37289687506294, -50.36707894629083, -50.36160933175725, -50.35139932411986])","array('d', [0.3004825413227082, 0.19714741780852935, 0.1036459229858557, 0.019042264164356892, -0.057510298974391666, -0.12677792882324262, -0.18945387784630494, -0.24616542687001056, -0.2974801631090272, -0.34391166075945334, -0.3859246210123448, -0.42393952292995074, -0.45833683172958534, -0.4894608065737575, -0.5176229456123375, -0.4620129812898267])","array('d', [0.019533533602953068, -0.0072388104428311615, -0.002201135344476777, -0.003674436158820238, -0.003264184194753247, -0.003329391395938146, -0.0032164920072964356, -0.003116719427700518, -0.002985835525924269, -0.002845256083582952, -0.0026970266878046014, -0.002547330464133357, -0.002399688933149048, -0.0022570379456581303, -0.002120927721332203, -0.005982688357293072])","array('d', [-0.6512183388087416, -0.6611619363217658, -0.66708155484687, -0.669465375945576, -0.6686851035773304, -0.6650347652197864, -0.6587549228506984, -0.6500483748491854, -0.639090642197432, -0.6260371219690287, -0.611028036754717, -0.5941918856388209, -0.5756478549636921, -0.5555074968041519, -0.533875888337805, -0.5129713173324442])",-103.14190801000703,-211.93894780753416,-50.447843610005194,0.1036459229858557,-0.002201135344476777,-0.66708155484687,25.0000002499568,-1.0,[],[],[],10000000000.0,0.03864860534667969
19,22.372838735580444,-212.6806640625,-102.68799591064453,50.76458740234375,0.23566211760044092,-0.0067256703041494725,-0.6696237762782237,23.143824330134144,"array('d', [-100.65226745605469, -102.18759648094749, -103.7375316495951, -105.29472297496127, -106.85268733367461, -108.40560270835466, -109.94811616994694, -111.47523817117452, -112.98225956968626, -114.46469435508163, -115.91823827603203, -117.33874006805429, -118.72218201803676, -120.06466773486399, -121.36241544753305, -122.613301810338])","array('d', [-215.1718292236328, -213.198957001722, -211.23745985110915, -209.28167968582719, -207.32652191221743, -205.36735068538152, -203.3999824482188, -201.42064650693123, -199.425968113036, -197.41295465629213, -195.37898697031488, -193.32181277442064, -191.2395413311825, -189.13063832995397, -186.99392038564883, -184.82945360283767])","array('d', [-50.517879486083984, -50.52889817571378, -50.51499441658502, -50.506364610891104, -50.49618219843283, -50.48652478638414, -50.476953770411896, -50.46771096800319, -50.45882091970371, -50.45034126919416, -50.442294964431746, -50.43469290106787, -50.42753193098287, -50.42079972846075, -50.414477731883395, -50.40348973219831])","array('d', [0.2875263392925262, 0.18542416035404458, 0.09303828001888272, 0.009444071021227098, -0.06619510406254063, -0.13463626614719404, -0.1965643961446708, -0.2525992904708155, -0.3033017641649313, -0.34917926370489183, -0.3906909456925161, -0.42825227223779766, -0.4622391690315422, -0.49299178770259305, -0.5208179097523455, -0.4648248654358581])","array('d', [0.017940020188689308, -0.008680680110590826, -0.002544761427836236, -0.004329327567895909, -0.003825037489087149, -0.003899666331873076, -0.0037595032785563984, -0.0036368023205154633, -0.003477902017987873, -0.003308654719468846, -0.0031313578135151892, -0.002953273006562988, -0.002778427614686656, -0.0026101481022116685, -0.002450124025283864, -0.006276482582481644])","array('d', [-0.6562499245021004, -0.6656795255478221, -0.6711517164174604, -0.6731379300336109, -0.6719988641586434, -0.6680210594198195, -0.6614398417363955, -0.6524542608371634, -0.6412370961879864, -0.6279416969038122, -0.6127067201440234, -0.5956594366799339, -0.5769180397666505, -0.5565932515091195, -0.5347894310647212, -0.5137333280965699])",-103.7375316495951,-211.23745985110915,-50.51499441658502,0.09303828001888272,-0.002544761427836236,-0.6711517164174604,25.000000249955388,-1.0,[],[],[],10000000000.0,0.03356456756591797
20,22.408308744430542,-211.97120666503906,-103.27433776855469,50.829811096191406,0.2181967049837112,-0.002442680066451516,-0.6727182110163828,23.142055998223594,"array('d', [-101.23096466064453, -102.77451699681043, -104.33164424152358, -105.8951665697006, -107.45870042371759, -109.01650623685772, -110.56329395362944, -112.09412450680347, -113.60432952863773, -115.08945667544639, -116.54522999171223, -117.96752249614218, -119.35233777225442, -120.69579853439667, -121.99414054117572, -123.24526315548157])","array('d', [-214.45840454101562, -212.49192813193437, -210.5361519634411, -208.58543548173782, -206.63473732584416, -204.6794602725179, -202.71545853910052, -200.73899669485402, -198.74673434101152, -196.73571254786035, -194.70334548181577, -192.64741394596516, -190.5660600549072, -188.45778205951888, -186.32142874144108, -184.15710326275598])","array('d', [-50.59022521972656, -50.59648938906759, -50.580536356091535, -50.570595686847724, -50.55890753507994, -50.547835992441335, -50.53688410568086, -50.52632623060111, -50.51618897304415, -50.50653564746717, -50.497389784174864, -50.48876110136844, -50.480643487671685, -50.47302065780431, -50.46586956470339, -50.45412534843023])","array('d', [0.2741774916648864, 0.1733456224387701, 0.0821091659679699, -0.0004450012138170693, -0.07514310746101965, -0.14273275517226866, -0.20389040303290168, -0.25922813622855223, -0.309299792388258, -0.3546065045674326, -0.39560171674650263, -0.43269572204141, -0.46625976904333244, -0.4966297773661238, -0.524109699227254, -0.46772069914297393])","array('d', [0.015363947488367653, -0.009930500342462642, -0.002948512231777146, -0.0049703176531834415, -0.004389920051545389, -0.004466072550172988, -0.004298264182617354, -0.004150525486922744, -0.003962440348286874, -0.0037635570097819945, -0.0035566023012682086, -0.0033498073443994298, -0.003147667073042255, -0.0029538396464686713, -0.002770107603078217, -0.006562053222456609])","array('d', [-0.6606868942591805, -0.6695901301329902, -0.6746028065924387, -0.6761797995883704, -0.6746708754203344, -0.6703551110540047, -0.6634625965960409, -0.6541886232387095, -0.6427032146414399, -0.6291576557425576, -0.6136890211088608, -0.5964233354207525, -0.5774777805187601, -0.5569622296566956, -0.5349803045428038, -0.5137675958286122])",-104.33164424152358,-210.5361519634411,-50.580536356091535,0.0821091659679699,-0.002948512231777146,-0.6746028065924387,25.000000249953988,-1.0,[],[],[],10000000000.0,0.035187721252441406
21,22.45656681060791,-211.6167449951172,-103.56814575195312,50.86105728149414,0.20917281508445737,-0.0003575537120924061,-0.674331112704005,23.143568139827092,"array('d', [-101.81211853027344, -103.36280004825845, -104.92597897695217, -106.49463393607944, -108.0624891876443, -109.62388646825231, -111.17359884493139, -112.70673721805467, -114.21867352674494, -115.70498857612886, -117.1614342627329, -118.58390756456134, -119.96843320793401, -121.31115306376952, -122.60832070307976, -123.85786012134895])","array('d', [-213.7464599609375, -211.7855718736934, -209.83463490686327, -207.88805242659816, -205.94083526727627, -203.98843431622632, -202.02674840367706, -200.05208454431087, -198.061143432159, -196.05100641313535, -194.01912740339975, -191.96332656437508, -189.88178499667833, -187.77303950563228, -185.6359768834605, -183.4707420530514])","array('d', [-50.66114807128906, -50.663867154364205, -50.64698014255306, -50.63535706235217, -50.62221842831491, -50.60967764384176, -50.59732938673266, -50.58543781486637, -50.574042374494724, -50.56320778416492, -50.552958125458964, -50.54330084723664, -50.534226255295785, -50.52571353382977, -50.51773473909575, -50.505235849654845])","array('d', [0.2598746418952942, 0.16040386761037667, 0.07039898088343285, -0.01104081581024824, -0.0847305978509202, -0.15140787600794373, -0.2117399776820568, -0.26633072573016436, -0.31572648171643375, -0.36042161407243245, -0.4008634458932605, -0.4374567318882906, -0.47056770929077313, -0.5005277632501279, -0.5276367430322783, -0.4708220261684733])","array('d', [0.0124122193083168, -0.009865267190716984, -0.0037465387361444, -0.005522336214545517, -0.004997376785487906, -0.0050346706339738576, -0.0048471041200727665, -0.004669157665759975, -0.004450867639580979, -0.0042206718147176124, -0.0039830421942736735, -0.0037467415048294483, -0.0035167840811028777, -0.0032970714420727577, -0.0030894388540568868, -0.006847041109588155])","array('d', [-0.6645974357936045, -0.6729400777761823, -0.6774619136317763, -0.6786008312466145, -0.6766953263823619, -0.6720167511997343, -0.6647897595100926, -0.6552057290203401, -0.6434318061184459, -0.6296171143357758, -0.6138970656804951, -0.5963963708547079, -0.5772311406698718, -0.5565103454432265, -0.5343368189480711, -0.5129557647536912])",-104.92597897695217,-209.83463490686327,-50.64698014255306,0.07039898088343285,-0.0037465387361444,-0.6774619136317763,25.00000024995258,-1.0,[],[],[],10000000000.0,0.04604530334472656
22,22.50863289833069,-210.5536346435547,-104.44982147216797,50.948158264160156,0.18184059858322138,0.005249672569334435,-0.6791676719996591,23.14490165225201,"array('d', [-102.10354614257812, -103.65737602093212, -105.22312875916442, -106.79386309785379, -108.36335944035825, -109.926001018012, -111.47659316303523, -113.01027215389573, -114.52243034085805, -116.00866527262976, -117.46474291300628, -118.88657237396535, -120.27018915409543, -121.61174497522954, -122.9075026779696, -124.15539978512942])","array('d', [-213.39093017578125, -211.4325230218145, -209.48365350569532, -207.53875369860634, -205.5928641129563, -203.6414639744573, -201.68047818657175, -199.7062386607807, -197.7154701652171, -195.70527762188775, -193.67313818078435, -191.61689497297726, -189.53475181604728, -187.42526794809856, -185.28735224862024, -183.12117308812805])","array('d', [-50.69628143310547, -50.69699788923553, -50.679706188487664, -50.66722625950662, -50.65337294385144, -50.640104700244514, -50.6270696293666, -50.61452390438601, -50.60251339825597, -50.591102792946394, -50.5803160226602, -50.57015902164819, -50.56062004334586, -50.55167582925937, -50.54329588321994, -50.53043129516436])","array('d', [0.25212809443473816, 0.15339450097253582, 0.0640566430982652, -0.01677960087593559, -0.08992326578279528, -0.1561063966777535, -0.21599137537862842, -0.2701775497934398, -0.3192072323847932, -0.3635711278053227, -0.4037132440255587, -0.44003533610585005, -0.4729009270845373, -0.5026389462057763, -0.5295470205412802, -0.47250108551671316])","array('d', [0.010675129480660022, -0.009761033065877297, -0.004165795623377743, -0.005791077096941606, -0.005299827173936563, -0.005314571472876638, -0.005116831095775139, -0.0049230240181900985, -0.004689316480164351, -0.004443303382585807, -0.004190359171787489, -0.003939449603417862, -0.0036958157950637686, -0.0034634470567539415, -0.003244180085146878, -0.006985140442389453])","array('d', [-0.6663555343958997, -0.6743959346547143, -0.6786525268326246, -0.6795543100898099, -0.6774338605327326, -0.6725584606609564, -0.6651498930204168, -0.6553974636645467, -0.6434667924839936, -0.6295058535885504, -0.6136491724768631, -0.596020757051584, -0.5767361432932543, -0.5559038151374808, -0.5336261804067791, -0.5121537104071751])",-105.22312875916442,-209.48365350569532,-50.679706188487664,0.0640566430982652,-0.004165795623377743,-0.6786525268326246,25.000000249951878,-1.0,[],[],[],10000000000.0,0.049283504486083984
23,22.55744957923889,-209.83067321777344,-105.05193328857422,51.0035285949707,0.1626923680305481,0.008901056833565138,-0.6820663650843761,23.14988472088302,"array('d', [-102.98094940185547, -104.54316133249337, -106.1154688687553, -107.69116590559032, -109.26420763172054, -110.8291035864912, -112.38075791999239, -113.91438424985756, -115.42543710078132, -116.90956500630087, -118.36257686106836, -119.78041898572977, -121.15916016743165, -122.49498288268101, -123.78417926169669, -125.02473157254593])","array('d', [-212.32583618164062, -210.3740855822325, -208.4305060709519, -206.48964261795936, -204.5466341600568, -202.59705775349983, -200.63692760524378, -198.66266135633458, -196.67106666371384, -194.65932964289303, -192.62500740654724, -190.56602206820546, -188.48065547334363, -186.36754382269532, -184.22567168543478, -182.05528570535247])","array('d', [-50.797611236572266, -50.79160995029429, -50.77335260315082, -50.758301815169375, -50.7423915554524, -50.72701912274542, -50.71201604730576, -50.69760431010202, -50.683848174772336, -50.67080918493815, -50.65850900891626, -50.64694754052656, -50.63610590825404, -50.62595293838369, -50.61645020260168, -50.60256238736208])","array('d', [0.22702853381633756, 0.13068347729148375, 0.04350685720826015, -0.03537381776618539, -0.1067480105082305, -0.17133005663326023, -0.2297663137936275, -0.28264163063153336, -0.3304852001301492, -0.3737758559451381, -0.4129468647238132, -0.4483902623744883, -0.48046077768231654, -0.5094793825216096, -0.5357365038404193, -0.4779381849929048])","array('d', [0.004628471564501625, -0.009198874135305853, -0.0054693575584056344, -0.006553264309064906, -0.0061812355129384905, -0.006117845501990402, -0.005888512532226417, -0.005645003222146237, -0.005364637558712945, -0.005071491789934361, -0.00477365714139752, -0.00448044189410234, -0.00419760926382502, -0.003929265413117014, -0.0036771472956518727, -0.007371544284111573])","array('d', [-0.6711348732325694, -0.678202125467012, -0.6816018549798006, -0.681735690385711, -0.6789178792808399, -0.6734030479776607, -0.6654040165167355, -0.6551036026113606, -0.6426626292272676, -0.6282254454186372, -0.6119237692764251, -0.5938793725325502, -0.5742059525316937, -0.5530104288988104, -0.5303938321803908, -0.5086240030120078])",-106.1154688687553,-208.4305060709519,-50.77335260315082,0.04350685720826015,-0.0054693575584056344,-0.6816018549798006,25.000000249949696,-1.0,[],[],[],10000000000.0,0.047028541564941406
