,current_time,x_pos,y_pos,z_pos,roll,pitch,yaw,vel,x_traj,y_traj,z_traj,roll_traj,pitch_traj,yaw_traj,x_cmd,y_cmd,z_cmd,roll_cmd,pitch_cmd,yaw_cmd,vel_cmd,effector_dmg,effector_x,effector_y,effector_z,cost,time_solution
0,5.704450368881226,-334.294921875,-90.98826599121094,49.94953155517578,0.6314009428024291,0.040999073535203864,0.6000546971943717,23.124521615649893,"array('d', [-92.72628021240234, -91.27822403927814, -89.89034905754065, -88.56395749342248, -87.29081117158603, -86.05825502591816, -84.85489753309103, -83.67101897893185, -82.49811805867934, -81.32862979092026, -80.15574263438033, -78.97387195731952, -77.78190796696009, -76.58576758888965, -75.39122897548393, -74.19930825498069])","array('d', [-337.03192138671875, -334.99559935265, -332.9165650138448, -330.7975380481122, -328.64606338228907, -326.4710529392005, -324.2797370871541, -322.0778276007232, -319.8700466581202, -317.66045481999913, -315.4526662847741, -313.2496753347306, -311.0521281239148, -308.85684977658565, -306.66069939797427, -304.4631356937637])","array('d', [-49.960086822509766, -49.88349784546183, -49.855708649736194, -49.85435894825861, -49.85550256998183, -49.855952279088264, -49.85659557321005, -49.85718453429108, -49.85778884004091, -49.85838880326531, -49.858990002779855, -49.85959082322309, -49.86019173990966, -49.860792625053804, -49.86139351424382, -49.856764303868715])","array('d', [0.6304394006729124, 0.6451856648611973, 0.6585286376432413, 0.57319568186192, 0.4439084942795125, 0.3269245986668563, 0.22107318305663787, 0.1252948528785962, 0.038631028275634444, -0.03978564943107959, -0.11073999672076829, -0.13527563636842707, -0.04766206274871335, 0.03161379157282428, 0.030712577551690653, 0.02754018643038672])","array('d', [-0.04107075557112689, -0.02055336936106403, -0.0019884689746060705, 0.0008611697209962912, 6.697643038928932e-05, 0.0002890856300921329, 0.000226592183093583, 0.00024428158690183616, 0.00023924699977683712, 0.00024069935144032382, 0.0002402674647509659, 0.00024038689728050333, 0.00024034711544075724, 0.00024036077188363205, 0.0002403507471863232, -0.0038750725941858553])","array('d', [0.6326180855419972, 0.6035270908190404, 0.5735739014475495, 0.545820979336839, 0.5239614705696253, 0.5080648234352372, 0.49706191134025574, 0.4902242729191413, 0.4870273405374651, 0.48707567247958367, 0.49005918569568263, 0.4949189069156018, 0.4984916047069986, 0.4987806948651741, 0.49755775068033903, 0.496415545675073])",-89.89034905754065,-332.9165650138448,-49.855708649736194,0.6585286376432413,-0.0019884689746060705,0.5735739014475495,25.000000249990727,-1.0,[],[],[],10000000000.0,0.03880596160888672
1,5.748144149780273,-333.50445556640625,-90.5089111328125,49.946529388427734,0.6320440173149107,0.04098913446068764,0.5906956950810289,23.12432845434338,"array('d', [-92.218505859375, -90.78881343080866, -89.41966148886293, -88.1112347362649, -86.85139976935893, -85.62741643188778, -84.42863015270193, -83.24585064585546, -82.07097863407365, -80.89676928569196, -79.71667688270354, -78.52690929628604, -77.33245273726216, -76.13855296829544, -74.94469093523198, -73.75071141545486])","array('d', [-336.2513427734375, -334.2021060031209, -332.1107006266162, -329.9805252981716, -327.8212164482743, -325.6413628691868, -323.4475387783827, -321.24503656064934, -319.0383030929762, -316.8312166441344, -314.6272718822008, -312.42853486176216, -310.232339921367, -308.03584205287177, -305.8393236314554, -303.642877344836])","array('d', [-49.956520080566406, -49.87939693880327, -49.85112420938561, -49.84962673141165, -49.85083737782241, -49.85129438580008, -49.85196172775759, -49.85257005135526, -49.85319503754575, -49.853815297667445, -49.854436898777635, -49.855058096802324, -49.85567940803151, -49.85630068494653, -49.85692196528458, -49.85231203814552])","array('d', [0.6303054094314573, 0.6450644245577595, 0.6584189348574708, 0.5210216984310273, 0.39669951759347255, 0.2842081462730549, 0.18242173513449636, 0.0903215735013201, 0.006985893917529102, -0.06841935255986133, -0.1366488369949116, -0.05428306688609917, 0.024204748501520636, -0.0050570796686585425, -0.0007098297366092247, -0.0006365163314115128])","array('d', [-0.04129539430141443, -0.020756630908018263, -0.002172387642491169, 0.000922771289772744, 6.013636589303375e-05, 0.0003014445150528345, 0.00023356147632378428, 0.0002527768510392993, 0.0002473034094665761, 0.0002488784138134632, 0.0002484102838247966, 0.00024854587416016155, 0.0002485038110380153, 0.0002485174928809226, 0.0002485069535180133, -0.0038677872576354092])","array('d', [0.6236292878773549, 0.5945460446779188, 0.5646000189223165, 0.538347282312172, 0.5189808440328101, 0.5051049987423718, 0.4958065354925553, 0.49044870319775186, 0.48856424963523476, 0.48979523238840145, 0.493856989260237, 0.49758944434653407, 0.49815423445249063, 0.4977880971165835, 0.4978998215007848, 0.497926212832786])",-89.41966148886293,-332.1107006266162,-49.85112420938561,0.6584189348574708,-0.002172387642491169,0.5646000189223165,25.00000024999072,-1.0,[],[],[],10000000000.0,0.04170846939086914
2,5.801304578781128,-332.3103942871094,-89.80380249023438,49.94197082519531,0.6333445906639096,0.04045015946030608,0.5769422809269763,23.13198997321253,"array('d', [-91.72106170654297, -90.31043362018647, -88.96025040012695, -87.66872028607722, -86.42364040706923, -85.21263619958502, -84.02530054715795, -82.85262162779338, -81.6866358644575, -80.52020644496302, -79.34687718788213, -78.16223146002885, -76.96870374713882, -75.77279254971451, -74.57880625440554, -73.38394773414029])","array('d', [-335.47210693359375, -333.4097054230662, -331.306000617192, -329.1655308530479, -326.99767611040704, -324.8105828442497, -322.61053895123405, -320.4026416017808, -318.19119977232464, -315.9799919829657, -313.7724396919184, -311.570940089704, -309.37424109146724, -307.17883786121104, -304.9823871542809, -302.7864192758273])","array('d', [-49.953800201416016, -49.87655078501996, -49.84816374964988, -49.846636840319015, -49.84787259417668, -49.84833956096224, -49.84902116797452, -49.84964257890747, -49.850280997390215, -49.850914590511884, -49.85154954280201, -49.85218407289309, -49.85281871289527, -49.853453318876355, -49.85408792759957, -49.84949060348804])","array('d', [0.6306433677673339, 0.6453702219109656, 0.6352002537612235, 0.5000125560510037, 0.37768965760787415, 0.26700731200580413, 0.16685777516386005, 0.07623871872436622, -0.00575680150379115, -0.07994942223480495, -0.1470816833938693, -0.11124138013950086, -0.02591501086148255, 0.04526646588392068, -0.02135829938853893, -0.01915224709979329])","array('d', [-0.04134849831461897, -0.020804681410532756, -0.002215865538594379, 0.0009416636063865469, 6.162041546562751e-05, 0.0003078454878326489, 0.00023859535354916296, 0.00025820624425542575, 0.0002526217036455733, 0.0002542260306794544, 0.0002537438456108657, 0.0002538779898290244, 0.0002538347338906034, 0.0002538498000183815, 0.0002538373860211347, -0.0038630261424575426])","array('d', [0.614367024102483, 0.5852642268714664, 0.5560357090179112, 0.5310245639150334, 0.512626800250066, 0.4995460223946145, 0.4909242423222999, 0.48615781614324066, 0.48480047923903236, 0.4865081713911254, 0.4910057226711772, 0.4960910236076873, 0.49875985061552197, 0.498356701549552, 0.4979092364514222, 0.49870344057484056])",-88.96025040012695,-331.306000617192,-49.84816374964988,0.6352002537612235,-0.002215865538594379,0.5560357090179112,25.000000249990716,-1.0,[],[],[],10000000000.0,0.04907703399658203
3,5.8472607135772705,-331.5126037597656,-89.34504699707031,49.93928527832031,0.6345184445381161,0.039120681583881205,0.5675735036518911,23.139185473446755,"array('d', [-90.98826599121094, -89.60733132124565, -88.28582466251464, -87.01573292223904, -85.78472876793424, -84.58166196405818, -83.39698519236859, -82.22232723614653, -81.05022631954927, -79.8739562824062, -78.68856322316877, -77.49511410014316, -76.29950889045098, -75.10542573889815, -73.91122944777707, -72.71695101974724])","array('d', [-334.294921875, -332.2124910640986, -330.09062958625407, -327.9373470742429, -325.7614558043001, -323.56997893251423, -321.3684980965501, -319.1616512004817, -316.9534441853619, -314.7474563862168, -312.5463582925117, -310.34961645985646, -308.1540465039226, -305.9576483751668, -303.7613116777527, -301.56502781701704])","array('d', [-49.94953155517578, -49.87311303040016, -49.84547813010781, -49.84420928952975, -49.84538832225983, -49.845886147325515, -49.846574202683534, -49.847208906622754, -49.84785867113447, -49.84850414970734, -49.84915083639571, -49.84979716262568, -49.85044359297958, -49.85108999171759, -49.8517363927445, -49.84715022237751])","array('d', [0.6314009428024291, 0.6460557041984879, 0.5569948917774774, 0.42924941187806087, 0.31366051119126964, 0.20907133930198224, 0.11443513457717898, 0.028804747919911385, -0.0486768363357849, -0.11878507555592367, -0.10533493303456108, -0.02057062063089782, 0.03418607830427819, -0.010518394788735239, 0.0008726777002186589, 0.0007825448525692676])","array('d', [-0.040999073535203864, -0.020488508766955967, -0.001929780677504438, 0.0008680347030446922, 8.820071468593569e-05, 0.0003064190213969662, 0.0002450490400501935, 0.0002624242584618773, 0.0002574699984862392, 0.00025888918551622065, 0.0002584672052515596, 0.00025859170245454355, 0.00025855322317015896, 0.00025856556199860064, 0.00025855542915616557, -0.0038588123050104493])","array('d', [0.6000546971943717, 0.5709080332808266, 0.5439910683411036, 0.522919912019319, 0.5076582781062186, 0.49718854499926707, 0.4908122714914624, 0.488023523258153, 0.4884389856140364, 0.4917567624364092, 0.4961681056172917, 0.49861528166443797, 0.4983301521877373, 0.49788032684076744, 0.49806585093632727, 0.4980334049464757])",-88.28582466251464,-330.09062958625407,-49.84547813010781,0.5569948917774774,-0.001929780677504438,0.5439910683411036,25.000000249990702,-1.0,[],[],[],10000000000.0,0.045900821685791016
4,5.897653341293335,-330.70953369140625,-88.89388275146484,49.93721389770508,0.6360244154930114,0.0366174392402171,0.55732782284287,23.149601093642158,"array('d', [-90.5089111328125, -89.14756542027942, -87.84511104911164, -86.59002393830187, -85.36986006242309, -84.17409979670619, -82.99365082367387, -81.8204885925618, -80.64742814290267, -79.46797366832543, -78.2783598974706, -77.08357086140767, -75.88907170406998, -74.69476122288997, -73.50039844998912, -72.30607201081072])","array('d', [-333.50445556640625, -331.40916584987895, -329.27554866259936, -327.1134752660287, -324.931480467797, -322.7360047663823, -320.5322522519355, -318.32460923155446, -316.1169120167996, -313.9126260229454, -311.7138059920576, -309.51779196470994, -307.3216199957318, -305.1253453855409, -302.92909921166756, -300.7328416089133])","array('d', [-49.946529388427734, -49.87013449774469, -49.8425209912981, -49.841267879867054, -49.84245944674731, -49.84297070580362, -49.84367197510825, -49.84431995578906, -49.84498297220306, -49.84564170346379, -49.846301643833975, -49.84696122794117, -49.84762091579804, -49.84828057206372, -49.84894023074411, -49.84436659791661])","array('d', [0.6320440173149107, 0.6466375820881402, 0.5103614798163619, 0.3870537519598509, 0.2754802957610381, 0.1745244486380234, 0.08317581243910002, 0.000520141152411021, -0.07426980870077991, -0.14194255270631104, -0.06036723862382804, 0.020117015803559006, -0.0014332277103898015, -0.0007161715812681086, 0.0006065699479438994, 0.000543921533154659])","array('d', [-0.04098913446068764, -0.020479515519633378, -0.0019216432501970098, 0.0008725411714753844, 9.37049233145966e-05, 0.00031166629164744214, 0.0002503716702339342, 0.000267723413412658, 0.0002627723129155568, 0.00026418906229612, 0.0002637702217964522, 0.0002638949835266267, 0.0002638559539047072, 0.0002638688444558591, 0.0002638582769934472, -0.003854075870088527])","array('d', [0.5906956950810289, 0.561511757644754, 0.5358935460154688, 0.5170209743002749, 0.5035497998475018, 0.4945953303079644, 0.4895378689942555, 0.48792095441474476, 0.4893937711771788, 0.49367652466591255, 0.4976347050493114, 0.49839859587386093, 0.4980390490789503, 0.49808098561746084, 0.498082703067613, 0.4980601509142905])",-87.84511104911164,-329.27554866259936,-49.8425209912981,0.5103614798163619,-0.0019216432501970098,0.5358935460154688,25.00000024999069,-1.0,[],[],[],10000000000.0,0.04777979850769043
5,5.940743446350098,-329.4945068359375,-88.23258972167969,49.935890197753906,0.638428747653961,0.030160887166857577,0.5410767356541493,23.16795838832707,"array('d', [-90.03697967529297, -88.69415311337056, -87.40733221999757, -86.16490205348481, -84.95492353432516, -83.76722661965096, -82.59297462031702, -81.42433986788238, -80.25429602940397, -79.07648030507521, -77.8873509160654, -76.69240226405476, -75.49743045757762, -74.30291962569972, -73.10833950632724, -71.91377667899481])","array('d', [-332.7095642089844, -330.60233121038146, -328.45923224324525, -326.28985479897204, -324.1021921164096, -321.90234201755806, -319.69528036062655, -317.4852371167443, -315.2759399325542, -313.070778508593, -310.8716969368022, -308.6757698151807, -306.4798549781555, -304.2836893326944, -302.08756137292437, -299.89143218483935])","array('d', [-49.94374084472656, -49.86790285427847, -49.84079345896438, -49.83971314174433, -49.84086643109366, -49.841398156384194, -49.842103511038374, -49.842760176257876, -49.84343057506949, -49.844097050805736, -49.844764626480355, -49.845431875718845, -49.846099219867156, -49.846766535058634, -49.847433851748605, -49.842867461101505])","array('d', [0.6328805685043333, 0.6149415952371681, 0.4816817621191492, 0.3611032678539974, 0.251999324567946, 0.15327798533385803, 0.06395121565522963, -0.016874995018263797, -0.09000958042638699, -0.15618448935276374, -0.06658148724689884, 0.014494758625566442, 0.0051702675297723676, -0.0026497092306698405, 0.0007210157928678215, 0.0006465470571431593])","array('d', [-0.04075493663549413, -0.02026760454516859, -0.0017298982562461201, 0.0008230558570825224, 0.00011144672305346941, 0.00031061105142683347, 0.00025460693403194537, 0.0002704607688310784, 0.0002659338003745558, 0.00026722524573060134, 0.0002668416933864744, 0.00026695579496258045, 0.0002669201198227596, 0.00026693183886601087, 0.00026692168352453264, -0.0038513398801838044])","array('d', [0.581567064919744, 0.5533286947396813, 0.5293722617917411, 0.5118047879553418, 0.4994098297852827, 0.4913744457544712, 0.48712225931436426, 0.48622441724628257, 0.488348440748553, 0.4932271141567951, 0.4975892423089429, 0.49858542326705385, 0.4982026324237399, 0.4981557382795168, 0.49819247605047207, 0.49816566882284585])",-87.40733221999757,-328.45923224324525,-49.84079345896438,0.4816817621191492,-0.0017298982562461201,0.5293722617917411,25.00000024999068,-1.0,[],[],[],10000000000.0,0.041068077087402344
6,5.972780704498291,-329.08660888671875,-88.01661682128906,49.93681335449219,0.6390488743782043,0.027528533712029353,0.5353617231037955,23.17514694484438,"array('d', [-89.34504699707031, -88.03020341046302, -86.76438004021685, -85.5357621672345, -84.33355654097421, -83.14841872391528, -81.97213198511731, -80.79735765233633, -79.61747191664706, -78.42828631321062, -77.23350552230397, -76.03853787061014, -74.84397363290819, -73.64936075498862, -72.45474496170081, -71.26014272407812])","array('d', [-331.5126037597656, -329.3876478818022, -327.2320174265707, -325.0547747748717, -322.8628238679019, -320.6615903450759, -318.4556108857492, -316.24882503607125, -314.04476933433466, -311.8457175154746, -309.64969907696076, -307.45378196918057, -305.25764536743117, -303.06153522233546, -300.8654266628081, -298.6693188465278])","array('d', [-49.93928527832031, -49.86733349610754, -49.84374186742628, -49.8438231417047, -49.844634820154994, -49.84524322806463, -49.845908428541236, -49.84655770334895, -49.8472114593642, -49.84786392719333, -49.848516757567566, -49.849169482348024, -49.84982223735752, -49.850474982855665, -49.851127724225435, -49.84654755166212])","array('d', [0.6345184445381161, 0.5371749115782273, 0.4113155505469082, 0.2974332809419224, 0.1943883328567961, 0.1011493997469588, 0.01678331687626476, -0.05955427774107852, -0.12862739069926743, -0.0689193152397924, 0.012379422128638733, 0.004533507056708435, -0.0020626013524101578, 0.00043705266988907184, 5.705179658169938e-05, 5.1159311308322846e-05])","array('d', [-0.039120681583881205, -0.01878886929132385, -0.0003918831682208267, 0.0004429754869779352, 0.00021024961070425298, 0.0002753900448681166, 0.00025707585454717754, 0.00026225755124846767, 0.0002607720429237964, 0.00026119516260150825, 0.0002610712053552231, 0.0002611080058216439, 0.000261096199438325, 0.00026110013415033554, 0.0002610930800555256, -0.0038565470867023338])","array('d', [0.5675735036518911, 0.5415515973828323, 0.5214271821620814, 0.5069330429942187, 0.4971107012568754, 0.4912965185494726, 0.48900631688337776, 0.489871018525194, 0.4935983798534907, 0.49746833781173205, 0.49855192989193, 0.49822265676212135, 0.49817633630589814, 0.4982074114554404, 0.4981978415001376, 0.49819572032577664])",-86.76438004021685,-327.2320174265707,-49.84374186742628,0.4113155505469082,-0.0003918831682208267,0.5214271821620814,25.00000024999066,-1.0,[],[],[],10000000000.0,0.030586719512939453
7,6.0050599575042725,-328.2664489746094,-87.59178924560547,49.9412727355957,0.6384792327880857,0.021623622626066128,0.5235600034382677,23.18645719705718,"array('d', [-89.11848449707031, -87.81370646711989, -86.55545105957795, -85.3318050318685, -84.1323556320152, -82.94804284139099, -81.77086777297237, -80.59366667407689, -79.41016685471534, -78.21749682639003, -77.02111007949868, -75.82618607610374, -74.63161218233277, -73.43695125761346, -72.24230303427385, -71.04765604898795])","array('d', [-331.11175537109375, -328.9805170618983, -326.82043022060674, -324.64038574405646, -322.4469231882557, -320.24524460732806, -318.0397386990779, -315.8342466144472, -313.6321296770056, -311.4349653958535, -309.2398213022601, -307.04388052392903, -304.84774916855855, -302.65166515488835, -300.4555742317013, -298.25949078744674])","array('d', [-49.938133239746094, -49.8686557552488, -49.84730378429141, -49.848119702278076, -49.84870563454738, -49.84935555388401, -49.849987613817234, -49.8506246874399, -49.851260335182964, -49.851896376440344, -49.852532302230266, -49.853168261171255, -49.853804209433704, -49.85444016044482, -49.85507610383255, -49.85048004686219])","array('d', [0.6352328658103942, 0.50793269945398, 0.38485610046397645, 0.27349177830874427, 0.1727251635157243, 0.08154775185533969, -0.0009529889206479642, -0.07560275089703913, -0.12941265666764984, -0.04235699905162512, 0.03641405955897142, -0.002512227976093414, -0.0010322177981553174, 0.000506042852467883, -0.00013115067558361354, -0.00011760502983961144])","array('d', [-0.03808021172881109, -0.01784741314990379, 0.00045998163053707143, 0.00019713752877528588, 0.0002703863501742782, 0.00024989102267829275, 0.00025566067493856484, 0.0002540255015570568, 0.0002544850274840908, 0.000254350227554229, 0.00025438974554251243, 0.0002543776100905516, 0.0002543809446426493, 0.0002543798823717854, 0.00025437491114823957, -0.0038625484344109737])","array('d', [0.562559918561254, 0.5373309007349939, 0.5185701655407164, 0.5051908271159358, 0.496314545671234, 0.4913254358531089, 0.48976945362686464, 0.4912973832801508, 0.49535272169232647, 0.4987046091632831, 0.4987954877798764, 0.498142930075702, 0.4982119877768086, 0.4982218078576456, 0.4982146610267468, 0.4982195371825951])",-86.55545105957795,-326.82043022060674,-49.84730378429141,0.38485610046397645,0.00045998163053707143,0.5185701655407164,25.000000249990652,-1.0,[],[],[],10000000000.0,0.03132796287536621
8,6.034653902053833,-328.2664489746094,-87.59178924560547,49.9412727355957,0.6384792327880857,0.021623622626066128,0.5235600034382677,23.18645719705718,"array('d', [-88.67131042480469, -87.38892361157512, -86.1528864382896, -84.95110151966622, -83.77314934852762, -82.60998402423442, -81.45361272133475, -80.2968738064789, -79.13328913155723, -77.95735546174583, -76.7674652576865, -75.56977030853845, -74.37138413754985, -73.17622248628032, -71.98086194834319, -70.78517116387812])","array('d', [-330.3059387207031, -328.1609086630661, -325.98797056603274, -323.7958019657971, -321.5907198353425, -319.3777958616841, -317.16131142565695, -314.9450188750232, -312.7323147408108, -310.52615117299894, -308.3274822725276, -306.13305210087736, -303.93899898126904, -301.74318771553527, -299.54748444283024, -297.3519696337681])","array('d', [-49.93621826171875, -49.87466209318178, -49.86047995339476, -49.8636423102746, -49.86349664220105, -49.864271613523144, -49.86478946315742, -49.8653794575357, -49.865949073372384, -49.86652443063016, -49.86709811211303, -49.867672270106475, -49.86824628800812, -49.86882034678919, -49.869394386620066, -49.86473979331902])","array('d', [0.6368117928504944, 0.501470736978275, 0.37900907433917097, 0.2682011696827319, 0.1679380222762947, 0.0772161666809123, -0.004872370228324839, -0.07914915645540684, -0.14635757673650726, -0.18145311792809848, -0.0894451436377936, -0.0061928964219965564, 0.06230777696415004, -0.018357486581935926, -0.0010897734736151166, -0.0009772182992865903])","array('d', [-0.03474939987063395, -0.01483356967994288, 0.0031870198700375235, -0.0005940562890970256, 0.00045993908350638467, 0.0001649588380695102, 0.00024793663343361354, 0.0002244506616394097, 0.00023113057287476782, 0.00022918764470852786, 0.0002297481900151903, 0.0002295809933610191, 0.00022963246869180101, 0.00022961484952893475, 0.00022961697908535145, -0.003884664267909363])","array('d', [0.5520059625294546, 0.5269098003999408, 0.5084454059191806, 0.49530976380701014, 0.4866411803844841, 0.4818337792862322, 0.4804398754640629, 0.48211446651063283, 0.48658173687818373, 0.4930840922752911, 0.4984050507851908, 0.5002566819936761, 0.4991325473589415, 0.4982960487585932, 0.4986719732706723, 0.49871249084933184])",-86.1528864382896,-325.98797056603274,-49.86047995339476,0.37900907433917097,0.0031870198700375235,0.5084454059191806,25.00000024999064,-1.0,[],[],[],10000000000.0,0.02787327766418457
9,6.0656492710113525,-327.02960205078125,-86.97608947753906,49.958251953125,0.6298904418945309,0.012424372136592742,0.505206183591161,23.200825078079976,"array('d', [-88.23258972167969, -86.9736945685936, -85.76172367037158, -84.5843674995933, -83.4310987033519, -82.2928010456735, -81.16142338839109, -80.02975374210796, -78.89126895619732, -77.74003323915468, -76.57116777265479, -75.38410451145673, -74.18563027055201, -72.98335023870388, -71.78406895524564, -70.59285711241316])","array('d', [-329.4945068359375, -327.3353208773731, -325.14882566184014, -322.94344098563965, -320.7253496631086, -318.49953196977293, -316.27018622528306, -314.0409887181938, -311.8152660305525, -309.5961152313793, -307.38620246256215, -305.1860085970683, -302.9920049166947, -300.8000829970533, -298.6065198028627, -296.40857362323237])","array('d', [-49.935890197753906, -49.88524741240946, -49.87621707275343, -49.87937063241155, -49.87914422871569, -49.87985859989804, -49.88031023883549, -49.88083560255833, -49.881340127170816, -49.88185048863619, -49.882359092679614, -49.882868150094914, -49.88337705781356, -49.88388601008813, -49.88439494571762, -49.879678782074464])","array('d', [0.638428747653961, 0.5029338182968437, 0.3803329251586081, 0.2693990395202877, 0.16902189978515222, 0.07819689962970812, -0.003984966410426804, -0.07834620053899476, -0.14563103348979034, -0.20651287250283046, -0.22695939914970245, -0.1306209295330569, -0.043450275938681476, 0.03542495142700887, 0.10679228294715987, 0.09574960362970561])","array('d', [-0.030160887166857577, -0.010681711323562477, 0.00322536602127325, -0.0006380662939900388, 0.00043897611708977954, 0.0001375492337023159, 0.00022234731388261003, 0.0001983440849412576, 0.00020516186953239483, 0.0002031606852569648, 0.00020371332902165642, 0.0002035355673837895, 0.0002035897031826441, 0.00020357240380414792, 0.00020357603790299616, -0.003907926050745022])","array('d', [0.5410767356541493, 0.5158951010329375, 0.49736376340223093, 0.4841730258177955, 0.4754574578756613, 0.4706089336211937, 0.46917833745624904, 0.47081971846008747, 0.4752566113057783, 0.48226076180007565, 0.4909085406496792, 0.497973124804613, 0.5013704996296365, 0.5015022223153525, 0.4986825313655306, 0.49469862657603036])",-85.76172367037158,-325.14882566184014,-49.87621707275343,0.3803329251586081,0.00322536602127325,0.49736376340223093,25.000000249990634,-1.0,[],[],[],10000000000.0,0.029538393020629883
10,6.0983726978302,-326.6143798828125,-86.77583312988281,49.966468811035156,0.6245108246803281,0.009305396117269894,0.49901600281265773,23.204514676111017,"array('d', [-88.01661682128906, -86.77005911094709, -85.57069799336462, -84.40611772002242, -83.26574186458528, -82.14041934551203, -81.02207053462753, -79.90345878258204, -78.77803886001784, -77.63985459097994, -76.48346848706632, -75.30601786839894, -74.11322619636185, -72.91294218436286, -71.71234312397047, -70.5167977142156])","array('d', [-329.08660888671875, -326.92013848083997, -324.7266846258982, -322.51452545667286, -320.28977804361455, -318.0573723375944, -315.821462279265, -313.5856837743052, -311.35332646076495, -309.12745345695384, -306.91098664331173, -304.70563657934593, -302.50854017881136, -300.31552498849106, -298.12268207267056, -295.9270887796066])","array('d', [-49.93681335449219, -49.8924318522791, -49.88546531025675, -49.88800035234723, -49.88789947006668, -49.888532336062134, -49.88896030610871, -49.889445776324195, -49.8899149782785, -49.89038870618013, -49.89086102796827, -49.89133367013829, -49.89180617986658, -49.89227872259658, -49.89275125239743, -49.8880006561539])","array('d', [0.6390488743782043, 0.5034949322074027, 0.3808406420617015, 0.26985844080714844, 0.16943758328775618, 0.07857302563604078, -0.003644633522576016, -0.07803825463937811, -0.14535239266215197, -0.20626074864378982, -0.2613729113028229, -0.17755351707770137, -0.08591664825825143, -0.003000210628297543, 0.07202505294897535, 0.06458217418385677])","array('d', [-0.027528533712029353, -0.008299859209752248, 0.002545665237934583, -0.0004673670715390845, 0.00037264811899318434, 0.00013756631156737348, 0.000203706376020374, 0.0001849821522749069, 0.00019029084996759262, 0.0001887177128787857, 0.00018913279176070304, 0.0001889834343025451, 0.00018902367549989535, 0.00018901072304442794, 0.0001890130768446806, -0.003920934740130984])","array('d', [0.5353617231037955, 0.5101472631775485, 0.49159022824414217, 0.47837834821273983, 0.46964475461800015, 0.46478045618985464, 0.46333578726737457, 0.4649644323198413, 0.4693896762955805, 0.4763830893752243, 0.4857505743244094, 0.4944798960703807, 0.4996524958608755, 0.5013720094304155, 0.49999197865986506, 0.49731000260918956])",-85.57069799336462,-324.7266846258982,-49.88546531025675,0.3808406420617015,0.002545665237934583,0.49159022824414217,25.00000024999063,-1.0,[],[],[],10000000000.0,0.030335664749145508
11,6.127625942230225,-326.1977233886719,-86.57807922363281,49.97597885131836,0.6176119446754454,0.0063668428920207465,0.4927701512959341,23.206296948031966,"array('d', [-87.80299377441406, -86.56908517261068, -85.38259099611524, -84.23099979827133, -83.10369365127833, -81.99149136841693, -80.88628843221453, -79.78082644473123, -78.66854054582882, -77.5434563032393, -76.40011883310666, -75.23430877032939, -74.04675749688961, -72.84489531949521, -71.63665939098456, -70.42800460275917])","array('d', [-328.6772766113281, -326.503446367207, -324.30299254554393, -322.08404266961765, -319.8526441908831, -317.61367295355643, -315.37123580984104, -313.12892637174866, -310.88999597923345, -308.65747284208396, -306.43424693349215, -304.22272505459426, -302.02279717999977, -299.83064875884054, -297.642004408014, -295.4535999160955])","array('d', [-49.9386100769043, -49.901102544197556, -49.896399389185135, -49.898251685475344, -49.89828534942377, -49.89882532601277, -49.899223943347636, -49.89966223566888, -49.90008928411318, -49.90051942302889, -49.90094855104099, -49.9013778576164, -49.90180704480445, -49.90223624988513, -49.90266544840434, -49.89787387179129])","array('d', [0.6391451954841612, 0.5035820871535293, 0.3809195031222003, 0.26992979724798666, 0.16950214926565052, 0.0786314473453597, -0.00359177138403122, -0.07799042302293772, -0.14530911288861004, -0.20622158768257765, -0.26133747798300877, -0.2632982656087093, -0.16350170033367958, -0.07320203641560305, 0.0085043625893915, 0.007625999432936788])","array('d', [-0.024638732895254974, -0.005685059072149154, 0.001797696531393656, -0.0002811793158993756, 0.0002984412493799557, 0.00013624576499412773, 0.00018188671908776552, 0.00016896273400547908, 0.0001726150910931179, 0.00017151440142584547, 0.00017178351712386885, 0.00017166373958698834, 0.00017168564369974212, 0.00017167853764028616, 0.00017168024746085076, -0.003936417606838792])","array('d', [0.5295096198704579, 0.5042900590982493, 0.48572903155850183, 0.47251386695628034, 0.4637774732116225, 0.45891072452167975, 0.45746386971618586, 0.45909053658983073, 0.46351397127723837, 0.47050571666452895, 0.4798716558965871, 0.4904084828441179, 0.49888500570508304, 0.5035241986535377, 0.5047679496283826, 0.504451752359465])",-85.38259099611524,-324.30299254554393,-49.896399389185135,0.3809195031222003,0.001797696531393656,0.48572903155850183,25.000000249990627,-1.0,[],[],[],10000000000.0,0.02833080291748047
12,6.167665481567383,-324.93988037109375,-85.99966430664062,50.01352310180664,0.5870241522788998,-0.002220346126705521,0.4739113608982897,23.21412493036648,"array('d', [-87.59178924560547, -86.37074719062038, -85.19725278252461, -84.05871751366924, -82.94449351160165, -81.84537683738128, -80.7532436782148, -79.66081842132968, -78.56152039616892, -77.44936024572712, -76.31886868102123, -75.16504701024115, -73.98574331667616, -72.78820059272915, -71.58085138180996, -70.3700200665149])","array('d', [-328.2664489746094, -326.08525255689904, -323.8778299626188, -321.6521520076112, -319.4141923408442, -317.1687683604072, -314.91993686667666, -312.6712472702046, -310.4259114252495, -308.1869219507626, -305.95713658692137, -303.7393391345623, -301.53498332737047, -299.34047445286967, -297.1513415465268, -294.9641408292803])","array('d', [-49.9412727355957, -49.91093755420816, -49.90859366750693, -49.909729861655684, -49.909900640543036, -49.91034027344639, -49.91070488256713, -49.91109055478241, -49.91147023157571, -49.91185150461321, -49.91223218610312, -49.912612905604455, -49.912993520245166, -49.91337413043034, -49.913754736145535, -49.90891720211218])","array('d', [0.6384792327880857, 0.5029794991307234, 0.38037425887992005, 0.2694364398080121, 0.16905574094892967, 0.07822752035371015, -0.003957259684157534, -0.07832113056351361, -0.1456083495204619, -0.20649234835140903, -0.2615824731251329, -0.31143008046628673, -0.20705318748813933, -0.1126090607429289, -0.02715260293854997, -0.02434799017853667])","array('d', [-0.021623622626066128, -0.0029568742504676926, 0.001015496303865952, -8.813022725691877e-05, 0.0002196194588075294, 0.0001335231206474537, 0.00015775985704357537, 0.00015089247493221104, 0.0001528168553464778, 0.00015221166850060502, 0.00015233152216335806, 0.0001522455118629892, 0.00015224618756246378, 0.00015224202809746475, 0.0001522425337551422, -0.00395378063074027])","array('d', [0.5235600034382677, 0.4983756974174714, 0.47984226823418963, 0.4666498096825927, 0.4579327743880553, 0.45308296600324516, 0.45165122417901254, 0.4532915683301869, 0.45772751281449625, 0.4647307891675061, 0.4741074162790148, 0.485688332702313, 0.4960687701508191, 0.5023676376348472, 0.5050878149411033, 0.506097562706502])",-85.19725278252461,-323.8778299626188,-49.90859366750693,0.38037425887992005,0.001015496303865952,0.47984226823418963,25.000000249990624,-1.0,[],[],[],10000000000.0,0.03838682174682617
13,6.209628105163574,-324.0953674316406,-85.62604522705078,50.046287536621094,0.5598186254501339,-0.007444453425705627,0.46161051193741365,23.214129203357192,"array('d', [-86.97608947753906, -85.79468084571789, -84.66047983818895, -83.56083421297551, -82.48510191937764, -81.42407510831687, -80.36962128615716, -79.31445308394916, -78.25197599606818, -77.17618518832298, -76.08159446481207, -74.96318687834003, -73.81638017415949, -72.63851426824638, -71.43394266926947, -70.21029259506767])","array('d', [-327.02960205078125, -324.8264905685244, -322.5986235249848, -320.35347560534757, -318.096761020525, -315.8330892915438, -313.5663459378535, -311.2999351826758, -309.03694358012416, -306.780254142514, -304.53262787356385, -302.2967627149857, -300.0753361737091, -297.87022059698063, -295.679570042608, -293.4995222810306])","array('d', [-49.958251953125, -49.947488676429494, -49.95073321558581, -49.950101566489536, -49.95054569838757, -49.95069047951056, -49.950918953726486, -49.95112395132264, -49.95133552710423, -49.95154515032199, -49.95175522111963, -49.951965041663904, -49.95217482540703, -49.95238454409996, -49.9525942504191, -49.94759508606307])","array('d', [0.6298904418945309, 0.4952080390476813, 0.3733423503634163, 0.26307370528092255, 0.1632985001395453, 0.0730181529627469, -0.008670890667185826, -0.08258620066755318, -0.1494675449510246, -0.20998429324633427, -0.26474211631970745, -0.3142890474993508, -0.35912096555023204, -0.3096902546635848, -0.2054790686297832, -0.1841613720776082])","array('d', [-0.012424372136592742, 0.003547192237316351, -0.0008777413240778235, 0.00035190899755892756, 9.115007334644409e-06, 0.00010510852694814567, 7.812104909268698e-05, 8.574976421684133e-05, 8.354759611440063e-05, 8.414107618609491e-05, 8.39192607681364e-05, 8.39368792575813e-05, 8.389088110437104e-05, 8.388418348624201e-05, 8.388092471033222e-05, -0.004014845222180719])","array('d', [0.505206183591161, 0.4804739747927045, 0.4622951340105998, 0.44939479997551457, 0.4409270645443718, 0.4362955724589625, 0.4350587018919358, 0.4368754750293085, 0.4414728358898043, 0.44862493006594506, 0.45813951457264523, 0.4698488061311811, 0.48360320213566615, 0.4972223239035813, 0.5075331800482127, 0.5152691968241159])",-84.66047983818895,-322.5986235249848,-49.95073321558581,0.3733423503634163,-0.0008777413240778235,0.4622951340105998,25.000000249990606,-1.0,[],[],[],10000000000.0,0.03957390785217285
14,6.253652811050415,-323.24908447265625,-85.26274108886719,50.08711624145508,0.5293954014778136,-0.012138200923800637,0.4496095935490469,23.212646213852775,"array('d', [-86.57807922363281, -85.42340113997277, -84.31497706400762, -83.24027749796974, -82.18874814846714, -81.1512420039876, -80.11967010261793, -79.08677737802981, -78.04599400456473, -76.99133446548818, -75.91732796828411, -74.81897000979097, -73.69168845861088, -72.53131966910843, -71.3362196006202, -70.11226265518518])","array('d', [-326.1977233886719, -323.98044007095643, -321.73963121345344, -319.48243450551195, -317.21434058846455, -314.93979226048975, -312.66254434088285, -310.38589553109676, -308.11284528164333, -305.8462035439264, -303.58866931348376, -301.3428874655395, -299.11148984033883, -296.89712447203345, -294.7013054141167, -292.521440443012])","array('d', [-49.97597885131836, -49.970470700579035, -49.972145769339335, -49.97183291810091, -49.972071857292455, -49.97215725982483, -49.972285595787376, -49.97240188638064, -49.97252154298229, -49.97264018535659, -49.97275904125306, -49.972877750426136, -49.97299642117784, -49.973115038237914, -49.9732336329702, -49.96814829792257])","array('d', [0.6176119446754454, 0.4840979943192456, 0.36328956526522854, 0.2539775683430209, 0.1550679743307481, 0.06557086456293987, -0.015409476489774587, -0.08868352582545805, -0.15498463341979954, -0.2149763618186106, -0.2692591272585282, -0.3183762087198112, -0.3628191845779593, -0.40303284347112683, -0.31544963248390584, -0.2824967667531965])","array('d', [-0.0063668428920207465, 0.0018236719590756588, -0.00044575795748351865, 0.0001849554093391478, 9.129075902396617e-06, 5.837148784779181e-05, 4.4528214565819205e-05, 4.843901914190456e-05, 4.7305176020614895e-05, 4.7603741827095017e-05, 4.7482988837741504e-05, 4.748432639970045e-05, 4.745279996964121e-05, 4.744104330459921e-05, 4.743484501058017e-05, -0.004047400793165517])","array('d', [0.4927701512959341, 0.46867615030634496, 0.4509999951393447, 0.4385150401512237, 0.4304025654268411, 0.4260826831586648, 0.42512429150417597, 0.4271934126083721, 0.43202179951460334, 0.43938698876330806, 0.4490991827128737, 0.46099239902283756, 0.4749183904610226, 0.4907424204391033, 0.5054565878446601, 0.5175402098311391])",-84.31497706400762,-321.73963121345344,-49.972145769339335,0.36328956526522854,-0.00044575795748351865,0.4509999951393447,25.000000249990592,-1.0,[],[],[],10000000000.0,0.0419161319732666
15,6.29956579208374,-322.3990173339844,-84.90768432617188,50.13434600830078,0.4978482723236083,-0.01625437289476408,0.43845756451157114,23.209104595973784,"array('d', [-86.19001770019531, -85.06247296211771, -83.97955174533304, -82.92897092261548, -81.90034514680084, -80.88464834742165, -79.87388220951414, -78.86086249274793, -77.83907675999878, -76.8025875163374, -75.74596529846205, -74.6642420382728, -73.55287837110536, -72.40774058953026, -71.2250842322824, -70.002963507614])","array('d', [-325.36041259765625, -323.12918904905143, -320.8759404488294, -318.60741571037363, -316.3288421269775, -314.04447105510627, -311.7579123141155, -309.4723516895076, -307.19069887348275, -304.91569139540877, -302.64996918012145, -300.39612855005953, -298.156761224378, -295.9344819658843, -293.731947380981, -291.55107230354275])","array('d', [-49.99945831298828, -49.99898844445176, -49.99912330026644, -49.99909077782792, -49.99910471349075, -49.999105718004046, -49.999110336552434, -49.999113940912885, -49.999117830044796, -49.99912163606823, -49.99912546296469, -49.999129280581734, -49.999133097730336, -49.9991369123809, -49.99914072555648, -49.99394684484904])","array('d', [0.5988116264343258, 0.46708676136214, 0.3478971637636261, 0.2400499462482844, 0.1424657395721833, 0.05416788996754207, -0.025727315518355973, -0.0980194935025853, -0.16343216708200334, -0.22262000707722576, -0.27617538416979287, -0.3246342974712974, -0.3684817386211658, -0.40815654245130795, -0.4440556860401096, -0.39698940147621276])","array('d', [-0.000538475287612417, 0.0001510773412727159, -4.000505550106362e-05, 1.3101187062604073e-05, -1.705649386331379e-06, 2.440100642125984e-06, 1.274187781396132e-06, 1.603801932865138e-06, 1.5090836517548848e-06, 1.5352977682376788e-06, 1.5263683297567669e-06, 1.527703006387929e-06, 1.5260435311215627e-06, 1.5256829035148306e-06, 1.5248710771997585e-06, -0.004088409771780883])","array('d', [0.4800670901921132, 0.4569325921025384, 0.4400168614791605, 0.42816301732828654, 0.4205920361303366, 0.41674823404605615, 0.41621604967902043, 0.41867188621557483, 0.4238546508706723, 0.43154693798132504, 0.4415626059015198, 0.4537383711259479, 0.4679280225969551, 0.4839983978338589, 0.5018265699729422, 0.5193601082290106])",-83.97955174533304,-320.8759404488294,-49.99912330026644,0.3478971637636261,-4.000505550106362e-05,0.4400168614791605,25.000000249990574,-1.0,[],[],[],10000000000.0,0.04400897026062012
16,6.343723773956299,-321.1180725097656,-84.3888168334961,50.21572494506836,0.4522163867950438,-0.020491676405072358,0.4239332238819938,23.20175764009989,"array('d', [-85.81169128417969, -84.71034228975789, -83.65136722921541, -82.6228354045816, -81.6146024857692, -80.61781797101163, -79.6246178746645, -78.62792510895501, -77.62131593301679, -76.59892871228175, -75.55540074713815, -74.48582417515858, -73.38571502329293, -72.25099136203377, -71.07795771431475, -69.86472839593668])","array('d', [-324.5181579589844, -322.27389036814867, -320.0092859411808, -317.73067744682027, -315.4430060697978, -313.15031896119194, -310.856075555095, -308.56334826678204, -306.2749599734601, -303.99358105389024, -301.7217992064012, -299.4621700524576, -297.2172536126398, -294.9896400228303, -292.7819668197547, -290.5961348962779])","array('d', [-50.02919006347656, -50.03341727806116, -50.032073248264815, -50.03227126913581, -50.0320411484152, -50.03193013325753, -50.03178580383989, -50.03165083553339, -50.03151328541495, -50.03137656320605, -50.03123972403484, -50.03110305104852, -50.03096645982713, -50.0308299575241, -50.03069351195079, -50.02536700846412])","array('d', [0.5739381909370421, 0.4445803441768964, 0.3275325135121802, 0.2216232470373581, 0.12579257113951536, 0.039081381945830496, -0.03937815369208347, -0.1103712837463913, -0.1746085300199552, -0.23273279926257162, -0.2853258175495134, -0.3329139522430092, -0.37597347934489, -0.4149353444723476, -0.4501893549584155, -0.4024278685347985])","array('d', [0.004920321982354046, -0.0014325640710166894, 0.0003279708221290094, -0.0001613906020520856, -2.4981547662074626e-05, -6.31931322997003e-05, -5.2449623838291374e-05, -5.547455839755094e-05, -5.458045080416725e-05, -5.479375690551885e-05, -5.467948530353397e-05, -5.465924044192109e-05, -5.461448228946316e-05, -5.4587804141208765e-05, -5.456896769991792e-05, -0.004138515166056322])","array('d', [0.46771605412033584, 0.44582008854968, 0.42989416584269846, 0.41886672719761364, 0.4120079000484789, 0.4087922438051826, 0.40882375009175487, 0.41179195414759157, 0.4174448525365432, 0.4255714890903623, 0.43599039973383813, 0.4485417654591509, 0.4630819985152154, 0.47947997251916713, 0.4976143856365343, 0.5154209176730338])",-83.65136722921541,-320.0092859411808,-50.032073248264815,0.3275325135121802,0.0003279708221290094,0.42989416584269846,25.000000249973965,-1.0,[],[],[],10000000000.0,0.04271221160888672
17,6.381237030029297,-320.68975830078125,-84.21905517578125,50.245391845703125,0.43787643313407876,-0.021189704537391756,0.41949398914841174,23.19867734983961,"array('d', [-85.26274108886719, -84.19970421962896, -83.1749883759366, -82.17728702140269, -81.19688604371267, -80.22525326944871, -79.25477225169844, -78.27856634831711, -77.29038013453699, -76.28449789766654, -75.25568701022564, -74.19915830464369, -73.11053821166603, -71.98584904093092, -70.82149483584605, -69.61570679975166])","array('d', [-323.24908447265625, -320.9864513936042, -318.7061381690284, -316.41385950219, -314.1141212917246, -311.81066163110495, -309.5067160594856, -307.20519187719316, -304.9087891307374, -302.6200865981207, -300.3416039330226, -298.07584670144075, -295.8253386822999, -293.59264435702136, -291.38038364421385, -289.1904408083601])","array('d', [-50.08711624145508, -50.09750208042012, -50.09411516521356, -50.09454066594385, -50.09390755635289, -50.09356892819256, -50.09314796052733, -50.092750191706294, -50.092346116223396, -50.091944178416334, -50.09154205087836, -50.09114043524356, -50.0907391181109, -50.09033810517931, -50.089937303100356, -50.084360853929624])","array('d', [0.5293954014778136, 0.4042763579185866, 0.2910639553448783, 0.18862512803492976, 0.09593463563431526, 0.012064802224856218, -0.06382376815018646, -0.13249059242612618, -0.19462291000002394, -0.25084256083107404, -0.30171220898231854, -0.34774097383010866, -0.38938952494996076, -0.42707468846569, -0.46117353960547147, -0.4121603063437423])","array('d', [0.012138200923800637, -0.0035674167082327323, 0.0007852700574930243, -0.00042468499334791666, -8.742878731513175e-05, -0.00018189780778941146, -0.00015531969841507085, -0.00016277105314177866, -0.0001605267704553333, -0.00016101532333097604, -0.00016069209727196952, -0.00016060191318946213, -0.0001604542543510706, -0.00016035769981182808, -0.00016028517144511706, -0.004232944623243565])","array('d', [0.4496095935490469, 0.4298517053387337, 0.415656125307181, 0.40608649289568327, 0.40049227935812404, 0.3983975462818717, 0.39943863010356406, 0.4033269700211077, 0.40982582570807896, 0.4187351338401609, 0.42988137298996376, 0.44311063924482036, 0.45828385088007345, 0.4752734034067176, 0.4939608309744029, 0.5122596968841581])",-83.1749883759366,-318.7061381690284,-50.09411516521356,0.2910639553448783,0.0007852700574930243,0.415656125307181,25.00000024997387,-1.0,[],[],[],10000000000.0,0.0356295108795166
18,6.415696859359741,-319.8315734863281,-83.88365173339844,50.30762481689453,0.41098779439926136,-0.022057529538870004,0.4111092845585683,23.193974329959058,"array('d', [-85.08422088623047, -84.03339426980732, -83.01946052534888, -82.03132689539792, -81.05942807681681, -80.0953433011554, -79.13154375627086, -78.16122449695811, -77.17819087695061, -76.17678033084918, -75.15180797325948, -74.09852850084161, -73.01260938704345, -71.8901118901308, -70.72747740109304, -69.52298039815004])","array('d', [-322.8244934082031, -320.55618038625033, -318.2710524539979, -315.97463217334894, -313.6712874489517, -311.36465831733267, -309.0579098452562, -306.75389799345174, -304.4552853016193, -302.1646232646682, -299.88441195099944, -297.617143187981, -295.3653314625564, -293.13153532067946, -290.9183712348524, -288.72771909591427])","array('d', [-50.10993957519531, -50.1221295956773, -50.11811203974506, -50.118580948444574, -50.117804047520394, -50.11737369952064, -50.11684647201068, -50.116346574574045, -50.11583929521299, -50.11533457716396, -50.11482968483569, -50.11432544373006, -50.11382159942855, -50.1133181518956, -50.11281498296177, -50.10714175063585])","array('d', [0.5136138200759885, 0.38999659125667324, 0.278143086977614, 0.1769338418032465, 0.0853559214280878, 0.0024927849084897657, -0.07248488836982689, -0.14032749879460876, -0.2017140367690683, -0.25725887825408406, -0.3075179336090454, -0.3529942112129402, -0.39414285121610626, -0.43137567679229427, -0.46506524223031487, -0.41560632478310816])","array('d', [0.01427141297608629, -0.004210892922886107, 0.0009113932771180289, -0.0005125126982188188, -0.0001156288617687573, -0.00022679506286784755, -0.00019550886019328894, -0.0002042630504537201, -0.00020160478232295157, -0.00020216038701916265, -0.00020176015103184005, -0.0002016348228961806, -0.00020144380359778328, -0.00020131634767495655, -0.00020122039870117822, -0.004269509190146756])","array('d', [0.4438414136555532, 0.424818689234966, 0.4112243297276391, 0.4021650527238098, 0.3970160150275961, 0.39531749427566626, 0.3967165190504471, 0.4009318211336432, 0.4077317715581569, 0.4169199733924582, 0.4283255914800878, 0.44179673244612677, 0.45719585469644675, 0.474396565196983, 0.4932813804458142, 0.5117557695636998])",-83.01946052534888,-318.2710524539979,-50.11811203974506,0.278143086977614,0.0009113932771180289,0.4112243297276391,25.000000249973834,-1.0,[],[],[],10000000000.0,0.03297734260559082
19,6.454056739807129,-318.9736328125,-83.55308532714844,50.373504638671875,0.3865382373332976,-0.0220947563648225,0.4035673896458487,23.18737501938462,"array('d', [-84.7330093383789, -83.70422754130384, -82.70951369968954, -81.73818759396032, -80.78097420136129, -79.82967210791372, -78.87692659928211, -77.9160763097699, -76.94104920969562, -75.946290674963, -74.9267133665033, -73.87766207694541, -72.79488896421913, -71.6745359620005, -70.5131220743885, -69.30901074956682])","array('d', [-321.9727478027344, -319.69438684156063, -317.4008276993183, -315.0972460871367, -312.78775900390065, -310.4758284999809, -308.1644928405047, -305.8565167817194, -303.5544974787599, -301.2609401183852, -298.9783127882117, -296.7090861538784, -294.45576168942466, -292.22089098553187, -290.00708794615565, -287.8162258634386])","array('d', [-50.16009521484375, -50.17533388247198, -50.17018701773406, -50.170683206462854, -50.169612365769915, -50.1689774348664, -50.16822071259063, -50.16749845652306, -50.16676703448651, -50.16603896769595, -50.16531082274521, -50.16458363515472, -50.16385707309334, -50.16313111470085, -50.162405584653925, -50.15652212027057])","array('d', [0.4822390079498289, 0.36160748468912635, 0.252455558763347, 0.15369080299206678, 0.06432474829696606, -0.01653700921065808, -0.08970375970770215, -0.15590777929116933, -0.2158116588266553, -0.2700149353591721, -0.31906009244269296, -0.36343798938647576, -0.4035927734410366, -0.4399263212506451, -0.47280219212439334, -0.42245364131657426])","array('d', [0.01791300252079987, -0.005333904580010454, 0.0011089233987111615, -0.0006820946130697186, -0.0001829054374215624, -0.00032270711579818743, -0.00028332763618536886, -0.0002942942747617199, -0.0002908999805643455, -0.00029154273192258276, -0.00029098257559948064, -0.0002907710282124859, -0.00029048342112272, -0.00029028657894427615, -0.00029013990771583004, -0.00434893434514204])","array('d', [0.43340952793625426, 0.41581700946744976, 0.40340130633100246, 0.39534814854763284, 0.3910803519744318, 0.39016854603720885, 0.39227990696278253, 0.39714698181173624, 0.4045478676849923, 0.4142931716252104, 0.4262172096554993, 0.44017195936336284, 0.4560228579331344, 0.4736458676902056, 0.4929254261446812, 0.5117504973925057])",-82.70951369968954,-317.4008276993183,-50.17018701773406,0.252455558763347,0.0011089233987111615,0.40340130633100246,25.000000249973763,-1.0,[],[],[],10000000000.0,0.03603935241699219
20,6.501449346542358,-317.68353271484375,-83.06487274169922,50.47651672363281,0.35439348220825173,-0.020986214280128597,0.39353580872086075,23.174850605602337,"array('d', [-84.3888168334961, -83.38010594904209, -82.4027914977528, -81.4465671140976, -80.50242549779175, -79.5623698481803, -78.61920951900137, -77.66641966484765, -76.69804577966575, -75.70863742253786, -74.69320196995716, -73.64717213319358, -72.5663830421026, -71.44705592518496, -70.28578625640677, -69.08102493284723])","array('d', [-321.1180725097656, -318.8307839062303, -316.5297574673967, -314.2198646643565, -311.9050023852838, -309.58847614084, -307.273213089642, -304.9618986344965, -302.65707375661435, -300.3612046349142, -298.0767332458642, -295.80611385506097, -293.55183880446486, -291.3164558947124, -289.1025790354923, -286.91207647673406])","array('d', [-50.21572494506836, -50.23306632006047, -50.227024981886906, -50.227456328627284, -50.22609021887589, -50.22522413369115, -50.22421845289282, -50.22325244292028, -50.22227609634486, -50.22130379491293, -50.22033160941652, -50.21936072189979, -50.21839073282777, -50.21742158372472, -50.21645303272352, -50.21033980526115])","array('d', [0.4522163867950438, 0.33444189121971724, 0.2278751110821161, 0.13144949216283067, 0.044199976208887194, -0.03474665767576576, -0.10618053250196118, -0.17081658119617615, -0.22930170187315113, -0.2822212321889299, -0.3301048075591784, -0.3734316618200904, -0.41263542307676504, -0.4481084499841215, -0.4802056918329067, -0.4290011790581846])","array('d', [0.020491676405072358, -0.006173216817770237, 0.0012168493015769905, -0.0008375011873688452, -0.0002649381637128609, -0.0004252555780367175, -0.00038004330509290585, -0.00039255594864105996, -0.00038858752495041747, -0.00038924270275416333, -0.00038851779903847596, -0.0003881975681935833, -0.00038780032789185976, -0.0003875235828765077, -0.0003873206156253874, -0.004435738007685816])","array('d', [0.4239332238819938, 0.40767347634100004, 0.3963667050047717, 0.3892667740633774, 0.38583820144905306, 0.38567846973870734, 0.38847273371447527, 0.3939659530374712, 0.4019450136575795, 0.4122268844738948, 0.42465058435624214, 0.43907164438658064, 0.4553582533251802, 0.47338856482358616, 0.49304881786006255, 0.5122116567082882])",-82.4027914977528,-316.5297574673967,-50.227024981886906,0.2278751110821161,0.0012168493015769905,0.3963667050047717,25.00000024997369,-1.0,[],[],[],10000000000.0,0.04406094551086426
21,6.545817852020264,-316.8216552734375,-82.74376678466797,50.546878814697266,0.33518624305725075,-0.018990352749824663,0.38772197166946915,23.167486552433832,"array('d', [-83.88365173339844, -82.90225246634792, -81.94863326332879, -81.01297123628152, -80.08660657075744, -79.16181371377634, -78.23162188644254, -77.28969099784749, -76.33022690490886, -75.34792234309025, -74.33791562106477, -73.29576155848062, -72.21741093699656, -71.09919579919485, -69.93781867332355, -68.73185322534808])","array('d', [-319.8315734863281, -317.53245867582643, -315.221503383567, -312.90320308046535, -310.58116908126647, -308.2585078078911, -305.9380049630278, -303.62224526923546, -301.3136988776945, -299.0147833753775, -296.72790888036013, -294.45551039532705, -292.20007039058714, -289.964133644433, -287.7503158426017, -285.56047927203485])","array('d', [-50.30762481689453, -50.32843880304444, -50.32319576980414, -50.322876424754256, -50.32118941936234, -50.319882825160484, -50.318470326324544, -50.31708849548749, -50.31569945925772, -50.314314266628365, -50.312929982886686, -50.311547500639726, -50.31016644939086, -50.30878665319344, -50.30740776093767, -50.30090658328906])","array('d', [0.41098779439926136, 0.2971367147474588, 0.19411998846544615, 0.10090659140156835, 0.016563614240513516, -0.059753074349422765, -0.12880727605045614, -0.1912901072640022, -0.2478269160200614, -0.2989835406504737, -0.34527197285273936, -0.3871554817703797, -0.42505325007786254, -0.45934456580990435, -0.49037255392578455, -0.43798468780217287])","array('d', [0.022057529538870004, -0.004955004501535264, 0.0006667865468198568, -0.0008961890628792498, -0.0004606805004063933, -0.0005825616781099539, -0.0005480137674640363, -0.0005572960996363601, -0.0005539881140262557, -0.000554163115705403, -0.0005532786773482666, -0.0005527165430514492, -0.0005521342155686228, -0.0005517098663717894, -0.0005514090021687729, -0.004582303568999425])","array('d', [0.4111092845585683, 0.3966290796956591, 0.38681852157494445, 0.3810145889411724, 0.3787334911424989, 0.3796064047005879, 0.3833412588961159, 0.3896988587195298, 0.398477383492405, 0.4095020265958312, 0.4226179240800869, 0.43768526041992933, 0.45457585551099583, 0.4731707803934382, 0.49335869574405083, 0.5129889683798999])",-81.94863326332879,-315.221503383567,-50.32319576980414,0.19411998846544615,0.0006667865468198568,0.38681852157494445,25.000000249973585,-1.0,[],[],[],10000000000.0,0.044367313385009766
22,6.593841075897217,-315.95843505859375,-82.42559814453125,50.617069244384766,0.3175849616527555,-0.01663852483034144,0.3823734084751944,23.163296784318728,"array('d', [-83.55308532714844, -82.58782831845672, -81.64823774986048, -80.72475379196327, -79.80891502152987, -78.89315180807887, -77.97062101558869, -77.03509072598987, -76.08086139752858, -75.10271076409396, -74.09585526831046, -73.05592289581035, -71.97893393782319, -70.86128718306962, -69.69974973204093, -68.49296949248121])","array('d', [-318.9736328125, -316.6676918454481, -314.3509955737766, -312.0278164418581, -309.70161069576096, -307.3753748055223, -305.0518163193837, -302.7334644382839, -300.4227505128774, -298.1220658261552, -295.83380361441164, -293.5603890837137, -291.30430017047655, -289.06808092716324, -286.8543489434265, -284.66496337623016])","array('d', [-50.373504638671875, -50.394407183717014, -50.38900815369993, -50.38836720751506, -50.3864045220079, -50.38480955586241, -50.38311248756092, -50.381445396657874, -50.37977176607204, -50.378102321312944, -50.37643424500213, -50.37476838545287, -50.37310433859059, -50.37144185426554, -50.369780495081805, -50.36301226952958])","array('d', [0.3865382373332976, 0.2750138386555926, 0.1741023805694159, 0.08279390911660386, 0.0001745800830364161, -0.07458248704451065, -0.14222548476082172, -0.20343140568924853, -0.2588128181359016, -0.3089239968595414, -0.3542664704040095, -0.39529404046191885, -0.43241732321537174, -0.46600785549697143, -0.49640175003336684, -0.443307555531714])","array('d', [0.0220947563648225, -0.004921320346291141, 0.0005114580204691084, -0.0009990172796509828, -0.0005781521517594893, -0.0006958572831919085, -0.0006623563116731829, -0.0006711694751616498, -0.0006677914326032636, -0.0006677649031472314, -0.0006667137662365393, -0.0006659860974380323, -0.0006652635312187774, -0.0006647328661085472, -0.0006643607726895296, -0.004683192363828986])","array('d', [0.4035673896458487, 0.3901177695791566, 0.3811816471472481, 0.3761402221538215, 0.37453760154481536, 0.37602334600057397, 0.3803179182285701, 0.38719090472930995, 0.39644678186381305, 0.4079153553277563, 0.4214452121954729, 0.43689917962144753, 0.45415115538595713, 0.47308389444547033, 0.49358746839324913, 0.5134969510879579])",-81.64823774986048,-314.3509955737766,-50.38900815369993,0.1741023805694159,0.0005114580204691084,0.3811816471472481,25.000000249973514,-1.0,[],[],[],10000000000.0,0.045140743255615234
23,6.639641284942627,-315.5263366699219,-82.26750946044922,50.65206527709961,0.3090746402740477,-0.015291064977646,0.3800440589573718,23.161789414293747,"array('d', [-83.2266845703125, -82.27618926885124, -81.34947724006668, -80.43721062974898, -79.53110173159344, -78.62371795348241, -77.70832912918713, -76.77879961244061, -75.82951447551078, -74.85532778644264, -73.85152638589571, -72.8138043435144, -71.73824484154724, -70.62130712716338, -69.45981682545786, -68.25248941963926])","array('d', [-318.11395263671875, -315.80187421343027, -313.4799968327502, -311.1523893815461, -308.82237649893364, -306.4928597233463, -304.1664790639234, -301.8457156589765, -299.53296731567184, -297.23060264529795, -294.94100042960844, -292.6665776006328, -290.40980840652276, -288.17323651900654, -285.95948141665116, -283.7703996102526])","array('d', [-50.441558837890625, -50.461248894602896, -50.45525797890299, -50.45441185324348, -50.45213665945712, -50.45025920321536, -50.44827157021495, -50.44631661010381, -50.44435487430679, -50.44239797296012, -50.44044285838468, -50.43849042916742, -50.43654021414006, -50.43459189199604, -50.432644931100484, -50.42560670063292])","array('d', [0.36453923583030684, 0.255108317132953, 0.1560911182384385, 0.0664966435368845, -0.014571796961373683, -0.08792556198400844, -0.15429879933220403, -0.21435579346393366, -0.26869761386085966, -0.3178681307145134, -0.3623594581270567, -0.40261687925427286, -0.43904330240008277, -0.47200329011389647, -0.501826646194281, -0.4480938530281708])","array('d', [0.021585073322057845, -0.005382500465231701, 0.000491761922868605, -0.0011414178386485998, -0.0006863292236506053, -0.0008135141982872696, -0.0007771981772956067, -0.0007866129974325552, -0.0007828387475523379, -0.0007826850381763371, -0.0007814277402110335, -0.0007805307404961317, -0.0007796560161796556, -0.0007790125751139362, -0.0007785637701831698, -0.004785197954942258])","array('d', [0.3967023650791982, 0.384165914586445, 0.37600934819021414, 0.37165075994137375, 0.3706577564514241, 0.37269549929635465, 0.37749514965544345, 0.38483382635189184, 0.39452143026662717, 0.40639175685525597, 0.42029639154456655, 0.4361004689142596, 0.45367971137315244, 0.4729183620474079, 0.49370774798597095, 0.5138697628712744])",-81.34947724006668,-313.4799968327502,-50.45525797890299,0.1560911182384385,0.000491761922868605,0.37600934819021414,25.000000249973446,-1.0,[],[],[],10000000000.0,0.04266977310180664
