,current_time,x_pos,y_pos,z_pos,roll,pitch,yaw,vel,x_traj,y_traj,z_traj,roll_traj,pitch_traj,yaw_traj,x_cmd,y_cmd,z_cmd,roll_cmd,pitch_cmd,yaw_cmd,vel_cmd,effector_dmg,effector_x,effector_y,effector_z,cost,time_solution
0,5.704687118530273,-288.63409423828125,-76.66554260253906,49.88251876831055,0.6234063506126402,0.037031065672635956,0.11929364601639296,23.053096804421063,"array('d', [-76.93537902832031, -76.59630133051223, -76.30937419882058, -76.06034055033426, -75.8373222493504, -75.63014003091199, -75.42985996034066, -75.22849854061586, -75.01882602709884, -74.79423195977137, -74.54863151251868, -74.27639958926102, -73.97232423342837, -73.63157371138581, -73.24967335739419, -72.8240830716997])","array('d', [-291.8375549316406, -289.3615227284295, -286.87815098224405, -284.3906066863346, -281.90058167066456, -279.4091839819847, -276.91721978132585, -274.42534295886645, -271.9341535586367, -269.44426822040464, -266.95637124223725, -264.4712522403219, -261.9898337500428, -259.5131909862607, -257.0425652230298, -254.57909582586888])","array('d', [-49.87807083129883, -49.81669431364791, -49.80267477626599, -49.80613650518599, -49.8063955965991, -49.807552557896685, -49.80846037736489, -49.80943834498948, -49.81039493785844, -49.8113544314627, -49.81230853053521, -49.813258415247724, -49.81420273930085, -49.81514109413709, -49.81607294693101, -49.811753569106955])","array('d', [0.624386966228485, 0.49022828787957007, 0.3688364847592486, 0.25899662910363913, 0.1596094087122208, 0.06968012468180412, -0.011691263856341097, -0.08531914763162078, -0.15194041791535332, -0.21222184156260723, -0.26676673422605574, -0.3161209985281712, -0.36077858761714665, -0.4011864487373833, -0.43774899534032685, -0.39139484147434545])","array('d', [-0.034673862159252035, -0.014765220329056831, 0.0032488648968966504, -0.00041830364006069414, 0.0006084485068641332, 0.00032190074544846903, 0.0004030019091049264, 0.00037975992529078005, 0.00038541996024297624, 0.00038222817959024244, 0.0003810704033275076, 0.0003788740174563414, 0.00037662279041167357, 0.0003741031217887222, 0.0003714238192638254, -0.00375804469173676])","array('d', [0.1489325324681143, 0.12448754307089063, 0.10653462338809744, 0.09382079209178283, 0.08551245444259568, 0.08102070232582559, 0.07990866615985458, 0.08183852755323791, 0.08653939959048157, 0.0937869564477454, 0.10339005689891412, 0.11518172868626855, 0.12901297929711675, 0.1447484976852652, 0.1622636530768266, 0.17951790944382845])",-76.30937419882058,-286.87815098224405,-49.80267477626599,0.3688364847592486,0.0032488648968966504,0.10653462338809744,25.000000249989377,-1.0,[],[],[],10000000000.0,0.036032915115356445
1,5.747465372085571,-287.6976623535156,-76.60468292236328,49.88236618041992,0.6232234239578246,0.03765550255775444,0.11032314697769666,23.05127102780651,"array('d', [-76.84869384765625, -76.53012150321929, -76.26372880716117, -76.0352411940121, -75.83277146568466, -75.64613372184232, -75.46638938046198, -75.285551141528, -75.09638562512114, -74.8922784027025, -74.66713998208728, -74.41533963141868, -74.13165858831758, -73.8112569997109, -73.44965067030803, -73.04429080674002])","array('d', [-290.9235534667969, -288.44484401675373, -285.9591953866258, -283.4696785847467, -280.97789851710894, -278.4848775835546, -275.9913480334821, -273.4978978089121, -271.0050673793541, -268.51341899312774, -266.0235869537033, -263.5363147144839, -261.0524820825983, -258.5731246962968, -256.0994472046052, -253.63256820459156])","array('d', [-49.88024139404297, -49.81710506121906, -49.80149270128718, -49.80443327408417, -49.804854607182214, -49.8059833166878, -49.80691625851202, -49.80790436428359, -49.808875259970236, -49.80984775078181, -49.81081504297729, -49.811777838649, -49.81273488900243, -49.813685721857205, -49.8146297934642, -49.81032184022608])","array('d', [0.6241664290428157, 0.49002873756381865, 0.3686559241504026, 0.25883325109371014, 0.15946157816213252, 0.06954636205639989, -0.011812297295958101, -0.08542866322661469, -0.15203951173264854, -0.2123115053646868, -0.26684786539686517, -0.31619440905450996, -0.3608450122156172, -0.40124655220951105, -0.43780337925153534, -0.39144309583626835])","array('d', [-0.03541381657123551, -0.015434758827968922, 0.0026430415394134554, -0.00024244626551411086, 0.0005660258266070738, 0.00034070067367987993, 0.00040458704381015297, 0.00038620424777743064, 0.0003904416254026484, 0.000387598465274824, 0.0003862576698114395, 0.0003840162699135021, 0.0003816632764924936, 0.0003790466682936875, 0.00037625716222303867, -0.00375372969220136])","array('d', [0.14065189758804822, 0.11621837813551683, 0.09827449095098978, 0.08556812230438099, 0.07726616654779479, 0.07278001173904071, 0.07167297747163688, 0.07360737121483919, 0.07831239251170324, 0.08556377649701341, 0.09517042590086965, 0.10696540083571307, 0.12079973314762103, 0.13653813056414985, 0.15405597718324776, 0.17131263581701864])",-76.26372880716117,-285.9591953866258,-49.80149270128718,0.3686559241504026,0.0026430415394134554,0.09827449095098978,25.000000249989323,-1.0,[],[],[],10000000000.0,0.03829312324523926
2,5.793405294418335,-286.3060302734375,-76.5296630859375,49.879295349121094,0.6229007840156555,0.0382610782980917,0.096994117894445,23.0586642424199,"array('d', [-76.76966857910156, -76.472247256237, -76.22704306896524, -76.01976204619362, -75.83850700707424, -75.6730849957796, -75.51455254492613, -75.35491843160848, -75.18694557944649, -75.00401554979737, -74.80003413490279, -74.56936489031975, -74.30678212980433, -74.0074377115927, -73.66683768346041, -73.28242419131777])","array('d', [-290.0084533691406, -287.52716521294457, -285.03934833817726, -282.5479751871959, -280.054562158749, -277.5600436342577, -275.0650756874183, -272.57017821297677, -270.07583015866015, -267.58253755798336, -265.0908830031399, -262.6015621617832, -260.11541057496555, -257.63342284601407, -255.15676561675733, -252.68653586788787])","array('d', [-49.88187789916992, -49.816890547584315, -49.79960279204923, -49.8019973411512, -49.802592936673435, -49.80369512303168, -49.80465781443002, -49.80565987287008, -49.80664910663965, -49.80763854900326, -49.808622984935994, -49.80960260891778, -49.810576271918336, -49.8115434323138, -49.81250353291351, -49.808210588156534])","array('d', [0.624033987522125, 0.4899088995093275, 0.36854749018475486, 0.2587351359752962, 0.15937279992364578, 0.0694660321769948, -0.011884982783266494, -0.08549443178131066, -0.15209902158736685, -0.21236535211302587, -0.26689658795430665, -0.3162384950521422, -0.36088490288082375, -0.40128264678372655, -0.4378360390109774, -0.3914720744578794])","array('d', [-0.036192134022712534, -0.01613900964372541, 0.002005809079436287, -5.577780338523943e-05, 0.00052260563986693, 0.0003618255986848699, 0.00040756451518285635, 0.00039430347094297844, 0.0003970379410427693, 0.0003945573438981368, 0.0003930171089559928, 0.00039072040233191003, 0.00038825120120474546, 0.00038552264448664516, 0.00038260649369238907, -0.0037480608466252756])","array('d', [0.13212211529282136, 0.10769548254971989, 0.0897570189849568, 0.07705513155892507, 0.06875700818352204, 0.0642742146972425, 0.0631701842545631, 0.06510729988172673, 0.06981481302664368, 0.07706849542132563, 0.08667727618621178, 0.09847423486858482, 0.11231041793979325, 0.12805054439974559, 0.14557000727652444, 0.16282810858860178])",-76.22704306896524,-285.03934833817726,-49.79960279204923,0.36854749018475486,0.002005809079436287,0.0897570189849568,25.00000024998927,-1.0,[],[],[],10000000000.0,0.04737520217895508
3,5.85322642326355,-284.9147644042969,-76.47293853759766,49.876590728759766,0.6157264709472657,0.03723853826522815,0.0835532704975942,23.074534101523295,"array('d', [-76.66554260253906, -76.3999393672916, -76.18655616880903, -76.01107910439458, -75.86160306352774, -75.72793043654562, -75.60111496686702, -75.4731632162734, -75.33683562793861, -75.18551038554757, -75.01308853635835, -74.81392716841584, -74.58279214177651, -74.3148246857015, -74.0055179180545, -73.65230193708688])","array('d', [-288.63409423828125, -286.14925195772844, -283.65851734280335, -281.1647014627484, -278.6691817099217, -276.17276049762995, -273.67597949628697, -271.17925669734745, -268.68297911466607, -266.18756894317556, -263.6935317762612, -261.201492223303, -258.7122200725192, -256.22664902635137, -253.74588935532765, -251.27100582756896])","array('d', [-49.88251876831055, -49.815536283894225, -49.79644266450535, -49.798254178174396, -49.79904693538203, -49.800128856372666, -49.80113226167766, -49.802157911544555, -49.8031754488834, -49.80419162828179, -49.80520292209971, -49.80620895514025, -49.80720866958606, -49.80820143466647, -49.80918666690568, -49.804917252566725])","array('d', [0.6234063506126402, 0.48934099009722287, 0.36803362445205556, 0.25827017099035365, 0.15895208216904205, 0.06908535097565931, -0.012229437409853761, -0.08580610724459942, -0.15238103723453392, -0.21262053044641022, -0.26712748287995147, -0.31644741744021976, -0.3610739436940113, -0.40145369800677216, -0.43799081262141, -0.39160940231623603])","array('d', [-0.037031065672635956, -0.01689810645937847, 0.0013189498662224985, 0.0001497655872393101, 0.0004789487552483177, 0.0003881035350934208, 0.00041418562131497215, 0.0004064631138216603, 0.0004075486624806524, 0.00040543021048613376, 0.0004036348087010126, 0.0004012317256170906, 0.0003985840134592196, 0.00039567656582140733, 0.00039256120843172266, -0.0037391730523705117])","array('d', [0.11929364601639296, 0.09489963435407847, 0.0769868654175585, 0.06430621026954762, 0.05602624636885414, 0.051559381206648984, 0.050469585626921276, 0.052419600438413386, 0.05713892289130999, 0.06440349803976453, 0.07402237999439133, 0.08582874035515146, 0.09967369486980292, 0.11542201593612876, 0.1329491388857372, 0.1502140760447053])",-76.18655616880903,-283.65851734280335,-49.79644266450535,0.36803362445205556,0.0013189498662224985,0.0769868654175585,25.000000249989185,-1.0,[],[],[],10000000000.0,0.0549769401550293
4,5.890872001647949,-283.98699951171875,-76.44574737548828,49.87610626220703,0.6021222472190857,0.03491829335689534,0.07382626930740877,23.090921307793817,"array('d', [-76.60468292236328, -76.36137200940328, -76.1703077470441, -76.01715785601777, -75.89000895971026, -75.77865854083048, -75.67415726996379, -75.56850938462638, -75.45447303926032, -75.32542364245909, -75.17525859736826, -74.99833019349214, -74.78939812743747, -74.54359594926981, -74.25640748072735, -73.92525390061492])","array('d', [-287.6976623535156, -285.2105789416859, -282.7180437381256, -280.2227567811153, -277.7259999020227, -275.22848346040973, -272.73066902505946, -270.2329030513746, -267.73550788310854, -265.23884662556617, -262.74337050534814, -260.2496538727006, -257.75841993131485, -255.27055916577663, -252.78714177811258, -250.30920966137182])","array('d', [-49.88236618041992, -49.81389869895146, -49.79346093858214, -49.794840549074415, -49.79578351714008, -49.79685341400934, -49.797890312540815, -49.79893667821957, -49.799978445483, -49.801017678087895, -49.802052103733104, -49.8030809186098, -49.80410313008134, -49.805118038578, -49.806125039177445, -49.80187602415319])","array('d', [0.6232234239578246, 0.4891754712001837, 0.36788385674703966, 0.2581346555545455, 0.1588294627208667, 0.06897440030068476, -0.012329829741270304, -0.0858969459908469, -0.15246323153869387, -0.21269490293526075, -0.2671947778971051, -0.3165083084958312, -0.36112904020578124, -0.4015035514008806, -0.4380359218746347, -0.3916494266545412])","array('d', [-0.03765550255775444, -0.017463120368654116, 0.0008077041183048333, 0.00030438076803503063, 0.00044760443943879475, 0.00040895777688298036, 0.00042037067394010515, 0.00041678175544171186, 0.0004166345271489816, 0.0004147824684257599, 0.0004127912800667879, 0.00041030215977544513, 0.0004075135515996929, 0.00040446413034144743, 0.00040119096584601227, -0.003731467855950709])","array('d', [0.11032314697769666, 0.08593863821456611, 0.06803335564343355, 0.05535888743041767, 0.04708421551733276, 0.04262199243503817, 0.04153634559187065, 0.04349011998635626, 0.04821288445460215, 0.05548063453148834, 0.06510246073373128, 0.07691156147525698, 0.09075907268461951, 0.10650978231602821, 0.12403913802682061, 0.14130606797186837])",-76.1703077470441,-282.7180437381256,-49.79346093858214,0.36788385674703966,0.0008077041183048333,0.06803335564343355,25.000000249989125,-1.0,[],[],[],10000000000.0,0.03911018371582031
5,5.933618068695068,-283.0589904785156,-76.42739868164062,49.877410888671875,0.5812948942184447,0.03136010840535148,0.06388254562881976,23.107299389707737,"array('d', [-76.5296630859375, -76.3195048480622, -76.16162153648673, -76.04165518533782, -75.94768191215303, -75.86949399078205, -75.79813924386475, -75.72561994361828, -75.64469215676132, -75.54872834804667, -75.43162157893565, -75.28771799460088, -75.11176904543304, -74.898897718948, -74.64457481453871, -74.34620878449527])","array('d', [-286.3060302734375, -283.81596650724634, -281.3211209358469, -278.8240183779729, -276.3257929019093, -273.82701840910335, -271.3280374431217, -268.8290902268382, -266.3304030739366, -263.83225135722466, -261.3350055796973, -258.83916545701237, -256.34538499800254, -253.85449047050892, -251.36749251182724, -248.88539899139445])","array('d', [-49.879295349121094, -49.80938774839588, -49.787646452733384, -49.788619426231755, -49.789728766901035, -49.790805474418306, -49.79189403507667, -49.79297947543512, -49.79406371442481, -49.795144151050344, -49.7962197071003, -49.79728912080852, -49.79835143306514, -49.79940585140401, -49.80045172867702, -49.79623916564272])","array('d', [0.6229007840156555, 0.48888353448149363, 0.3676197014563192, 0.25789563794164877, 0.15861319062151885, 0.06877870919494015, -0.012506898392233807, -0.08605716434641066, -0.15260820311514, -0.21282607865428846, -0.26731347060715466, -0.3166157061116009, -0.3612262175976752, -0.4015914811550143, -0.4381154840593268, -0.391720019911516])","array('d', [-0.0382610782980917, -0.01801106800697617, 0.00031190056509346187, 0.00046394189408765146, 0.00042419374000697595, 0.00043695933626169937, 0.0004339395847136064, 0.0004344049572967188, 0.00043300953146253006, 0.0004313671848377522, 0.0004291152399924367, 0.0004264600381756857, 0.0004234401617509112, 0.00042014942200686124, 0.00041661143314799, -0.003717699094231214])","array('d', [0.096994117894445, 0.07262636496074117, 0.05473428394245606, 0.04207072663736198, 0.03380538784655931, 0.02935135200529162, 0.028273022503458436, 0.030233428010428522, 0.03496226356393591, 0.04223561369712038, 0.051862633113653384, 0.06367656750446947, 0.07752858838130072, 0.0932835111289878, 0.11081680513970925, 0.1280872503499049])",-76.16162153648673,-281.3211209358469,-49.787646452733384,0.3676197014563192,0.00031190056509346187,0.05473428394245606,25.000000249989032,-1.0,[],[],[],10000000000.0,0.04078555107116699
6,5.97455906867981,-282.5906982421875,-76.42162322998047,49.878883361816406,0.5685297250747678,0.029284406453370944,0.058926538625035496,23.117253295584074,"array('d', [-76.4897689819336, -76.3015117425217, -76.16519853189456, -76.06651957807554, -75.99358871447726, -75.93622739731944, -75.88550594067402, -75.83344431282282, -75.77281256609193, -75.696994095299, -75.5998902437099, -75.47585305286105, -75.3196376608693, -75.12636866046894, -74.89151647103746, -74.61249014928029])","array('d', [-285.3785095214844, -282.8866664836197, -280.39054139075785, -277.8925068925439, -275.39357840898555, -272.89423903238725, -270.39475412822696, -267.89529705283866, -265.3960351074641, -262.8971909407642, -260.3990875058445, -257.90218135600514, -255.40708715096224, -252.91459519874076, -250.42568324822244, -247.94134148517279])","array('d', [-49.87712478637695, -49.80817748405091, -49.78730541172961, -49.7885722198888, -49.789609147275065, -49.79071578020716, -49.791805637672965, -49.792900365671656, -49.793991525361555, -49.79507938719589, -49.7961620083503, -49.79723833328433, -49.798307307748836, -49.799368137979634, -49.800420152907634, -49.79621326156734])","array('d', [0.6196489334106445, 0.4859411381096727, 0.3649573108792191, 0.2554866071078254, 0.15643340918439708, 0.06680636120879886, -0.014291552813184517, -0.08767198659108505, -0.15406935483804032, -0.2141481835264911, -0.2685097606746826, -0.3176981542260134, -0.3622056572444185, -0.4024777148797671, -0.43891738159397675, -0.3924314974631677])","array('d', [-0.037857268005609394, -0.01764568531207747, 0.0006425125165427399, 0.00037539017958458046, 0.0004528594041936224, 0.00043278189440179707, 0.00043900036074321074, 0.00043681845595637303, 0.0004361209507219053, 0.00043420057126476356, 0.00043193417861591484, 0.0004291718674514018, 0.00042605963981900177, 0.0004226612536515492, 0.00041901158885545604, -0.0037155576354927964])","array('d', [0.0881130258229119, 0.06391379333313463, 0.04615458118711683, 0.03360089414915327, 0.025429572515565158, 0.021058033355629842, 0.020053450178296198, 0.022080696053684963, 0.02687073377945367, 0.03420054219208979, 0.04387992115605269, 0.0557425916832457, 0.06964008313928371, 0.08543748686283523, 0.10301049097238153, 0.12031637929360375])",-76.16519853189456,-280.39054139075785,-49.78730541172961,0.3649573108792191,0.0006425125165427399,0.04615458118711683,25.000000249988968,-1.0,[],[],[],10000000000.0,0.03957056999206543
7,6.018135070800781,-281.1867980957031,-76.41768646240234,49.8896484375,0.5237610340118406,0.02209635265171518,0.043086485066685984,23.144214082697506,"array('d', [-76.47293853759766, -76.29577892370267, -76.17013633213745, -76.0817738349578, -76.01885737949733, -75.97124696570059, -75.93004201587142, -75.88728522767198, -75.83576484206628, -75.76887907099004, -75.68054147345524, -75.56511422942188, -75.41736090413463, -75.23241306795452, -75.00574685975255, -74.73477824267685])","array('d', [-284.9147644042969, -282.4220662472112, -279.9253697234758, -277.42694902162566, -274.9277481095404, -272.4282038931102, -269.9285439673461, -267.4289104360674, -264.92944413550373, -262.43034501650624, -259.9319163534057, -257.434597512518, -254.9389880631933, -252.44586501876103, -249.95619439338589, -247.4709610383707])","array('d', [-49.876590728759766, -49.80911484321264, -49.78957462492369, -49.79127774138986, -49.79218009394896, -49.79331145329132, -49.79438137303236, -49.79546864021938, -49.79654875510428, -49.79762653092982, -49.7986987388049, -49.79976469728812, -49.800823248858855, -49.80187363485391, -49.80291517814648, -49.79869837342942])","array('d', [0.6157264709472657, 0.48239194698046184, 0.3617458696508369, 0.2525807746553322, 0.1538041030126549, 0.06442726638561222, -0.01644424702527759, -0.08961982504024536, -0.15583183211082036, -0.2157429390558597, -0.26995275528108903, -0.3190038298583826, -0.36338708151987653, -0.40354671186911817, -0.4398846501691506, -0.39328964268784106])","array('d', [-0.03723853826522815, -0.01708583544153062, 0.0011490856498321425, 0.00022876051948709237, 0.0004887838316350607, 0.00041749293835187493, 0.0004380991199214849, 0.00043181940654816493, 0.00043226508481639597, 0.00042999348844702516, 0.000427809266506404, 0.00042500432932053876, 0.00042188891541038317, 0.0004184768175482147, 0.00041481885438970293, -0.0037193030863722776])","array('d', [0.0835532704975942, 0.059556448114884454, 0.04195705391203666, 0.02953565609777623, 0.021477619653345627, 0.01720553855745035, 0.016289900114470686, 0.01839778578920672, 0.02326167743315597, 0.030659626104174068, 0.040402205601623165, 0.05232370743871338, 0.06627609074090511, 0.08212477846693171, 0.0997457217810009, 0.11709439230853484])",-76.17013633213745,-279.9253697234758,-49.78957462492369,0.3617458696508369,0.0011490856498321425,0.04195705391203666,25.00000024998893,-1.0,[],[],[],10000000000.0,0.042090415954589844
8,6.065877676010132,-280.251708984375,-76.42594909667969,49.9036865234375,0.4913968443870543,0.01681292615830888,0.03229303757217906,23.161539694481217,"array('d', [-76.43545532226562, -76.29341322752063, -76.20033603587876, -76.14243462925717, -76.10818983980761, -76.08769160923812, -76.07221243397319, -76.05393015094366, -76.02574176515651, -75.98113532875655, -75.91410029834056, -75.81906423928828, -75.69084800672039, -75.5246340969854, -75.31594446626576, -75.06224820578157])","array('d', [-283.5230407714844, -281.0278518866986, -278.52967293728676, -276.03036450285816, -273.5306052593707, -271.03069126207555, -268.53073952411467, -266.0308073805697, -263.5309694919987, -261.03137404551785, -258.5322838196931, -256.03410672439844, -253.53741820133425, -251.04297712565238, -248.55173627776622, -246.06468146026887])","array('d', [-49.876461029052734, -49.81835785083805, -49.80716326009387, -49.81153252761137, -49.811573096863015, -49.812826699886706, -49.81374287354975, -49.81475351797336, -49.81573504667849, -49.81672042992725, -49.817698588041424, -49.818671227104446, -49.81963661824747, -49.82059427384597, -49.821543524930476, -49.81723967376065])","array('d', [0.5925405025482178, 0.4614124132991836, 0.342762800843494, 0.23540418213335293, 0.13826207797652612, 0.05036425930695186, -0.02916898319286092, -0.10113364350234776, -0.16624996682362275, -0.2251696580242123, -0.2784824041058834, -0.3267217759773995, -0.3703705685925282, -0.40986563285712074, -0.44560224686902955, -0.3983609189113515])","array('d', [-0.03329754620790464, -0.01351987804900802, 0.004267327420534352, -0.0006892228622112746, 0.0006985278192178523, 0.00031082233756056315, 0.00042029045611882655, 0.0003887512337687762, 0.0003963450624797338, 0.000392033474922216, 0.0003905183046164523, 0.00038764095752577847, 0.00038472068434357965, 0.00038145822976645894, 0.00037800033310181536, -0.0037521875397307693])","array('d', [0.06885154644516525, 0.04603253735191513, 0.029368058827241954, 0.017723464613939314, 0.010332474522030347, 0.006647216155695754, 0.006257163833004809, 0.008842095166696354, 0.01414324873486643, 0.021944870576988334, 0.03206201526835591, 0.04433228404209642, 0.058610134741785724, 0.07476292328070878, 0.09266813849191004, 0.11027037910076543])",-76.20033603587876,-278.52967293728676,-49.80716326009387,0.342762800843494,0.004267327420534352,0.029368058827241954,25.00000024998881,-1.0,[],[],[],10000000000.0,0.045804738998413086
9,6.1321632862091064,-278.8504943847656,-76.4539566040039,49.93698501586914,0.4442867338657377,0.008152438327670021,0.016343430676732534,23.17866650532148,"array('d', [-76.42162322998047, -76.30279762275461, -76.23032139672779, -76.1908589224458, -76.17321080953484, -76.16769928434101, -76.16577250790557, -76.15974605873703, -76.142628477811, -76.1080007755669, -76.04993193942364, -75.9629192112909, -75.8418457994428, -75.68195104728503, -75.47880956615401, -75.22995109808515])","array('d', [-282.5906982421875, -280.09408498621605, -277.59519308123953, -275.0955209557164, -272.5955883426928, -270.0955958705298, -267.59559691196745, -265.09560543776126, -262.59566772118455, -260.095914791849, -257.596600960555, -255.09813245464144, -252.6010883511233, -250.1062352953415, -247.6145369928967, -245.12699454708536])","array('d', [-49.878883361816406, -49.83032532862488, -49.82226282852481, -49.82567176584763, -49.825891742326256, -49.82700575061311, -49.827871122955074, -49.82880566235117, -49.82971803356755, -49.83063224315389, -49.831539898095286, -49.832442057958104, -49.833337290930935, -49.834225116456736, -49.835104945289224, -49.830735642151105])","array('d', [0.5685297250747678, 0.4396865614370519, 0.3231044353591905, 0.217616555854444, 0.1221671666833741, 0.03580098000971905, -0.04234638442399389, -0.11305705028885744, -0.1770387124118634, -0.2349317196104946, -0.28731548350660124, -0.3347142774599127, -0.37760248365332066, -0.4164093408029148, -0.45152323922259635, -0.40361021658736645])","array('d', [-0.029284406453370944, -0.009888638713850066, 0.00321990310868022, -0.0004318326554626578, 0.0005907550446726272, 0.00030521498524269835, 0.0003857395847420881, 0.0003622832406191435, 0.00036752627710266006, 0.000363901863400976, 0.00036224966043965623, 0.0003595237125015845, 0.00035670961859665846, 0.00035360264045469184, 0.00035031527286126984, -0.0037769135712310653])","array('d', [0.058926538625035496, 0.037295465002202044, 0.02158243780296179, 0.010733468520647087, 0.0040288920480734, 0.0009495880178488463, 0.0011036537345642137, 0.004183392119679518, 0.009938721135231279, 0.018160051454932654, 0.028666912655807814, 0.041300223449000466, 0.05591695617603126, 0.07238642071363388, 0.0905876683344264, 0.10845374414556262])",-76.23032139672779,-277.59519308123953,-49.82226282852481,0.3231044353591905,0.00321990310868022,0.02158243780296179,25.000000249988712,-1.0,[],[],[],10000000000.0,0.05972170829772949
10,6.180831670761108,-277.91412353515625,-76.48225402832031,49.96882629394531,0.4151752889156339,0.0026208346243946994,0.006483630337987281,23.187114867895755,"array('d', [-76.41768646240234, -76.3356370086369, -76.2951750586722, -76.2837623368583, -76.29076411399976, -76.3069162975773, -76.32398258998775, -76.33452797652033, -76.3317645189924, -76.30944419237431, -76.26178346803418, -76.18340993089338, -76.06932450274493, -75.91487485863608, -75.71573690824985, -75.46955755124957])","array('d', [-281.1867980957031, -278.68841996285767, -276.1887718583968, -273.68880818069925, -271.1888213893822, -268.6888742888094, -266.1889329212626, -263.6889570355445, -261.188963275261, -258.68907151050723, -256.1895391373624, -253.6907864983433, -251.1934152976451, -248.69822125989668, -246.20620189344132, -243.71839497666184])","array('d', [-49.8896484375, -49.85818870635794, -49.85571332428006, -49.857362108679354, -49.857867174330835, -49.85869399524044, -49.85943146670427, -49.86019288898655, -49.86094480044658, -49.861695207807564, -49.862440580568915, -49.86318086281211, -49.86391518774316, -49.86464311237295, -49.865364209333634, -49.860845363802916])","array('d', [0.5237610340118406, 0.3991781709374041, 0.2864509245704643, 0.18445108478614355, 0.09215780475559779, 0.008647383986373358, -0.06691597636580077, -0.13528853843755143, -0.1971545965696823, -0.2531333259422634, -0.30378497947602295, -0.34961649501952075, -0.39108656893526517, -0.42861024682194926, -0.4625630765433538, -0.4133908464982645])","array('d', [-0.02209635265171518, -0.003384618113569727, 0.001325732218039715, 1.5158460112101573e-05, 0.00038276170783897896, 0.0002804025796741889, 0.0003090959318098801, 0.00030019045837685555, 0.00030131987183717427, 0.00029904398626054326, 0.00029728359256424834, 0.0002949806228478593, 0.0002925203665395971, 0.00028986365887715066, 0.0002870606713177566, -0.0038334059454350547])","array('d', [0.043086485066685984, 0.023592334938392325, 0.009612076092536545, 0.00022499824643673068, -0.00521011937632433, -0.007163349964759553, -0.005994495478499243, -0.001989485964867346, 0.0046167803781598385, 0.013625560480141961, 0.02486429945199277, 0.03817981618113746, 0.05343358213179659, 0.07049842763988658, 0.08925624133692038, 0.10761770606018796])",-76.2951750586722,-276.1887718583968,-49.85571332428006,0.2864509245704643,0.001325732218039715,0.009612076092536545,25.000000249988556,-1.0,[],[],[],10000000000.0,0.05166435241699219
11,6.262223958969116,-275.5719909667969,-76.58235931396484,50.0793571472168,0.35536915063858027,-0.008869263343513154,-0.015763803324427145,23.20223536192221,"array('d', [-76.42594909667969, -76.36893891418386, -76.35016454220808, -76.357624373355, -76.38106681037914, -76.41151162584072, -76.44094130159498, -76.46209536459479, -76.4683295220583, -76.4535173814215, -76.41198113407103, -76.33844246235356, -76.22798782951608, -76.07604410911465, -75.87836166720975, -75.63267407197799])","array('d', [-280.251708984375, -277.75249966202585, -275.25258834487425, -272.75260710690384, -270.25271948536465, -267.7529052424016, -265.2530790383945, -262.75317096641436, -260.2531842952538, -257.7532378327717, -255.25359741839875, -252.75469917831853, -250.25716621811483, -247.7618198555834, -245.26968617601074, -242.78183230069774])","array('d', [-49.9036865234375, -49.884795544397356, -49.88640549628938, -49.8867231369153, -49.88740396046538, -49.887985185568006, -49.88859443038096, -49.8891945557267, -49.88979472097534, -49.89039121356675, -49.890984112177115, -49.89157256972083, -49.892156155184445, -49.89273446694767, -49.89330720584279, -49.888648665628594])","array('d', [0.4913968443870543, 0.3698938385077888, 0.25995336242568134, 0.1604750968989589, 0.0704634318157183, -0.01098249818862955, -0.08467782987834728, -0.15136012956524358, -0.21169677490673586, -0.26629163423339636, -0.31569111025453384, -0.3603896086280704, -0.40083448612060124, -0.43743052783991854, -0.4705439975824086, -0.42045560917049796])","array('d', [-0.01681292615830888, 0.0013960241864655874, -8.338301853273768e-05, 0.00033058963103400614, 0.00021598110898458724, 0.0002484572066981141, 0.0002390948267621131, 0.0002409740996221827, 0.00023918789652652538, 0.00023802556634190705, 0.00023632174479188027, 0.0002344750955994834, 0.00023242743394240905, 0.0002302581638834895, 0.00022797110434666961, -0.0038861778264172725])","array('d', [0.03229303757217906, 0.014287192172227637, 0.0015296431116104423, -0.006816075116884054, -0.011340608468275332, -0.01248193626405365, -0.010578615078098782, -0.0059020388339541575, 0.0013231092183510252, 0.010905430148505854, 0.02267776194229644, 0.036490969311838956, 0.05220963118964921, 0.06970902969689471, 0.08887304813116789, 0.10759551906617547])",-76.35016454220808,-275.25258834487425,-49.88640549628938,0.25995336242568134,-8.338301853273768e-05,0.0015296431116104423,25.000000249988446,-1.0,[],[],[],10000000000.0,0.07356023788452148
12,6.3699023723602295,-273.2373962402344,-76.71662902832031,50.22325134277344,0.31369319558143605,-0.014817763119936113,-0.032445236048426085,23.20451229415596,"array('d', [-76.48225402832031, -76.48543538383241, -76.51922450148773, -76.57276287925731, -76.63662589347823, -76.70245661298644, -76.76272502222918, -76.81056462365369, -76.8396591004979, -76.8441626213782, -76.81864342836727, -76.75804389221221, -76.65765237779958, -76.51308363260158, -76.32026531248555, -76.07713947141687])","array('d', [-277.91412353515625, -275.41415069152436, -272.9143900004727, -270.4149672889879, -267.9157839227088, -265.4166510120505, -262.9173790516603, -260.41784097753543, -257.91801819668103, -255.41803475475098, -252.9181827287756, -250.4189407288369, -247.92098672976562, -245.42520607148947, -242.93269525154426, -240.44459397632917])","array('d', [-49.96882629394531, -49.96664312965606, -49.967471613081656, -49.96746459390074, -49.96769075184842, -49.96785212543661, -49.968031390616474, -49.96820501753928, -49.968379256347646, -49.9685520317581, -49.968723666848334, -49.968893848157435, -49.9690624892587, -49.96922948175695, -49.96939475502476, -49.96435274045903])","array('d', [0.4151752889156339, 0.30092571680891866, 0.19754841960797348, 0.10400876445212583, 0.019370576730330845, -0.0572132294519938, -0.1265091291779205, -0.18921065784530747, -0.24594535228947703, -0.297281031371153, -0.3437314788875039, -0.3857615856816314, -0.4237920024092098, -0.458203349489192, -0.48934002562532236, -0.4370727727248882])","array('d', [-0.0026208346243946994, 0.0008169529560044736, -0.00013823180033929248, 0.00012817230466729166, 5.399153491344709e-05, 7.476086072297087e-05, 6.875152947200096e-05, 7.012706088830361e-05, 6.927814611513831e-05, 6.894769357951949e-05, 6.837001418669653e-05, 6.778479446827334e-05, 6.7138860755161e-05, 6.646635533935265e-05, 6.576397478665134e-05, -0.0040310405391322515])","array('d', [0.006483630337987281, -0.008174847664877168, -0.018136083283916353, -0.024071032723387165, -0.026468462632934887, -0.02570046053208147, -0.022061314316220253, -0.015791767807319102, -0.007094749395431395, 0.003854124978420628, 0.016899387400011515, 0.03190076121007325, 0.04872970497217146, 0.06726699816695789, 0.08740106018971298, 0.10698366240936179])",-76.51922450148773,-272.9143900004727,-49.967471613081656,0.19754841960797348,-0.00013823180033929248,-0.018136083283916353,25.00000024998816,-1.0,[],[],[],10000000000.0,0.11046051979064941
13,6.458749532699585,-270.9022216796875,-76.87515258789062,50.38862609863281,0.28235134482383717,-0.015679920092225182,-0.046346231302943026,23.20826443318045,"array('d', [-76.58235931396484, -76.63793793064788, -76.71836056933756, -76.81355853012438, -76.91469219642515, -77.01385516626951, -77.10387628662995, -77.17818367546457, -77.2307096153797, -77.25582337745239, -77.24828361416928, -77.20320471610819, -77.11603323539526, -76.98253158435335, -76.79876695842792, -76.5628478862907])","array('d', [-275.5719909667969, -273.07264987116554, -270.57395298136424, -268.07576821825813, -265.5778149649477, -263.0797830806443, -260.5814071015389, -258.0825176613114, -255.58307972341117, -253.08322100381838, -250.583252993745, -248.08368596528118, -245.58523891460723, -243.08884511376684, -240.59565379637687, -238.1068631414526])","array('d', [-50.0793571472168, -50.08683092546262, -50.08417085792937, -50.08432229643954, -50.08369060438471, -50.083277158419094, -50.082803897259346, -50.08234960375898, -50.08189307531459, -50.08144107731754, -50.08099235154835, -50.08054779862951, -50.080107581824045, -50.079671962927264, -50.079241091916906, -50.0736384060897])","array('d', [0.35536915063858027, 0.2468108801656506, 0.14858328610675922, 0.059703275467702, -0.020718691158641188, -0.09348750238552245, -0.15933145161347043, -0.21890952602216784, -0.2728180019235801, -0.3215964124846414, -0.36573294754609775, -0.4056693395795963, -0.44180528467820224, -0.4745024427885652, -0.504088056491336, -0.45008817193453404])","array('d', [0.008869263343513154, -0.0026972450414602662, 0.0005155931552835185, -0.0003795102367329343, -0.000130005642265145, -0.0001995903175401074, -0.00017935615486374805, -0.0001840011559260984, -0.0001812672057016398, -0.0001803465486810623, -0.00017866216390359217, -0.00017700776810835372, -0.00017519590012868083, -0.00017333033688923135, -0.0001713986933168711, -0.004242839977024479])","array('d', [-0.015763803324427145, -0.027923286711503428, -0.03575676477131267, -0.039831521348292376, -0.040570577512932526, -0.03830251924788511, -0.03329188102564926, -0.025758503684930843, -0.01589029043034088, -0.0038518260930540593, 0.01020969570761473, 0.02616035241401932, 0.043876615006906136, 0.06324334000232071, 0.08415237626529745, 0.10442002747486194])",-76.71836056933756,-270.57395298136424,-50.08417085792937,0.14858328610675922,0.0005155931552835185,-0.03575676477131267,25.00000024998789,-1.0,[],[],[],10000000000.0,0.08728694915771484
14,6.528671503067017,-269.5055847167969,-76.97991180419922,50.4915657043457,0.265958398580551,-0.013756152242422225,-0.053337379297938026,23.21019108447386,"array('d', [-76.71662902832031, -76.81172317955382, -76.92773902992369, -77.05510994185558, -77.18537568475129, -77.31092675047638, -77.42483155043652, -77.52071709802456, -77.59268510097365, -77.6352525810227, -77.64330979577355, -77.61209057911886, -77.53715165845114, -77.41435845974135, -77.23987555665447, -77.01192894592131])","array('d', [-273.2373962402344, -270.73928701487216, -268.2419930191431, -265.7452410627806, -263.2486378707776, -260.75179400573626, -258.25439433078935, -255.75624156055568, -253.2572898993512, -250.75766971725545, -248.25770573912442, -245.75792972261365, -243.25908846088507, -240.76214767455394, -238.268292264061, -235.77876251046652])","array('d', [-50.22325134277344, -50.23541250229144, -50.23041561566855, -50.230175803627446, -50.22861132944369, -50.2274171581462, -50.22612400633042, -50.22486586063662, -50.223607589402675, -50.22236120623019, -50.221125061003576, -50.219901042567, -50.218689695506654, -50.21749163375477, -50.2163072256697, -50.20999616910205])","array('d', [0.31369319558143605, 0.2091009131816258, 0.1144618938558408, 0.028828960206844955, -0.048654929393510744, -0.11876525834939962, -0.1822037131254818, -0.23960520594810877, -0.29154422920866596, -0.33854060516586054, -0.38106468849154096, -0.4195420737277885, -0.45435785476408225, -0.4858604789270796, -0.5143652335420634, -0.4591446566388937])","array('d', [0.014817763119936113, -0.004762006777702768, 0.0006738095715276893, -0.000840399201271132, -0.00041822296460768474, -0.0005351633029873854, -0.000499945685472431, -0.0005064621936625679, -0.0005002583189152049, -0.0004969042037283753, -0.0004920922804390549, -0.0004872040436761035, -0.00048196109564901783, -0.00047657813152585956, -0.00047104073726717325, -0.004510431513395002])","array('d', [-0.032445236048426085, -0.0429162784420624, -0.04929368661759247, -0.05208343985197902, -0.05166888214509232, -0.04835192937254104, -0.04237864350976358, -0.03395575006490675, -0.023261634829733722, -0.010453829346764266, 0.004325816984695817, 0.02094753287689062, 0.03929110731665771, 0.05924413537776577, 0.08070080510976385, 0.10145134164111409])",-76.92773902992369,-268.2419930191431,-50.23041561566855,0.1144618938558408,0.0006738095715276893,-0.04929368661759247,25.000000249987664,-1.0,[],[],[],10000000000.0,0.061981916427612305
15,6.590851545333862,-268.57598876953125,-77.0531997680664,50.560508728027344,0.2546387016773222,-0.01179024297744045,-0.057306333384241785,23.210762180952504,"array('d', [-76.80915832519531, -76.92470585440115, -77.05934769097708, -77.20374223915024, -77.34960115845824, -77.48945076272658, -77.61646987759816, -77.72437776246119, -77.80735508421307, -77.85998796507454, -77.87722834648275, -77.85436609636754, -77.78700961333516, -77.67107257058514, -77.50276504647096, -77.28036836425726])","array('d', [-271.8350524902344, -269.3378144616564, -266.8414569935723, -264.345631505107, -261.84989126629796, -259.3538081261599, -256.857042030007, -254.35938077427144, -251.86077166636034, -249.3613444789212, -246.86142834485923, -244.36156335717303, -241.86250766987894, -239.3652406160245, -236.87096229150427, -234.38093255077578])","array('d', [-50.321006774902344, -50.33378974750031, -50.327917597339756, -50.32721553867419, -50.325074192806426, -50.32333646443338, -50.321493274011054, -50.31969090002871, -50.31789180064073, -50.316109538120884, -50.31434273674505, -50.31259376751027, -50.31086345285487, -50.3091526039065, -50.30746171463138, -50.30067468061041])","array('d', [0.2940406501293181, 0.191318553086091, 0.0983717476028909, 0.014269992496682028, -0.0618284293389684, -0.13068513510631571, -0.19298926461054292, -0.2493643773900081, -0.3003746934982774, -0.34653074039759185, -0.3882944624794164, -0.42608384434879437, -0.46027709413893964, -0.4912164286867833, -0.5192114977470244, -0.463411213589874])","array('d', [0.015933675691485568, -0.005351966164976858, 0.0005556834133051802, -0.0010898791478180056, -0.0006308551876118471, -0.0007572195997638346, -0.000717987329430897, -0.0007238147538945944, -0.0007156018735304945, -0.0007102967489102441, -0.0007032618120447654, -0.0006960342461103531, -0.0006883458329353, -0.0006804648887549673, -0.0006723814685012967, -0.004690233185625177])","array('d', [-0.041036053499903156, -0.050723694051155364, -0.05642066561723961, -0.05860673678302057, -0.05764808943079683, -0.05383499814983686, -0.047405402248619284, -0.038560223696087886, -0.02747361205205586, -0.014299940585060804, 0.0008213501237009597, 0.017762374075513322, 0.03640444013247606, 0.056636409657868154, 0.07835356276221832, 0.09933341958286915])",-77.05934769097708,-266.8414569935723,-50.327917597339756,0.0983717476028909,0.0005556834133051802,-0.05642066561723961,25.00000024998754,-1.0,[],[],[],10000000000.0,0.0617680549621582
16,6.6518638134002686,-266.7294006347656,-77.2032699584961,50.69562530517578,0.2284117192029951,-0.006095251534134229,-0.06459824641677356,23.209760816751405,"array('d', [-76.87515258789062, -77.00336765283198, -77.14959585321554, -77.3046264756449, -77.46027148169767, -77.60913679328405, -77.74446619107214, -77.86003336847749, -77.95006569758895, -78.0091902456343, -78.03239554457677, -78.01500471752131, -77.95265682629741, -77.84129415828689, -77.67715375142595, -77.45854985753743])","array('d', [-270.9022216796875, -268.4055981230026, -265.9098928885043, -263.41470546764447, -260.9195568398437, -258.4239956998404, -255.9276669227376, -253.43034911239917, -250.93198511144433, -248.43270395447993, -245.932837005285, -243.4329289230128, -240.93374423151838, -238.43626998051215, -235.94171493454255, -233.4513508565333])","array('d', [-50.38862609863281, -50.40094004846062, -50.39471129932023, -50.39361995713704, -50.39109875325411, -50.388979735695564, -50.386757837421726, -50.384579021736904, -50.382406546593344, -50.380254341363226, -50.37812140924396, -50.37601038864419, -50.3739223004612, -50.37185807705153, -50.36981829076249, -50.362703434694765])","array('d', [0.28235134482383717, 0.18074163129674017, 0.08880135213331498, 0.005610339785973636, -0.06966400784860229, -0.13777506037603793, -0.19940449486680087, -0.255169118297027, -0.3056270407487644, -0.3512832611529043, -0.392594721478435, -0.4299748799509762, -0.4637978490659878, -0.49440213977425146, -0.5220940486121033, -0.4659476571051944])","array('d', [0.015679920092225182, -0.0054756134704410835, 0.000394673659964624, -0.001240470066775189, -0.0007841064330927704, -0.0009090239283193202, -0.0008691599181692507, -0.000873815173984065, -0.0008643234825468774, -0.0008575538283164236, -0.0008489358225448424, -0.0008400294176558173, -0.000830598630571822, -0.0008209413706333389, -0.0008110527866256431, -0.004814068295064148])","array('d', [-0.046346231302943026, -0.05557139886572827, -0.06086527771356329, -0.06269279956474731, -0.061410376021165815, -0.05730162457715859, -0.0505998224775733, -0.041502550024218876, -0.03018151013890754, -0.01678924625179463, -0.0014637983917185702, 0.01566804805383608, 0.03448849331777435, 0.05488714510311385, 0.07675993038872979, 0.09787668741081991])",-77.14959585321554,-265.9098928885043,-50.39471129932023,0.08880135213331498,0.000394673659964624,-0.06086527771356329,25.00000024998746,-1.0,[],[],[],10000000000.0,0.05922985076904297
17,6.695443391799927,-265.34490966796875,-77.32144927978516,50.79185485839844,0.20539376139640803,-0.001539063756354246,-0.06948213180037965,23.21267006830755,"array('d', [-77.0162353515625, -77.16603563244264, -77.33182639689619, -77.50463728641401, -77.67646468842477, -77.84006140605264, -77.98879157296832, -78.11653016930055, -78.21759187169395, -78.28668066235007, -78.31885417255936, -78.30949867765881, -78.25431180779184, -78.1492908285546, -77.99072488512722, -77.77699187463313])","array('d', [-269.0406494140625, -266.5452004381712, -264.05071700081925, -261.55669821476255, -259.0626127582312, -256.5679753193225, -254.07241063819342, -251.57568751422582, -249.077747187319, -246.57872355073718, -244.07895792476273, -241.5790088818855, -239.07965784812484, -236.58191092772884, -234.0869973656062, -231.59621362660818])","array('d', [-50.525779724121094, -50.53513354345902, -50.528738151599576, -50.52670270303626, -50.52345473740806, -50.520551476064185, -50.51756638980353, -50.51462510526891, -50.511697990391845, -50.508798133560624, -50.505925714389384, -50.50308375397422, -50.500273678752464, -50.497496623634326, -50.494753292916506, -50.48697750688782])","array('d', [0.2603580355644226, 0.1608412603297203, 0.07079475021843722, -0.010682708874189538, -0.08440656926565655, -0.15111468279226078, -0.21147468546486614, -0.266090679382341, -0.3155092787773513, -0.36022508070517917, -0.40068561512770534, -0.4372958239336084, -0.47042211371746445, -0.5003960228427439, -0.5275175387977508, -0.4707172351157301])","array('d', [0.012873588129878133, -0.0050907298814473565, -0.00010870462895382231, -0.0014965032698152586, -0.0011083452036249016, -0.001212526421190632, -0.0011761499628041051, -0.0011768662353476107, -0.001165023734427138, -0.0011550289603221328, -0.0011431057619929934, -0.001130670482335504, -0.0011176080533159907, -0.001104259161983495, -0.0010906331399873753, -0.00506373386787121])","array('d', [-0.055435701212610995, -0.0637972348491743, -0.06833563570532948, -0.06948935349245468, -0.0675972576076043, -0.06293095679153334, -0.055715285710686374, -0.04614175245134142, -0.03437759939202782, -0.020572022278964985, -0.004860488761141751, 0.012632246399798075, 0.03179003640167578, 0.05250388051467474, 0.07467091835389884, 0.09604627398941623])",-77.33182639689619,-264.05071700081925,-50.528738151599576,0.07079475021843722,-0.00010870462895382231,-0.06833563570532948,25.000000249987306,-1.0,[],[],[],10000000000.0,0.044492244720458984
18,6.737666606903076,-264.4219970703125,-77.40257263183594,50.852787017822266,0.18850964307785026,0.0016855360008775032,-0.07216398318740341,23.213845485592746,"array('d', [-77.0531997680664, -77.20738319991995, -77.37703385945164, -77.55324240032577, -77.7280520990207, -77.89425318732741, -78.04524058841226, -78.1749153133847, -78.27761460717865, -78.34806247381059, -78.38133467842799, -78.372834220397, -78.31827439236409, -78.21366731369507, -78.05531635596842, -77.84161672859258])","array('d', [-268.57598876953125, -266.0807979218266, -263.58657335516705, -261.09279247782166, -258.59891457225234, -256.10444967428367, -253.60902098330456, -251.11239815213798, -248.61452513104675, -246.11553997460223, -243.6157892825976, -241.11583774622002, -238.61647350897772, -236.11870978189043, -233.62378312247696, -231.13299734030034])","array('d', [-50.560508728027344, -50.56878625318914, -50.562439293665335, -50.56013981635531, -50.55671513510182, -50.55361177418349, -50.55043452552359, -50.54730065854703, -50.54418322577479, -50.54109483846655, -50.53803603401381, -50.535009898688784, -50.53201795682475, -50.52906138285954, -50.52614090598939, -50.51819871826218])","array('d', [0.2546387016773222, 0.15566619255365036, 0.06611215482960628, -0.014919696779332723, -0.08824035480927919, -0.1545836357190921, -0.214613524158803, -0.26893081833907323, -0.31807914301062395, -0.36255039023336894, -0.40278964238794507, -0.43919962669974427, -0.4721447458529771, -0.5019547249980078, -0.528927910961785, -0.47195696272488924])","array('d', [0.01179024297744045, -0.004889873166094714, -0.00026485891127553114, -0.0015532306970556559, -0.0011925323173991942, -0.0012885551784718148, -0.0012538237970110392, -0.0012532794957941492, -0.0012408742869879678, -0.0012300172798404294, -0.0012172400186057225, -0.0012038914884768767, -0.0011898960224516746, -0.0011756021280601452, -0.0011610230836269426, -0.005126591730559026])","array('d', [-0.057306333384241785, -0.06544458548953681, -0.06978709758538698, -0.07076572611016257, -0.0687149517532252, -0.06390336732196572, -0.05655368037803284, -0.046855864745203535, -0.034976032621748296, -0.021062529026375745, -0.005250165712102193, 0.012336822315557295, 0.03158271317087126, 0.05237886547993079, 0.0746227334127334, 0.09606555798191913])",-77.37703385945164,-263.58657335516705,-50.562439293665335,0.06611215482960628,-0.00026485891127553114,-0.06978709758538698,25.00000024998727,-1.0,[],[],[],10000000000.0,0.04193568229675293
19,6.786219835281372,-263.9605712890625,-77.4437255859375,50.882347106933594,0.17983257770538322,0.0034072634298353325,-0.07337205012771113,23.21596883647879,"array('d', [-77.2032699584961, -77.37434772577149, -77.55850628217632, -77.74710797347036, -77.93240610698662, -78.10735915020692, -78.265501066796, -78.40085097077723, -78.50784903952152, -78.5813111163563, -78.61639665285571, -78.60858631718602, -78.55366660705711, -78.4477195070611, -78.28711571518583, -78.07033227470748])","array('d', [-266.7294006347656, -264.2352782370733, -261.7420793164978, -259.249206159075, -256.7560869584847, -254.26222242090716, -251.76723895187104, -249.27091959642786, -246.77322939943622, -244.27433350934442, -241.7746101494362, -239.2746589356438, -236.77530516576346, -234.27760049620423, -231.78282039546906, -229.29230462892767])","array('d', [-50.69562530517578, -50.69841593476017, -50.69261454709873, -50.689186802072406, -50.68510183015967, -50.681212498946905, -50.677290751506675, -50.67340861397998, -50.669553062767534, -50.66573378319232, -50.6619529178165, -50.658213657303854, -50.65451786502961, -50.650866800863945, -50.64726123715293, -50.63867561081303])","array('d', [0.2284117192029951, 0.13193503529903422, 0.04463931382722825, -0.034349128549828765, -0.10582083327892522, -0.17049111190638416, -0.22900720514344092, -0.28195476065703723, -0.32986369441779323, -0.3732134942673119, -0.41243801878435304, -0.4479298394775028, -0.4800441697576543, -0.5091024199765474, -0.5353954134257617, -0.47763868750806676])","array('d', [0.006095251534134229, -0.003699344485589463, -0.0009870182068837032, -0.0017425745271275974, -0.001528967816137588, -0.001581620034579023, -0.001556203176881384, -0.001549617916837067, -0.001535066983545571, -0.0015205991862814322, -0.0015043650548158469, -0.001487328642079863, -0.0014696019413779474, -0.001451551517295571, -0.001433206454851837, -0.005369648476616656])","array('d', [-0.06459824641677356, -0.07171889594395012, -0.07516575286826259, -0.07534189919913833, -0.07256255968735766, -0.06708303755959905, -0.05911663351838921, -0.048846514112567775, -0.03643376084803923, -0.02202291868696722, -0.005745857908165039, 0.012275528107217722, 0.031927441601363724, 0.053102877171252734, 0.07570072844264855, 0.09745412422306376])",-77.55850628217632,-261.7420793164978,-50.69261454709873,0.04463931382722825,-0.0009870182068837032,-0.07516575286826259,25.000000249987124,-1.0,[],[],[],10000000000.0,0.04489398002624512
20,6.846717119216919,-262.1225280761719,-77.60765075683594,50.993019104003906,0.144532412290573,0.009669448249041925,-0.07776622374984225,23.21820372868642,"array('d', [-77.2421646118164, -77.41702343373069, -77.60429420567634, -77.79541336246248, -77.98269192101635, -78.1591347740965, -78.31831444909854, -78.45428298885643, -78.56150943729742, -78.63483555518894, -78.66944456736336, -78.66083935565172, -78.60482749657747, -78.49751122456986, -78.33528087471738, -78.11663732598768])","array('d', [-266.26788330078125, -263.77401805595076, -261.2810501420631, -258.7883691043193, -256.29539826984177, -253.8016392177258, -251.3067223237071, -248.81043722413918, -246.3127574948295, -243.8138583119955, -241.3141290264846, -238.81418114883655, -236.31485234493314, -233.81720685428868, -231.3225327151884, -228.8321805266279])","array('d', [-50.72832489013672, -50.72965601699429, -50.72402166428717, -50.72031009130541, -50.716067529773476, -50.71198686333064, -50.707884994383484, -50.70382171721947, -50.69978770932956, -50.695791827229776, -50.69183660893416, -50.687925242066, -50.6840596551752, -50.68024111021461, -50.6764703740655, -50.66772963274133])","array('d', [0.22101998329162587, 0.12524671545633034, 0.03858747122155485, -0.039825062683541156, -0.11077566383064028, -0.17497442839572458, -0.23306387802736855, -0.2856253904076538, -0.3331850178647749, -0.37621875227178225, -0.4151572889239923, -0.4503903370725128, -0.48227052025035194, -0.5111169053907014, -0.5372181953732403, -0.4792390172029076])","array('d', [0.004567923489958185, -0.00337058863845118, -0.0011735492075653795, -0.001785501699112008, -0.0016114526112563047, -0.001652398894670258, -0.0016294800348621674, -0.0016212798897621496, -0.0016061796917513254, -0.0015907841456323278, -0.0015736771578718362, -0.0015557171900090721, -0.0015370646849573672, -0.001518088993172438, -0.0014988224441806048, -0.005428242574404344])","array('d', [-0.06625990470382176, -0.07309549404596515, -0.07629061559395739, -0.07624065629156968, -0.07325566221686286, -0.06758734627504065, -0.05944645803468126, -0.04901431142958497, -0.0364506140292765, -0.0218988689794123, -0.005490136599748905, 0.012654337744372935, 0.03242129172008938, 0.05370417777599785, 0.07640229460488861, 0.0982435745129386])",-77.60429420567634,-261.2810501420631,-50.72402166428717,0.03858747122155485,-0.0011735492075653795,-0.07629061559395739,25.00000024998709,-1.0,[],[],[],10000000000.0,0.059715986251831055
21,6.895400047302246,-260.74267578125,-77.73361206054688,51.070411682128906,0.118804097175598,0.013724602758884314,-0.08121542533370449,23.22223123715646,"array('d', [-77.40257263183594, -77.59056610797366, -77.7880463175183, -77.98676343208253, -78.17927518666511, -78.3587860793975, -78.5190354598724, -78.65421869500977, -78.75893128369582, -78.82812927257386, -78.85710141050582, -78.8414498156464, -78.77707680697566, -78.66017615281142, -78.4872274138881, -78.25683967603186])","array('d', [-264.4219970703125, -261.9290832099666, -259.43690055735306, -256.94481568409606, -254.45224522144096, -251.95870749447943, -249.46386166411042, -246.96753673721167, -244.46975333176837, -241.9707395176046, -239.47094170392685, -236.97103120555607, -234.47190697546222, -231.97469490652634, -229.48074406771906, -226.99145502914345])","array('d', [-50.852787017822266, -50.84817330480175, -50.843277005534, -50.83845316346974, -50.83361726798329, -50.8288054018172, -50.82401872742822, -50.819266695286316, -50.81455499077102, -50.80988892259277, -50.805272514032715, -50.80070882171861, -50.79619993911725, -50.79174705127022, -50.78735083101568, -50.77802273163707])","array('d', [0.18850964307785026, 0.09583014049314764, 0.01197025107330364, -0.06390932161943887, -0.13256800447555753, -0.1946929554240297, -0.25090594072735617, -0.30176955781597264, -0.3477928659421259, -0.38943648100651057, -0.4271171855480607, -0.4612121000341929, -0.49206245719438946, -0.5199770171358472, -0.5452351567379528, -0.4862721894492996])","array('d', [-0.0016855360008775032, -0.002000187475843209, -0.001918221755887453, -0.0019404828915687811, -0.0019284368239469555, -0.0019211795136740522, -0.0019083758889071926, -0.0018935002315007873, -0.0018761549287641182, -0.0018570209369223058, -0.001836451118599129, -0.00181486482631085, -0.0017926143564705457, -0.0017700737907211104, -0.0017472843634519348, -0.005650114898973699])","array('d', [-0.07216398318740341, -0.07775379251941689, -0.07984460985297631, -0.07879999124097409, -0.07490842428895825, -0.06840659809510496, -0.05949453928385985, -0.04834574242382403, -0.03511409134274037, -0.019938652371033, -0.0029470177360049117, 0.01574235904429397, 0.036018538020975474, 0.057776971300602574, 0.08091873823379266, 0.10314842303568732])",-77.7880463175183,-259.43690055735306,-50.843277005534,0.01197025107330364,-0.001918221755887453,-0.07984460985297631,25.000000249986947,-1.0,[],[],[],10000000000.0,0.04708099365234375
22,6.939558506011963,-259.8220520019531,-77.81867980957031,51.11885070800781,0.10239415615797032,0.015536922961473337,-0.08328787883254511,23.227232399680794,"array('d', [-77.52503204345703, -77.72023651553422, -77.92256601426341, -78.12401204532422, -78.31732501984031, -78.4958667073467, -78.65350914093464, -78.7845627428373, -78.88372548742855, -78.9460469035997, -78.96690283725233, -78.9419780105115, -78.86725421973266, -78.73900255481553, -78.55377841206976, -78.31028269986321])","array('d', [-263.0417785644531, -260.54943445788587, -258.05763953943074, -255.5657757339313, -253.07326873847208, -250.57966342723776, -248.08465367406197, -245.58811088738614, -243.09010345796986, -240.59091124372495, -238.09103513652346, -235.5912025145101, -233.09236897188796, -230.5957167310779, -228.10265008951367, -225.61461206622346])","array('d', [-50.9390869140625, -50.92979012474998, -50.925558098454076, -50.91992021899132, -50.914685485005975, -50.909365085177555, -50.90410704707712, -50.89888044175428, -50.89370273092735, -50.88857622535168, -50.88350598372911, -50.87849483256505, -50.8735448923363, -50.86865720363504, -50.86383229723415, -50.85410164493686])","array('d', [0.16207894682884205, 0.07191465537593605, -0.009669376691442107, -0.08348966830702409, -0.15028503642148885, -0.2107239903174114, -0.2654114222627034, -0.31489466146472167, -0.35966895191491316, -0.40018240894792895, -0.43684050412177633, -0.47001012330416814, -0.5000232385749773, -0.5271802306583406, -0.5517528944532013, -0.4919833405373475])","array('d', [-0.0066585498861967156, -0.0008753838853665129, -0.002483413954162769, -0.002034384143460272, -0.002151453121811441, -0.0021056342614272877, -0.002100878611782976, -0.002080744527296323, -0.0020617440204154856, -0.002039828861927621, -0.0020167521419526425, -0.001992574760723687, -0.001967793373060618, -0.0019427773569042363, -0.0019175706201147319, -0.005802177682279227])","array('d', [-0.07557003100844803, -0.08015531450479534, -0.08135091409117028, -0.07949675916244178, -0.07486518618811408, -0.06768154267869367, -0.05813770636226069, -0.04640119171193919, -0.03262139913320895, -0.016933953927284303, 0.0005362643389917068, 0.019673006945109688, 0.04036718707099306, 0.06251586908533584, 0.08602158184183321, 0.1085693169346606])",-77.92256601426341,-258.05763953943074,-50.925558098454076,-0.009669376691442107,-0.002483413954162769,-0.08135091409117028,25.000000249986847,-1.0,[],[],[],10000000000.0,0.04355597496032715
23,6.990570068359375,-259.36163330078125,-77.86145782470703,51.14234924316406,0.09439354389905917,0.01631172932684409,-0.08449952205153895,23.22960132291108,"array('d', [-77.60765075683594, -77.80748385111184, -78.01288010149615, -78.21598533275373, -78.40967455860435, -78.58741197453898, -78.74315660341324, -78.87129476051433, -78.96659239136777, -79.02416133440722, -79.03943572973964, -79.00815577220061, -78.92635676946549, -78.79036196941291, -78.59677798890581, -78.34436781506476])","array('d', [-262.1225280761719, -259.63056834065776, -257.1390240400133, -254.64729638233433, -252.15481964115256, -249.6611582759913, -247.16603083598937, -244.66933832906594, -242.17118214961837, -239.67187768447366, -237.1719630101036, -234.67220361014117, -232.1735934422711, -229.67735276269028, -227.18492305243836, -224.69777557253764])","array('d', [-50.993019104003906, -50.980877598107504, -50.97703295290431, -50.97089012148754, -50.965401607427204, -50.959761751579954, -50.95420715832192, -50.948682516771825, -50.94321235262824, -50.93779713355515, -50.932442504400434, -50.92715111539121, -50.92192506620203, -50.91676527435155, -50.911672152053335, -50.90168965749621])","array('d', [0.144532412290573, 0.056037892930665086, -0.024035266730515724, -0.09648846433525594, -0.1620468345226866, -0.2213665063068074, -0.2750411698242633, -0.3236080181739609, -0.3675531238163177, -0.40731630334077695, -0.4432955192894794, -0.47585086309099384, -0.5053081589618631, -0.5319622248089181, -0.5560798220850153, -0.49577127200597226])","array('d', [-0.009669448249041925, -0.00020177122736217174, -0.002830101215266771, -0.0020964083823568334, -0.002291157552155106, -0.002221886487774534, -0.0022217932851114016, -0.0021983151698484766, -0.0021781558901612353, -0.0021544186964787475, -0.0021297002133684145, -0.0021038454218032933, -0.002077437470042231, -0.002050842555921905, -0.0020241041110177927, -0.0058973099372888116])","array('d', [-0.07776622374984225, -0.08168801773765408, -0.0822900847792489, -0.07989769670075614, -0.07477310246391713, -0.06713452620500612, -0.057168701910990535, -0.04503935086923423, -0.030893014836318684, -0.014863112175657524, 0.0029272291142829233, 0.022363194750029194, 0.04333691323675102, 0.06574651463961423, 0.089495492730721, 0.11225552050921003])",-78.01288010149615,-257.1390240400133,-50.97703295290431,-0.024035266730515724,-0.002830101215266771,-0.0822900847792489,25.00000024998678,-1.0,[],[],[],10000000000.0,0.047765254974365234
