,current_time,x_pos,y_pos,z_pos,roll,pitch,yaw,vel,x_traj,y_traj,z_traj,roll_traj,pitch_traj,yaw_traj,x_cmd,y_cmd,z_cmd,roll_cmd,pitch_cmd,yaw_cmd,vel_cmd,effector_dmg,effector_x,effector_y,effector_z,cost,time_solution
0,4.9140472412109375,-351.6605224609375,-104.30555725097656,49.943634033203125,0.6376407146453855,0.038347009569406454,0.8128183643009996,23.11388056891946,"array('d', [-106.23963928222656, -104.40261438625342, -102.6163283333628, -100.88441028198127, -99.20997181436867, -97.59596563191386, -96.04528293060108, -94.5607417145965, -93.14507604933827, -91.80092588804003, -90.52718498634567, -89.3096763648458, -88.13412322011189, -86.9888225572008, -85.86381918974658, -84.75154505038813])","array('d', [-353.6260986328125, -351.9321649785451, -350.18346660585934, -348.38070280299655, -346.5244350607809, -344.61539427856263, -342.6545742302547, -340.64321887340526, -338.58280971843783, -336.47505286690256, -334.32398193600045, -332.1405420655956, -329.9342024712665, -327.711992364504, -325.4794289173717, -323.2405013956343])","array('d', [-49.94595718383789, -49.873425548863835, -49.84930904889852, -49.84919468533361, -49.850017949487636, -49.85057552613906, -49.85120204017221, -49.8518050652179, -49.85241132698761, -49.85301416398529, -49.853616404993254, -49.854218122813506, -49.854819865779035, -49.85542171937098, -49.856023718033896, -49.85139563745748])","array('d', [0.6365813612937924, 0.6507431411740269, 0.6635572506757731, 0.6751519374810298, 0.6856432449014, 0.6951361732760216, 0.703725730847033, 0.7114978846271083, 0.7185304207511708, 0.7248937186172004, 0.5811705668570438, 0.45112446959306307, 0.3334538844732315, 0.2269811281293165, 0.1306406021123506, 0.11712395684190283])","array('d', [-0.039364520460367106, -0.01900950385054508, -0.0005915215870380847, 0.0004821202470004898, 0.00018150592948272152, 0.00026319269313964283, 0.0002384315979972551, 0.00024389726028461444, 0.00024115785413210509, 0.00024111250045630287, 0.00024068739732234466, 0.00024068686754964965, 0.00024070716608984346, 0.000240774582660648, 0.00024082353095779282, -0.003874640635607359])","array('d', [0.8405537168171741, 0.8111058192307576, 0.7808228968418177, 0.7497693054198303, 0.7180054540762323, 0.6855879102903477, 0.6525695178581747, 0.6189995274750886, 0.5849237386436164, 0.5503846511355939, 0.5203578347226937, 0.49810523139857565, 0.4818933427065902, 0.47062657943273667, 0.46356115642503515, 0.45867940845490424])",-102.6163283333628,-350.18346660585934,-49.84930904889852,0.6635572506757731,-0.0005915215870380847,0.7808228968418177,25.000000249990507,-1.0,[],[],[],10000000000.0,0.026990175247192383
1,4.942403316497803,-350.99310302734375,-103.67289733886719,49.94274139404297,0.6377079486846922,0.03798381239175784,0.8036128441479543,23.113205474396324,"array('d', [-105.9126205444336, -104.0839386781501, -102.30629520292025, -100.58331083353615, -98.9180906910881, -97.31358328680795, -95.77267426423595, -94.29817480479596, -92.89281092571835, -91.55840116845185, -90.29084069909814, -89.07602131724457, -87.9003545102722, -86.75259533152405, -85.6231153109958, -84.50459002032483])","array('d', [-353.3014831542969, -351.5985243638981, -349.84103475629195, -348.02973075327174, -346.16518906038186, -344.2481579413231, -342.27964805292515, -340.2609197285758, -338.19347027078896, -336.07952414400415, -333.92479199825465, -331.73984728722445, -329.53356393851175, -327.31262015775985, -325.08231683369337, -322.84650523974045])","array('d', [-49.945167541503906, -49.87314993820829, -49.849498729705765, -49.84953847334459, -49.85031709069072, -49.85088523933943, -49.851507100008696, -49.85210986732897, -49.85271477103692, -49.85331671445769, -49.85391808517894, -49.8545190199651, -49.85511997765473, -49.855721034647864, -49.856322213166855, -49.85169334626321])","array('d', [0.6368152499198912, 0.6509547723736946, 0.6637487425213249, 0.6753252064837014, 0.68580002519238, 0.6952780339621272, 0.7038540917146422, 0.7116140303510463, 0.7186355137460168, 0.6923871231086478, 0.5517573802667348, 0.4245103154075724, 0.30937239980529474, 0.2051912979546875, 0.11092434821980691, 0.09945333085409114])","array('d', [-0.039148360490798874, -0.018813914204271105, -0.0004145447440271564, 0.00043221403274938523, 0.00019464300726414432, 0.0002588055521311226, 0.00023901315995934622, 0.00024313198588997556, 0.00024082939220407455, 0.0002407270514923196, 0.00024037539172179958, 0.00024037248551509523, 0.00024039331847605847, 0.00024045130846750125, 0.0002404908469736439, -0.003874938017577408])","array('d', [0.8356420556691033, 0.8061805053077672, 0.7758849734321988, 0.7448197529850921, 0.7130451918069676, 0.6806177978604687, 0.6475903573834003, 0.6140120656617979, 0.5799286691018395, 0.5465173501730973, 0.5183793935894329, 0.4975602687939615, 0.48250242858827413, 0.47220428188149355, 0.46597678471197557, 0.4618376307767392])",-102.30629520292025,-349.84103475629195,-49.849498729705765,0.6637487425213249,-0.0004145447440271564,0.7758849734321988,25.000000249990517,-1.0,[],[],[],10000000000.0,0.027347087860107422
2,4.971285820007324,-350.65704345703125,-103.3587875366211,49.942420959472656,0.6376670598983761,0.03785243630409231,0.7989040176060535,23.11223920025506,"array('d', [-105.26546478271484, -103.45280495625649, -101.69175300883754, -99.98591335018374, -98.33837872448139, -96.7520893679723, -95.22992002708907, -93.77466856686227, -92.38904535869389, -91.07311459597712, -89.8165825819176, -88.60543225715833, -87.42742711346328, -86.272246359101, -85.13093513949678, -83.99668213004183])","array('d', [-352.64996337890625, -350.9299202529201, -349.15579441109, -347.32833502253817, -345.4481480770446, -343.51601513131544, -341.532979153304, -339.500331786465, -337.41960049966633, -335.2940842131838, -333.1328772286607, -330.94588242389057, -328.74083848273506, -326.5237411754105, -324.2994666563506, -322.0715911244297])","array('d', [-49.9444694519043, -49.87341650901106, -49.850638487062206, -49.850965366237695, -49.85165675175441, -49.85224172714129, -49.852851740166685, -49.853450960061934, -49.85405025408155, -49.85464746729034, -49.855244140481936, -49.85584052844412, -49.85643692550127, -49.85703339280388, -49.85762993263879, -49.8529966556181])","array('d', [0.6372798085212706, 0.6513751224170696, 0.6641290910035402, 0.6756693600532194, 0.6861114282473837, 0.6955598031230341, 0.7041090470158763, 0.7118447234634533, 0.7188442535057836, 0.6202637916129449, 0.4864974854161394, 0.3654607154306338, 0.25594210762455033, 0.1568455666537601, 0.06717932284101374, 0.06023766585464353])","array('d', [-0.03874270617961867, -0.01844686297185351, -8.242303202555404e-05, 0.00033693071682245327, 0.000218159046373468, 0.00024930174058204204, 0.00023888249349165614, 0.00024046698994644535, 0.00023899281767348032, 0.00023878127803198752, 0.0002385609504999729, 0.00023854960821967895, 0.00023856773486247436, 0.00023860547736199555, 0.00023862604717888894, -0.003876604244183389])","array('d', [0.8262826959278922, 0.796794014357659, 0.7664734253969574, 0.7353850969743974, 0.7035892550227727, 0.671142289099152, 0.6380968709443, 0.6045020856337435, 0.5704035739749017, 0.5393552593276721, 0.5151242130641456, 0.4973399042526624, 0.48476545676615584, 0.47657636524811975, 0.47218922991553686, 0.4696881905843034])",-101.69175300883754,-349.15579441109,-49.850638487062206,0.6641290910035402,-8.242303202555404e-05,0.7664734253969574,25.000000249990542,-1.0,[],[],[],10000000000.0,0.027624130249023438
3,5.002687931060791,-350.3194885253906,-103.04618835449219,49.94218444824219,0.6375375986099242,0.03771811351180068,0.7942080060627796,23.11187677099977,"array('d', [-104.9440689086914, -103.13912798720418, -101.38605927441446, -99.68846038149468, -98.0494188780712, -96.47187104433422, -94.95868643015542, -93.51265655864327, -92.13648436204647, -90.82938959024311, -89.57818946783414, -88.36888053705641, -87.18982048663004, -86.03110553955209, -84.88409141230504, -83.74220897620688])","array('d', [-352.3217468261719, -350.59359144489804, -348.81157276255294, -346.9764557489624, -345.088860446592, -343.14958372049085, -341.1596833990405, -339.12046552777025, -337.03347145744914, -334.902502375562, -332.7381938023174, -330.55017427837106, -328.3456907648673, -326.1304365709427, -323.90909669021994, -321.68512130906504])","array('d', [-49.94428253173828, -49.87357364349891, -49.851107049593374, -49.85153615140808, -49.8521961350333, -49.85278688637992, -49.85339245826439, -49.85399022436348, -49.85458735067517, -49.85518273225534, -49.85577760011624, -49.85637224201062, -49.8569668884492, -49.85756159288211, -49.85815635011527, -49.853521377736506])","array('d', [0.6374537944793697, 0.6515325514363783, 0.664271538683716, 0.6757982520558925, 0.6862280545646059, 0.6956653309878619, 0.7042045325841993, 0.7119311223835088, 0.7189224304771126, 0.584225061062423, 0.45388829063076286, 0.3359546932256909, 0.2292439524102991, 0.13268807509308111, 0.045320722092389215, 0.040638888141313334])","array('d', [-0.03859802708029735, -0.01831595189745861, 3.603021428218864e-05, 0.0003028009693199126, 0.00022645946023951692, 0.0002458186666192354, 0.0002387566493601214, 0.0002394447507829755, 0.0002382757987788515, 0.00023803350700559096, 0.00023786361557690872, 0.00023785012471184616, 0.00023786674855985117, 0.00023789630444184855, 0.00023790926561191003, -0.003877244743947728])","array('d', [0.8218066851284839, 0.792307837767691, 0.7619778604679468, 0.730880874260449, 0.6990770593494986, 0.6666227608814291, 0.6335706076564614, 0.5999696434213061, 0.5658654693879454, 0.5359349417678491, 0.5135308726097183, 0.49719776454039866, 0.4858296916411679, 0.47867690158929976, 0.4752016835264911, 0.4735156479843292])",-101.38605927441446,-348.81157276255294,-49.851107049593374,0.664271538683716,3.603021428218864e-05,0.7619778604679468,25.000000249990553,-1.0,[],[],[],10000000000.0,0.02948927879333496
4,5.031889915466309,-349.9803466796875,-102.735107421875,49.94209289550781,0.6372978687286376,0.03749690204858773,0.789543286958013,23.11272918447924,"array('d', [-104.62409210205078, -102.82693363991744, -101.08190444659625, -99.39259622293044, -97.76209200421579, -96.19332416946519, -94.68915714422533, -93.25237619121066, -91.88567689766982, -90.58806997791656, -89.34567360344346, -88.14445062127312, -86.97286567035479, -85.82108885872758, -84.68052995944691, -83.54466340939157])","array('d', [-351.9919128417969, -350.255655646721, -348.46576079847785, -346.62300906615593, -344.72803441692645, -342.7816483563712, -340.78492294374075, -338.7391780270597, -336.6459682737585, -334.509206845602, -332.3398303576219, -330.14735993314, -327.9388939101667, -325.72002405301026, -323.4953626315729, -321.26830902869017])","array('d', [-49.94417190551758, -49.87370979274806, -49.85146657212605, -49.8519688963025, -49.85260621288767, -49.85320101164102, -49.85380332161381, -49.85439999629687, -49.854995545019534, -49.855589607561285, -49.85618318405056, -49.856776596330164, -49.85737003752116, -49.85796355352514, -49.858557128409224, -49.85392103961173])","array('d', [0.6375712156295775, 0.6516387984963069, 0.6643676750076832, 0.6758852398067143, 0.6863067643431663, 0.6957365505461711, 0.7042689747087092, 0.7119894320244938, 0.7189751911392606, 0.5758152615770075, 0.4462787885070639, 0.32906933021258095, 0.2230138175597928, 0.12705081495780843, 0.04021991432775075, 0.03606519997694313])","array('d', [-0.03849425539374344, -0.01822205538412417, 0.00012099129843995747, 0.0002782447412537836, 0.00023237374688139925, 0.00024328326307609187, 0.00023864213820544295, 0.0002386966978322909, 0.00023775794038199152, 0.0002374964548386181, 0.00023736689757007345, 0.00023736299099423784, 0.0002373895189769455, 0.00023742272989469006, 0.00023743694003618132, -0.0038776669060859074])","array('d', [0.8173144618656972, 0.7878087522974693, 0.7574724376849065, 0.7263696073848211, 0.6945604107177361, 0.6621011628374536, 0.6290444635458828, 0.5954393286813059, 0.5613313327214541, 0.5316550337483411, 0.5096667751599873, 0.4936667749126875, 0.48257729681412914, 0.4756648866054896, 0.47240188880509365, 0.4709058073131977])",-101.08190444659625,-348.46576079847785,-49.85146657212605,0.6643676750076832,0.00012099129843995747,0.7574724376849065,25.000000249990563,-1.0,[],[],[],10000000000.0,0.028136491775512695
5,5.062135219573975,-349.2993469238281,-102.1191635131836,49.94227600097656,0.6372686624526978,0.03668349236249916,0.7799364487316944,23.118817667075422,"array('d', [-104.30555725097656, -102.51621980816529, -100.77926451328831, -99.09827625879798, -97.47633300757461, -95.91636330033072, -94.42122650237275, -92.99370169566122, -91.63647721372742, -90.34854570688282, -89.11597512935386, -87.92468471776381, -86.7631066649283, -85.62138556118835, -84.4909101595451, -83.36513939223975])","array('d', [-351.6605224609375, -349.9161920755967, -348.11845714520274, -346.2681127193928, -344.36580544884646, -342.41236089606093, -340.40886478184666, -338.35665021925473, -336.2572846826105, -334.1146775101572, -331.9397032947773, -329.74182014228813, -327.5280744729528, -325.3040137312994, -323.0742114066681, -320.8420374059916])","array('d', [-49.943634033203125, -49.873522081277855, -49.85159581431669, -49.852203109682584, -49.85281005316512, -49.853412130664395, -49.85401135696073, -49.85460796757851, -49.855202722861016, -49.85579631360724, -49.8563894215993, -49.856982435427554, -49.85757550889758, -49.85816868304749, -49.85876192926826, -49.854125533747116])","array('d', [0.6376407146453855, 0.6517016838119388, 0.6644245759993231, 0.675936725957473, 0.6863533509425607, 0.6957787038470019, 0.7043071165920942, 0.712023944211684, 0.7190064184414847, 0.5758435167934597, 0.4463043547605561, 0.3290924633914143, 0.22303474911991567, 0.1270697540527302, 0.040237047061786456, 0.03608056232182311])","array('d', [-0.038347009569406454, -0.018088821840690078, 0.00024154600146265647, 0.00024424526213278664, 0.00024135769419571015, 0.00024032158935555323, 0.00023908015707230757, 0.00023822264196754492, 0.00023759210241920594, 0.00023728560722519496, 0.00023720217789604574, 0.00023720877436633026, 0.00023724932490186122, 0.0002372893274130061, 0.00023730734829116774, -0.0038777829134996637])","array('d', [0.8128183643009996, 0.783308592598596, 0.7529685266020382, 0.7218622369116975, 0.6900498545602539, 0.6575876769419119, 0.6245282866882387, 0.5909206831133537, 0.5568104248858438, 0.5271322844875026, 0.505142635206353, 0.4891415191392059, 0.47805110679154916, 0.4711378898439563, 0.46787417947448684, 0.46637746008197156])",-100.77926451328831,-348.11845714520274,-49.85159581431669,0.6644245759993231,0.00024154600146265647,0.7529685266020382,25.000000249990574,-1.0,[],[],[],10000000000.0,0.027956247329711914
6,5.090817451477051,-348.6116027832031,-101.50928497314453,49.94295120239258,0.6380475163459775,0.034788493067026,0.7700693170216418,23.128798406130425,"array('d', [-103.67289733886719, -101.89967924870317, -100.17935213539454, -98.5154855923095, -96.91114645177568, -95.36925542872225, -93.892661551752, -92.48413129818734, -91.145126612669, -89.8701822091495, -88.64543185050363, -87.45778632431096, -86.29634165165412, -85.15171810540055, -84.01566480646474, -82.88192789460021])","array('d', [-350.99310302734375, -349.23235445037295, -347.41869148453037, -345.55293598892314, -343.63575869835563, -341.6680130173503, -339.6508116966574, -337.5855141083802, -335.47446757563836, -333.3240875524928, -331.14468918201726, -328.94482801154015, -326.7310087276922, -324.5084384380637, -322.2814720628703, -320.0533334007552])","array('d', [-49.94274139404297, -49.87349315629512, -49.85234869013311, -49.85321379722097, -49.853743956726255, -49.85436231487224, -49.85495216436619, -49.85554683217394, -49.85613782901134, -49.856728456737635, -49.857318556923325, -49.85790864508867, -49.85849877769983, -49.85908899623133, -49.85967926182137, -49.85504003641868])","array('d', [0.6377079486846922, 0.6517625196918437, 0.6644796225845846, 0.6759865341716765, 0.686398419281835, 0.6958194833688016, 0.7043440154281269, 0.7120573316413332, 0.6694453578067247, 0.5309988105797152, 0.4057271829182338, 0.292376716701246, 0.18981296476220585, 0.09700943805104846, 0.013037348374873244, 0.011690787837916841])","array('d', [-0.03798381239175784, -0.0177601874148337, 0.0005389067445318874, 0.00015950806237163758, 0.00026289484359823923, 0.00023230202248551273, 0.0002394581931533752, 0.00023632826619358375, 0.00023646689086289515, 0.0002360423716736521, 0.00023603785193847523, 0.00023603276486240115, 0.000236072658228291, 0.00023610168245655216, 0.00023611063981932232, -0.0038788523383109534])","array('d', [0.8036128441479543, 0.7740991423118957, 0.7437554468586718, 0.7126458102370669, 0.6808303457819653, 0.6483653337013204, 0.6153033400110376, 0.5816933480352703, 0.549272736856181, 0.522417347412996, 0.5025841429527172, 0.48832714837807667, 0.47870549324088435, 0.4730659714287421, 0.4709309593379684, 0.47044620898658623])",-100.17935213539454,-347.41869148453037,-49.85234869013311,0.6644796225845846,0.0005389067445318874,0.7437554468586718,25.000000249990595,-1.0,[],[],[],10000000000.0,0.027758359909057617
7,5.122918605804443,-348.2651062011719,-101.20674133300781,49.943267822265625,0.6388322710990905,0.033442493528127525,0.7650066773083546,23.13585036223386,"array('d', [-103.04618835449219, -101.28958663579853, -99.58636244423762, -97.94007227142559, -96.35377348329023, -94.83037921476537, -93.37272842809045, -91.98357527201688, -90.66283872931888, -89.39964048312127, -88.18016152763772, -86.9924657975058, -85.82644494664389, -84.6733035982604, -83.52524304456844, -82.37637772733328])","array('d', [-350.3194885253906, -348.5421376052657, -346.7123970036753, -344.83111449664676, -342.8989837298071, -340.91688355013855, -338.8859514820009, -336.80757102447416, -334.6850322849044, -332.5277100762549, -330.3453456706962, -328.1455045999978, -325.9340882422182, -323.7159233963242, -321.49512273164123, -319.2747470132874])","array('d', [-49.94218444824219, -49.873568070634136, -49.8529955364802, -49.85404892579633, -49.8545224394194, -49.85515236693852, -49.855735039175755, -49.856328029587225, -49.85691607312049, -49.85750437483344, -49.858092128968515, -49.858679923272284, -49.8592677355241, -49.85985560696761, -49.86044349513415, -49.85580200911688])","array('d', [0.6375375986099242, 0.6516083805559217, 0.6643401517139513, 0.6758603356973668, 0.6862842301690797, 0.6957161607758905, 0.7042505252674162, 0.7119727382230104, 0.6043216049960002, 0.47207239697152265, 0.352408354224765, 0.24413184116740513, 0.14615919246099515, 0.05750986872275243, -0.02270333612103664, -0.020358343909194006])","array('d', [-0.03771811351180068, -0.017519773104822573, 0.0007564426199924032, 9.72652559870631e-05, 0.00027852191937686213, 0.0002262914052534387, 0.00023962397036300493, 0.0002348480307023747, 0.0002355746736932489, 0.00023507503133720942, 0.00023512740269143756, 0.00023510835766470903, 0.00023514090054065572, 0.00023515600198036605, 0.00023515455502043204, -0.003879706792035737])","array('d', [0.7942080060627796, 0.7647042612240621, 0.7343697610500535, 0.7032686039677533, 0.6714609481414086, 0.6390031173133007, 0.6059477195892607, 0.5723437788007341, 0.5420148661492427, 0.5186013130460231, 0.5014638488622811, 0.48942563674707984, 0.48169625410127215, 0.4777130468388602, 0.4770559680037754, 0.47790020189388144])",-99.58636244423762,-346.7123970036753,-49.8529955364802,0.6643401517139513,0.0007564426199924032,0.7343697610500535,25.000000249990613,-1.0,[],[],[],10000000000.0,0.030138731002807617
8,5.15357232093811,-347.5666809082031,-100.60676574707031,49.945045471191406,0.6410827040672302,0.02977501228451722,0.7544517079975944,23.146285399543615,"array('d', [-102.735107421875, -100.98679274570003, -99.29208174424423, -97.65452280879376, -96.0771678456491, -94.5629266466749, -93.11463359511482, -91.73503717933579, -90.42329628104481, -89.16593433179068, -87.94913294767176, -86.7614810730341, -85.59324122035733, -84.4358956991289, -83.28186426850868, -82.12544293049385])","array('d', [-349.9803466796875, -348.19482309527183, -346.35718927058855, -344.4683018251143, -342.52886250950286, -340.5397609180603, -338.50214504495193, -336.41740864711295, -334.2892919806432, -332.1285538220036, -329.9446901030248, -327.74482230652706, -325.53457573598337, -323.31860082453596, -321.1008969723679, -318.88444742275425])","array('d', [-49.94209289550781, -49.87400258563251, -49.8539062226351, -49.85511546102875, -49.85554025069026, -49.856178363650244, -49.85675350739325, -49.85734350440372, -49.8579274155395, -49.85851203203185, -49.859096044298504, -49.85968013385374, -49.86026422561405, -49.86084836652196, -49.86143251181289, -49.856787481489455])","array('d', [0.6372978687286376, 0.6513914639693839, 0.6641438774519506, 0.6756827393845977, 0.6861235343649927, 0.6955707571853299, 0.704118958643629, 0.7118536917988455, 0.5710958606650679, 0.44200849758378874, 0.32520541071441794, 0.2195175978516271, 0.12388730225657074, 0.037357427886187566, -0.040938015095578, -0.03670909608093422])","array('d', [-0.03749690204858773, -0.017319612677728195, 0.0009375552730859996, 4.472961252681649e-05, 0.00029099393645159544, 0.00022066958234393167, 0.00023913733267537707, 0.0002329632710080322, 0.00023414590844509568, 0.00023355710739075096, 0.00023365113691432428, 0.000233621009438297, 0.0002336518833533676, 0.00023366069554213396, 0.00023365562143754008, -0.0038810459942681098])","array('d', [0.789543286958013, 0.7600535502692782, 0.7297319868750985, 0.6986427598379998, 0.6668460903459248, 0.6343983633478186, 0.6013522461291063, 0.567756819478968, 0.5384464866071492, 0.5166899212049962, 0.5008759828496024, 0.4899423885930785, 0.4831646509147676, 0.480020661732678, 0.48011657600242424, 0.48163939541373013])",-99.29208174424423,-346.35718927058855,-49.8539062226351,0.6641438774519506,0.0009375552730859996,0.7297319868750985,25.00000024999062,-1.0,[],[],[],10000000000.0,0.029351234436035156
9,5.186686992645264,-347.2146911621094,-100.30947875976562,49.94673156738281,0.642293870449066,0.027530333027243396,0.7489294568684439,23.15242056265247,"array('d', [-102.1191635131836, -100.3880446257085, -98.71105148425241, -97.09170679155626, -95.53304561881842, -94.03796955963085, -92.60930191628113, -91.24968138555366, -89.95783455018622, -88.72006531435727, -87.52255556253269, -86.3539141807728, -85.20441316666505, -84.06553848028507, -82.92971003581931, -81.79122715582291])","array('d', [-349.2993469238281, -347.4970740739627, -345.6432385519461, -343.7387136865304, -341.78421913261235, -339.7806724960547, -337.72924858901825, -335.6314285618318, -333.4911750637898, -331.31915256914044, -329.12465029704055, -326.91462436009834, -324.6945741875015, -322.4690498955827, -320.2419682461529, -318.01625157496903])","array('d', [-49.94227600097656, -49.87612010422142, -49.85777466105764, -49.85955570224638, -49.85979913191731, -49.860465242162135, -49.86101038572967, -49.86158694144777, -49.862153035177116, -49.86272129611194, -49.863288682414186, -49.86385632112166, -49.86442397107945, -49.86499170067624, -49.86555943624387, -49.860898886062365])","array('d', [0.6372686624526978, 0.6513650370308642, 0.6641199653596243, 0.6756611028146852, 0.6861039567630431, 0.6955530425884543, 0.7041029296562454, 0.7078965314356412, 0.5657908746339435, 0.43720834738083314, 0.3208620550770787, 0.21558756733658993, 0.12033126452630104, 0.03413979573772715, -0.04384941675868187, -0.03931963535276301])","array('d', [-0.03668349236249916, -0.01658360912222928, 0.0016035185500169863, -0.000149442426306857, 0.0003360865727059372, 0.00019908704940593824, 0.00023640526165137602, 0.00022502908951238464, 0.00022779967443140687, 0.0002268253268575627, 0.00022707947460641391, 0.00022703227806480705, 0.00022708677835535116, 0.0002270967323935195, 0.00022709180330132808, -0.003886909963666308])","array('d', [0.7799364487316944, 0.7504484183267653, 0.7201284307380187, 0.6890406568972602, 0.6572453256659714, 0.6247988294464002, 0.5917538427340061, 0.5582957294116129, 0.5292675002152035, 0.5077699884104937, 0.49216446540185904, 0.48140571249049247, 0.47477917064545766, 0.47176888615084017, 0.47198501476921095, 0.4736162517745259])",-98.71105148425241,-345.6432385519461,-49.85777466105764,0.6641199653596243,0.0016035185500169863,0.7201284307380187,25.00000024997421,-1.0,[],[],[],10000000000.0,0.03125929832458496
10,5.217880725860596,-346.50506591796875,-99.72061920166016,49.95261001586914,0.6450243592262267,0.022364020347595173,0.7376018325474599,23.164114453170775,"array('d', [-101.81343841552734, -100.0911953691039, -98.42338797150893, -96.81351652096753, -95.26460236899406, -93.77954218432825, -92.36115247737045, -91.0113193341415, -89.72601749551514, -88.4915892325195, -87.29483122100399, -86.12476501194632, -84.97195900316106, -83.82812419915122, -82.68585971160466, -81.53961572627647])","array('d', [-348.95635986328125, -347.1455350517152, -345.2834149498124, -343.37087699385927, -341.4086491702027, -339.3976674855918, -337.33912393091134, -335.2349846728154, -333.0907821711346, -330.9168524152545, -328.7219361850398, -326.5126620279329, -324.29432506307404, -322.07134555520827, -319.8475581342201, -317.6258288903041])","array('d', [-49.94252014160156, -49.87825450656996, -49.8616199941012, -49.86395967845262, -49.86402569069986, -49.86471888563228, -49.86523433904129, -49.8657973099558, -49.86634547380257, -49.86689715540699, -49.867447616209915, -49.86799843083477, -49.868549211438, -49.86910006585361, -49.86965091243702, -49.86497438723838])","array('d', [0.6375572681427, 0.6516261782816269, 0.6643562557556677, 0.6758749072251118, 0.6862974150096416, 0.6957280908607777, 0.7042613198838541, 0.6772347502100503, 0.538046945222863, 0.41210459970913677, 0.2981472428714931, 0.19503435358520643, 0.10173394629538042, 0.017312245899715466, -0.059075605581034384, -0.052971942461605734])","array('d', [-0.035888664424419264, -0.015864419000916213, 0.002254268572750472, -0.0003392551587446349, 0.0003800652599255308, 0.00017786381133288106, 0.0002335696307285997, 0.00021708214429948217, 0.0002213772808112013, 0.00021999112572036394, 0.00022037117578257905, 0.0002202820107085851, 0.00022034147898668895, 0.00022034204324994984, 0.00022033533455761566, -0.003892945745046265])","array('d', [0.7750128666546683, 0.7455079722518, 0.7151724104486373, 0.6840702743655908, 0.6522617169930844, 0.6198030570497195, 0.5867468977878435, 0.554322882444556, 0.5270364603429674, 0.5068707851295657, 0.49234308681671907, 0.4824923699422645, 0.4766535076155878, 0.47434138773652457, 0.47518631819442014, 0.477384998703053])",-98.42338797150893,-345.2834149498124,-49.8616199941012,0.6643562557556677,0.002254268572750472,0.7151724104486373,25.000000249974235,-1.0,[],[],[],10000000000.0,0.029477834701538086
11,5.246071100234985,-346.50506591796875,-99.72061920166016,49.95261001586914,0.6450243592262267,0.022364020347595173,0.7376018325474599,23.164114453170775,"array('d', [-101.20674133300781, -99.50267476590885, -97.8537694144633, -96.26345687452765, -94.73472269128888, -93.27045205630186, -91.87344503330004, -90.54399767388392, -89.27245575862624, -88.04518192882057, -86.85015743951396, -85.67721807795172, -84.51752841127607, -83.3632595463026, -82.2073822501187, -81.04466504825938])","array('d', [-348.2651062011719, -346.4369702229397, -344.55805275722236, -342.62922592431374, -340.65123652474745, -338.6250675737706, -336.5519538096638, -334.4348597883859, -332.282446757982, -330.10445742584136, -327.9085895730786, -325.7008353482774, -323.48608716753677, -321.2685069585509, -319.0517651320742, -316.83861272902703])","array('d', [-49.943267822265625, -49.88481990600919, -49.87317407129585, -49.8770432609252, -49.87661820218648, -49.87738171524703, -49.877811515876495, -49.87833296804483, -49.87882755978911, -49.87932931236758, -49.87982887706249, -49.88032907777239, -49.88082913370975, -49.88132926354673, -49.881829363275884, -49.87710484363296])","array('d', [0.6388322710990905, 0.6527798487736599, 0.6654001400862422, 0.6768194529239416, 0.6871520753977395, 0.6965014196700933, 0.7049610569092064, 0.6108746271222905, 0.47800181701983274, 0.3577735157013247, 0.24898644021066849, 0.15055181506739046, 0.06148447574685925, -0.019106989487231624, -0.09202913449067344, -0.08251589302988291])","array('d', [-0.033442493528127525, -0.013651031814647316, 0.0040390982837457375, -0.0008619824034160507, 0.0004992276912036304, 0.00011794334650937769, 0.00022412582036979156, 0.0001935460447231232, 0.00020198654496951486, 0.00019945770262060723, 0.00020018196974782117, 0.00019998193384035304, 0.000200061487608337, 0.00020004269415512882, 0.00020003717982388706, -0.003911078543371008])","array('d', [0.7650066773083546, 0.7354271976087404, 0.7050227602794185, 0.6738571132895319, 0.6419900731508519, 0.6094776318775159, 0.5763720769109599, 0.5460616303161029, 0.5223138879117187, 0.50491150360111, 0.49265338239953255, 0.48473529299570717, 0.48058615927394893, 0.47978052609215865, 0.4819881812559105, 0.48541836650876646])",-97.8537694144633,-344.55805275722236,-49.87317407129585,0.6654001400862422,0.0040390982837457375,0.7050227602794185,25.00000024999067,-1.0,[],[],[],10000000000.0,0.026784420013427734
12,5.278611898422241,-345.4277038574219,-98.85498046875,49.96977996826172,0.6499292850494384,0.013048660010099323,0.7198086539891105,23.176471772524238,"array('d', [-100.60676574707031, -98.92208510760238, -97.29345417195444, -95.72419226798146, -94.21725567563051, -92.77551006821088, -91.40173414540833, -90.09510497308537, -88.84214707293276, -87.62914367621774, -86.444776703684, -85.27937413316285, -84.12446706079068, -82.97251340809765, -81.81671832181239, -80.65205752109588])","array('d', [-347.5666809082031, -345.72040851156896, -343.82385764604584, -341.87786391674325, -339.8832187198627, -337.84096122372216, -335.7523813165215, -333.6211195743557, -331.4578228493275, -329.2718462487754, -327.0702075657345, -324.858463316003, -322.6412164139662, -320.42243255214987, -318.20564844029815, -315.99351899226906])","array('d', [-49.945045471191406, -49.89532050376216, -49.88655262474996, -49.8895597500229, -49.889306985196455, -49.88995640895, -49.890352345687695, -49.890817883281294, -49.89126307667998, -49.8917137637168, -49.89216281944215, -49.892612375190666, -49.89306182511167, -49.893511326706616, -49.89396079454306, -49.88918838379828])","array('d', [0.6410827040672302, 0.6548161249140878, 0.6672426390977401, 0.6784866151217412, 0.688660586269036, 0.6978663768618991, 0.706196121229986, 0.5642522794457996, 0.4358161684167906, 0.3196023588387004, 0.21444774602494285, 0.11929990932520383, 0.03320657942993393, -0.044693890569378364, -0.11518112196162851, -0.1032687089189163])","array('d', [-0.02977501228451722, -0.010332557260142906, 0.0030942002191527078, -0.0006264304890719423, 0.00040697928691446866, 0.00011739063380620202, 0.00019801379964462529, 0.0001748034682129839, 0.00018124381131218208, 0.0001793376156316186, 0.00017989762098466762, 0.000179749447991038, 0.00017980948561187386, 0.00017979207906327827, 0.00017978235072664976, -0.003929172581306693])","array('d', [0.7544517079975944, 0.724740248485686, 0.6942139564484433, 0.6629359650308179, 0.6309654916417475, 0.5983579468993129, 0.5651650565520533, 0.5362353873618613, 0.5148127370470067, 0.49926751699421545, 0.4885593979140267, 0.48197667088488083, 0.47900515144579225, 0.4792561480323668, 0.482424130038605, 0.48672334989646526])",-97.29345417195444,-343.82385764604584,-49.88655262474996,0.6672426390977401,0.0030942002191527078,0.6942139564484433,25.000000249990688,-1.0,[],[],[],10000000000.0,0.031011581420898438
13,5.311785936355591,-344.6994934082031,-98.28878784179688,49.986793518066406,0.6531927585601803,0.006833535619079947,0.7076285044339041,23.18449566865684,"array('d', [-100.30947875976562, -98.63501845272786, -97.0170770072521, -95.45891252306407, -93.96346630175557, -92.53359336754215, -91.1717170227297, -89.87571181657, -88.63206565778718, -87.4273043592278, -86.25026944555276, -85.09140136185817, -83.94231502162434, -82.79553387807374, -81.64431651790699, -80.48368740774029])","array('d', [-347.2146911621094, -345.35900857917426, -343.45331496970243, -341.4984233030661, -339.49514939976046, -337.4445622083876, -335.3482001393024, -333.210455887913, -331.041789537616, -328.85125788139305, -326.6456896232985, -324.4305140206231, -322.2102447299791, -319.9887830508756, -317.7696183780011, -315.5553710167506])","array('d', [-49.94673156738281, -49.90234578523996, -49.895337619280426, -49.89781440657407, -49.897664814868236, -49.89824193045802, -49.898614709938634, -49.89904354578345, -49.89945599206878, -49.89987288219764, -49.900288475208285, -49.90070448475376, -49.90112041596735, -49.90153638898236, -49.90195232815354, -49.89714820423047])","array('d', [0.642293870449066, 0.6559120336748508, 0.668234258440536, 0.6793838694876211, 0.6894724556627407, 0.6986009867164692, 0.6926013462610918, 0.5519512171325, 0.42468570590396326, 0.3095310989288676, 0.2053348923420453, 0.11105425750922082, 0.0257456042984892, -0.05144486118340914, -0.12128965785643393, -0.10874359336871864])","array('d', [-0.027530333027243396, -0.008301487297318484, 0.0025144869945844415, -0.00048305118719044334, 0.0003494893851895981, 0.00011609654452844006, 0.0001810435920519715, 0.00016233714288421184, 0.00016753320294988583, 0.0001660044017982512, 0.00016646236518322365, 0.00016634719074051004, 0.00016639694828490145, 0.00016638171603716219, 0.0001663698176025452, -0.003941154172642278])","array('d', [0.7489294568684439, 0.7191467895115229, 0.6885547639947172, 0.6572161795576769, 0.6251899283916452, 0.5925311056733849, 0.5597768558005695, 0.5316267332823994, 0.510798305062421, 0.49573293536473617, 0.4854284451048821, 0.47919544552102916, 0.476533645052244, 0.4770634133838896, 0.48048534749532157, 0.48501450901473325])",-97.0170770072521,-343.45331496970243,-49.895337619280426,0.668234258440536,0.0025144869945844415,0.6885547639947172,25.0000002499907,-1.0,[],[],[],10000000000.0,0.031937360763549805
14,5.344928026199341,-343.96343994140625,-97.73165893554688,50.00869369506836,0.6559981107711792,0.0010477615287526432,0.6950885216381888,23.191558426861814,"array('d', [-99.72061920166016, -98.06731380773289, -96.47150638628462, -94.93633281429973, -93.46470610889057, -92.05945805573623, -90.72127903091749, -89.44183983194186, -88.20762927451656, -87.00647198841845, -85.82809625230826, -84.66358822529037, -83.50505883625979, -82.34543056594917, -81.1782963222236, -79.9989805186488])","array('d', [-346.50506591796875, -344.630258985224, -342.7059705470683, -340.7329718246402, -338.7121361892797, -336.6445969294182, -334.53301230966173, -332.38528740560787, -330.2112232437944, -328.0187051107799, -325.8138482889206, -323.60163003795014, -321.3862726995483, -319.1714906503211, -316.9606570088597, -314.75630748467063])","array('d', [-49.95261001586914, -49.92051354863679, -49.91754987918014, -49.91879703860737, -49.91887720002804, -49.91927966597145, -49.91959105037167, -49.919927211515144, -49.92025604728795, -49.920586848728746, -49.920917076808486, -49.921247493136896, -49.921577872767685, -49.92190826429701, -49.92223862971152, -49.9173535754014])","array('d', [0.6450243592262267, 0.6583826823133866, 0.6704697939773366, 0.681406665872543, 0.6913027576834229, 0.7002571126098033, 0.6215045078834045, 0.4876201316845725, 0.3664765274202374, 0.25686125145307365, 0.1576772393271386, 0.06793182610618714, -0.013273188166800638, -0.08675052548801677, -0.1532355230415894, -0.137370355613459])","array('d', [-0.022364020347595173, -0.0036268138681432487, 0.0011757589337934543, -0.0001558179313507979, 0.00021378141450447834, 0.00010992388888068833, 0.0001387035277720116, 0.00013036449677608533, 0.0001326657304363514, 0.00013198674711985804, 0.00013219228600405258, 0.00013214162005424756, 0.0001321617469460368, 0.00013215164319280325, 0.00013214086632107062, -0.0039717311058916046])","array('d', [0.7376018325474599, 0.7076581738160279, 0.6769175636533876, 0.6454420406581971, 0.613289756574743, 0.5805150888275746, 0.5500212113157129, 0.5257258975092692, 0.5078909094128782, 0.4952745502044873, 0.48704959155645117, 0.4826309827944048, 0.48158431926511724, 0.48357342298499917, 0.4883285331268691, 0.4940655118784277])",-96.47150638628462,-342.7059705470683,-49.91754987918014,0.6704697939773366,0.0011757589337934543,0.6769175636533876,25.000000249990716,-1.0,[],[],[],10000000000.0,0.02989053726196289
15,5.379007339477539,-343.592529296875,-97.45658111572266,50.02143859863281,0.6572762727737423,-0.0017011732561514462,0.6888162056591847,23.194317265827095,"array('d', [-99.14140319824219, -97.51054085778404, -95.93822290262113, -94.42747179364457, -92.98117677738159, -91.60214309384607, -90.28960266030491, -89.03021744785221, -87.81038099280747, -86.6188513479168, -85.44601267772873, -84.2834398807339, -83.12362666230882, -81.95980862122498, -80.78584482971407, -79.5973054722842])","array('d', [-345.788818359375, -343.8942640780629, -341.9507331537756, -339.9589727013633, -337.9199319043406, -335.83481749132795, -333.7071894410085, -331.5476271799758, -329.3654556931287, -327.1676848686118, -324.959874620656, -322.74663737597297, -320.53195173683065, -318.31936918176723, -316.11215589183297, -313.9127672887772])","array('d', [-49.96304702758789, -49.94552208819688, -49.94734393466761, -49.94711755870233, -49.947456656452886, -49.94763775061292, -49.94786222123094, -49.94807417052513, -49.948289502201725, -49.94850383467571, -49.9487184582796, -49.94893301203214, -49.94914759335172, -49.94936216169667, -49.9495767163986, -49.944582133952714])","array('d', [0.6483192443847653, 0.6613640179623812, 0.6731674182713211, 0.6838475774914977, 0.6935113860402307, 0.7022555622945649, 0.5606867139666777, 0.4325899110403606, 0.3166831201395313, 0.21180630929914707, 0.11690983813566724, 0.031043952823802987, -0.04665071886990356, -0.11695176509541862, -0.18056271289829137, -0.16184985568157792])","array('d', [-0.016238709911703994, 0.001915596569835512, -0.00041917037627737066, 0.00022728543209037807, 4.70002821479535e-05, 9.7040277797359e-05, 8.277420162712578e-05, 8.671941816322245e-05, 8.55651766495598e-05, 8.58952940154237e-05, 8.580509233463643e-05, 8.583736974336095e-05, 8.582784332969708e-05, 8.582684773632676e-05, 8.581707533026195e-05, -0.004013112135451685])","array('d', [0.7257416407254077, 0.6956028609726447, 0.6646822227357, 0.6330408319037447, 0.6007359330623632, 0.5678210251240534, 0.5391188482614451, 0.5178692195468396, 0.5024635013980416, 0.491872593558683, 0.4853913416005517, 0.48250963379864525, 0.48284143145104125, 0.4860829966292072, 0.49198699784432837, 0.49876545136749195])",-95.93822290262113,-341.9507331537756,-49.94734393466761,0.6731674182713211,-0.00041917037627737066,0.6646822227357,25.000000249990734,-1.0,[],[],[],10000000000.0,0.03294634819030762
16,5.412760972976685,-342.8451843261719,-96.91351318359375,50.05045700073242,0.6594819426536559,-0.007055995985865684,0.6764952103283742,23.19642198712926,"array('d', [-98.85498046875, -97.23545315676982, -95.67497037146839, -94.17651384668301, -92.74296295093637, -91.37677798976362, -90.07592792248352, -88.82702147584149, -87.61667201667602, -86.43378185164242, -85.26883648745776, -84.11348609809659, -82.960283034714, -81.8025105450528, -80.6340678856125, -79.45056511654286])","array('d', [-345.4277038574219, -343.52339814932594, -341.5703567491562, -339.56933129489767, -337.5213113099971, -335.42775260443193, -333.29295175651, -331.1273097249123, -328.93986033027016, -326.73742654688965, -324.52544074730673, -322.30842451493965, -320.09028975968283, -317.87453795647474, -315.664397261602, -313.4622957603719])","array('d', [-49.96977996826172, -49.95842327154829, -49.96175878748443, -49.96104014166312, -49.961442465261676, -49.96153281318677, -49.96170970332166, -49.961862106038915, -49.962021325581375, -49.96217859409488, -49.96233643212165, -49.96249411905201, -49.96265185589146, -49.96280957284262, -49.96296727917209, -49.95791893302051])","array('d', [0.6499292850494384, 0.6628208431228098, 0.6744856082905366, 0.6850403252173959, 0.6945906288013742, 0.6893752526858363, 0.549032126891018, 0.42204440376310753, 0.30714114990856634, 0.20317237712400937, 0.1090975330627355, 0.023975087289871615, -0.053046890833060543, -0.12273925145798428, -0.18579935841769363, -0.16653975923674616])","array('d', [-0.013048660010099323, 0.0036840274822738995, -0.0009384985794462482, 0.00034221699333225554, -1.4408884769582014e-05, 8.502841204238072e-05, 5.6952063968480055e-05, 6.483854645916927e-05, 6.2574849299669e-05, 6.322904700995145e-05, 6.304445263077915e-05, 6.31040955142959e-05, 6.30856820415042e-05, 6.308784168335488e-05, 6.307739498692323e-05, -0.004033425399656889])","array('d', [0.7198086539891105, 0.6895741865713253, 0.6585652848878503, 0.6268425930226146, 0.5944629067394027, 0.5619484444150576, 0.5339811548271062, 0.5132926375743402, 0.4983405560686009, 0.48813154450477736, 0.48198139138396945, 0.47939303742710926, 0.4799889653665826, 0.48347120404484856, 0.48959643652601004, 0.49657547079506326])",-95.67497037146839,-341.5703567491562,-49.96175878748443,0.6744856082905366,-0.0009384985794462482,0.6585652848878503,25.000000249974487,-1.0,[],[],[],10000000000.0,0.033316850662231445
17,5.445945978164673,-342.09124755859375,-96.38119506835938,50.08506393432617,0.661567986011505,-0.01197156216949239,0.6640693704274039,23.199870470848236,"array('d', [-98.28878784179688, -96.69273957872052, -95.15672227647589, -93.68367442402145, -92.27644860562955, -90.93575271789523, -89.65328129635478, -88.41561506083251, -87.21065781327978, -86.0281940635557, -84.85935238006473, -83.69627733386123, -82.53191928963415, -81.35989517266846, -80.17439413668859, -78.9712982067165])","array('d', [-344.6994934082031, -342.7754163588639, -340.8030729591139, -338.78327089935414, -336.717075227556, -334.60708597173704, -332.46116910009, -330.289069645086, -328.09863716199607, -325.8959697936725, -323.68603807138453, -321.4730638006243, -319.2607646487893, -317.05251942999115, -314.8514835796522, -312.66002708233583])","array('d', [-49.986793518066406, -49.980839389348134, -49.9825745503521, -49.982187696685266, -49.98238777497933, -49.98242456268989, -49.98250673210968, -49.98257610362525, -49.98264905705268, -49.98272098969217, -49.98279321834699, -49.982865364734856, -49.98293753525121, -49.983009695347526, -49.98308185264258, -49.97795260552547])","array('d', [0.6531927585601803, 0.6657737563438842, 0.6771575149215339, 0.6874579665624494, 0.6967782014326811, 0.6176224038384355, 0.4841074583329143, 0.36329812881144374, 0.2539853171494122, 0.155074986024373, 0.0655772095099656, -0.015403734242925274, -0.088678326774348, -0.15497991272027342, -0.2149718124296865, -0.1926592923360976])","array('d', [-0.006833535619079947, 0.0019241173791102809, -0.0004956220568912184, 0.00017495259867750685, -1.1774976825003637e-05, 4.03358329105699e-05, 2.5644778318307618e-05, 2.9783393257743694e-05, 2.8599104407562608e-05, 2.894129813589816e-05, 2.8843260611975937e-05, 2.8873347207678237e-05, 2.8863234016866254e-05, 2.8864816072010762e-05, 2.8861081698978048e-05, -0.004063990586477838])","array('d', [0.7076285044339041, 0.6771993874071296, 0.6460109848904716, 0.6141229924512321, 0.581591284703067, 0.5513285324812479, 0.5272339918111862, 0.5095574105059726, 0.49707210276754354, 0.4889593259530939, 0.48463917844812127, 0.4836805495603537, 0.48574945549444326, 0.49057764493961914, 0.4979426459142714, 0.5060457271886006])",-95.15672227647589,-340.8030729591139,-49.9825745503521,0.6771575149215339,-0.0004956220568912184,0.6460109848904716,25.000000249990755,-1.0,[],[],[],10000000000.0,0.031565189361572266
18,5.479930639266968,-341.71160888671875,-96.11853790283203,50.1039924621582,0.6625740528106687,-0.014118497259914903,0.6577368537571766,23.201984489939143,"array('d', [-97.73165893554688, -96.16002028731474, -94.64934729467868, -93.20254923649554, -91.82245297762668, -90.50833341485342, -89.24695759246626, -88.02480211218257, -86.83068147546624, -85.6550209030285, -84.48942686088499, -83.32641850795868, -82.15925283854645, -80.98180757690142, -79.7898537100274, -78.5846129769194])","array('d', [-343.96343994140625, -342.0193558637449, -340.0275336692236, -337.98884749084084, -335.9044341495322, -333.7777795974929, -331.6193785989936, -329.43850458599604, -327.2421401736217, -325.0358311442622, -322.8241834701267, -320.61117403140037, -318.400355604548, -316.1949976259044, -313.99744823345145, -311.8071665474743])","array('d', [-50.00869369506836, -50.00775234675339, -50.00797039745163, -50.00786868674981, -50.00785563750416, -50.00781805895258, -50.007787378561325, -50.00775478645798, -50.0077227396981, -50.00769053770972, -50.00765837827816, -50.007626205582035, -50.007594037492446, -50.007561869926434, -50.00752970388809, -50.00230179692555])","array('d', [0.6559981107711792, 0.6683121442238081, 0.679454343461726, 0.6895362231465568, 0.6986586858446386, 0.5574321252061191, 0.4296450370517672, 0.3140184876860095, 0.20939524987650882, 0.11472822105247492, 0.02906994363814844, -0.048436877141674224, -0.11856795171057082, -0.18202514745302878, -0.15074031499796026, -0.13513474768521483])","array('d', [-0.0010477615287526432, 0.0002726556226239241, -9.212971865416425e-05, 9.072896800144463e-06, -1.904325974240073e-05, -1.1151235895032814e-05, -1.3356292135056748e-05, -1.2727873552969329e-05, -1.2906553362848458e-05, -1.285588238330394e-05, -1.2871403684252546e-05, -1.2866829267350488e-05, -1.286762880827931e-05, -1.2866443517562293e-05, -1.286638783012476e-05, -0.004101265216433953])","array('d', [0.6950885216381888, 0.6644913286214637, 0.6331479810957968, 0.6011173456254921, 0.5684544925380072, 0.5399588659548392, 0.5188666082471287, 0.5035879288577829, 0.49310385451990085, 0.48671515282601635, 0.48391539679579704, 0.48432095033168127, 0.48762969992230354, 0.49359544538740413, 0.500175251769766, 0.5058175414942813])",-94.64934729467868,-340.0275336692236,-50.00797039745163,0.679454343461726,-9.212971865416425e-05,0.6331479810957968,25.00000024999077,-1.0,[],[],[],10000000000.0,0.03234577178955078
19,5.514641284942627,-340.94720458984375,-95.60025024414062,50.145084381103516,0.6648235917091366,-0.01812671497464183,0.6449697772648669,23.201553762160426,"array('d', [-97.45658111572266, -95.89724392897718, -94.39931976492063, -92.96570753582844, -91.59879675361739, -90.29625576902423, -89.0448084525388, -87.83123427569446, -86.6445486843645, -85.47531955616807, -84.31526041429555, -83.15697467767978, -81.99378849622111, -80.81963849676221, -79.62908869148383, -78.4186513795635])","array('d', [-343.592529296875, -341.6385658382008, -339.63713907547424, -337.58915964325524, -335.4960716251005, -333.3622990524913, -331.1981226236182, -329.0124596449477, -326.8120679784491, -324.60234323934833, -322.3877871260215, -320.17230226529983, -317.9593877646035, -315.75227402010285, -313.5539671912968, -311.3665587262672])","array('d', [-50.02143859863281, -50.0228724923723, -50.02235919253309, -50.02238379095418, -50.0222598659195, -50.02217746629737, -50.02208361586151, -50.02199302762976, -50.02190153030664, -50.02181028655685, -50.021718963537474, -50.02162766087817, -50.02153635521223, -50.021445057005316, -50.02135376386929, -50.01606993945571])","array('d', [0.6572762727737423, 0.6694686731336791, 0.6805008141859746, 0.6904831090850005, 0.6816066342432524, 0.5420027893524653, 0.4156839953358053, 0.3013860135740583, 0.19796491354993478, 0.1043856240592537, 0.019711573942911394, -0.05690468120422758, -0.1262299392694694, -0.18895801046388133, -0.23964401056638715, -0.21473877540601813])","array('d', [0.0017011732561514462, -0.0005170535299174254, 9.618363607549605e-05, -7.367137947418166e-05, -2.6259570712722304e-05, -3.944024642602656e-05, -3.570245532429159e-05, -3.675064349718664e-05, -3.645219302937678e-05, -3.6541319284614286e-05, -3.651749297069034e-05, -3.6524516595214385e-05, -3.652008929831194e-05, -3.6518501995577036e-05, -3.651604706330458e-05, -0.0041223910711512945])","array('d', [0.6888162056591847, 0.6581422024330341, 0.6267280611514782, 0.5946322664011973, 0.5625106469028229, 0.5349803290966274, 0.5146270361145263, 0.4999468646719749, 0.48996730548637285, 0.48401643094014485, 0.4816048658187362, 0.48236012370464654, 0.48598764585211607, 0.4922464988763848, 0.50080611017852, 0.5098696334765277])",-94.39931976492063,-339.63713907547424,-50.02235919253309,0.6805008141859746,9.618363607549605e-05,0.6267280611514782,25.000000249990777,-1.0,[],[],[],10000000000.0,0.03277444839477539
20,5.545696258544922,-340.17633056640625,-95.09135437011719,50.19013977050781,0.6671062111854552,-0.02133057825267328,0.6329248706486563,23.200823420226758,"array('d', [-96.91351318359375, -95.37851129154076, -93.90575484502239, -92.49812990190627, -91.15639079156378, -89.87234444726559, -88.6326810525764, -87.42538075719749, -86.24028202496943, -85.06855391198918, -83.9023729501208, -82.73471586855814, -81.55922219812858, -80.3716447339411, -79.1748179611696, -77.97435051238102])","array('d', [-342.8451843261719, -340.87206619496015, -338.85205044518466, -336.78612408683847, -334.67679605139574, -332.53181995996124, -330.3608590101711, -328.17171667054856, -325.97046566111794, -323.7620629005105, -321.5507237809524, -319.34016414367994, -317.13376398060797, -314.93384474867366, -312.73894143532505, -310.54603654098355])","array('d', [-50.05045700073242, -50.056506161843615, -50.05454929121758, -50.054803477637975, -50.05444626416249, -50.054259456442274, -50.05402532870528, -50.053804556362934, -50.053580031777486, -50.05335656321932, -50.05313278296199, -50.052909093166946, -50.05268538630519, -50.05246169518469, -50.05223800531827, -50.046828967381515])","array('d', [0.6594819426536559, 0.6714644459524264, 0.682306664270988, 0.6921171099515785, 0.6135535730490342, 0.4804258276325821, 0.35996685127166467, 0.2509710522793842, 0.15234756608633193, 0.06310933757501651, -0.017636757551546128, -0.09069885077793219, -0.15680816240176712, -0.11453003555366084, -0.028891275003181446, -0.025907044175730955])","array('d', [0.007055995985865684, -0.0020644971042204823, 0.0004569374825355576, -0.00024192984483396295, -4.709123020350471e-05, -0.00010144816275728463, -8.610989803988695e-05, -9.0435809482384e-05, -8.92043996873098e-05, -8.956443912290609e-05, -8.946148270473578e-05, -8.948987808958708e-05, -8.947584388197766e-05, -8.947703116000979e-05, -8.947489603709014e-05, -0.00416969813299561])","array('d', [0.6764952103283742, 0.6456883146801664, 0.6141517135885906, 0.5819432260733022, 0.5519530084604868, 0.5280679115621388, 0.5105568399420477, 0.4982086140360064, 0.4902132772410711, 0.4859962683910872, 0.4851298976120976, 0.4872824620449095, 0.49218728005647056, 0.4975305612650793, 0.5003228869130736, 0.5013973230272817])",-93.90575484502239,-338.85205044518466,-50.05454929121758,0.682306664270988,0.0004569374825355576,0.6141517135885906,25.000000249990784,-1.0,[],[],[],10000000000.0,0.030403852462768555
21,5.578641653060913,-339.78851318359375,-94.84040069580078,50.213924407958984,0.66832160949707,-0.022483127191662813,0.6271239082005358,23.200580785373415,"array('d', [-96.38119506835938, -94.87097487353343, -93.42381091248419, -92.04258292693656, -90.72662631870918, -89.46285036692599, -88.23784425202454, -87.04049901217708, -85.86129557037107, -84.69188323176515, -83.52481570371025, -82.35337902264966, -81.17182339496385, -79.97817587481993, -78.77833577881921, -77.5782509319671])","array('d', [-342.09124755859375, -340.09913650113447, -338.0607120108138, -335.9770458296852, -333.85152562330046, -331.6945279641208, -329.51525327640775, -327.3206447472298, -325.1162270741838, -322.9065959096452, -320.6957244959419, -318.4871662654974, -316.2840071894203, -314.08737488237875, -311.8941165639085, -309.70100231881383])","array('d', [-50.08506393432617, -50.095327917619464, -50.0920099718252, -50.09244349788692, -50.09183925779475, -50.09152411371673, -50.09112853758189, -50.09075560094664, -50.09037628005875, -50.08999875382965, -50.08962070456853, -50.089242814581056, -50.088864895923365, -50.08848699868116, -50.088109099953876, -50.082554221239135])","array('d', [0.661567986011505, 0.6733519762066511, 0.6840145724194298, 0.6936624892373942, 0.5529113791879425, 0.4255544965226933, 0.31031721321095146, 0.20604619791792084, 0.11169787322256008, 0.026327971229066924, -0.05091791670172046, -0.12081288907714773, -0.16102645263624923, -0.07096237798808247, 0.010530681957946672, 0.009443028548900846])","array('d', [0.01197156216949239, -0.0035021358031761137, 0.000776401804415808, -0.00040979284638474427, -7.911558466768848e-05, -0.0001714592005877799, -0.00014543582714029982, -0.00015279078385911217, -0.00015070078984404865, -0.00015131002825697327, -0.00015113234290739177, -0.0001511788690580625, -0.00015115642955694885, -0.00015116128139877662, -0.0001511577573496264, -0.0042247978485012655])","array('d', [0.6640693704274039, 0.6331363861719947, 0.6014836224093362, 0.5691682611091227, 0.5409578220423736, 0.520083282512415, 0.5049806012733766, 0.49464468052988275, 0.4883844187088649, 0.48569845572607795, 0.48620646319262617, 0.48960856594269286, 0.4951893461475857, 0.49973476230731695, 0.5008947558046226, 0.5005032143533168])",-93.42381091248419,-338.0607120108138,-50.0920099718252,0.6840145724194298,0.000776401804415808,0.6014836224093362,25.00000024999079,-1.0,[],[],[],10000000000.0,0.029687881469726562
22,5.611016511917114,-338.9877014160156,-94.3328857421875,50.26388931274414,0.6705052852630613,-0.024346046149730793,0.6158703724530081,23.201285419803998,"array('d', [-96.11853790283203, -94.62103596094705, -93.18699353155455, -91.81891558433425, -90.51472590188622, -89.26128632716346, -88.0454444250856, -86.85626241651723, -85.68434253983176, -84.5214249537269, -83.36013471211328, -82.19381626899569, -81.0164223013016, -79.82471104989051, -78.62451028379722, -77.42201048208389])","array('d', [-341.71160888671875, -339.7099427085648, -337.66226836811575, -335.5699410815346, -333.4371748047096, -331.2741510239739, -329.08974840135136, -326.8907047297763, -324.68240577766477, -322.469349372221, -320.25543796015825, -318.0441728124955, -315.83878799241535, -313.641106009585, -311.4480454628898, -309.2562549514634])","array('d', [-50.1039924621582, -50.11608690729224, -50.112157315184426, -50.1126540913289, -50.111926190992705, -50.111539418211294, -50.1110576768838, -50.11060263459742, -50.110140043688624, -50.10967956604223, -50.10921847168786, -50.10875756996024, -50.10829664201217, -50.107835745690274, -50.10737484923614, -50.10174147732743])","array('d', [0.6625740528106687, 0.6742623031707655, 0.6848382703783505, 0.6785750446063437, 0.5392596933519515, 0.4132019391965761, 0.2991401560866983, 0.19593277745200274, 0.10254687107120196, 0.01804780120206845, -0.05841012537222868, -0.1275921221183805, -0.19019054801383697, -0.09735114998081375, -0.013346825802203598, -0.011968299802982807])","array('d', [0.014118497259914903, -0.004138206475450638, 0.0009103088029026168, -0.0004895356611036105, -9.929461180618074e-05, -0.00020830509960350518, -0.00017760018013792796, -0.00018628870543116807, -0.00018382511757468302, -0.00018454498905084608, -0.00018433401235984855, -0.00018438649266391388, -0.00018435636674758572, -0.00018436061825110033, -0.00018435661032238784, -0.0042544533940916335])","array('d', [0.6577368537571766, 0.6267429177497905, 0.5950340101057432, 0.563194448704648, 0.5358334075827149, 0.5156102924365124, 0.5010358917347097, 0.4911456970956516, 0.48527250523839865, 0.4829299018517012, 0.48374734187894036, 0.4874315848315413, 0.49374261757933086, 0.4993965460716272, 0.5015443705443405, 0.5020406289697195])",-93.18699353155455,-337.66226836811575,-50.112157315184426,0.6848382703783505,0.0009103088029026168,0.5950340101057432,25.000000249990794,-1.0,[],[],[],10000000000.0,0.031807661056518555
23,5.639692783355713,-338.9877014160156,-94.3328857421875,50.26388931274414,0.6705052852630613,-0.024346046149730793,0.6158703724530081,23.201285419803998,"array('d', [-95.60025024414062, -94.12859024171145, -92.72122347685904, -91.37903068551161, -90.09403302644853, -88.85304211644014, -87.64410517757835, -86.45710795029899, -85.28325495732985, -84.11475069389212, -82.94459493389371, -81.7664469454588, -80.57666554813359, -79.38031515089241, -78.18369502654812, -76.98953693904309])","array('d', [-340.94720458984375, -338.92651545691933, -336.8604217311134, -334.75138067889173, -332.606973496566, -330.43677054588136, -328.24853132645427, -326.04830335155077, -323.8410293019442, -321.6309170321222, -319.4216791679586, -317.21669534639415, -315.0179666767503, -312.82280302322323, -310.6277860357194, -308.4314398165625])","array('d', [-50.145084381103516, -50.16058037773042, -50.15548286652093, -50.15607487363613, -50.155092121613116, -50.154547925353484, -50.153881522484824, -50.15324944547634, -50.152607663629524, -50.15196861359811, -50.15132878257876, -50.15068920269029, -50.15004957470663, -50.14940997024709, -50.14877036404634, -50.142967982586946])","array('d', [0.6648235917091366, 0.6762977703210648, 0.6866800373767468, 0.6098574901198721, 0.477081473179951, 0.3569407539349188, 0.24823292591087198, 0.14987000663732566, 0.06086754881940771, -0.01966521221413449, -0.09253427300522547, -0.15846892310381827, -0.07668087704126252, 0.0053563342881538375, 0.0337127601535931, 0.030230403562059333])","array('d', [0.01812671497464183, -0.005338104570107332, 0.0011518205802070079, -0.0006481871077023302, -0.00014638558018911454, -0.0002866318400629049, -0.00024714910650420254, -0.0002583260469906456, -0.0002551523741548236, -0.00025607230515200906, -0.00025579710173869136, -0.0002558656657172785, -0.0002558371966002463, -0.00025584622095431865, -0.00025583886285653507, -0.004318306051738491])","array('d', [0.6449697772648669, 0.61383922040267, 0.5820044914660611, 0.5522975478515885, 0.5286018436327625, 0.5112406666460405, 0.4990167251255837, 0.4911279492736404, 0.4870045797701156, 0.4862220064340949, 0.4884505818891937, 0.4934250401090802, 0.49803554749016343, 0.499409433200739, 0.4986334637779104, 0.49737961026960925])",-92.72122347685904,-336.8604217311134,-50.15548286652093,0.6866800373767468,0.0011518205802070079,0.5820044914660611,25.000000249990794,-1.0,[],[],[],10000000000.0,0.027095317840576172
