,current_time,x_pos,y_pos,z_pos,roll,pitch,yaw,vel,x_traj,y_traj,z_traj,roll_traj,pitch_traj,yaw_traj,x_cmd,y_cmd,z_cmd,roll_cmd,pitch_cmd,yaw_cmd,vel_cmd,effector_dmg,effector_x,effector_y,effector_z,cost,time_solution
0,4.486263036727905,-215.11856079101562,-100.45819854736328,50.02642059326172,0.6310118436813353,0.03582376241683957,-0.6390878399226328,23.099054630244026,"array('d', [-97.82009887695312, -99.25565635378703, -100.7349941798365, -102.24537090695053, -103.7768440066585, -105.32115230230863, -106.87116635742369, -108.42056682766582, -109.96362998603095, -111.49507925373707, -113.00998041910394, -114.50366674736631, -115.97168535156203, -117.4097591030498, -118.81376016437989, -120.18104452161901])","array('d', [-218.36317443847656, -216.317578896672, -214.30240556914313, -212.31025478021192, -210.3342611703488, -208.36827573607206, -206.40678286699153, -204.44480546872566, -202.47784228408943, -200.5018271606819, -198.51310225725203, -196.50840045527613, -194.48483366860327, -192.4398847938896, -190.37140168901027, -188.2784750477938])","array('d', [-50.039573669433594, -49.97492449495318, -49.957942831516206, -49.96023575280573, -49.96048986943365, -49.96135219601235, -49.9620560081537, -49.962806858462926, -49.96353485677282, -49.964249632721426, -49.964940082715906, -49.96560301247182, -49.96623496682682, -49.9668343870846, -49.96740068123732, -49.96272312401811])","array('d', [0.6300050616264343, 0.49531175127381677, 0.3734361930677307, 0.2631586176695582, 0.16337533204038085, 0.07308767333011766, -0.008607986057805007, -0.08252928225873592, -0.1494160431091657, -0.20993769257882294, -0.2646999505782656, -0.3142508951952261, -0.35908644802979733, -0.3996553375068697, -0.4363635894510537, -0.39016551794988186])","array('d', [-0.036049935966730076, -0.016010343561065236, 0.002122230324829153, -0.000248346669689814, 0.00044015440519613424, 0.00025283177997475467, 0.000309276327534844, 0.00029169717809915873, 0.00029071781003292904, 0.00028126071412495766, 0.00027126601445543667, 0.00025927777882966545, 0.0002464988829395968, 0.00023325820398633254, 0.00021999831883522447, -0.003893430537460402])","array('d', [-0.5989309986445568, -0.6236692096388768, -0.6418527662497033, -0.654756990159003, -0.6632280481853216, -0.6678624518422038, -0.6691019225758842, -0.6672875043820446, -0.6626922986518186, -0.6555421917774771, -0.6460294497847032, -0.6343218728936791, -0.6205690763738358, -0.6049068509845523, -0.5874602072402973, -0.5702671152719464])",-100.7349941798365,-214.30240556914313,-49.957942831516206,0.3734361930677307,0.002122230324829153,-0.6418527662497033,25.000000249967993,-1.0,[],[],[],10000000000.0,0.04345345497131348
1,4.529663324356079,-214.76429748535156,-100.75980377197266,50.02499771118164,0.6312927007675172,0.03569515049457545,-0.6436983784052992,23.100472137510096,"array('d', [-98.9726333618164, -100.44357414764052, -101.95778913354566, -103.50265451891298, -105.06834084094172, -106.64669426989833, -108.23068161529143, -109.81407054718235, -111.39121615350724, -112.95691315247942, -114.50629155327528, -116.03474205664921, -117.53786261767111, -119.01142048763882, -120.45132584480324, -121.85495086496137])","array('d', [-216.91261291503906, -214.89235524496812, -212.9032668443392, -210.93773989493732, -208.98874355023867, -207.04998441607694, -205.1158226885099, -203.181171224404, -201.24142910173111, -199.2924382741019, -197.3304549423262, -195.35213065314497, -193.35449966984177, -191.33497025609663, -189.29131819186125, -187.2225875751253])","array('d', [-50.035400390625, -49.96939500639627, -49.95118579705459, -49.95319244249474, -49.953769150515754, -49.95479189184805, -49.95570779273126, -49.95665701629466, -49.95758354045095, -49.95848903721187, -49.95936147838317, -49.96019569305991, -49.96098746759562, -49.96173492955878, -49.962437669023124, -49.95788378122392])","array('d', [0.6301637887954712, 0.4954553735686284, 0.37356614790591003, 0.2632762056804463, 0.1634817300821789, 0.07318394626825796, -0.00852087469314745, -0.08245046062932739, -0.14934472234308013, -0.20987315887516245, -0.2646415580632178, -0.3141980594579647, -0.3590386402735536, -0.39961207925679476, -0.4363244477686356, -0.3901307842253379])","array('d', [-0.03662020340561849, -0.016526342926495005, 0.0016553348703463044, -2.2036278961409796e-05, 0.0004751093213491001, 0.00034525007060613727, 0.00038677787854756167, 0.0003728336011493757, 0.0003684587152470116, 0.0003561441338356184, 0.0003420440282421509, 0.0003256020045675995, 0.00030810943909600265, 0.0002901595738708133, 0.0002723294415138451, -0.003846731890240766])","array('d', [-0.6163415153834482, -0.6410880396903426, -0.659278127573591, -0.6721877386226099, -0.6806633980248709, -0.6853018337571775, -0.6865449052635126, -0.6847337482153717, -0.680141526905225, -0.6729941720310149, -0.6634839815383287, -0.6517787791334588, -0.638028197742971, -0.622368041720629, -0.6049233323362667, -0.5877319673472654])",-101.95778913354566,-212.9032668443392,-49.95118579705459,0.37356614790591003,0.0016553348703463044,-0.659278127573591,25.000000249965957,-1.0,[],[],[],10000000000.0,0.04193758964538574
2,4.575377464294434,-213.7106170654297,-101.67388916015625,50.02095413208008,0.6319274306297303,0.0355287902057169,-0.6581787308070322,23.108771613632413,"array('d', [-99.26678466796875, -100.74681762440322, -102.26998396709492, -103.82369596330298, -105.39815696866756, -106.98524111816629, -108.57794046123868, -110.17004547033217, -111.75593189742877, -113.33041315876886, -114.88863611677108, -116.42600655822211, -117.93813580906887, -119.42080281182302, -120.86992778267425, -122.28288720255414])","array('d', [-216.55079650878906, -214.53717870787014, -212.55493360864418, -210.59639244752736, -208.65447769517456, -206.72285911970783, -204.79586502890515, -202.86838004661016, -200.93577767320573, -198.9938762776729, -197.03890999207775, -195.0675094721016, -193.07668902479608, -191.06383772029395, -189.02671278819503, -186.96434632561207])","array('d', [-50.03361892700195, -49.96796384487991, -49.95007170566863, -49.95220665097648, -49.95279559256311, -49.95386664835116, -49.95482197293733, -49.95581339638274, -49.956780403934474, -49.957724936825066, -49.95863411172273, -49.959502477346184, -49.9603256199302, -49.961101650089674, -49.961830244254834, -49.95729956553452])","array('d', [0.6302086114883424, 0.49549593082198884, 0.3736028456296469, 0.26330941115704737, 0.163511775642612, 0.07321113261804509, -0.008496275464373653, -0.08242820232466416, -0.14932458219433797, -0.2098549353133305, -0.2646250687010981, -0.3141831392647857, -0.35902513992330004, -0.3995998636337618, -0.4363133946159254, -0.3901209758102987])","array('d', [-0.03647290542721735, -0.016393062194149818, 0.0017759322269262714, -3.772021693356293e-05, 0.0004999048350209472, 0.00035928562226521677, 0.000404224389571004, 0.00038916559037846234, 0.000384517993731446, 0.0003713283585533355, 0.0003562628903561999, 0.00033872222861342573, 0.0003201024587682934, 0.000301039677735377, 0.0002821507615724715, -0.003837968259424314])","array('d', [-0.6208454807612559, -0.645594352940338, -0.663786285329777, -0.6766974177240955, -0.685174376541729, -0.6898139509026371, -0.6910580392289364, -0.6892478030857262, -0.6846564245314339, -0.677509846777552, -0.6680003767848834, -0.6562958448928586, -0.6425458890148351, -0.6268863173438816, -0.6094421541872856, -0.5922512768378317])",-102.26998396709492,-212.55493360864418,-49.95007170566863,0.3736028456296469,0.0017759322269262714,-0.663786285329777,25.000000249965385,-1.0,[],[],[],10000000000.0,0.04367375373840332
3,4.620742559432983,-213.01390075683594,-102.29314422607422,50.01829147338867,0.6295181512832643,0.03505630791187279,-0.6677216728541516,23.11921781657875,"array('d', [-100.1581039428711, -101.66563514150417, -103.21590223421765, -104.79642107587169, -106.3974911283182, -108.01106933221287, -109.63022322784843, -111.24881194232114, -112.86127376766224, -114.46247893765164, -116.04762569414184, -117.61216594109676, -119.1517519744562, -120.66219863503814, -122.13945702106598, -123.58091661833339])","array('d', [-215.47434997558594, -213.48120137476107, -211.52006986137908, -209.58309755939612, -207.66306246340173, -205.75352027817692, -203.84870065570357, -201.94340093963535, -200.03291557711646, -198.11299003686577, -196.179790209624, -194.2298821123127, -192.2602182585803, -190.26812823531006, -188.25131172891523, -186.20876315405593])","array('d', [-50.028160095214844, -49.96355929385951, -49.94662141399851, -49.949150113346484, -49.94979019432072, -49.951021066693066, -49.952110285454054, -49.95324396619297, -49.954347566178235, -49.955423367988466, -49.95645559991648, -49.95743779654582, -49.95836490335189, -49.95923503804265, -49.960048257144216, -49.95559328990993])","array('d', [0.6307514905929564, 0.4959871481938086, 0.3740473175283192, 0.26371158599866007, 0.16387567852085694, 0.07354040558863534, -0.008198336932852178, -0.0821586163686556, -0.14908065071187832, -0.20963421696058637, -0.2644253544586241, -0.3140024303289633, -0.3588616277017044, -0.39945191164435767, -0.4361795221108862, -0.3900021785689728])","array('d', [-0.03602959588170036, -0.01599193910051275, 0.0021388832682572197, -7.892557402277787e-05, 0.0005799982022740054, 0.00040757607126414285, 0.0004628764362895879, 0.0004443767878478188, 0.00043859959529195177, 0.00042231355444949034, 0.0004037811604264019, 0.00038233393779981757, 0.0003597286184056287, 0.00033676226581635287, 0.00031418957781650697, -0.0038093801746146697])","array('d', [-0.6345481117579598, -0.6593254308193308, -0.6775397086160717, -0.6904692698968182, -0.6989619682715397, -0.7036153339841911, -0.7048717378698689, -0.7030726552992257, -0.6984914836240902, -0.6913543176914898, -0.6818535737010959, -0.6701571623636845, -0.6564147820129622, -0.6407622873568908, -0.623324739500857, -0.6061397683399317])",-103.21590223421765,-211.52006986137908,-49.94662141399851,0.3740473175283192,0.0021388832682572197,-0.6775397086160717,25.000000249963534,-1.0,[],[],[],10000000000.0,0.04360842704772949
4,4.666244268417358,-211.97793579101562,-103.23677825927734,50.015010833740234,0.6129502058029175,0.032195053994655554,-0.6827091415736338,23.146037944806235,"array('d', [-100.75980377197266, -102.28555124436589, -103.85377877469766, -105.45207026220011, -107.07078869580988, -108.70194571384626, -110.33865909103058, -111.97483382864036, -113.6049501515482, -115.22391649403114, -116.8269657257711, -118.40958090089627, -119.96744204876323, -121.49638836511213, -122.99239195212333, -124.4528510847187])","array('d', [-214.76429748535156, -212.78503288440447, -210.8382274832308, -208.91589471596524, -207.01071480933808, -205.11616673256697, -203.2264137747761, -201.3361946167772, -199.44075058470384, -197.5357781596746, -195.61739736032632, -193.68213072920804, -191.7268891891042, -189.74896225674772, -187.7460108187995, -185.71700367228175])","array('d', [-50.02499771118164, -49.96119229708263, -49.94497433940499, -49.947789736008886, -49.948451350941056, -49.949787935710845, -49.950962654026384, -49.95218841181526, -49.95337979630181, -49.95453943800665, -49.955649407258996, -49.956702558966136, -49.95769345443259, -49.95862032242649, -49.95948360122027, -49.955072964875356])","array('d', [0.6312927007675172, 0.49647685545513187, 0.37449042302238567, 0.264112524466146, 0.16423846268142892, 0.07386866630152458, -0.00790131433005641, -0.08188985917930275, -0.14883746912856366, -0.2094141771447039, -0.2642262541817376, -0.3138222769322087, -0.35869861815264487, -0.39930441449176474, -0.4360460611580767, -0.38988374537840864])","array('d', [-0.03569515049457545, -0.015689320378296776, 0.002412703864421102, -0.00011816557182021297, 0.0006348949810920123, 0.0004376630973069918, 0.0005010540924403555, 0.0004799049775089804, 0.00047331261206392535, 0.00045471108630486376, 0.0004336162399392243, 0.00040931060862594155, 0.00038383083082017887, 0.0003580929332909444, 0.00033294955028498357, -0.0037926416353974072])","array('d', [-0.6436983784052992, -0.6685040755927226, -0.6867406398556527, -0.6996885785333445, -0.708196970702748, -0.712864086514402, -0.7141327683557428, -0.7123448047878262, -0.707773808010108, -0.7006460241772534, -0.6911539784826247, -0.6794656618215146, -0.6657308328023607, -0.650085392531412, -0.6326544388158393, -0.6154753550689587])",-103.85377877469766,-210.8382274832308,-49.94497433940499,0.37449042302238567,0.002412703864421102,-0.6867406398556527,25.00000024996218,-1.0,[],[],[],10000000000.0,0.044489145278930664
5,4.728243112564087,-211.29541015625,-103.87403869628906,50.01466369628906,0.5925903320312499,0.02870774082839473,-0.6929625709864757,23.162728686451253,"array('d', [-101.67388916015625, -103.22817637659796, -104.82452049956666, -106.45061323485666, -108.09691878303391, -109.75553885485776, -111.41967317023767, -113.0833012697728, -114.74097131299064, -116.3876535144153, -118.01863669232159, -119.62945422058348, -121.21583095286914, -122.77364550175982, -124.29890404259115, -125.78901951369026])","array('d', [-213.7106170654297, -211.75367180660785, -209.82985124534207, -207.9309780190836, -206.0495855899327, -204.17903367184908, -202.31338273535715, -200.44728056293692, -198.5758861820833, -196.69482016968672, -194.80013145387275, -192.8882751805883, -190.9560977676389, -189.0008265511194, -187.02006216931343, -185.01273371280908])","array('d', [-50.02095413208008, -49.957544363054346, -49.941684510513724, -49.9447189053324, -49.945528611189516, -49.94705063351726, -49.94840830253472, -49.94981946847206, -49.95119037148854, -49.95252018095194, -49.95378763190886, -49.9549839075689, -49.95610298858386, -49.957143446490925, -49.95810664764913, -49.953784371936365])","array('d', [0.6319274306297303, 0.4970511828368308, 0.37501009597462204, 0.2645827440410632, 0.16466393498604542, 0.07425364959794954, -0.0075529670065821635, -0.08157466145800518, -0.14855226641042868, -0.20915611503024845, -0.26399274990327454, -0.31361099350469407, -0.358507440984416, -0.3991314302211902, -0.4358895385061629, -0.38974484577582147])","array('d', [-0.0355287902057169, -0.015538791357896355, 0.0025489080242982565, -7.757590330267378e-05, 0.0007121661404847872, 0.0005088436115265996, 0.0005761685314534238, 0.0005531482905642121, 0.0005437312614302087, 0.0005205038286796703, 0.0004939007623114699, 0.00046362485513844014, 0.00043216479428028127, 0.00040072600867851614, 0.0003703417984230692, -0.003759278012749207])","array('d', [-0.6581787308070322, -0.6830177336153874, -0.7012804478169988, -0.7142499460397882, -0.722776747195956, -0.7274599905485352, -0.7287430722740652, -0.726968148687717, -0.7224090842368608, -0.7152923027054213, -0.7058104572296887, -0.6941316328218571, -0.6804056588314994, -0.6647684908142522, -0.6473452696423958, -0.6301730897973379])",-104.82452049956666,-209.82985124534207,-49.941684510513724,0.37501009597462204,0.0025489080242982565,-0.7012804478169988,25.000000249959832,-1.0,[],[],[],10000000000.0,0.05980634689331055
6,4.793073654174805,-209.95013427734375,-105.16837310791016,50.02445983886719,0.5359042286872863,0.01828301697969425,-0.714508219561305,23.19486363777035,"array('d', [-102.29314422607422, -103.86592547571495, -105.4802208238125, -107.12385579167601, -108.78740013264917, -110.46303748867878, -112.14403713929453, -113.82443844587397, -115.49884182066123, -117.16226345954713, -118.81003279979417, -120.43771908814747, -122.0410787445342, -123.61601796017813, -125.15856674137123, -126.66615072551993])","array('d', [-213.01390075683594, -211.07175037232454, -209.16295898999152, -207.27925028314405, -205.4130830402975, -203.5577597759944, -201.7072905217055, -199.8562781313762, -197.9998407393852, -196.13356113935544, -194.2534528723923, -192.35593758139052, -190.43782968401788, -188.4963257403775, -186.52899663521197, -184.53475445943855])","array('d', [-50.01829147338867, -49.956005390503094, -49.94116259950407, -49.944577005336704, -49.94537513009576, -49.94700870706998, -49.94844712370809, -49.94994830540099, -49.95140267064596, -49.95281029835616, -49.954147181458474, -49.955403991545516, -49.95657461257754, -49.957658171906, -49.95865688007908, -49.95436485483436])","array('d', [0.6295181512832643, 0.4948711765361726, 0.37303754452354965, 0.26279790551745247, 0.16304894615843638, 0.07279234714464577, -0.008875208265176387, -0.0827710749328328, -0.1496348261879647, -0.2101356557129653, -0.2648790750457906, -0.3144129737308708, -0.3592331027674019, -0.39978803621502707, -0.43648366023426155, -0.3902720662879755])","array('d', [-0.03505630791187279, -0.01511127166898614, 0.002935743488528461, -0.00015269557793513497, 0.0007757077951091729, 0.0005351665739358982, 0.0006142475605066905, 0.0005871498970002086, 0.0005765196860707928, 0.0005500245224616455, 0.0005199831496310263, 0.00048603133621731093, 0.00045104908787661313, 0.0004163767962856571, 0.00038314414234464717, -0.0037478569059135173])","array('d', [-0.6677216728541516, -0.692434391978166, -0.7105979185161285, -0.7234856196336528, -0.7319425639133634, -0.7365645994146786, -0.7377930245792509, -0.7359686023656354, -0.7313642413248601, -0.7242056920114072, -0.7146851225821862, -0.7029702612437876, -0.6892106691221889, -0.6735420952887606, -0.6560895172731285, -0.6388911266380178])",-105.4802208238125,-209.16295898999152,-49.94116259950407,0.37303754452354965,0.002935743488528461,-0.7105979185161285,25.000000249958067,-1.0,[],[],[],10000000000.0,0.062059879302978516
7,4.855209827423096,-208.95486450195312,-106.16097259521484,50.047637939453125,0.4866510331630706,0.00952782202512017,-0.7307621677729745,23.219187879951694,"array('d', [-103.55458068847656, -105.16500073537804, -106.8139244391337, -108.48992061336669, -110.1840368682643, -111.88878519616756, -113.5976859195815, -115.30497566413072, -117.00541365944305, -118.6941463277957, -120.36661144536873, -122.01846939804496, -123.64555393577368, -125.24383728580096, -126.80940610491116, -128.33973249177768])","array('d', [-211.63584899902344, -209.72446997883628, -207.84545442524856, -205.99047905877197, -204.15201867474676, -202.323406758639, -200.49867229617374, -198.6724311732607, -196.83981139308761, -194.99640416096037, -193.13823095293975, -191.2617214419305, -189.36369846767323, -187.44136752284993, -185.4923089341028, -183.5154665009563])","array('d', [-50.0146369934082, -49.96278618466952, -49.95390538919303, -49.9579202613595, -49.958278626303944, -49.959765945052965, -49.960965264819784, -49.9622473636731, -49.96347233517003, -49.96465133615922, -49.96576023640638, -49.966792947982405, -49.967745479564684, -49.968618915502695, -49.96941682194425, -49.964939562590025])","array('d', [0.6036109328269957, 0.471429353756252, 0.35182650420392525, 0.2436053608222448, 0.14568281199778496, 0.05707881772605356, -0.02309339894047886, -0.09563622703800856, -0.16127569825595076, -0.2206687532928134, -0.2744098167272521, -0.32303674620717854, -0.3670362154956853, -0.406848585229134, -0.44287230975922914, -0.39593985196827675])","array('d', [-0.03066877648234348, -0.011141268753550737, 0.0037875073864372475, -0.00050401464583801, 0.000769462483169949, 0.00042612021300916114, 0.0005315764087548216, 0.000494717587208552, 0.0004854148283067153, 0.0004582393300339119, 0.00042936260915952347, 0.00039734085358559905, 0.0003652202585836847, 0.0003340485059964359, 0.00030476515632970306, -0.0038178061614586776])","array('d', [-0.6878716190669198, -0.7112490810703929, -0.7283578943211971, -0.7403722993765285, -0.7480812378056322, -0.7520464589476296, -0.7526874274915426, -0.7503303522598097, -0.7452381286663669, -0.7376294382955774, -0.7276913460757032, -0.7155878177965085, -0.7014655798479771, -0.6854581934605303, -0.6676889003309224, -0.6502078768019113])",-106.8139244391337,-207.84545442524856,-49.95390538919303,0.35182650420392525,0.0037875073864372475,-0.7283578943211971,25.00000024995339,-1.0,[],[],[],10000000000.0,0.0608983039855957
8,4.903544664382935,-208.2994842529297,-106.82959747314453,50.07149887084961,0.4542442560195923,0.0037866388447582275,-0.7412313659999038,23.23033754884568,"array('d', [-104.51790618896484, -106.15632649352499, -107.82954404810864, -109.52702740813734, -111.24035169330232, -112.96239543546183, -114.68694669314624, -116.40844516458674, -118.12180725519549, -119.82230343510092, -121.50547094555391, -123.16705115123935, -124.80294472933902, -126.4091801047549, -127.98189193633921, -129.51860389707736])","array('d', [-210.61947631835938, -208.73165388267498, -206.87418956636486, -205.03884706539375, -203.21827155223252, -201.405936331921, -199.59598555536658, -197.78313227954115, -195.96259056226774, -194.1300304159355, -192.28154755497434, -190.41364299644349, -188.52320909005437, -186.6075196191353, -184.6642222878485, -182.69234239929798])","array('d', [-50.017269134521484, -49.981588680795255, -49.97766720386957, -49.979562724538575, -49.97981410822479, -49.980576270500606, -49.98120698093855, -49.98187021634251, -49.982500678975526, -49.983101961720585, -49.98366280953937, -49.984180796206, -49.98465491683224, -49.98508665470823, -49.98547863978501, -49.98063392959719])","array('d', [0.566443920135498, 0.4377992469100141, 0.3213967224004459, 0.21607135312964074, 0.12076900931222785, 0.0345358747885575, -0.043491099070692416, -0.11409283102959289, -0.17797592567020631, -0.2357797453157939, -0.28808280897190564, -0.3354085823274665, -0.37823071676144554, -0.4169777897690677, -0.4520375938788574, -0.4040661037428081])","array('d', [-0.023870654404163288, -0.004990073102087204, 0.0017406030811908735, -0.0001919473841750877, 0.000383455468728829, 0.00022885342582857238, 0.0002749460088151872, 0.00025595905546586855, 0.0002485349009381337, 0.00023275454274826045, 0.000216199876360964, 0.00019848497559754388, 0.00018110151463332562, 0.00016456465222655607, 0.00014927841228080436, -0.003956560067880891])","array('d', [-0.7034737308833263, -0.7250030537775081, -0.7406341912783757, -0.7514144454106916, -0.7580595888499985, -0.7610863282060361, -0.7608849963600627, -0.7577622312058315, -0.7519673789288784, -0.743709505057932, -0.7331686990109817, -0.7205037590429468, -0.705857497800711, -0.6893604378933833, -0.6711333936892899, -0.653244339077463])",-107.82954404810864,-206.87418956636486,-49.97766720386957,0.3213967224004459,0.0017406030811908735,-0.7406341912783757,25.0000002499486,-1.0,[],[],[],10000000000.0,0.04551815986633301
9,4.947803497314453,-207.32765197753906,-107.84159851074219,50.119712829589844,0.4107100963592528,-0.004366947337985163,-0.7566200931880137,23.244382729780703,"array('d', [-105.16837310791016, -106.82620810313308, -108.51600505604691, -110.22788410479447, -111.95380543521846, -113.68691973065278, -115.421214640789, -117.1512806164448, -118.87215018874103, -120.57918489000403, -122.26799450107522, -123.93437908906863, -125.57428763724667, -127.18378907197176, -128.75905273547428, -130.29764260706972])","array('d', [-209.95013427734375, -208.07912061596414, -206.2367105610281, -204.41478345571625, -202.6061439617758, -200.80439169729718, -199.00377511484072, -197.19909677013683, -195.38565075077312, -193.55918090534993, -191.71585277892038, -189.8522346142318, -187.96528426394184, -186.05233980527063, -184.1111122810962, -182.14070008124315])","array('d', [-50.02445983886719, -50.00207159402949, -50.002090347537845, -50.00200741767139, -50.001949002052115, -50.001880196047615, -50.0018132083995, -50.00174670759225, -50.001682998427704, -50.0016229115057, -50.00156716813952, -50.00151602331166, -50.00146946391262, -50.00142727395407, -50.00138912481997, -49.99615737017558])","array('d', [0.5359042286872863, 0.4101657888492467, 0.29639293329238897, 0.19344698710258032, 0.10029763451721689, 0.016012607197473872, -0.06025164620964537, -0.12925840260144525, -0.1916983035373688, -0.2481962673992, -0.29931774377259757, -0.3455743726452801, -0.38742910505835326, -0.42530083644036143, -0.4595685986265722, -0.41073882498183795])","array('d', [-0.01828301697969425, 6.583033818095118e-05, -4.891337795681824e-05, -1.7947093839789383e-05, -2.8607563262624082e-05, -2.647285104302729e-05, -2.710669317128185e-05, -2.6110569428261636e-05, -2.487733451750483e-05, -2.32198527067922e-05, -2.140511326344452e-05, -1.954183185978771e-05, -1.773581495830045e-05, -1.604436824711011e-05, -1.4500690347307042e-05, -0.0041027118050962165])","array('d', [-0.714508219561305, -0.7345725763207838, -0.7490178484869442, -0.758798860953578, -0.7645770901082974, -0.7668353567780869, -0.7659418477539017, -0.7621882009896983, -0.755813309025105, -0.7470187761111649, -0.7359792506687806, -0.722849478533873, -0.7077691849957398, -0.6908664793798323, -0.6722602333316673, -0.6540335909296178])",-108.51600505604691,-206.2367105610281,-50.002090347537845,0.29639293329238897,-4.891337795681824e-05,-0.7490178484869442,25.000000249944478,-1.0,[],[],[],10000000000.0,0.04409074783325195
10,5.006686687469482,-206.36810302734375,-108.8629150390625,50.18382263183594,0.3753342926502229,-0.010456693358719411,-0.7707440098139905,23.25347123479224,"array('d', [-106.16097259521484, -107.8469015059129, -109.56054650478133, -111.29291013934373, -113.03651141154982, -114.7849009476883, -116.53236222093813, -118.27370917980171, -120.0041465724079, -121.71917079306593, -123.41449890061055, -125.08601768766303, -126.72974752838341, -128.34181735879162, -129.9184481946999, -131.45726805060758])","array('d', [-208.95486450195312, -207.10897061623228, -205.288715595328, -203.48625191211545, -201.6946487176909, -199.90771542585532, -198.11987467125627, -196.3260807281837, -194.52176459300634, -192.70279737255285, -190.86546553627736, -189.00645407532792, -187.12283475367116, -185.21205749049022, -183.27194346144336, -181.3017151219618])","array('d', [-50.047637939453125, -50.038757857113175, -50.03988254229999, -50.0379390631933, -50.03679072220508, -50.03535646841958, -50.03399617021842, -50.03265390025247, -50.031384801661574, -50.03020119475619, -50.029115241097934, -50.02812859014498, -50.02723806858296, -50.02643694927756, -50.0257169677767, -50.01987461443427])","array('d', [0.4866510331630706, 0.3655996505441098, 0.25606782012371804, 0.15695931251582398, 0.06728221826332088, -0.01386097950716619, -0.0872823877195153, -0.15371683117239915, -0.21382920689946672, -0.2682211386701473, -0.3174369982313013, -0.3619693535517068, -0.40226389859461403, -0.43872391393783094, -0.4717143025200912, -0.4214911381098088])","array('d', [-0.00952782202512017, 0.002227595393921975, -0.001269508084942368, -0.00030142495734102417, -0.0006120657529768457, -0.0005365963078002644, -0.0005513954173454226, -0.000522896022966321, -0.0004928835510477224, -0.00045463997818640607, -0.00041478778111975716, -0.0003751935052679884, -0.00033784677025155995, -0.00030361965511122935, -0.00027287837361043344, -0.004333278601685394])","array('d', [-0.7307621677729745, -0.7485534052011473, -0.7611335834839665, -0.7693275797491661, -0.7737190188358302, -0.7747413936604342, -0.7727302750112081, -0.7679550052554294, -0.7606388208710572, -0.7509720773530543, -0.7391211681712193, -0.7252346501660322, -0.7094474984877496, -0.6918840777034202, -0.6726602157037748, -0.6538846005745091])",-109.56054650478133,-205.288715595328,-50.03988254229999,0.25606782012371804,-0.001269508084942368,-0.7611335834839665,25.000000249936853,-1.0,[],[],[],10000000000.0,0.05693459510803223
11,5.067735433578491,-205.73892211914062,-109.54227447509766,50.236656188964844,0.35580718517303467,-0.013286613859236308,-0.7789978226039074,23.252016554014645,"array('d', [-107.16578674316406, -108.87840329523767, -110.61488302712722, -112.36695099676317, -114.12761907454257, -115.89079601831139, -117.65103187269685, -119.40334376134368, -121.14309389764573, -122.86590267562727, -124.56758629517722, -126.24411212950845, -127.89156728298147, -129.50613716769172, -131.084091804558, -132.62312091695114])","array('d', [-207.97410583496094, -206.1528954018328, -204.35440493015975, -202.5710864581264, -200.796253268032, -199.02391108035732, -197.24864912816315, -195.46556840580877, -193.67023376294816, -191.85864167760218, -190.02719842286447, -188.17270507638187, -186.29234690410544, -184.38368536308275, -182.4446514604787, -180.47459231468216])","array('d', [-50.085777282714844, -50.08332530020441, -50.08066413119089, -50.077775845029436, -50.07474990671653, -50.07166923332847, -50.06862842581391, -50.065709875919836, -50.06297536801964, -50.0604613366054, -50.05818139479706, -50.056132033452954, -50.054298976037025, -50.052662421546145, -50.05120076203432, -50.04469791032154])","array('d', [0.4389395415782928, 0.32242850377790305, 0.21700494761244127, 0.12161376061089188, 0.03530023744279606, -0.04279947507624056, -0.11346702370185942, -0.1774096717301501, -0.2352673775134616, -0.28761919936674385, -0.33498909096639, -0.37785114524238045, -0.4166343392393848, -0.4517268273824816, -0.4834798251240989, -0.43189524949323005])","array('d', [-0.0009541558101772672, -0.0010065563479630445, -0.0011204787915558797, -0.0011890074347664429, -0.0012310425531468843, -0.0012334564871927577, -0.0011997523522044816, -0.0011361490994157553, -0.001052847276065905, -0.0009599282493794194, -0.0008655990318143337, -0.0007753949942829006, -0.0006924349936886384, -0.0006180495766830213, -0.0005523736925460487, -0.004582687685625803])","array('d', [-0.7463945587489265, -0.7620751589132083, -0.772896922545548, -0.7795779711692661, -0.7826364681937129, -0.782463694066295, -0.7793669260859893, -0.7735959546911078, -0.765360161662086, -0.7548398664699197, -0.7421940382781762, -0.7275656195765539, -0.7110852341408398, -0.6928737774711886, -0.6730442223079323, -0.653731310439251])",-110.61488302712722,-204.35440493015975,-50.08066413119089,0.21700494761244127,-0.0011204787915558797,-0.772896922545548,25.000000249799193,-1.0,[],[],[],10000000000.0,0.05851101875305176
12,5.129419565200806,-204.80274963378906,-110.56778717041016,50.324188232421875,0.3300339579582215,-0.01613068953156477,-0.7895871837947035,23.248589480070315,"array('d', [-107.84159851074219, -109.57161910868848, -111.32330225761848, -113.088765502809, -114.8612951239036, -116.6350053837003, -118.40460069723359, -120.16521748677114, -121.91231140206541, -123.64157721280155, -125.3488911823543, -127.0302699673697, -128.68184182777446, -130.29982723872556, -131.88052677118563, -133.42166747021227])","array('d', [-207.32765197753906, -205.52296780369588, -203.73928601037517, -201.96922835282578, -200.2062444703248, -198.4444474012675, -196.6785189635557, -194.90364210134152, -193.11545701528084, -191.3100311412849, -189.48383885395702, -187.63374741265562, -185.75700690845804, -183.85124255676763, -181.9144481551418, -179.94604403122798])","array('d', [-50.119712829589844, -50.1209204184788, -50.115326157232815, -50.111290563216706, -50.106503623037945, -50.10182078560066, -50.09719093045985, -50.09280147618605, -50.08872641299308, -50.08501732292739, -50.081683555150825, -50.07871079919194, -50.076069884713185, -50.07372555808219, -50.071641688617284, -50.06458730161213])","array('d', [0.4107100963592528, 0.2968854431395255, 0.19389262848206534, 0.10070086754975846, 0.01637746756758618, -0.05992150686321333, -0.12895968013892492, -0.19142800824905534, -0.24795169408343629, -0.299096444661208, -0.3453741329056554, -0.38724792062835744, -0.4251368939882774, -0.45942025776695533, -0.4904411294538219, -0.4380452492235996])","array('d', [0.004366947337985163, -0.003273417054840667, -0.0012359848411571091, -0.0019800788463171268, -0.0018516185743237738, -0.0018939474000048931, -0.0018113172297235297, -0.001702070414699915, -0.0015603458023196936, -0.0014094446438846246, -0.00126006233804629, -0.0011204716189260687, -0.0009943640625427255, -0.0008829560076379036, -0.0007857611453251603, -0.004790949975560433])","array('d', [-0.7566200931880137, -0.7710884944661495, -0.7808890700013033, -0.7866843186802904, -0.7889577032646076, -0.7880778319925613, -0.784336629291945, -0.7779731879313917, -0.7691892554358236, -0.7581595849542581, -0.7450390005149397, -0.7299672871408954, -0.7130726009951235, -0.6944738515519556, -0.6742823598721838, -0.6546489200849708])",-111.32330225761848,-203.73928601037517,-50.115326157232815,0.19389262848206534,-0.0012359848411571091,-0.7808890700013033,25.000000249777127,-1.0,[],[],[],10000000000.0,0.05991172790527344
13,5.186607122421265,-203.5657958984375,-111.94506072998047,50.45132827758789,0.29926723241806025,-0.01686166413128383,-0.8006865223261971,23.242959129275775,"array('d', [-108.8629150390625, -110.61687278165957, -112.389808286349, -114.1743052679039, -115.9639761909525, -117.75318919515192, -119.53684012764955, -121.31021535179, -123.0688888897003, -124.8086505586042, -126.5254539818972, -128.21537976357203, -129.87460990212637, -131.4994108647343, -133.08612337836567, -134.6325220913864])","array('d', [-206.36810302734375, -204.58670741499932, -202.8241697281059, -201.073309947112, -199.32774236573894, -197.581703972709, -195.82998586965067, -194.06786784512835, -192.291079846857, -190.4957742134701, -188.67850710207543, -186.83622541610222, -184.96625734012014, -183.06630491648687, -181.13443757703863, -179.17016630045953])","array('d', [-50.18382263183594, -50.18835770264299, -50.177884791732254, -50.17106510035453, -50.162697547110504, -50.15466442146268, -50.14680096811643, -50.139466838718434, -50.13276744965811, -50.12676749514532, -50.121453552073895, -50.116776204567344, -50.11266680042405, -50.10905268812024, -50.105864828063524, -50.097837002360414])","array('d', [0.3753342926502229, 0.2648760893503242, 0.16492936482203938, 0.07449382046678904, -0.007335651398606827, -0.08137802614740822, -0.14837434340888417, -0.20899512362852368, -0.26384707884980574, -0.31347918488112514, -0.35838817561991954, -0.3990235145224457, -0.43579189297280485, -0.4690613005536708, -0.4991647076023219, -0.4457456385814515])","array('d', [0.010456693358719411, -0.006544966137909954, -0.0019107033341718422, -0.0035182401513946552, -0.003181433512589067, -0.003244033705597277, -0.0030499765511427094, -0.0028211525770704573, -0.0025430051033044055, -0.0022616565371490157, -0.00199396669116635, -0.0017519507762990803, -0.0015391243606221335, -0.0013552341201458836, -0.0011976828622968067, -0.005158521608033922])","array('d', [-0.7707440098139905, -0.7837269615104802, -0.7922652489001866, -0.7969585541802227, -0.7982506194197679, -0.7964838306001957, -0.7919322096837053, -0.7848222913641136, -0.7753468086576966, -0.7636739053331055, -0.7499534548992021, -0.7343214468966335, -0.7169030490609289, -0.6978147452729007, -0.6771658208615374, -0.6571278833175411])",-112.389808286349,-202.8241697281059,-50.177884791732254,0.16492936482203938,-0.0019107033341718422,-0.7922652489001866,25.00000024990475,-1.0,[],[],[],10000000000.0,0.054894208908081055
14,5.226922273635864,-203.25827026367188,-112.29081726074219,50.48434066772461,0.2918142378330231,-0.016460211947560366,-0.803018256029811,23.241313266894412,"array('d', [-110.22516632080078, -112.00534894495748, -113.80177561349558, -115.60750889272974, -117.41647279502348, -119.22329685541892, -121.02307176835828, -122.81123857428544, -124.58349336641045, -126.33572428773073, -128.06396526612448, -129.76436362238576, -131.43315772276827, -133.0666625139433, -134.66126121002335, -136.21477694018932])","array('d', [-205.11390686035156, -203.3587743644801, -201.62025275076388, -199.89133742590573, -198.16581954257768, -196.4380559501669, -194.7029488399721, -192.95587639811345, -191.1926612367414, -189.40954400501164, -187.60316629434234, -185.77055829498772, -183.90912981675413, -182.01666310243354, -180.09130641262297, -178.1326686435881])","array('d', [-50.29385757446289, -50.298899066915375, -50.28048720577062, -50.26752149927188, -50.25213743020053, -50.237458736373185, -50.223390769667795, -50.21056392668923, -50.19913012636907, -50.189124919670725, -50.1804467733227, -50.172944375023306, -50.16645178760238, -50.16081268068709, -50.15588950659781, -50.14634203651367])","array('d', [0.33823025226593006, 0.2313029622097429, 0.13455114039376334, 0.04700646382164923, -0.03220724246576968, -0.10388277442805871, -0.16873748357919105, -0.22742045646952863, -0.2805190109502685, -0.32856457423692154, -0.37203800160099415, -0.41137438891968137, -0.4469674272424262, -0.4791733429054277, -0.5083144616666645, -0.4538139632160287])","array('d', [0.015426708385348372, -0.010953311034146127, -0.0038941034562278293, -0.006436105278752039, -0.005880496352508628, -0.005862820926363838, -0.005399343548827837, -0.004870989865179458, -0.004285843722457774, -0.0037276547317057563, -0.0032232901005044006, -0.0027859335147851173, -0.002414341139738326, -0.0021021560603659453, -0.001840746559969735, -0.005732338660695993])","array('d', [-0.7863730629298349, -0.7978334430882545, -0.8050657914772684, -0.8086111904492632, -0.8088757802381142, -0.8061768402683807, -0.8007710963123063, -0.7928728587024758, -0.7826660263908849, -0.7703122234623195, -0.7559564058149142, -0.7397307627774795, -0.7217574425962429, -0.7021504532564663, -0.6810169796486168, -0.6605513028771123])",-113.80177561349558,-201.62025275076388,-50.28048720577062,0.13455114039376334,-0.0038941034562278293,-0.8050657914772684,25.00000024967141,-1.0,[],[],[],10000000000.0,0.0397183895111084
15,5.2695395946502686,-202.34368896484375,-113.32417297363281,50.583984375,0.2688011825084686,-0.013707506470382299,-0.8098303516719003,23.23177912500555,"array('d', [-110.56778717041016, -112.35330109765029, -114.15447478210748, -115.96445763922333, -117.77725090520275, -119.58753672887943, -121.39044756120153, -123.18145644573451, -124.95628466681288, -126.71084040320613, -128.44117388164076, -130.14344595117967, -131.81390643720326, -133.44888019070038, -135.04475916932094, -136.5993772126808])","array('d', [-204.80274963378906, -203.05304603762795, -201.31944800200068, -199.59500276547072, -197.87352915861402, -196.14941354819044, -194.41758274030832, -192.67343805528026, -190.91282393032623, -189.1320020482216, -187.32763436855606, -185.49677092073517, -183.63684091624887, -181.74564562051387, -179.82135195606602, -177.8635911861507])","array('d', [-50.324188232421875, -50.33090257205883, -50.31164792843619, -50.296099479401825, -50.2785392913125, -50.261637072924415, -50.24558107972707, -50.23101573960563, -50.218117238725206, -50.206894533116134, -50.19720985124259, -50.188872783951616, -50.181683104083625, -50.17545626579169, -50.1700324759572, -50.160047824896715])","array('d', [0.3300339579582215, 0.22388664775845205, 0.12784058096565332, 0.04093449800413353, -0.03770138483741552, -0.10885408047785557, -0.17323570771912458, -0.23149061835761225, -0.28420184606177, -0.3318969415583321, -0.3750532525274183, -0.41410270104889724, -0.4494361064118011, -0.4814070965324573, -0.5103356467802166, -0.4555950633510203])","array('d', [0.01613068953156477, -0.010317828182061103, -0.005171900324833088, -0.0072325651794334775, -0.006822540793358666, -0.006701358369092125, -0.00615267761353541, -0.005510375370472428, -0.004819988249355409, -0.004169065155679275, -0.0035883866277494434, -0.0030896003191398388, -0.002669165184142793, -0.002318165942356343, -0.002025747424547237, -0.0058974167591709595])","array('d', [-0.7895871837947035, -0.8007156291768286, -0.8076616850711473, -0.8109544019491375, -0.8109921301380993, -0.8080869115190474, -0.8024918435003682, -0.794418659926373, -0.7840493898432893, -0.771544271416514, -0.7570472103387157, -0.7406895800775222, -0.72259287670751, -0.7028705698677936, -0.6816293845295822, -0.6610687355789135])",-114.15447478210748,-201.31944800200068,-50.31164792843619,0.12784058096565332,-0.005171900324833088,-0.8076616850711473,25.000000249873963,-1.0,[],[],[],10000000000.0,0.04115891456604004
16,5.329532146453857,-201.73585510253906,-114.01565551757812,50.64999771118164,0.25335949659347534,-0.010640782304108216,-0.8141771992060802,23.22676034316249,"array('d', [-111.59983825683594, -113.399415622861, -115.21301184246913, -117.03402577696909, -118.85667377078501, -120.67577994234185, -122.48659182357211, -124.28466868765632, -126.06579884354447, -127.82594322401482, -129.56119488113225, -131.26775028268491, -132.94188955791418, -134.57996390296418, -136.17838870328453, -137.73502718964974])","array('d', [-203.87396240234375, -202.13873286871856, -200.41817973949273, -198.7054836200154, -196.99454006704386, -195.2798223448946, -193.55632803444178, -191.81952702328405, -190.06532916718675, -188.2900595300846, -186.49044137502702, -184.6635842815879, -182.8069755478733, -180.91847327851286, -178.9963000767339, -177.04015351134413])","array('d', [-50.418888092041016, -50.427595566252535, -50.40425970846519, -50.38027342557954, -50.355262202088056, -50.330994264446865, -50.3084691009181, -50.288398282535105, -50.27097671311755, -50.25608105723672, -50.243419266570086, -50.23265331766521, -50.223461478084545, -50.21556407893462, -50.20872903390939, -50.19751667612505])","array('d', [0.3067992329597473, 0.20286299727764576, 0.10881759362372626, 0.023721785695130917, -0.05327609241131582, -0.12294665994225959, -0.1859872020902548, -0.24302864864566096, -0.294641888542549, -0.3413434834965603, -0.383600837918494, -0.42183687684527743, -0.4564342787041446, -0.4877393052546255, -0.5160652666943611, -0.4606416397947674])","array('d', [0.01696850173175346, -0.009559747054712305, -0.009116602781770726, -0.010057030259892095, -0.009954000875077541, -0.009468749113797824, -0.00856667437122121, -0.007507817264720359, -0.006447244065016621, -0.005485397015489197, -0.004657883585130274, -0.003966436952634651, -0.003396558021821799, -0.0029291687839024675, -0.00254527808893277, -0.006360994746657233])","array('d', [-0.7981387813899178, -0.8083341426831703, -0.8144724478119046, -0.8170502956016752, -0.8164449020992584, -0.812954034045222, -0.806820862661919, -0.7982500507094086, -0.787418480125969, -0.7744825626816185, -0.7595832949180984, -0.7428497816971402, -0.7244016977567018, -0.7043510021091114, -0.68280312290362, -0.6619722632479265])",-115.21301184246913,-200.41817973949273,-50.40425970846519,0.10881759362372626,-0.009116602781770726,-0.8144724478119046,25.000000249850363,-1.0,[],[],[],10000000000.0,0.05746316909790039
17,5.3890416622161865,-200.52357482910156,-115.40409851074219,50.776737213134766,0.21985842287540433,-0.0033055974636227695,-0.8213535984370373,23.22164079302572,"array('d', [-112.29081726074219, -114.09831642356069, -115.9187830305647, -117.74578422108429, -119.57367119091789, -121.39735459248111, -123.21215266908992, -125.01367562430006, -126.79775030151582, -128.56036750962068, -130.29764454558955, -132.0057981599881, -133.68112588308077, -135.3199941945303, -136.9188322456234, -138.47552217052692])","array('d', [-203.25827026367188, -201.53128613471108, -199.8180631839387, -198.11185338277383, -196.40660140837855, -194.69683857790656, -192.97760981568038, -191.24443269343686, -189.49326329240532, -187.72047155086022, -185.92282394168856, -184.0974718149746, -182.2419430691179, -180.35413544604717, -178.43231032052856, -176.47620984366588])","array('d', [-50.48434066772461, -50.491838931294716, -50.46447223064515, -50.43428318839786, -50.40356299804997, -50.37387544934406, -50.34671913539758, -50.32284961992581, -50.30241034839698, -50.285136772899115, -50.27059464692128, -50.25832468035577, -50.247912045748926, -50.23900810193306, -50.23133048700952, -50.219388207734006])","array('d', [0.2918142378330231, 0.18930401174966874, 0.09654891505605495, 0.012620625251654471, -0.06332083867409204, -0.13203552303880764, -0.19421114625238245, -0.2504699817214673, -0.30137508575953975, -0.34743593283340596, -0.38911351454535015, -0.4268249533826829, -0.46094767740817727, -0.4918231976548615, -0.5197605256868958, -0.4638943955333753])","array('d', [0.016460211947560366, -0.010019666949611119, -0.011843705074942253, -0.012300495514169122, -0.012276672463950323, -0.011487096802566887, -0.010258872007044038, -0.00886036181829409, -0.007513703590540885, -0.0063250957874405106, -0.005325348743981907, -0.004504359826335566, -0.0038369064673789872, -0.0032952987562956167, -0.0028541618678434703, -0.0066366096504553145])","array('d', [-0.803018256029811, -0.8126176170430452, -0.8182377237378383, -0.8203554765479987, -0.8193351718144956, -0.8154658010984255, -0.8089844061671496, -0.8000912662683527, -0.7889600608177684, -0.7757448118009809, -0.7605846912174398, -0.743607374264339, -0.7249313815927614, -0.704667709305409, -0.6829209539266784, -0.6619150517452105])",-115.9187830305647,-199.8180631839387,-50.46447223064515,0.09654891505605495,-0.011843705074942253,-0.8182377237378383,25.000000249831327,-1.0,[],[],[],10000000000.0,0.058279991149902344
18,5.448102951049805,-199.61878967285156,-116.44575500488281,50.86476135253906,0.19289806485176078,0.0021883714944123636,-0.8260325630519053,23.221253395543734,"array('d', [-113.669677734375, -115.49169978011015, -117.32452676197066, -119.1621116182746, -120.99906476455337, -122.83047644039395, -124.65180174001385, -126.4587442497606, -128.2471984812796, -130.0132078572367, -131.75293323233194, -133.46262855030224, -135.1386237641293, -136.77731422603082, -138.37515545859438, -139.93006878287832])","array('d', [-202.03961181640625, -200.32793556321093, -198.62817638305177, -196.9336781425543, -195.23849309587408, -193.53726343895485, -191.82513495063037, -190.09773095791545, -188.3511119331477, -186.5817480222536, -184.78650102629766, -182.9626136874997, -181.107702359309, -179.219750959786, -177.29710506303346, -175.3396012581439])","array('d', [-50.61685562133789, -50.6143686852449, -50.5750671917538, -50.53084044384132, -50.486700539306504, -50.44503669209089, -50.408151540326074, -50.37678435412307, -50.35071812861693, -50.329228783588704, -50.31148931826197, -50.296746705414954, -50.2843798187342, -50.273897825775826, -50.26492045697458, -50.25186060398497])","array('d', [0.2610784471035004, 0.1614931157054445, 0.07138457340663815, -0.010149014735552351, -0.0839236627960208, -0.15067773091024025, -0.21107931501726007, -0.26573293337627213, -0.31518557677751635, -0.35993218299991886, -0.40042059030544963, -0.43705601954586865, -0.47020512973784817, -0.5001996876779697, -0.5273398879838996, -0.4705610610652847])","array('d', [0.012262969277799206, -0.013817489399437844, -0.017562543715393057, -0.01781646421548336, -0.01750253114017046, -0.01585753497628967, -0.013687857175179728, -0.011443987483589844, -0.009442758540952997, -0.007776723796581948, -0.00643731253069354, -0.005374575121219617, -0.004533013688677399, -0.003863769644326754, -0.003327093670726763, -0.007058598859587079])","array('d', [-0.8120786388728287, -0.8204683340832507, -0.8250314251087782, -0.8262072005364428, -0.8243350875324176, -0.8196870778011269, -0.8124882759106244, -0.8029303844967908, -0.7911807891562579, -0.7773887933658556, -0.7616899477675949, -0.7442090728303423, -0.7250623690193924, -0.7043588823982725, -0.6822015129785227, -0.6608346494066729])",-117.32452676197066,-198.62817638305177,-50.5750671917538,0.07138457340663815,-0.017562543715393057,-0.8250314251087782,25.000000249776722,-1.0,[],[],[],10000000000.0,0.05720067024230957
19,5.509821891784668,-198.71578979492188,-117.48928833007812,50.945533752441406,0.1659503281116485,0.008437411859631453,-0.8296188553187509,23.22441342806344,"array('d', [-114.70903778076172, -116.54015996116757, -118.38041705674041, -120.22407839631418, -122.06594251214739, -123.90124353485466, -125.72552965709956, -127.53456100619685, -129.32427113976033, -131.09073539887737, -132.8301425047329, -134.53877101880238, -136.21297281344533, -137.84916312469178, -139.4438160212032, -140.9948841079013])","array('d', [-201.12921142578125, -199.4273308767961, -197.73593693889225, -196.04841746481202, -194.35891303763114, -192.66214323242443, -190.95334140326008, -189.22822632200757, -187.4829519574623, -185.71407558218723, -183.91854040380824, -182.09366659820728, -180.23714528822947, -178.3470332011984, -176.4217470471467, -174.46120032745185])","array('d', [-50.71469497680664, -50.699812453431306, -50.64858560543099, -50.59210623294332, -50.53636589131989, -50.485140131608134, -50.4410972346146, -50.404684300076205, -50.375124387673615, -50.3511931620845, -50.33170337534347, -50.31566617420622, -50.30231052311012, -50.2910503592042, -50.281444052426984, -50.26784796634616])","array('d', [0.23711802065372461, 0.13981282333769546, 0.05176743186133398, -0.02789934004855374, -0.0999848227764274, -0.16521047075401699, -0.2242290830056614, -0.27763133656848893, -0.3259516981759711, -0.36967377337081975, -0.40923514658272375, -0.44503176061148847, -0.4774218793444933, -0.5067296733507491, -0.5332484638994193, -0.47575318643668263])","array('d', [0.007052508182823755, -0.018532109602244093, -0.022387939277290835, -0.022792651559743693, -0.021819551731896817, -0.019207509578152242, -0.01608080459485662, -0.013100304338494394, -0.010590058544904985, -0.00858860556530944, -0.0070293939541284265, -0.005820620357279453, -0.004879648909577655, -0.004140837632185186, -0.0035540160874737046, -0.007261077490749575])","array('d', [-0.8179041584345956, -0.8253615121778504, -0.8291052434802678, -0.829547727255889, -0.8270104256679688, -0.8217529570266631, -0.8139916825743614, -0.8039119876849102, -0.7916765966137026, -0.7774312976743849, -0.761308925749486, -0.743432144099482, -0.7239153849065127, -0.7028661945901027, -0.6803861569004582, -0.6587360738038346])",-118.38041705674041,-197.73593693889225,-50.64858560543099,0.05176743186133398,-0.022387939277290835,-0.8291052434802678,25.000000249711988,-1.0,[],[],[],10000000000.0,0.0590062141418457
20,5.56899619102478,-198.11383056640625,-118.18680572509766,50.995269775390625,0.14879013597965238,0.0125366020947694,-0.8318342407557626,23.227773575716316,"array('d', [-115.75220489501953, -117.59107795906077, -119.43728949984411, -121.28543896144063, -123.13055179877068, -124.96800989775944, -126.79289993081677, -128.6020769844797, -130.39101813679335, -132.15580129241076, -133.89264136934204, -135.59784059846885, -137.26777216962392, -138.89887092107142, -140.48762956304714, -142.03203588741854])","array('d', [-200.22108459472656, -198.52774496374602, -196.84332659841283, -195.16126707792014, -193.47577542661512, -191.78165867557323, -190.07476438735006, -188.34994677110913, -186.60393180126854, -184.83340359384763, -183.03539981951332, -181.20733048975134, -179.34697366461856, -177.4524708894006, -175.52232183223913, -173.55652714471367])","array('d', [-50.80707550048828, -50.77886871645669, -50.713900211882105, -50.64305844680664, -50.57473367537107, -50.51399418924259, -50.463564537224784, -50.42308482347089, -50.39096326405631, -50.36538048568335, -50.344782352581404, -50.32796613956963, -50.314037280046506, -50.30233727939657, -50.292380973621576, -50.27848823147949])","array('d', [0.21097804605960843, 0.11616039407589165, 0.030365826899155218, -0.04726431477852181, -0.11750697809865908, -0.18106517397040303, -0.23857501302722706, -0.2906120720243901, -0.33769715439406883, -0.3803015026115915, -0.418851514539668, -0.45373301095281754, -0.4852950969504101, -0.513853655886855, -0.5396945104520093, -0.4814124048384916])","array('d', [0.001451518153771846, -0.023600095045769553, -0.028302168086321675, -0.028377572761178596, -0.026323329114373017, -0.022339531066462907, -0.018089797315873908, -0.01435811933619291, -0.011389369193950298, -0.00911515339222763, -0.007392282340840258, -0.006082637829154296, -0.005077279185594847, -0.0042957924041399755, -0.003679553411735377, -0.007373095067317428])","array('d', [-0.8230330189082286, -0.8294824694147992, -0.8323360217235272, -0.8319788871287461, -0.8287142441793592, -0.8227890336384414, -0.8144081271075703, -0.8037551762599144, -0.7909858743594791, -0.7762421778255519, -0.7596540595811692, -0.7413418926892915, -0.7214182166313956, -0.699988958976517, -0.6771542709504723, -0.6551933445663342])",-119.43728949984411,-196.84332659841283,-50.713900211882105,0.030365826899155218,-0.028302168086321675,-0.8323360217235272,25.000000249601566,-1.0,[],[],[],10000000000.0,0.0545656681060791
21,5.610837697982788,-197.21058654785156,-119.2353744506836,51.063255310058594,0.12407734245061869,0.018717208877205765,-0.8350204666468759,23.236357904512968,"array('d', [-116.44575500488281, -118.28902099773721, -120.13837905003591, -121.98865584985928, -123.8350708841503, -125.67218328567061, -127.4960718232745, -129.3038142582812, -131.09125027451498, -132.85387643810216, -134.58792436123585, -136.28971149309731, -137.95562480008206, -139.58211191595996, -141.1656779094594, -142.70433577269714])","array('d', [-199.61878967285156, -197.93039582208826, -196.2498540350683, -194.57063014486465, -192.88694220305374, -191.19450131355384, -189.48837162799538, -187.76330586050184, -186.01577322696016, -184.24310899883238, -182.44241854121785, -180.6111764426231, -178.74722344800128, -176.84876237314182, -174.9143528636838, -172.9440573490098])","array('d', [-50.86476135253906, -50.827895982491825, -50.752857570683446, -50.67111677145922, -50.59408621878436, -50.52736528043779, -50.47335922516033, -50.43085204104865, -50.39758220690899, -50.37133288828432, -50.3503281741473, -50.33324831580149, -50.3191371173264, -50.30730288354128, -50.29724209524642, -50.28326137997467])","array('d', [0.19289806485176078, 0.09980094907973551, 0.015563187587444722, -0.06065829792673365, -0.12962635632553235, -0.192031241866766, -0.24849752248740883, -0.2995903306780763, -0.3458210195086366, -0.3876522804122141, -0.42550277394787156, -0.4597513198876479, -0.49074068856136255, -0.5187810313865471, -0.5441529845838206, -0.4853233400550951])","array('d', [-0.0021883714944123636, -0.026893603624239218, -0.03304364265202043, -0.03237186090152879, -0.029313381427911307, -0.02418176828219303, -0.019143691547353896, -0.014945555413554792, -0.011724836881795818, -0.009315206219032274, -0.0075187336420118826, -0.006167796560336, -0.0051383950211134595, -0.00434230784087164, -0.0037167796278285573, -0.007406315148475497])","array('d', [-0.8260325630519053, -0.8317898312347703, -0.8340294772371648, -0.8331191695246626, -0.8293501936702259, -0.8229580374331744, -0.8141436866098639, -0.803088185151891, -0.7899470942218905, -0.7748562302727714, -0.757943644972064, -0.7393281633648076, -0.719121035965751, -0.6974270793976689, -0.6743454546935916, -0.6521683787570549])",-120.13837905003591,-196.2498540350683,-50.752857570683446,0.015563187587444722,-0.03304364265202043,-0.8340294772371648,25.00000024947427,-1.0,[],[],[],10000000000.0,0.04318594932556152
22,5.6513495445251465,-196.60946655273438,-119.93257141113281,51.103782653808594,0.1087042391300201,0.02283305302262299,-0.8371352394435068,23.240542203617597,"array('d', [-117.48928833007812, -119.33752544607398, -121.18998442240185, -123.04186302092913, -124.88807845534961, -126.72300818104618, -128.5441073806286, -130.34836366430645, -132.13199612458288, -133.88981111210543, -135.61806369099637, -137.31309252910384, -138.9713038141444, -140.58916323010195, -142.1631935987317, -143.6914465168568])","array('d', [-198.71578979492188, -197.03322422836726, -195.35694117861485, -193.68040902965436, -191.99838921906436, -190.30698324867458, -188.6001742305669, -186.87295184247586, -185.121556315897, -183.3441293743931, -181.53788047033441, -179.70038417093045, -177.8295786771456, -175.92376225549827, -173.9815880600172, -172.00321354903932])","array('d', [-50.945533752441406, -50.893804198306015, -50.8019700089046, -50.70307417625309, -50.613653325925064, -50.539445736842644, -50.481583235339244, -50.437227132377416, -50.403095463812406, -50.37645347284903, -50.35527223605005, -50.338113819429324, -50.3239673766117, -50.31211583956053, -50.3020440459378, -50.28805418156284])","array('d', [0.1659503281116485, 0.0754176263371535, -0.006499757204648175, -0.08062167773505222, -0.1476899710028467, -0.20837587781235742, -0.2632867620148375, -0.3129721891989896, -0.35792942691807295, -0.3986084215015796, -0.4354163012608688, -0.4687214511578108, -0.4988571997147244, -0.5261251550478899, -0.5507982230817965, -0.4911472057849223])","array('d', [-0.008437411859631453, -0.03254796955921394, -0.04079848744974352, -0.03837920470884394, -0.03328234749633733, -0.02628836620981716, -0.02017094172782005, -0.015421534474573494, -0.011942696245198288, -0.009413497538467935, -0.007562573988239585, -0.006187211809286425, -0.0051473502024671144, -0.00434726217258456, -0.003720647750427468, -0.007409774949322805])","array('d', [-0.8296188553187509, -0.8343508690916459, -0.8356774903161998, -0.8339419901226229, -0.8294174489613946, -0.8223244886066572, -0.8128606062149033, -0.801201784768553, -0.7875025759260178, -0.7718904113445438, -0.754490562224361, -0.7354195968233729, -0.7147868716292476, -0.6926955578341619, -0.6692433391241186, -0.6467423164312196])",-121.18998442240185,-195.35694117861485,-50.8019700089046,-0.006499757204648175,-0.04079848744974352,-0.8356774903161998,25.000000249070755,-1.0,[],[],[],10000000000.0,0.038900136947631836
23,5.702760696411133,-196.00787353515625,-120.63105010986328,51.140655517578125,0.09395471215248105,0.026718407869338913,-0.8390111168238777,23.246841677413794,"array('d', [-118.18680572509766, -120.0380480757862, -121.89225831494812, -123.74491594158692, -125.58990370198329, -127.42331318539298, -129.24251328757848, -131.04441953739482, -132.82549093089202, -134.5800925373901, -136.30449464156118, -137.99504966623934, -139.6481762747798, -141.26035191908792, -142.82811106051673, -144.34953085987962])","array('d', [-198.11383056640625, -196.43489692895432, -194.7613093582625, -193.08649140209383, -191.4063093861563, -189.71544363562427, -188.0080675949243, -186.27933422180945, -184.5253376676839, -182.74473840691695, -180.9348126529817, -179.09319934331592, -177.21789958567422, -175.30727333478688, -173.3600341972922, -171.37640066779167])","array('d', [-50.995269775390625, -50.93379069198097, -50.829174910559416, -50.716789203971466, -50.61881168883091, -50.54005362483744, -50.48030633865771, -50.43532621373396, -50.401104128430816, -50.374576165691074, -50.3535726903498, -50.33659884775577, -50.32262297556306, -50.31092188787497, -50.30098020413706, -50.28710418166192])","array('d', [0.14879013597965238, 0.05989044098955695, -0.02054933677583071, -0.09333426418934399, -0.15919279594749966, -0.2187840651767072, -0.2727044802471494, -0.32149369381732845, -0.3656400038493354, -0.40558524064981244, -0.4417291888473307, -0.47443358856147017, -0.5040257558022765, -0.5308018582862536, -0.555029878546688, -0.4948523832689756])","array('d', [-0.0125366020947694, -0.03625706694470804, -0.047276599235432946, -0.04273806461883697, -0.03586291472056349, -0.02741301028841201, -0.020586685180006, -0.015519969842027076, -0.011918645436199646, -0.009347028403776, -0.00748698110325547, -0.006115084209352081, -0.0050828912046411885, -0.004291219929460884, -0.0036724700521542845, -0.007366791614364421])","array('d', [-0.8318342407557626, -0.8359168113684419, -0.8366628631023636, -0.8344011522786884, -0.8293909686353056, -0.8218488808524888, -0.8119684551302633, -0.7999225739709396, -0.7858653798812616, -0.7699187667142882, -0.752206283986267, -0.7328430920182789, -0.7119373562081714, -0.6895912048256858, -0.6659013785097485, -0.6431929450042856])",-121.89225831494812,-194.7613093582625,-50.829174910559416,-0.02054933677583071,-0.047276599235432946,-0.8366628631023636,25.000000244975084,-1.0,[],[],[],10000000000.0,0.04690098762512207
