,current_time,x_pos,y_pos,z_pos,roll,pitch,yaw,vel,x_traj,y_traj,z_traj,roll_traj,pitch_traj,yaw_traj,x_cmd,y_cmd,z_cmd,roll_cmd,pitch_cmd,yaw_cmd,vel_cmd,effector_dmg,effector_x,effector_y,effector_z,cost,time_solution
0,12.05849313735962,-222.26023864746094,-125.84426879882812,49.95868682861328,0.6326318979263306,0.037482626736163926,0.37912018696335376,23.081320927534573,"array('d', [-126.95254516601562, -125.9840236557885, -125.06468126558059, -124.18147307737284, -123.3232921495583, -122.4805202195061, -121.64468188254293, -120.80819106576678, -119.96418316063054, -119.10640098335953, -118.22911600527331, -117.32707337558163, -116.39545332637428, -115.4298439766469, -114.42622207260781, -113.3824059719684])","array('d', [-225.31944274902344, -223.01587733669015, -220.6912379314041, -218.35246622404424, -216.00438499700718, -213.65072349852983, -211.2945885027494, -208.93868518797132, -206.58546633428924, -204.23723665016016, -201.89622754006706, -199.5646513425757, -197.24474066601957, -194.93877646756656, -192.64910734842746, -190.37748780523611])","array('d', [-49.95943832397461, -49.88865009494435, -49.866111684163265, -49.86654837343327, -49.867271820731915, -49.867917385773886, -49.86858580549963, -49.86924794026667, -49.869911122087274, -49.870572511552325, -49.871232246325825, -49.871889720468765, -49.872544647989564, -49.873196763003364, -49.873845860123296, -49.869260744159384])","array('d', [0.631663143634796, 0.49681204605377877, 0.37479371604662615, 0.26438695536917833, 0.16448677805523063, 0.0740933513656611, -0.007698010855488348, -0.0817059025676275, -0.14867101828204868, -0.20926356616763545, -0.26408997570603326, -0.31369896702658834, -0.35858704265474833, -0.39920345655935946, -0.43595470875519104, -0.38980267863102197])","array('d', [-0.03863139078021042, -0.01834614062686152, 8.714301314546596e-06, 0.00033519083578764343, 0.00024507039404965083, 0.0002709499181227808, 0.0002639034132254857, 0.0002657732093836786, 0.0002647886720578961, 0.00026433054336144347, 0.00026347160508675066, 0.0002625235259232316, 0.00026143662317171045, 0.00026027477058219604, 0.00025902379478164077, -0.003858436197171513])","array('d', [0.4110397855427603, 0.3862146535619145, 0.367962829228467, 0.3550023087712272, 0.3464831731352681, 0.3418066451136006, 0.34052955921372036, 0.3423099123032596, 0.3468739450011657, 0.35399530750727587, 0.3634813999727536, 0.37516417658315016, 0.3888938374493705, 0.4045344496869192, 0.4219608903144566, 0.43913594726810423])",-125.06468126558059,-220.6912379314041,-49.866111684163265,0.37479371604662615,8.714301314546596e-06,0.367962829228467,25.000000249989192,-1.0,[],[],[],10000000000.0,0.03511238098144531
1,12.102794647216797,-220.93515014648438,-125.39863586425781,49.95803451538086,0.6330708265304565,0.03746614232659334,0.36558552185562654,23.088000489412952,"array('d', [-126.6266098022461, -125.67946284587168, -124.78176018435525, -123.92037702465258, -123.08415143841239, -122.26342503890602, -121.44968938424198, -120.63532998050319, -119.81345671880815, -118.97778868240839, -118.12257455503355, -117.24253705382944, -116.33283390877484, -115.38903036394433, -114.40707970945502, -113.38478219271714])","array('d', [-224.45156860351562, -222.13910722353174, -219.80601863861622, -217.45912103737945, -215.10313150559173, -212.7416923133304, -210.37783273111998, -208.0141880655494, -205.65314746418045, -203.2969573335828, -200.94779546456772, -198.60782482687395, -196.27923259545403, -193.96425801534735, -191.66521154866535, -189.3838270153179])","array('d', [-49.95960235595703, -49.889649689314716, -49.86786760163475, -49.868551634036685, -49.86919786282953, -49.869856767041945, -49.87051322693204, -49.87117051262, -49.871826825173216, -49.87248188549149, -49.87313508502724, -49.87378601512495, -49.87443431686957, -49.8750797310925, -49.87572203657254, -49.87113045345355])","array('d', [0.6322685480117798, 0.4973598386367062, 0.37528937931784, 0.2648354500842927, 0.16489259289194919, 0.0744605478478887, -0.007365757708626433, -0.08140526746103248, -0.14839899236405135, -0.20901742691648248, -0.26386725968210084, -0.3134974452177224, -0.35840469816845905, -0.399038464441985, -0.4358054177946839, -0.38967019564810845])","array('d', [-0.03828002884984012, -0.01802821517669902, 0.00029638516079436803, 0.0002515880668868359, 0.00026516842063651984, 0.0002620076776137808, 0.0002631413237696907, 0.0002626946783337327, 0.00026236093256491977, 0.0002616983755821088, 0.00026087498946537945, 0.0002598855944570293, 0.0002587743398029066, 0.00025757701291881043, 0.0002562888605798887, -0.0038608798208802156])","array('d', [0.40179152885941044, 0.37693461625367114, 0.3586578429644453, 0.3456767552413463, 0.3371400592075068, 0.33244814791640187, 0.3311573272367952, 0.33292524301578624, 0.33747789511969023, 0.3445887642241422, 0.35406512838188664, 0.3657388519656343, 0.37946006758405304, 0.39509279039972284, 0.4125118563456201, 0.42968032849696525])",-124.78176018435525,-219.80601863861622,-49.86786760163475,0.37528937931784,0.00029638516079436803,0.3586578429644453,25.000000249989146,-1.0,[],[],[],10000000000.0,0.04669189453125
2,12.15509295463562,-220.0494384765625,-125.11204528808594,49.957763671875,0.633196413516998,0.037212587893009075,0.3566307584431506,23.091137498829596,"array('d', [-126.15194702148438, -125.23601868201271, -124.36985508515183, -123.5402283359638, -122.73590592755383, -121.94717780329921, -121.16549276569546, -120.38319935181806, -119.59337409503588, -118.78970483907048, -117.96641007561425, -117.11818260475326, -116.24014995491912, -115.32784648532459, -114.37719364365877, -113.38596739639371])","array('d', [-223.1412811279297, -220.8162444177787, -218.47125475039678, -216.11294436490738, -213.74587330905877, -211.37355487448158, -208.99890408993255, -206.6244537583951, -204.2525000311807, -201.88520436324816, -199.52466660927206, -197.1729781052872, -194.83226019449748, -192.50469174189158, -190.19252803527868, -187.8974728960125])","array('d', [-49.95951843261719, -49.89068249853784, -49.86991123181707, -49.8709270668108, -49.87147220621267, -49.87215083624717, -49.872793269829465, -49.873446014722944, -49.87409508445021, -49.87474361267709, -49.87538999209227, -49.876034074641765, -49.87667540195432, -49.87731372211673, -49.87794879134444, -49.87335029554299])","array('d', [0.6326242685317991, 0.49768170790269717, 0.375580618699752, 0.26509897439845354, 0.16513103957347203, 0.07467630334695897, -0.00717053404240381, -0.08122862176718441, -0.14823915671639784, -0.20887280162920974, -0.263736397299698, -0.31337903602868533, -0.358297557098406, -0.3989415191994329, -0.43571769822763184, -0.38959235134814074])","array('d', [-0.03781043738126742, -0.01760331120698898, 0.0006808541903683658, 0.00014082263065934682, 0.00029275436645231613, 0.00025084873186082094, 0.00026289714299964793, 0.0002593578155306795, 0.0002598891039714932, 0.0002589491583287805, 0.00025816741543487786, 0.0002571161617108243, 0.00025596489426940133, 0.0002547121346233105, 0.0002533657089902901, -0.003863492031688312])","array('d', [0.38833291927841673, 0.36345732222298355, 0.34516588384059577, 0.33217270828149054, 0.3236256926581576, 0.31892474186893877, 0.3176258508216519, 0.319386458908166, 0.3239324244083026, 0.33103712830874565, 0.34050777686732403, 0.35217618164979575, 0.36589243557880774, 0.3815205232754537, 0.3989352565235463, 0.41609986014998596])",-124.36985508515183,-218.47125475039678,-49.86991123181707,0.375580618699752,0.0006808541903683658,0.34516588384059577,25.000000249989082,-1.0,[],[],[],10000000000.0,0.04548358917236328
3,12.199971675872803,-218.7137451171875,-124.69705200195312,49.9576301574707,0.6268559098243713,0.036275774240493656,0.34287794033554586,23.109410831096167,"array('d', [-125.84426879882812, -124.9497917315079, -124.10526767230319, -123.29740436467975, -122.51492555323922, -121.74808920865829, -120.98831757566722, -120.22793613773959, -119.46000052868911, -118.67817891390867, -117.8766706552197, -117.05014948381235, -116.19372356605044, -115.30290735306649, -114.373601664761, -113.40356683112437])","array('d', [-222.26023864746094, -219.9268422897319, -217.57396652207353, -215.208112658514, -212.83373129157545, -210.45424630462912, -208.0724938154901, -205.69093604154554, -203.3118052500702, -200.93720464848974, -198.5691807319713, -196.20977584556522, -193.86106634407375, -191.52518984904094, -189.2043639674645, -186.90027193026896])","array('d', [-49.95868682861328, -49.89063046726631, -49.870564832732235, -49.8718147397396, -49.87229346841134, -49.87298957303048, -49.87362604764805, -49.87427941887195, -49.87492723365707, -49.87557499249816, -49.876220391950405, -49.87686346280173, -49.87750367600434, -49.8781407835799, -49.878774525230305, -49.87417471781519])","array('d', [0.6326318979263306, 0.4976886112649451, 0.3755868651207559, 0.2651046263943745, 0.16513615371127338, 0.07468093081054478, -0.00716634693992695, -0.0812248331199966, -0.14823572860657044, -0.2088696997472359, -0.2637335906011752, -0.3133764964237989, -0.358295259171497, -0.3989394399585907, -0.4357158169294525, -0.38959068183673284])","array('d', [-0.037482626736163926, -0.017306695842940586, 0.0009492428813518176, 6.54266047738755e-05, 0.0003134193197869192, 0.00024461221675596394, 0.00026424004643358664, 0.00025855182428468265, 0.00025968116478051985, 0.0002585448644580202, 0.0002577873350097073, 0.00025668769083572464, 0.00025550264072182104, 0.0002542050662786003, 0.0002528115018349792, -0.0038639880483924624])","array('d', [0.37912018696335376, 0.35424418908019895, 0.3359524361186505, 0.32295900127847377, 0.3144117643109865, 0.30971061963967694, 0.30841155550015226, 0.31017200685463076, 0.31471782894520395, 0.32182240061980366, 0.33129292659599946, 0.34296121730669205, 0.3566773648232101, 0.3723053531116619, 0.38971999343953817, 0.4068845139093898])",-124.10526767230319,-217.57396652207353,-49.870564832732235,0.3755868651207559,0.0009492428813518176,0.3359524361186505,25.000000249989036,-1.0,[],[],[],10000000000.0,0.04777884483337402
4,12.249332666397095,-217.81663513183594,-124.42984008789062,49.9580192565918,0.6135875582695003,0.034726452082395456,0.3334526578572132,23.128935265473643,"array('d', [-125.39863586425781, -124.53584945117865, -123.7233237808595, -122.94767062642264, -122.19754827019962, -121.46316477497915, -120.73590138061053, -120.00804823404762, -119.27262913986743, -118.52328243972251, -117.75417860669087, -116.95996264426584, -116.13571359207067, -115.27691597597817, -114.37943961747168, -113.44102084917223])","array('d', [-220.93515014648438, -218.5898501331516, -216.2257333002276, -213.8491244658099, -211.46432336399926, -209.07462304887653, -206.68274391638266, -204.2910442772347, -201.90166209630718, -199.51661437711965, -197.13786846572333, -194.76739388469113, -192.40719998322754, -190.0593628373685, -187.7260437189029, -185.4088950324169])","array('d', [-49.95803451538086, -49.89001735609962, -49.86998720529406, -49.87125398262492, -49.8717380963338, -49.87244295331846, -49.873087307287726, -49.87374881614822, -49.874404652087875, -49.87506037077639, -49.87571360733003, -49.87636436927994, -49.877012098181325, -49.87765652319302, -49.878297362699286, -49.87370415857538])","array('d', [0.6330708265304565, 0.4980857703257444, 0.3759462295323847, 0.2654297927901207, 0.16543037645980477, 0.07494715458666301, -0.006925457684048564, -0.08100686748813615, -0.14803850512945693, -0.20869124454974544, -0.263572117647247, -0.31323038964147143, -0.3581630562796967, -0.3988198178375384, -0.4356075784529501, -0.3894946279001565])","array('d', [-0.03746614232659334, -0.017291780131157366, 0.0009627391749204472, 6.564802437836633e-05, 0.00031744250887837865, 0.0002476080584976519, 0.0002675425701230497, 0.00026176096779879937, 0.000262888967412333, 0.0002617057230349857, 0.00026089701152078845, 0.0002597319840583223, 0.0002584721541380072, 0.00025709089788079854, 0.0002556054872335057, -0.003861494380935746])","array('d', [0.36558552185562654, 0.3406864575643721, 0.322376603191637, 0.3093682498506474, 0.3008082777936527, 0.29609597845612495, 0.29478695601434995, 0.29653839046984537, 0.30107596222772764, 0.3081729270442767, 0.3176364009932107, 0.32929812931156405, 0.34300815507710913, 0.3586304245542227, 0.3760397192010823, 0.39319946657212396])",-123.7233237808595,-216.2257333002276,-49.86998720529406,0.3759462295323847,0.0009627391749204472,0.322376603191637,25.00000024998896,-1.0,[],[],[],10000000000.0,0.04532194137573242
5,12.3038010597229,-216.46737670898438,-124.04530334472656,49.96210861206055,0.5793559551239011,0.02984906360506997,0.31827612320450344,23.15686373185662,"array('d', [-125.11204528808594, -124.27029736202405, -123.47899471041045, -122.72468770956883, -121.99599332147014, -121.28308928382506, -120.57733184146178, -119.87098955693166, -119.15706672483759, -118.4291833266395, -117.68149196060246, -116.90861975964414, -116.10562754784223, -115.26798104127694, -114.39153048613875, -113.47399701172645])","array('d', [-220.0494384765625, -217.69648820722168, -215.32517878826118, -212.9417091574117, -210.55027353716144, -208.15407769548986, -205.7557649000589, -203.35762438100386, -200.96173150901706, -198.5700461458195, -196.1844832226811, -193.80696407020625, -191.43945371378163, -189.0839875246596, -186.74268951340693, -184.41719140252425])","array('d', [-49.957763671875, -49.89034950008293, -49.87086514169278, -49.87231227003648, -49.87274387190956, -49.8734612590432, -49.87409997728752, -49.87476095790877, -49.87541480304971, -49.8760689002978, -49.87672034156803, -49.87736927006262, -49.878015069834646, -49.87865747067251, -49.87929617600537, -49.87470089918576])","array('d', [0.633196413516998, 0.49819940614065666, 0.3760490514790315, 0.26552282994323234, 0.1655145599647845, 0.07502332697878503, -0.006856534047280802, -0.08094450279707822, -0.14798207521849857, -0.2086401846504836, -0.2635259167361561, -0.31318858532557126, -0.3581252301693532, -0.39878559136234887, -0.43557660911801727, -0.3894671446824886])","array('d', [-0.037212587893009075, -0.017062354571825405, 0.0011703320119465957, 6.781128420236339e-06, 0.00033305743136584896, 0.00024236520481785715, 0.0002681787694384851, 0.00026072998892681193, 0.0002623196065722182, 0.00026098053108201345, 0.00026018574441410405, 0.00025897721261204063, 0.00025768417601192297, 0.0002562602487318979, 0.00025472955306141457, -0.00386227776557762])","array('d', [0.3566307584431506, 0.33172509207672374, 0.3134100573113214, 0.300397434835463, 0.2918338186736218, 0.2871183276042877, 0.28580645584416253, 0.28755531040254406, 0.29209052163368415, 0.29918531005790694, 0.30864676637501737, 0.3203066171608033, 0.33401489147007546, 0.34963552477681153, 0.3670432900088275, 0.38420166995794874])",-123.47899471041045,-215.32517878826118,-49.87086514169278,0.3760490514790315,0.0011703320119465957,0.3134100573113214,25.000000249988915,-1.0,[],[],[],10000000000.0,0.05457806587219238
6,12.360812664031982,-215.11373901367188,-123.68070983886719,49.97445297241211,0.534202694892883,0.022593218833208018,0.3017209331181384,23.17952691284715,"array('d', [-124.69705200195312, -123.88731205397502, -123.1275777180141, -122.40443641502121, -121.70653258796706, -121.02406567204551, -120.34840558449767, -119.67182931691508, -118.98734572677253, -118.28857630542845, -117.56967257987223, -116.82525831889411, -116.05038887025427, -115.2405224824603, -114.39150003197885, -113.50104090625963])","array('d', [-218.7137451171875, -216.34952395313007, -213.96789571963424, -211.57478643154136, -209.1741840622066, -206.7691422075152, -204.36217699828634, -201.95546934898624, -199.55100056315743, -197.15064775054603, -194.7562523588322, -192.36967006633134, -189.99280703339784, -187.62764578095664, -185.2762628998575, -182.940264401947])","array('d', [-49.9576301574707, -49.89244389225, -49.87497609435031, -49.87708175416213, -49.87730594486749, -49.878057488981455, -49.87866273342155, -49.879309186952106, -49.879943106319914, -49.88057875220894, -49.8812112572506, -49.88184132194323, -49.882468163956474, -49.88309155679738, -49.88371118567629, -49.87909783875236])","array('d', [0.6268559098243713, 0.4924622806306535, 0.370857885175339, 0.2608256680028687, 0.1612643916975092, 0.07117761534916152, -0.010336278144064109, -0.08409310574641314, -0.1508310492399076, -0.21121804318195922, -0.2658584598057808, -0.3152991577665966, -0.3600349552634433, -0.4005135822522151, -0.43714016015469126, -0.39085461420027423])","array('d', [-0.036275774240493656, -0.01621469045018113, 0.0019373302321837645, -0.0002168655908981538, 0.0003861585133382191, 0.0002178839366246746, 0.0002655170010208141, 0.000251873426022767, 0.0002552064668234764, 0.0002533413585156446, 0.0002526738111685534, 0.00025139920618087806, 0.00025009614236056566, 0.0002486423821671585, 0.00024708667339666627, -0.0038691050009891227])","array('d', [0.34287794033554586, 0.3183043357043231, 0.30025018748788773, 0.28745275339121573, 0.2790729405060347, 0.2745185132157413, 0.2733504774943051, 0.2752296020136225, 0.2798840295227873, 0.2870887502074835, 0.29665212972860305, 0.3084068327637732, 0.32220359365026346, 0.3379068908714184, 0.35539192697431826, 0.3726192967367197])",-123.1275777180141,-213.96789571963424,-49.87497609435031,0.370857885175339,0.0019373302321837645,0.30025018748788773,25.000000249988833,-1.0,[],[],[],10000000000.0,0.055222511291503906
7,12.41338062286377,-214.2062530517578,-123.44816589355469,49.990169525146484,0.5012698769569396,0.016530582681298187,0.2904465953495839,23.19441525879422,"array('d', [-124.29947662353516, -123.52221646825087, -122.79273553435992, -122.0979670005987, -121.4268017054958, -120.76962678291473, -120.11795227501462, -119.4641646299961, -118.80136116424165, -118.12323704710465, -117.42400679678823, -116.69834927470298, -115.94136895164839, -115.14856858087676, -114.31582987545545, -113.44092325047522])","array('d', [-217.36737060546875, -214.99208915820392, -212.60097984581486, -210.1994822066558, -207.791266397929, -205.37919032024314, -202.96562054285582, -200.55262283362, -198.1420881580023, -195.7358219534433, -193.3356083654822, -190.94325709159924, -188.56063736533136, -186.18970210069367, -183.8325042373363, -181.4906372065965])","array('d', [-49.95873260498047, -49.900337742986984, -49.88876896723734, -49.8927003278066, -49.89232080723376, -49.89314592169876, -49.89363497473288, -49.894218349932714, -49.894774144276965, -49.8953359721089, -49.895893552343374, -49.896449216222344, -49.89700177552748, -49.897551177988824, -49.89809710394531, -49.89341421005853])","array('d', [0.6039173603057861, 0.4717066208306196, 0.3520773858510073, 0.24383236794546073, 0.14588821655677447, 0.05726467547520084, -0.02292522787734836, -0.09548405955081816, -0.161138011403072, -0.22054416905854132, -0.27429708822909377, -0.3229347452134641, -0.3669439211219711, -0.4067650736541166, -0.4427967440601766, -0.39587282867962653])","array('d', [-0.0334201864898204, -0.01363084757520763, 0.004080213220446036, -0.0008528272819718622, 0.0005262057820840144, 0.00014032309115040114, 0.00024910464203357766, 0.00021811252760203315, 0.00022638494659646941, 0.00022313159069700488, 0.00022293586127398047, 0.00022161723837400645, 0.0002204496820737323, 0.00021909488683554947, 0.00021766965319241994, -0.003895377711568011])","array('d', [0.3285321752217153, 0.3051391550791149, 0.28801799003179684, 0.2759933208732381, 0.26827556784430595, 0.2643025917324777, 0.26365467716043944, 0.2660054476562145, 0.2710918921644714, 0.27869524728356493, 0.2886283889034981, 0.30072730751704085, 0.31484524372636, 0.33084861076239863, 0.3486141465834367, 0.3660918190043998])",-122.79273553435992,-212.60097984581486,-49.88876896723734,0.3520773858510073,0.004080213220446036,0.28801799003179684,25.000000249988734,-1.0,[],[],[],10000000000.0,0.05073285102844238
8,12.470473051071167,-212.83872985839844,-123.11465454101562,50.02768325805664,0.45283398032188404,0.0067126741632818265,0.2741266051915029,23.214135506986555,"array('d', [-124.04530334472656, -123.29085873564391, -122.58176526178993, -121.90532583256984, -121.25071207778902, -120.60851924056169, -119.9704162940695, -119.32891565309082, -118.67721809883572, -118.00910650862336, -117.31887188155265, -116.60126143558911, -115.85144203697759, -115.06497439207969, -114.23779479050738, -113.36773718258911])","array('d', [-216.46737670898438, -214.08454960884492, -211.6872856350011, -209.280556466091, -206.867787709906, -204.45167907986826, -202.0344857321577, -199.61819272300534, -197.20463234755007, -194.79556761677838, -192.39275254596214, -189.99797613620234, -187.6130942153299, -185.2400519186536, -182.88089870884184, -180.53722707204756])","array('d', [-49.96210861206055, -49.91220751024015, -49.90342140687121, -49.906489438348295, -49.906261151257375, -49.90695397437236, -49.90738981411308, -49.907897615543995, -49.90838411693137, -49.90887494507454, -49.909362186893865, -49.90984757855066, -49.910330176754655, -49.91080991655492, -49.91128653316403, -49.90653826582305])","array('d', [0.5793559551239011, 0.4494825403693545, 0.3319682044466314, 0.22563682651646724, 0.129424208338999, 0.04236742343942169, -0.03640482016631321, -0.1076809001386439, -0.17217417014854827, -0.23053009934754234, -0.2833327324272072, -0.33111053492103043, -0.37434168224253944, -0.4134588453354706, -0.4488535197203638, -0.40124366404142886])","array('d', [-0.02984906360506997, -0.010399561678495544, 0.003144664369476309, -0.0006273130068158122, 0.0004270937224758093, 0.0001320860878980553, 0.00021519921066993938, 0.00019143831191298415, 0.00019765902271047135, 0.0001950470631043132, 0.00019475132444012833, 0.00019358151431776024, 0.00019251484164361544, 0.00019129730796665052, 0.00019001733039478454, -0.003920073696189464])","array('d', [0.31827612320450344, 0.2961132636229611, 0.2799732628727649, 0.26876661940267516, 0.2617530675931376, 0.25840074584334755, 0.2583094816069467, 0.2611660066869179, 0.2667163734896861, 0.27474824406924175, 0.2850791506884351, 0.29754852984242425, 0.3120122291445651, 0.32833868333370697, 0.3464062428508286, 0.3641531993937945])",-122.58176526178993,-211.6872856350011,-49.90342140687121,0.3319682044466314,0.003144664369476309,0.2799732628727649,25.00000024998866,-1.0,[],[],[],10000000000.0,0.05451631546020508
9,12.510138750076294,-211.9259796142578,-122.90255737304688,50.06182098388672,0.4231064319610593,0.0007920119096524839,0.26421888271835803,23.223891829543852,"array('d', [-123.68070983886719, -122.9630162880386, -122.28626347837383, -121.63840469992519, -121.00911075252345, -120.3893491534681, -119.77107629091851, -119.14703484580207, -118.51061665350369, -117.8557681224744, -117.17692417049352, -116.46896177423731, -115.72716721433133, -114.9472129497711, -114.12514124047601, -113.25890824759087])","array('d', [-215.11373901367188, -212.71927571760958, -210.31264490674346, -207.8980589877056, -205.47856098189905, -203.0566006411234, -200.63425932279128, -198.2133990940674, -195.79576592795254, -193.38306358425294, -190.9770072761099, -188.57936279565564, -186.19197467747745, -183.81678579589325, -181.45585006783836, -179.11076445800072])","array('d', [-49.97445297241211, -49.941811282486796, -49.93865938700525, -49.9399389761176, -49.93998709329744, -49.94037951117611, -49.940675889001795, -49.9409989139753, -49.941313596361525, -49.941629363144415, -49.94194314033224, -49.942255477038714, -49.942565943007864, -49.94287445732817, -49.94318087389598, -49.938272146016814])","array('d', [0.534202694892883, 0.40862617726507144, 0.2949998349962531, 0.19218645952389563, 0.09915706189533258, 0.014980574319161688, -0.06118546825722407, -0.13010335980568827, -0.19246285249765505, -0.24888805996280247, -0.2999437036157552, -0.34614076456448517, -0.38794159765899766, -0.4257645588057813, -0.45998819076826536, -0.41111047284897717])","array('d', [-0.022593218833208018, -0.003834201264558583, 0.001228230014257558, -0.00018104902238970253, 0.00021296974837410062, 0.00010280236422231886, 0.00013378307457477146, 0.00012478697521157644, 0.00012692329387254777, 0.00012571036466103725, 0.00012531793033311941, 0.0001245640098961631, 0.00012382115586220572, 0.00012300393147267292, 0.00012214367178459606, -0.003980689912069687])","array('d', [0.3017209331181384, 0.2817368814480454, 0.2673569834123657, 0.2576312814686361, 0.2519011815776888, 0.24968567328103117, 0.25061775874850495, 0.2544066084251964, 0.2608138949210486, 0.26963841845540176, 0.2807058263145907, 0.2938615934858995, 0.3089661634094927, 0.3258915590926493, 0.34451901580067373, 0.36276452904853473])",-122.28626347837383,-210.31264490674346,-49.93865938700525,0.2949998349962531,0.001228230014257558,0.2673569834123657,25.00000024998853,-1.0,[],[],[],10000000000.0,0.03893709182739258
10,12.549649000167847,-211.0125732421875,-122.6978759765625,50.10308837890625,0.3964411616325376,-0.004484905395656963,0.25498183170822647,23.231490317229888,"array('d', [-123.44816589355469, -122.7555654260451, -122.1007407802194, -121.47209458687173, -120.85964613780732, -120.25462378867255, -119.64918748854959, -119.03624478978439, -118.40932567673963, -117.76249587736953, -117.09029617709267, -116.3876996976752, -115.65008175987008, -114.87319859944162, -114.05317227691258, -113.18805103888702])","array('d', [-214.2062530517578, -211.80424997568386, -209.391552753142, -206.9718910177154, -204.54807304149853, -202.12238838174002, -199.69680705101803, -197.27311350284538, -194.85300061687659, -192.43813726930154, -190.03021755792153, -187.6309966348834, -185.24231634522016, -182.8661228252384, -180.50447758635386, -178.1589837489921])","array('d', [-49.990169525146484, -49.97195023026357, -49.973486990907325, -49.97323904075288, -49.973488201405985, -49.97359907735584, -49.97374867130526, -49.97388719572961, -49.97402841353987, -49.97416823953396, -49.974307663502415, -49.97444625840741, -49.974584032215276, -49.974720895234064, -49.974856802973044, -49.96978737730727])","array('d', [0.5012698769569396, 0.37882732861595786, 0.2680367192817067, 0.1677892213085249, 0.0770815258616154, -0.004994198516772351, -0.07925939177319609, -0.14645732357512672, -0.2072605321899668, -0.26227755546152337, -0.3120590212492948, -0.3571031582841272, -0.39786078258720564, -0.43473980930117023, -0.468109334010454, -0.41830097006593236])","array('d', [-0.016530582681298187, 0.0016514991177774688, -0.00038806630550010114, 0.00018022593458227206, 2.17463416465705e-05, 6.62126311337141e-05, 5.3671734406514065e-05, 5.709076774255324e-05, 5.5903288902811494e-05, 5.595661570686295e-05, 5.558869564244924e-05, 5.529217387311174e-05, 5.4932865353111334e-05, 5.45637069346279e-05, 5.41690666054189e-05, -0.004041395646112811])","array('d', [0.2904465953495839, 0.271991384278125, 0.2588633023173745, 0.2502011673289695, 0.24539941103238272, 0.24401054435777175, 0.2456896948764122, 0.2501611361277224, 0.25719713371638797, 0.2666040908773403, 0.2782132287217313, 0.291874196578965, 0.3074506378230453, 0.32481709454863295, 0.34385684627582164, 0.3624689301610821])",-122.1007407802194,-209.391552753142,-49.973486990907325,0.2680367192817067,-0.00038806630550010114,0.2588633023173745,25.00000024998844,-1.0,[],[],[],10000000000.0,0.0364837646484375
11,12.604439496994019,-209.6420440673828,-122.40316772460938,50.178001403808594,0.3626866340637205,-0.011142079718411062,0.24209220806625847,23.234418787571283,"array('d', [-123.22370147705078, -122.55590255628827, -121.92277394116479, -121.3131555334921, -120.71739657649067, -120.12697454424627, -119.53424553986682, -118.93227735672536, -118.31473525379222, -117.67580257108749, -117.01012504124434, -116.31277155046658, -115.5792064494879, -114.80526999230305, -113.98716444719777, -113.12303079646603])","array('d', [-213.2947998046875, -210.88570625254877, -208.46722327116083, -206.04269598159013, -203.61472106194492, -201.18544115841044, -198.75672365181663, -196.33028178578263, -193.90776017415044, -191.49079658852867, -189.08106703103144, -186.6803184657301, -184.29039205484642, -181.9132388422163, -179.550929277388, -177.2050730102428])","array('d', [-50.01333236694336, -50.00462874741767, -50.007001106706376, -50.00629799421142, -50.006450167194636, -50.006363844416924, -50.00634420680236, -50.00630592055314, -50.00627301127242, -50.00623874310863, -50.0062050707837, -50.00617146770128, -50.00613811341654, -50.00610497519725, -50.006072078283566, -50.00084359451371])","array('d', [0.46859896183013894, 0.34926545944991094, 0.24128803149016856, 0.14358600551893833, 0.05518154859458795, -0.024810119197152442, -0.09718957990186759, -0.16268123017605898, -0.22194053127907043, -0.2755605691374386, -0.3240779901364901, -0.3679783720449954, -0.40770108381945724, -0.44364368287028494, -0.4761658927328282, -0.42542902584800535])","array('d', [-0.009908893145620804, 0.0027350101662267467, -0.0007785089654663347, 0.0001997004633861247, -7.340611597665473e-05, 3.0720857676998736e-06, -1.8423586640131705e-05, -1.2307441905061566e-05, -1.399188258186491e-05, -1.3431988326920364e-05, -1.3504659058883937e-05, -1.3379888033995794e-05, -1.330479223888935e-05, -1.3207407498655024e-05, -1.3111719455396307e-05, -0.004101481364557394])","array('d', [0.2793659726765488, 0.26238308504868046, 0.25047337135863573, 0.242854370810217, 0.238968296068002, 0.23839823140762012, 0.24081967337212706, 0.24597090327824686, 0.25363407232866564, 0.26362271814063615, 0.27577332013804434, 0.28993948816790255, 0.3059879212083766, 0.3237955846619912, 0.34324774094687477, 0.3622259980603954])",-121.92277394116479,-208.46722327116083,-50.007001106706376,0.24128803149016856,-0.0007785089654663347,0.25047337135863573,25.000000249988346,-1.0,[],[],[],10000000000.0,0.05011248588562012
12,12.658642530441284,-208.28079223632812,-122.12162780761719,50.26929473876953,0.3351062536239623,-0.01569068431854259,0.23071630398300694,23.230514586194698,"array('d', [-123.00763702392578, -122.36300748072617, -121.75013930360845, -121.15827498778901, -120.57806160433748, -120.00120444074078, -119.42024071391775, -118.82838740488475, -118.21943665058588, -117.5876828243087, -116.9278712964625, -116.23516230628965, -115.50510546356446, -114.73362172794565, -113.91699059114427, -113.05344266767185])","array('d', [-212.3824462890625, -209.96701665171364, -207.54331518878, -205.114391161498, -202.68265379698136, -200.25011705343007, -197.81855880432948, -195.3896306891011, -192.96493623077387, -190.5460875177435, -188.13474657209557, -185.73265528505823, -183.34165646867498, -180.96370778572947, -178.60088983829866, -176.25481977287282])","array('d', [-50.04392623901367, -50.04056786026946, -50.04122367730405, -50.04076391533365, -50.040613643570545, -50.040376818956915, -50.040164319423454, -50.03994550514218, -50.03972932052927, -50.03951353613042, -50.0392990367659, -50.03908577583932, -50.038873930634736, -50.03866356863873, -50.03845476349262, -50.03306056295931])","array('d', [0.43764573335647566, 0.3212578175808715, 0.21594566684048602, 0.12065528364522056, 0.03443297154116096, -0.04358420978675768, -0.11417708109577558, -0.1780521582876539, -0.23584872344432298, -0.288145222965885, -0.3354650568451863, -0.3782818170183967, -0.41702402721141096, -0.45207943166435427, -0.4837988746023127, -0.43217721236951345])","array('d', [-0.0036730333231388777, 0.0009098750852789884, -0.0003639711283803394, -9.747602092437299e-06, -0.00010881713030034464, -8.110485493470707e-05, -8.876695131175476e-05, -8.632520536453604e-05, -8.661760563492593e-05, -8.601988313267656e-05, -8.55868311500439e-05, -8.503117801312267e-05, -8.445460258659401e-05, -8.384515945475166e-05, -8.32095590453373e-05, -0.004164082479840224])","array('d', [0.2690559188511708, 0.25343143702041915, 0.2426567694252415, 0.23601645892826129, 0.2329939946787458, 0.233199171153603, 0.2363254364134632, 0.2421235040014058, 0.2503843509129787, 0.2609279186673157, 0.27359543199556957, 0.28824409571603593, 0.3047434008299863, 0.32297254389691615, 0.3428186284486826, 0.36214618211911137])",-121.75013930360845,-207.54331518878,-50.04122367730405,0.21594566684048602,-0.0003639711283803394,0.2426567694252415,25.000000249988254,-1.0,[],[],[],10000000000.0,0.05340409278869629
13,12.700136423110962,-207.37261962890625,-121.94002532958984,50.335758209228516,0.3187628090381622,-0.017136458307504723,0.2239954034474232,23.22701694188848,"array('d', [-122.6978759765625, -122.08510425601577, -121.50027639962649, -120.93314401866988, -120.37473075159753, -119.81703269334729, -119.25282059348014, -118.67550547114709, -118.07904574055101, -117.45788222307247, -116.80689240214923, -116.12135814798359, -115.39694293659569, -114.62967573823256, -113.81593952235973, -112.9540860083848])","array('d', [-211.0125732421875, -208.58886195329103, -206.15823955521537, -203.7234203654168, -201.2865840070748, -198.8495835661055, -196.41408457456555, -193.98166118506938, -191.55386535907238, -189.1322772067152, -186.7185417166777, -184.31439514547466, -181.92168327527938, -179.54237308519816, -177.17855898220088, -174.83186898022106])","array('d', [-50.10308837890625, -50.10665644515285, -50.10495265328366, -50.10470917037043, -50.10405813814255, -50.103520299737056, -50.10295152546675, -50.10239309610173, -50.10183427623034, -50.1012788373084, -50.10072633324697, -50.10017740073894, -50.09963225161364, -50.09909110524521, -50.09855411303683, -50.092850802651206])","array('d', [0.3964411616325376, 0.28397437591360886, 0.18221021069087434, 0.09013017784142938, 0.006812711118397438, -0.06857605717707693, -0.13679064180886616, -0.19851375602946045, -0.2543631443911361, -0.304897765329519, -0.350623385396427, -0.3919976411294139, -0.4294346192116652, -0.46330900070722214, -0.493959809810237, -0.4411521156818242])","array('d', [0.004484905395656963, -0.0015301046506966643, 0.0001392231890232224, -0.0003262445902097308, -0.0001967415615421115, -0.00023292554106057775, -0.00022227160345400913, -0.0002244357849551046, -0.00022264990347116767, -0.00022171679932995507, -0.00022030991856534273, -0.00021886027001975713, -0.0002172853029053883, -0.00021565892216478502, -0.00021396313268885246, -0.00428085146775729])","array('d', [0.25498183170822647, 0.2411168595541145, 0.23182762760264433, 0.22647784858131534, 0.22460056317179883, 0.22583802215394855, 0.2299056953293843, 0.23656966552143452, 0.24563189326575913, 0.2569203391278418, 0.27028220773948064, 0.2855792660153746, 0.3026845766534511, 0.3214802166645674, 0.3418556903751622, 0.36165190109846057])",-121.50027639962649,-206.15823955521537,-50.10495265328366,0.18221021069087434,0.0001392231890232224,0.23182762760264433,25.000000249988123,-1.0,[],[],[],10000000000.0,0.04227566719055176
14,12.738220453262329,-207.37261962890625,-121.94002532958984,50.335758209228516,0.3187628090381622,-0.017136458307504723,0.2239954034474232,23.22701694188848,"array('d', [-122.40316772460938, -121.81993606715727, -121.261566585411, -120.71820430754383, -120.18116400214257, -119.64266854311045, -119.09567252768935, -118.53374088461538, -117.95096472923082, -117.34190229341317, -116.70153730754585, -116.02524962622631, -115.30879449635144, -114.54828788420426, -113.74019597541319, -112.88296941546768])","array('d', [-209.6420440673828, -207.21108524495511, -204.77425027761694, -202.33401547279368, -199.8923797691782, -197.45106476749513, -195.01164234409123, -192.57562032174485, -190.14450501415791, -187.71984664901404, -185.30327249024492, -182.89651043090913, -180.50140503327341, -178.11992739644407, -175.75417989912975, -173.4057981955613])","array('d', [-50.178001403808594, -50.187127477622134, -50.18333752660562, -50.18312712335635, -50.18191955426331, -50.18098970296219, -50.17998403691402, -50.17900310753463, -50.17802017101806, -50.177044052190624, -50.17607331402198, -50.17510922956244, -50.174152091296584, -50.17320227152125, -50.172260005088354, -50.16617506381178])","array('d', [0.3626866340637205, 0.2534320135745522, 0.15457433590789554, 0.06512420199246653, -0.01581363355386614, -0.08904922232450498, -0.15531552937800633, -0.2152757689853795, -0.269530042289251, -0.31862134330658026, -0.36304099338454016, -0.4032335584979109, -0.43960129859484054, -0.47250819346766476, -0.5022835844208405, -0.4484968657098095])","array('d', [0.011142079718411062, -0.0035952874812558476, 0.0004950877663264941, -0.0006444014236312633, -0.00032694961118366015, -0.0004154549936514968, -0.0003895106616754708, -0.00039513896285234035, -0.0003912747259705439, -0.0003896474934906716, -0.00038698742835988656, -0.00038432457241748067, -0.00038143426735761624, -0.0003784709968494724, -0.0003753934985840579, -0.004425014674922035])","array('d', [0.24209220806625847, 0.22963208414081412, 0.22154087531857647, 0.21723966458782223, 0.21629797161366357, 0.21838223277603924, 0.22322448607766812, 0.23060246921303496, 0.24032652974647853, 0.2522307923889004, 0.26616709058564225, 0.28200075029349503, 0.2996076457395058, 0.31887214443338274, 0.33968568065442417, 0.35986901779218755])",-121.261566585411,-204.77425027761694,-50.18333752660562,0.15457433590789554,0.0004950877663264941,0.22154087531857647,25.000000249987995,-1.0,[],[],[],10000000000.0,0.03649783134460449
15,12.781672716140747,-205.55517578125,-121.58883666992188,50.47648620605469,0.2880108654499052,-0.01635688729584232,0.21201415459183276,23.21820118561989,"array('d', [-122.21417999267578, -121.64895089573308, -121.10687841295957, -120.57831802614804, -120.05474087145286, -119.52849233176477, -118.99262697017917, -118.44079381444014, -117.86715677506602, -117.26633866847567, -116.63338176782253, -115.96371995511576, -115.25315906877825, -114.4978629884848, -113.69434365876363, -112.84110686940416])","array('d', [-208.7346954345703, -206.29951408254448, -203.85900442207634, -201.41552036116204, -198.97096244482697, -196.5269786137712, -194.08508761434143, -191.64675893925443, -189.21347193464916, -186.7867585717992, -184.36823462866016, -181.95962176161575, -179.56276233457282, -177.17962829761348, -174.8123251121183, -172.46249250161014])","array('d', [-50.2376708984375, -50.24954810737039, -50.244566303402735, -50.24425657953687, -50.24264584682784, -50.241397846713234, -50.24005133061996, -50.23873752175218, -50.237421560241714, -50.23611497580029, -50.23481590484822, -50.23352601062174, -50.23224567100619, -50.23097536156152, -50.22971537760781, -50.22333130337792])","array('d', [0.34383678436279286, 0.23637596269578356, 0.13914138147086888, 0.0511598860820405, -0.028449070251484333, -0.10048223927741104, -0.16566055185516615, -0.22463633326110582, -0.2779998318671608, -0.3262851265338943, -0.369975471840673, -0.4095081346483173, -0.44527877039314717, -0.47764538285861313, -0.5069319060468235, -0.45259537920738013])","array('d', [0.014529293403029527, -0.004706448428598634, 0.0006319428107879605, -0.0008549181212077716, -0.0004405801146079363, -0.0005558963054160189, -0.0005218840034929224, -0.0005290436907689869, -0.0005238128170794362, -0.000521493464612167, -0.0005178245384162155, -0.0005141521411367255, -0.0005101857530911361, -0.000506129502552846, -0.0005019277860087068, -0.004538013324380664])","array('d', [0.23429890076187654, 0.22261058761297972, 0.2151819730971753, 0.21146356145422304, 0.21104377965999493, 0.21360170307337786, 0.21887808485167878, 0.22665682698453643, 0.2367527347796446, 0.24900322503988098, 0.2632626161178138, 0.2793981557982547, 0.29728724672158363, 0.31681551093760046, 0.33787544817412285, 0.3582762578318271])",-121.10687841295957,-203.85900442207634,-50.244566303402735,0.13914138147086888,0.0006319428107879605,0.2151819730971753,25.000000249987913,-1.0,[],[],[],10000000000.0,0.04257917404174805
16,12.841351985931396,-205.10060119628906,-121.50314331054688,50.51230239868164,0.28052380681037886,-0.015774728730321062,0.209401444592748,23.215267250450523,"array('d', [-122.0302734375, -121.48124213918312, -120.95382969821647, -120.43857590003807, -119.92709065729838, -119.4118287289265, -118.8859343883265, -118.34313246657243, -117.77765274571193, -117.18417668202012, -116.55779985623471, -115.89400546389275, -115.18864560961764, -114.43792805582196, -113.63840670393104, -112.78863811784466])","array('d', [-207.82676696777344, -205.38790073332345, -202.94418294650328, -200.4978580732412, -198.0507418215123, -195.6044185728758, -193.1603614633043, -190.72000727378452, -188.28481259506893, -185.85629428157446, -183.43605893395988, -181.02582362932273, -178.62742967804624, -176.2428506235584, -173.8741954391847, -171.52310849837545])","array('d', [-50.30192184448242, -50.31530619999919, -50.30944898474545, -50.30892337789899, -50.30691346444153, -50.30531790330663, -50.30361069611528, -50.30194175193257, -50.300271486447016, -50.29861319628804, -50.296964871000014, -50.29532849142918, -50.2937045443965, -50.29209359946437, -50.290496010896945, -50.28379411977664])","array('d', [0.3267517685890196, 0.2209167997355769, 0.12515335110585477, 0.03850299165662536, -0.039901502961157194, -0.11084482985937208, -0.17503701241090242, -0.2331205063892508, -0.28567662987006326, -0.3332313812469455, -0.376260703589761, -0.41519524803139907, -0.4504246838496349, -0.4823015983281526, -0.5111450244299224, -0.4563081745959621])","array('d', [0.016513539478182935, -0.005439559858213533, 0.0006521540763491599, -0.0010443387216529823, -0.0005714804344083642, -0.00070277823947127, -0.0006636405015924436, -0.000671385724656117, -0.0006649343712587869, -0.0006617509458153457, -0.0006569888088890323, -0.0006521949001163839, -0.0006470486540402229, -0.0006417950092185387, -0.0006363664776563082, -0.004658069869156607])","array('d', [0.2272984544422964, 0.21630251377773776, 0.2094708986094626, 0.20627928918277302, 0.20633240472866593, 0.20932027071124118, 0.21499122387411526, 0.223134549957057, 0.23356896068701946, 0.2461347675400869, 0.2606884818248476, 0.2770990544699878, 0.2952452491191999, 0.31501381088958175, 0.33629819857261395, 0.35689693252244786])",-120.95382969821647,-202.94418294650328,-50.30944898474545,0.12515335110585477,0.0006521540763491599,0.2094708986094626,25.00000024998784,-1.0,[],[],[],10000000000.0,0.05286383628845215
17,12.892515182495117,-203.29061889648438,-121.16688537597656,50.6547966003418,0.2495661675930022,-0.012076176702976373,0.20044036308792626,23.2034032992212,"array('d', [-121.94002532958984, -121.39865118277211, -120.87817966374945, -120.36923448516059, -119.86348942125366, -119.35344977379985, -118.83230141134555, -118.2938044101887, -117.73221925260863, -117.14225477791209, -116.5190314981388, -115.85805569859747, -115.1552011639532, -114.40669622954199, -113.60911447091371, -112.76103628741664])","array('d', [-207.37261962890625, -204.93204814221593, -202.48684345704308, -200.03919822417234, -197.59088938872404, -195.14347226185888, -192.69839913035764, -190.2570918242174, -187.82099655472288, -185.39162330878457, -182.9705745539756, -180.55956535182153, -178.1604366203436, -175.77516272775082, -173.40585435238182, -171.05415803632152])","array('d', [-50.335758209228516, -50.349566714834445, -50.34335161332584, -50.34268435274499, -50.340472754709616, -50.338692585711094, -50.33679673865327, -50.33494132824349, -50.333085299578045, -50.33124258932383, -50.329411188473934, -50.327593218694034, -50.32578922790881, -50.32399983019348, -50.32222540868593, -50.315357063657174])","array('d', [0.3187628090381622, 0.2136880895479754, 0.118612543051477, 0.03258462324871672, -0.04525666463545598, -0.11569038096085106, -0.17942144875570162, -0.23708770881040891, -0.28926630339084847, -0.3364794524613563, -0.3791996802273097, -0.4178545443048269, -0.4528309148417855, -0.4844788463646296, -0.5131150801087573, -0.4580436116589511])","array('d', [0.017136458307504723, -0.00570825355567937, 0.0006304171066438545, -0.0011347786578166132, -0.0006427087081869562, -0.0007791504774339521, -0.0007382102634267494, -0.0007459884305060902, -0.0007389520049901873, -0.000735277613294159, -0.0007299323526122321, -0.0007245336461219453, -0.0007187554841198198, -0.0007128611257056418, -0.0007067776694996092, -0.004720948142961181])","array('d', [0.2239954034474232, 0.21332101170173828, 0.20676747693666794, 0.20382178986125674, 0.20409602414171313, 0.20728516666314106, 0.2131410006130048, 0.22145526473363775, 0.23204845486651027, 0.24476220770602988, 0.2594540411748345, 0.27599369034399956, 0.29426054763874354, 0.31414187899989277, 0.3355315897223707, 0.3562231389005041])",-120.87817966374945,-202.48684345704308,-50.34335161332584,0.118612543051477,0.0006304171066438545,0.20676747693666794,25.0000002499878,-1.0,[],[],[],10000000000.0,0.0523684024810791
18,12.94815468788147,-201.9311981201172,-120.92105865478516,50.76005935668945,0.22417239844799025,-0.0078671304509045,0.19557459751633188,23.195124041025778,"array('d', [-121.58883666992188, -121.07520148348478, -120.57972672692847, -120.09334544058096, -119.60797241888648, -119.11630550120215, -118.61168993434643, -118.08802161696872, -117.53967995630593, -116.96148038683526, -116.34864090847057, -115.69675846321682, -115.00179227062927, -114.26005200431075, -113.46818925193803, -112.62487845308603])","array('d', [-205.55517578125, -203.10860418358797, -200.65821226746866, -198.20598338340093, -195.75355546100698, -193.30238258703469, -190.85384562442582, -188.40931652655692, -185.97020826670175, -183.53801037178468, -181.11431475101685, -178.70083351883164, -176.29941041006228, -173.91202685022247, -171.5408035476969, -169.1873971793763])","array('d', [-50.47648620605469, -50.48910809488053, -50.48222917619058, -50.48075063576015, -50.47776951546286, -50.4752101901121, -50.47254142962853, -50.46991614297185, -50.4672952652621, -50.464693069191526, -50.462108171739764, -50.45954306209898, -50.45699856566564, -50.45447543635342, -50.451974155300356, -50.444421709265136])","array('d', [0.2880108654499052, 0.18586257779142712, 0.09343497655744748, 0.009803016926155487, -0.0658703163463739, -0.13434238604086637, -0.19629848240234193, -0.2523586817427241, -0.30308405236159935, -0.3489822698958436, -0.39051269829796387, -0.42809098729385237, -0.46209323232605265, -0.49285973856514187, -0.5206984256847959, -0.46471972925271593])","array('d', [0.01635688729584232, -0.005888027774419365, 0.0002819495108425993, -0.0014361212140302534, -0.0009567720861355864, -0.0010884911960596254, -0.0010472062895562342, -0.0010529279520641133, -0.001043924769849103, -0.0010379324062586594, -0.0010301162913020341, -0.0010221053985199936, -0.0010136334089141667, -0.001005014149768931, -0.0009961587325350919, -0.0049793673059697376])","array('d', [0.21201415459183276, 0.20256538789257067, 0.19707649057000384, 0.19507541557153718, 0.19620106065394952, 0.20016660955611743, 0.2067365433076897, 0.21571167379224448, 0.22691912021311142, 0.24020545766331103, 0.25543197096666426, 0.27247134375455373, 0.29120534583797275, 0.3115232241809053, 0.3333205927897382, 0.3543710234119943])",-120.57972672692847,-200.65821226746866,-50.48222917619058,0.09343497655744748,0.0002819495108425993,0.19707649057000384,25.000000249987657,-1.0,[],[],[],10000000000.0,0.05353283882141113
19,12.993327856063843,-201.02403259277344,-120.7594985961914,50.82768249511719,0.20637631416320784,-0.004911473952233925,0.1925460855152946,23.192294468129063,"array('d', [-121.33366394042969, -120.8369811422731, -120.35644568753676, -119.88321029287073, -119.40936399620038, -118.92774551834073, -118.43181777975614, -117.91557789328775, -117.3734946758857, -116.8004643974267, -116.19177959979528, -115.54310708745086, -114.85047240107228, -114.11024878504955, -113.31914918255458, -112.47592081931495])","array('d', [-204.196044921875, -201.74595235244652, -199.29258569596757, -196.83778622606135, -194.38310602986255, -191.92994021573537, -189.47963031772127, -187.03352335171348, -184.59301834928655, -182.1595992855425, -179.73485891832493, -177.32051501828414, -174.91842048576802, -172.53056834396082, -170.15909243049586, -167.80565926294614])","array('d', [-50.583831787109375, -50.594196528841, -50.58718450909591, -50.58498259653981, -50.58144331695913, -50.578281957375204, -50.5750266879209, -50.57181471434187, -50.5686121621369, -50.56543247547979, -50.56227500610232, -50.55914239910771, -50.556035677642, -50.552955657938526, -50.54990286427603, -50.541831420213654])","array('d', [0.2653477489948271, 0.165356140156001, 0.07487998279349517, -0.006986237243745652, -0.08106186311634715, -0.14808826724136318, -0.20873627118312565, -0.2636128594486974, -0.31326725438168745, -0.3581964129537859, -0.3988500004673047, -0.435634890945781, -0.4689192392473268, -0.4990361656047496, -0.5262870885012102, -0.4696354572443195])","array('d', [0.014220907352864864, -0.005598324720022941, -0.00010297887975237928, -0.001633027291022466, -0.0012055288381860336, -0.0013216228006467158, -0.0012832338765219312, -0.001286294608828266, -0.0012759208846359713, -0.0012679618736003457, -0.001258177497550096, -0.0012480772216178855, -0.001237477392060382, -0.0012267184500068251, -0.0012157008579213556, -0.005175417485388274])","array('d', [0.20463128487137378, 0.19607452621029653, 0.19136504141487853, 0.1900585316015305, 0.19181224112351916, 0.19635189451314009, 0.2034507785930229, 0.21291603180873891, 0.22457941585131236, 0.23829098616404706, 0.2539146985308923, 0.271325341981546, 0.2904063973738801, 0.31104854964268835, 0.33314866372167906, 0.3544652327809576])",-120.35644568753676,-199.29258569596757,-50.58718450909591,0.07487998279349517,-0.00010297887975237928,0.19136504141487853,25.000000249987554,-1.0,[],[],[],10000000000.0,0.04645895957946777
20,13.033398866653442,-200.57020568847656,-120.67929077148438,50.86043930053711,0.19744874536991097,-0.003245624713599797,0.19104214111832163,23.191600463618816,"array('d', [-121.16688537597656, -120.67969803142873, -120.20725880990487, -119.74087051988583, -119.2727421778301, -118.79581039718555, -118.30362042938431, -117.79024072720956, -117.25020357744673, -116.67846303784869, -116.07036530004775, -115.42162777351314, -114.72832432774538, -113.98687479048988, -113.19403729729783, -112.34861198557023])","array('d', [-203.29061889648438, -200.83860131751055, -198.3836611832692, -195.9275519808763, -193.47177561597067, -191.01769527925515, -188.56663295650242, -186.1199253462004, -183.6789681075264, -181.24524709962702, -178.82036089776466, -176.40603596218634, -174.00413588246724, -171.61666564370233, -169.2457717082942, -166.89312892633927])","array('d', [-50.6547966003418, -50.6630266494664, -50.65610452743208, -50.65337527790169, -50.64948130826338, -50.64591895567116, -50.64227810581309, -50.63867927686167, -50.63509375728268, -50.63153391815306, -50.62799970908345, -50.62449381018145, -50.62101736052727, -50.61757118918149, -50.61415582746954, -50.60574320973947])","array('d', [0.2495661675930022, 0.15107637349432554, 0.06195911442675808, -0.018677523474538372, -0.09164057732120964, -0.15766028455571596, -0.21739739139981587, -0.2714497658127872, -0.32035838114393356, -0.36461273036556335, -0.4046557250734541, -0.44088812828422413, -0.4736725653878236, -0.5033371533472352, -0.5301787835037034, -0.4730562789982851])","array('d', [0.012076176702976373, -0.005203775952673995, -0.00041383975461403136, -0.0017473154129843452, -0.0013740877253503134, -0.0014741264405689395, -0.0014391381213500428, -0.0014399130775409738, -0.0014286907511014187, -0.0014193375170881296, -0.0014082161781760842, -0.001396696013972972, -0.0013846652746020104, -0.0013724759891436459, -0.0013600219610217551, -0.005304294728933591])","array('d', [0.20044036308792626, 0.19249971505041344, 0.1883307568840392, 0.18750738214448448, 0.18969894459388972, 0.1946394903523676, 0.20210817535951914, 0.21191637140936032, 0.2238989586053517, 0.23790833974636444, 0.25381028040158965, 0.2714810037567531, 0.2908051631506529, 0.31167443510952614, 0.3339865525472854, 0.35548929339761876])",-120.20725880990487,-198.3836611832692,-50.65610452743208,0.06195911442675808,-0.00041383975461403136,0.1883307568840392,25.00000024998749,-1.0,[],[],[],10000000000.0,0.0345761775970459
21,13.068482637405396,-199.2133331298828,-120.43953704833984,50.953948974609375,0.17124113440513597,0.0022492685820906235,0.18681450287369272,23.188970881079054,"array('d', [-121.08440399169922, -120.60114747386427, -120.13190692242206, -119.66806317384454, -119.20188779401663, -118.72636873158712, -118.23509462052395, -117.72217170212704, -117.18216605676376, -116.6100626693508, -116.00123658780875, -115.35143257051612, -114.65675072340615, -113.91363626935815, -113.11887207691888, -112.27128690904982])","array('d', [-202.837646484375, -200.3848412787223, -197.92928679766618, -195.47269603031512, -193.01654857623262, -190.56219463299328, -188.11094918052027, -185.66414643939132, -183.22318294907194, -180.78954796670058, -178.36484531225855, -175.9508079986716, -173.54930703045298, -171.16235529750574, -168.79210734382164, -166.44024291814404])","array('d', [-50.69033432006836, -50.69730499296816, -50.69048109151912, -50.68747361972515, -50.68340671205345, -50.679643112299765, -50.675810262184704, -50.67201844939854, -50.66824205672647, -50.66449275841731, -50.66077083325947, -50.657078955715114, -50.653418315905924, -50.64978973865784, -50.64619375051501, -50.63761116039732])","array('d', [0.24130356311798076, 0.14360005911765808, 0.05519426481695928, -0.024798613083346386, -0.097179168740122, -0.16267180976872975, -0.22193200734475127, -0.2755528563678696, -0.3240710113440777, -0.36797205739430033, -0.4076953701438405, -0.4436385131306363, -0.4761612167363609, -0.5055889784120117, -0.532216319266975, -0.47484651820852014])","array('d', [0.010784815996885432, -0.004945792370970304, -0.0005860687772358622, -0.001799664173329489, -0.0014595373745643857, -0.0015498371564106885, -0.0015169920284791917, -0.0015164680737825677, -0.001504841142963894, -0.0014947666611744477, -0.0014829713052882552, -0.001470735885352326, -0.0014579896124307544, -0.0014450883942682669, -0.001431922713048137, -0.005368501208400606])","array('d', [0.19867248932388806, 0.1910528862377301, 0.18716628113274708, 0.18659574126154588, 0.18901675177366176, 0.19416758612167317, 0.2018303899412784, 0.21181869682094015, 0.22396898320711164, 0.23813485669783843, 0.254183014531113, 0.27199042072762486, 0.2914423366089352, 0.3124309549533826, 0.33485446233815536, 0.3564549545988412])",-120.13190692242206,-197.92928679766618,-50.69048109151912,0.05519426481695928,-0.0005860687772358622,0.18716628113274708,25.000000249987462,-1.0,[],[],[],10000000000.0,0.03654885292053223
22,13.121267318725586,-198.3074493408203,-120.28106689453125,51.01311111450195,0.15413632988929737,0.00588889233767971,0.18396885792282608,23.189208531142473,"array('d', [-120.84008026123047, -120.36687604384927, -119.90539489137568, -119.44725910538888, -118.9849339878236, -118.51156760596399, -118.02088469161731, -117.50711074338076, -116.96491908221934, -116.38939334743245, -115.77600107027241, -115.12057503188704, -114.41930009459715, -113.66870378583998, -112.86564935821193, -112.00905790531628])","array('d', [-201.4777069091797, -199.02291801586628, -196.56589052242916, -194.10822992390413, -191.65135609277564, -189.1965877938377, -186.74522589492037, -184.2986038820345, -181.85812734317676, -179.42530186473232, -177.00175283448615, -174.58923843068067, -172.18965705465683, -169.8050500807357, -167.43760066171984, -165.08900483389547])","array('d', [-50.79415512084961, -50.79693770108605, -50.790540687933806, -50.78668137813742, -50.78212042481615, -50.77776663832197, -50.773374820456745, -50.76902038544357, -50.764688089367205, -50.760387132518744, -50.75611881849247, -50.751885728542156, -50.74768916855784, -50.74352990871065, -50.73940842688988, -50.730331337456704])","array('d', [0.21538285911083208, 0.12014603410559006, 0.03397218346010082, -0.04400114812308601, -0.11455434253914767, -0.17839351859111327, -0.23615759905133524, -0.2884247052036899, -0.3357179428650782, -0.3785106377944593, -0.4172310728867047, -0.45226677456128267, -0.4839683912386845, -0.5126532026708386, -0.5386082942843388, -0.48045916811756234])","array('d', [0.006432787049561882, -0.0040321357241489214, -0.001133831628513394, -0.0019401662209099064, -0.0017123980581413988, -0.0017696773311142733, -0.0017442036843293787, -0.0017394257580890938, -0.0017266263230901289, -0.0017143456840968767, -0.0017005375095856389, -0.0016861756199515814, -0.0016713217035357214, -0.001656337640001329, -0.0016411034144578234, -0.005555296265104277])","array('d', [0.1940621892598015, 0.18744351765652983, 0.1844401959167363, 0.18466258820416362, 0.18780452710561063, 0.1936169933907619, 0.20189115432417656, 0.21244708985899094, 0.22512612758965214, 0.2397855504981768, 0.25629491050233416, 0.2745334530370419, 0.29438832217918515, 0.31575331868424894, 0.3385280500407453, 0.36043645820971953])",-119.90539489137568,-196.56589052242916,-50.790540687933806,0.03397218346010082,-0.001133831628513394,0.1844401959167363,25.000000249987373,-1.0,[],[],[],10000000000.0,0.05091214179992676
23,13.178855657577515,-196.49270629882812,-119.96675872802734,51.12312698364258,0.12201868742704373,0.012357001192867622,0.1781316558506825,23.19507150091689,"array('d', [-120.67929077148438, -120.21263778857403, -119.75612580904577, -119.30154055547271, -118.84147837333971, -118.36919650041585, -117.87851304623464, -117.36373583703474, -116.81961261706527, -116.24129580272009, -115.6243176426504, -114.96457269911438, -114.25830546013279, -113.50210145225205, -112.69288064094016, -111.82962925441149])","array('d', [-200.57020568847656, -198.11415345121583, -195.65619600752783, -193.19787717464882, -190.7405795333821, -188.2856036368959, -185.83424327307512, -183.3878337200814, -180.9477887744872, -178.5156270012406, -176.09299015841674, -173.68165507916427, -171.2835401774717, -168.90070742093408, -166.5353604816235, -164.18920688899516])","array('d', [-50.86043930053711, -50.86018802165135, -50.85416064901682, -50.84972871344289, -50.84485893194344, -50.84012556773601, -50.83537712600621, -50.83066325672928, -50.82597627268128, -50.82132348549942, -50.81670689478083, -50.81212896563812, -50.80759105137933, -50.80309385436233, -50.79863779404828, -50.78924588133016])","array('d', [0.19744874536991097, 0.1039185754635395, 0.01928897035107343, -0.05728706996462775, -0.1265759428434472, -0.18927111335645985, -0.24600005470483122, -0.297330528171069, -0.3437762654543356, -0.38580211026033157, -0.4238286706040629, -0.45823652838588685, -0.48937004836497766, -0.5175408246008126, -0.5430307978913209, -0.48433922993728906])","array('d', [0.003245624713599797, -0.003336839388135513, -0.0015154484434749846, -0.0020216573034242233, -0.0018765903302963283, -0.0019095533711905933, -0.0018895361853385239, -0.0018816922849410021, -0.001868123467436635, -0.0018543383528398663, -0.0018391890054714544, -0.0018234193875081139, -0.0018071848020343032, -0.0017908472587711921, -0.001774279232166443, -0.005674219393490411])","array('d', [0.19104214111832163, 0.18511100254526336, 0.18271695533837595, 0.18348800736135104, 0.18712993547604997, 0.19340204107737002, 0.2021014281023195, 0.2130525042205376, 0.22609981913114294, 0.24110310961772363, 0.2579338447736287, 0.2764728125781946, 0.2966084395415155, 0.3182356300089684, 0.341254973670723, 0.36337755648748876])",-119.75612580904577,-195.65619600752783,-50.85416064901682,0.01928897035107343,-0.0015154484434749846,0.18271695533837595,25.000000249987313,-1.0,[],[],[],10000000000.0,0.0542447566986084
