,time,x,y,z,roll,pitch,yaw,x_traj,y_traj,z_traj,roll_traj,pitch_traj,yaw_traj,x_cmd,y_cmd,z_cmd,roll_cmd,pitch_cmd,yaw_cmd
0,1708915953.1429424,-270.04107666015625,-206.33836364746094,50.08002471923828,0.6657440833068595,0.03689908960557908,2.04310299944338,"array('d', [-160.25433349609375, -158.75807107487762, -157.3052476558188, -155.88397801771274, -154.48414681821748, -153.09697895769432, -151.7146996061516, -150.33032734425137, -148.9375339752838, -147.5305495789783, -146.10409652570192, -144.65334307472557, -143.17387029514103, -141.6622132207278, -140.38063597773987, -139.53108405411785])","array('d', [-260.5221252441406, -257.92214609042384, -255.29744383508145, -252.65552315653207, -250.00216854956412, -247.34216843913677, -244.67962320149368, -242.01816623587425, -239.36110861341265, -236.71154140972644, -234.07240868877392, -231.44656041046042, -228.83679080497666, -226.24553373057657, -224.1170882356283, -222.7613115171831])","array('d', [-54.71979522705078, -54.691437086156775, -54.682573493307096, -54.669492381641035, -54.65724154774651, -54.64476072091332, -54.63228120870093, -54.619762031771586, -54.6072189224172, -54.59465533242077, -54.58207693040269, -54.56948883419546, -54.55689682275036, -54.54430807917921, -54.533976073992086, -54.527698191233284])","array('d', [0.6007714111582048, 0.46886004808276716, 0.3495017001128274, 0.2415017909665002, 0.14377942324669354, 0.0553565604959974, -0.024651761258516414, -0.09704629039883672, -0.1625515735791462, -0.22182320637974673, -0.2754543916460532, -0.32398186021925546, -0.367890995182567, -0.37386421672876735, -0.34186908005872596, -0.3093358830102734])","array('d', [-0.018079951434034732, -0.0011090957768012176, -0.0047394169004513955, -0.003993790493892837, -0.004170506751829096, -0.004150403747485795, -0.004168984999982538, -0.004177023003777209, -0.004184942073332194, -0.004190712724929254, -0.0041948441870450345, -0.004197205113071804, -0.004197489024182628, -0.004195071606273536, -0.004123187860386372, -0.0037307326446011134])","array('d', [0.5323709688151366, 0.5130096761528072, 0.4988476002799786, 0.48891479673163896, 0.482558718818446, 0.479314240332613, 0.4788337361987816, 0.4808466561450155, 0.48513481101551265, 0.49151659619322563, 0.49983657989217106, 0.5099584599226128, 0.5217602116394523, 0.5344782824277763, 0.5492335767340806, 0.5699173367395297])",-157.3052476558188,-255.29744383508145,-54.682573493307096,0.3495017001128274,-0.0047394169004513955,0.4988476002799786
1,1708915953.1591356,-270.2253723144531,-205.91432189941406,50.08055877685547,0.6648574148188441,0.03844088528745525,2.0355401664958976,"array('d', [-160.01852416992188, -158.54687203400508, -157.11729893090993, -155.7180971234246, -154.33929566877984, -152.97222010813763, -151.60917153391114, -150.2432276605249, -148.86810826709424, -147.4780836700599, -146.06791101274266, -144.6327893763264, -143.16832772219942, -141.67104676572788, -140.4027015376732, -139.55971470622544])","array('d', [-260.2000732421875, -257.58601313876113, -254.94857642994182, -252.2949006772396, -249.6305577859702, -246.96017628405707, -244.28773585230482, -241.6167749793856, -238.95052868125103, -236.29202598958784, -233.64415969153632, -231.00973692165894, -228.39151584380144, -225.79192709831128, -223.66024353375406, -222.30037695251542])","array('d', [-54.77077102661133, -54.747138111090365, -54.73706569534442, -54.724039830654505, -54.71157495331336, -54.69893662910029, -54.686287713233476, -54.67360198241567, -54.660892379453195, -54.648163214775145, -54.635420245280095, -54.62266887050957, -54.6099152148224, -54.59716758798219, -54.58672910284616, -54.58037959205493])","array('d', [0.5842360199314465, 0.45389820602301806, 0.3359636643467527, 0.22925206852611643, 0.13269541501180754, 0.04532733418133905, -0.033726581353232865, -0.10525752799150515, -0.1699814094265459, -0.22854600085716434, -0.2815374293153415, -0.32948602536822996, -0.37287143897985403, -0.38099440461991513, -0.34899369275360986, -0.31578249755846766])","array('d', [-0.013882257558935025, -0.0020703218732005925, -0.004602396252950163, -0.004090087170475376, -0.004217725626079619, -0.004208010750828964, -0.004224352121266169, -0.004232687820619146, -0.004240279439755498, -0.004245764228048047, -0.004249511716649485, -0.004251398832840875, -0.004251069326147459, -0.00424743473286782, -0.0041702319352010814, -0.003773299005635444])","array('d', [0.5225589407443968, 0.5038884295086005, 0.4902771433274117, 0.48080344620091114, 0.47484252665123405, 0.4719462817147792, 0.4717780713306097, 0.4740747119415199, 0.47862310715351125, 0.48524526232461707, 0.49378836141046795, 0.5041180378403032, 0.5161137323130421, 0.5290610222582085, 0.5441623377132607, 0.565310305099957])",-157.11729893090993,-254.94857642994182,-54.73706569534442,0.3359636643467527,-0.004602396252950163,0.4902771433274117
2,1708915953.2007473,-270.5897216796875,-205.06727600097656,50.08522033691406,0.6606621257093865,0.04509275488266044,2.014313699321498,"array('d', [-159.7859344482422, -158.33850530592974, -156.93176013490302, -155.55417585440117, -154.1959278628385, -152.84844443229645, -151.50410477048698, -150.15604790039677, -148.79804369068984, -147.42440473791265, -146.02992493515376, -144.60983610339065, -143.15977696331075, -141.67625629944754, -140.42058298579357, -139.58382832174865])","array('d', [-259.8757629394531, -257.2481567856526, -254.59847603710364, -251.93351255903886, -249.25863368818446, -246.578313037632, -243.89641337048255, -241.21638128278138, -238.5413782760296, -235.8743735484048, -233.2182105777133, -230.57565544895377, -227.9494318741494, -225.34196764695855, -223.20742873899033, -221.84372042670316])","array('d', [-54.822181701660156, -54.803337771528476, -54.79204232696695, -54.77907146376055, -54.76639010264067, -54.75359229405938, -54.74077203621441, -54.72791790078036, -54.7150400301786, -54.702143584525935, -54.689234402328154, -54.676318159377416, -54.66340132364807, -54.65049336540001, -54.63994776882873, -54.633526181432444])","array('d', [0.5674127060929542, 0.4386758407871527, 0.32218989744147086, 0.2167890477113989, 0.12141840640985195, 0.03512347389858409, -0.0429594168076591, -0.11361174379944294, -0.17754061730595364, -0.23538585595017866, -0.2877263876577832, -0.33508603072954185, -0.37793858042861067, -0.38813037245913456, -0.3561099010578945, -0.3222215074285275])","array('d', [-0.009630591006422305, -0.0030420446323504466, -0.0044645400380834985, -0.0041873530140997435, -0.004265607389034803, -0.004266279577467853, -0.004280350188842273, -0.004288956007103358, -0.004296196555020408, -0.00430137390721814, -0.004304718243037189, -0.0043061136342957, -0.0043051527469811605, -0.004300260868346451, -0.004217570632778189, -0.0038161319479791777])","array('d', [0.5129480886767727, 0.49496762638847824, 0.4819099949337321, 0.4728998597098216, 0.46733923942697003, 0.4647966123404236, 0.4649460942163578, 0.46753174396958735, 0.47234548855953123, 0.479212904084722, 0.48798376846563124, 0.4985256396016507, 0.5107194188300436, 0.5238987761942201, 0.5393487922855836, 0.5609625984727945])",-156.93176013490302,-254.59847603710364,-54.79204232696695,0.32218989744147086,-0.0044645400380834985,0.4819099949337321
3,1708915953.2206602,-270.7698669433594,-204.64422607421875,50.08958053588867,0.6577299654120613,0.05005558078209949,2.0005708236325894,"array('d', [-159.33154296875, -157.93087906595923, -156.5680687161722, -155.23196861974515, -153.91304536719744, -152.60293343023343, -151.29417056903537, -149.98002152661135, -148.65435985092336, -147.31158639408469, -145.946572333748, -144.55461878762853, -143.1314278122381, -141.6734941660683, -140.44141149669184, -139.616145276007])","array('d', [-259.22216796875, -256.5692758802335, -253.89674033811283, -251.21073582094053, -248.5162505560921, -245.81746731387508, -243.11802937827022, -240.42121086114477, -237.73003554897204, -235.04736087965273, -232.37593857594084, -229.7184586721574, -227.07758135786867, -224.4557280405199, -222.31650139583388, -220.94581402687675])","array('d', [-54.92593002319336, -54.91702839717408, -54.903203307644496, -54.89034521445728, -54.87721778936413, -54.864091151702354, -54.85091805588002, -54.83771725431854, -54.824493146996915, -54.81125256612685, -54.79800144470988, -54.784745894812716, -54.77149285163363, -54.7582532389498, -54.7474796735725, -54.74090255955505])","array('d', [0.5335796309243924, 0.4080624056334581, 0.29448971330865376, 0.19172488234687654, 0.09873940967265699, 0.01460266716863986, -0.061527412310003415, -0.13041276252464473, -0.19274280930523308, -0.24914136989376712, -0.30017289403121883, -0.3463481021799136, -0.3881289831773824, -0.40198514603650076, -0.3697624874281746, -0.33457487496094485])","array('d', [-0.0008135920977977299, -0.005050163848018302, -0.00418109315706753, -0.004387551014228404, -0.0043644784526403945, -0.004386277507062286, -0.004395658022776065, -0.004404752942520335, -0.004411238870160506, -0.00441576805771891, -0.004418299300716954, -0.004418755032991012, -0.004416670522737704, -0.0044098798253070165, -0.004319717926593832, -0.003908556727984954])","array('d', [0.4945237468186245, 0.4778948474711963, 0.4659315331173687, 0.4578436517376054, 0.45308325148058753, 0.45125004107056665, 0.4520385508231958, 0.4552066688566838, 0.4605559610642679, 0.46791888406912263, 0.4771502338168971, 0.4881213060729113, 0.5007158512020647, 0.5143557520529274, 0.5304877835010225, 0.5530016225716923])",-156.5680687161722,-253.89674033811283,-54.903203307644496,0.29448971330865376,-0.00418109315706753,0.4659315331173687
4,1708915953.2472134,-270.9488830566406,-204.22056579589844,50.09513854980469,0.6545865683734502,0.05587404913310207,1.985156629368736,"array('d', [-159.1095733642578, -157.73161508599972, -156.390100980777, -155.0740791603773, -153.77415766906336, -152.48207197247953, -151.19043822142788, -149.89258386140597, -148.58243454953578, -147.25443579609166, -145.90349811186977, -144.52495805229728, -143.1145501897356, -141.6687578948052, -140.44788383019673, -139.62796422269412])","array('d', [-258.8929748535156, -256.22821386920526, -253.54493050412498, -250.84903046601497, -248.1453273518808, -245.43786811307584, -242.7301933360159, -240.02549630859818, -237.32673629806268, -234.6367184418213, -231.95815160777656, -229.29369040111558, -226.64596550689782, -224.01739917601145, -221.8763015204344, -220.5024112323029])","array('d', [-54.978389739990234, -54.974360055539414, -54.95930088688937, -54.9464978325561, -54.93315404526606, -54.91986794916856, -54.90652396975036, -54.893155405565636, -54.87976391106339, -54.866357146258224, -54.852941153219376, -54.839522400283364, -54.82610836399131, -54.81271213086362, -54.80184172243191, -54.79520138600447])","array('d', [0.5168265850393232, 0.3929036214770483, 0.2807734769486706, 0.17931391732761262, 0.08750950310795458, 0.004441426578613145, -0.07072168386140276, -0.1387320842515165, -0.2002704436745605, -0.2559526559940564, -0.3063360017790561, -0.35192471561624233, -0.393174933764937, -0.4091205486470568, -0.3769856892732368, -0.3411106961941623])","array('d', [0.003501714090994057, -0.006029186408299708, -0.004043429460943207, -0.004484606280285687, -0.0044124842973525735, -0.0044444093928303514, -0.00445148804536969, -0.0044607627648234295, -0.004466828606320251, -0.004470975087499826, -0.004473015950609735, -0.0044728518237105086, -0.004469917706385881, -0.004461081424171289, -0.0043612413536061635, -0.0039461279198283366])","array('d', [0.4856447707523397, 0.4696685226905783, 0.45823828696683566, 0.4506025111934614, 0.44623621563130034, 0.4447535915910912, 0.4458587082410039, 0.4493159541191217, 0.45493144804607466, 0.4625409104572111, 0.4720015272006738, 0.48318638168290334, 0.4959805930558045, 0.5098556725764394, 0.5263474180535737, 0.5493409132020488])",-156.390100980777,-253.54493050412498,-54.95930088688937,0.2807734769486706,-0.004043429460943207,0.45823828696683566
5,1708915953.257038,-271.1265869140625,-203.79623413085938,50.101654052734375,0.6514592112049301,0.062305827573845195,1.9683944467177708,"array('d', [-158.89051818847656, -157.53448712099538, -156.21350460766308, -154.91680966703453, -153.6351484337219, -152.36035548491392, -151.0851243993318, -149.80284492224519, -148.50749475973612, -147.19356423786982, -145.8560034993609, -144.49018492897233, -143.09187606803067, -141.6575542106338, -140.4472874915385, -139.63241468433984])","array('d', [-258.5618896484375, -255.88591608406028, -253.19247201053972, -250.48722180735265, -247.7748156073305, -245.05917200122875, -242.3437345034973, -239.63161999811888, -236.92572682958678, -234.22881083672885, -231.54354058729587, -228.87253746246657, -226.2184045652287, -223.58356341035858, -221.4408642989004, -220.0639766658576])","array('d', [-55.03109359741211, -55.03189151083274, -55.01560235959335, -55.00284506954956, -54.98927924158282, -54.97582718552942, -54.96230608549159, -54.948763507842344, -54.935198406326144, -54.921619225565, -54.908032067798224, -54.8944436491844, -54.88086176752908, -54.8673007182335, -54.85632087561452, -54.849606664492164])","array('d', [0.5003045063330145, 0.3779538250853008, 0.26724634055530494, 0.16707405704963063, 0.07643441853010259, -0.005579725270785227, -0.07978919786454408, -0.14693671098989472, -0.20769429770442438, -0.2626700377184723, -0.3124141412270072, -0.3574244461298527, -0.39815131240593865, -0.4158775543869073, -0.3836941316090817, -0.3471807446199355])","array('d', [0.0077790370335161915, -0.007000535076553586, -0.003910504552271337, -0.004583159953693563, -0.004462764529747537, -0.004504604823598362, -0.004509412101235378, -0.0045188461924164985, -0.004524491372468007, -0.00452826369521335, -0.004529845966310387, -0.004529142403592558, -0.004525536375910236, -0.004515363604175559, -0.004409761042878913, -0.003990029444827945])","array('d', [0.47710697702034444, 0.46176439605657305, 0.450854597056497, 0.44366197295580323, 0.43968311533629995, 0.4385459003787132, 0.43996345425130773, 0.4437063611501694, 0.4495850930671789, 0.45743849973698647, 0.4671260645499038, 0.4785225943130541, 0.4915145318827301, 0.5056172249065914, 0.5224500801227034, 0.5458912752423639])",-156.21350460766308,-253.19247201053972,-55.01560235959335,0.26724634055530494,-0.003910504552271337,0.450854597056497
6,1708915953.2980928,-271.47711181640625,-202.9452362060547,50.118194580078125,0.6459848148048319,0.07592151812204416,1.9315791026479232,"array('d', [-158.67431640625, -157.339473765932, -156.03828795993567, -154.76020239422508, -153.49608951782366, -152.23788294083155, -150.97835265753685, -149.7109505762578, -148.4297065397443, -147.12915598623775, -145.80428910783027, -144.45051461844443, -143.06363358172192, -141.64011889593888, -140.43987243173078, -139.62971070712038])","array('d', [-258.22894287109375, -255.5423627170471, -252.83928929418414, -250.12519914158995, -247.40457047772017, -244.6812033707125, -241.95844874848996, -239.23935131677834, -236.52675181426312, -233.82335959690226, -231.13180533499008, -228.45467927050436, -225.7945587484408, -223.15386503536345, -221.0098754439568, -219.6302125660918])","array('d', [-55.084651947021484, -55.093541030336375, -55.07856081708495, -55.06529437541486, -55.05160186904762, -55.03794317876531, -55.02423267001, -55.01049793055119, -54.99674231815112, -54.982973591299576, -54.96919821352105, -54.95542308528507, -54.94165633761997, -54.927913483739005, -54.916810602921, -54.91001409113468])","array('d', [0.48396033873271393, 0.363165009333971, 0.2538648654822399, 0.15496599659672153, 0.06547859137682581, -0.015492968529506183, -0.08875907212658683, -0.15505298962525865, -0.21503821104874016, -0.2693150860902102, -0.31842683067846184, -0.3628649547658669, -0.4030741019041333, -0.4224908822917163, -0.3902498762942452, -0.35311262595204146])","array('d', [0.011985922632573701, -0.005763678043714292, -0.004248450172479723, -0.00459017244681373, -0.004539049565872269, -0.004566320392359089, -0.004573923667325225, -0.0045824588181198715, -0.004587890873486169, -0.004591236681004913, -0.0045923619162800515, -0.004591109976428414, -0.004586825408337545, -0.004575301424475066, -0.004463814781858773, -0.004038938281462252])","array('d', [0.4688887588446118, 0.45416379437304255, 0.4437639405907679, 0.43700720629644674, 0.43341051890382704, 0.43261473394191363, 0.4343416078811371, 0.4383676506627656, 0.44450751069058947, 0.4526030482083295, 0.46251596286480595, 0.4741227286442628, 0.48731107301822035, 0.5016386703229044, 0.5188080958952712, 0.5426889231617302])",-156.03828795993567,-252.83928929418414,-55.07856081708495,0.2538648654822399,-0.004248450172479723,0.4437639405907679
7,1708915953.325449,-271.6492614746094,-202.51840209960938,50.128116607666016,0.6439452535770999,0.0825796086478403,1.9120962388853737,"array('d', [-158.25018310546875, -156.9557678621221, -155.6922623872576, -154.44954434355355, -153.2187186724811, -151.99191292267963, -150.76204486884797, -149.52268819362948, -148.2679754359546, -146.99253144940192, -145.6914261994965, -144.3601410647984, -142.99454438330628, -141.59110664447653, -140.40949938017866, -139.60803243578516])","array('d', [-257.5578918457031, -254.85175519559078, -252.1308371378914, -249.4003817441315, -246.66453241865005, -243.92687892094105, -241.19060027641515, -238.4586085748047, -235.73363852165647, -233.01831415545269, -230.31519677823567, -227.6268198425723, -224.95571390998103, -222.30429933606075, -220.15833008496995, -218.7736022587222])","array('d', [-55.19267654418945, -55.222947560282826, -55.21554084596611, -55.20017809660742, -55.18641489531573, -55.172263517244765, -55.15814919824282, -55.14399402652473, -55.129823670602036, -55.11564171038422, -55.10145585139213, -55.087273143416695, -55.07310219846037, -55.05896005736416, -55.04757684961346, -55.04059171660837])","array('d', [0.45213274676331044, 0.3343662105848549, 0.2278066324179323, 0.13138753013383733, 0.0441439107231683, -0.03479738764737572, -0.10622643448581558, -0.17085811417014693, -0.22933928055631628, -0.28225523037728273, -0.33013555931362154, -0.3734594543625289, -0.4126604224229917, -0.43505497996191195, -0.4025671914428066, -0.36425779005016506])","array('d', [0.01947582971809044, 0.0010134706538516421, -0.005837014903321489, -0.004428362640385877, -0.004741906484465232, -0.004693193093578054, -0.0047160069470049215, -0.004720730324794795, -0.004726118768442282, -0.004728516499461807, -0.004728754018242241, -0.004726458064574488, -0.0047209652560985735, -0.004707390145146895, -0.004587698187639817, -0.004151030293452978])","array('d', [0.45330919752691073, 0.4397624640960326, 0.43034270912209893, 0.42442830308778656, 0.4215731035934965, 0.4214417394356533, 0.4237718799220719, 0.42835101936182784, 0.4350015825242489, 0.4435710578268592, 0.4539253048347155, 0.46594394034500464, 0.479517125298261, 0.49427971047721947, 0.5120938916823038, 0.5368065763178275])",-155.6922623872576,-252.1308371378914,-55.21554084596611,0.2278066324179323,-0.005837014903321489,0.43034270912209893
8,1708915953.337543,-271.81890869140625,-202.09060668945312,50.13907241821289,0.6423621031266425,0.0890037060503562,1.8923144315824958,"array('d', [-158.04209899902344, -156.76668705316806, -155.52084871362692, -154.29467174642605, -153.07937653340218, -151.8671834360297, -150.6510816193634, -149.4247039895785, -148.1822333803734, -146.91833869163335, -145.62812938318302, -144.3071229580477, -142.95122131208865, -141.5568898486722, -140.3837885904754, -139.5861524435841])","array('d', [-257.2200622558594, -254.50503729148923, -251.77598530723407, -249.03806697493718, -246.29528354429692, -243.55112970150174, -240.80870630833223, -238.07086519732283, -235.34029299763432, -232.6195751900306, -229.91124185830583, -227.21780102432962, -224.54176241493806, -221.88554963336452, -219.73905244962194, -218.3521165314043])","array('d', [-55.247135162353516, -55.2867468423473, -55.28264204051912, -55.26634691583718, -55.252534827481014, -55.23815147028659, -55.22384380303673, -55.209488332865945, -55.19512035396134, -55.18074168744888, -55.166360630774605, -55.15198442964345, -55.137622175807515, -55.123292847662576, -55.11178722077875, -55.104722066541896])","array('d', [0.43675546516910335, 0.32045226955013234, 0.2152167767964084, 0.11999575664674748, 0.033836206878053963, -0.04412418463066915, -0.11466567016266413, -0.17849425110696024, -0.23624874366848544, -0.2885071718420678, -0.33579255076537534, -0.3785781136183918, -0.41729198574462467, -0.4413678782480388, -0.4089353390762146, -0.37001992623724406])","array('d', [0.022747935818950772, 0.0039741949509066316, -0.0065354208852351076, -0.0043642701454852, -0.0048359526792177265, -0.004754350054893618, -0.004783642192040746, -0.004786657383757813, -0.0047919435591562915, -0.0047938391004913984, -0.004793573079133357, -0.004790646422330637, -0.004784331310260034, -0.004768848682943898, -0.004640254865656459, -0.004198584570968679])","array('d', [0.44602725947971256, 0.4330390101997934, 0.42408711205918503, 0.418576873050839, 0.41607881209845027, 0.41626837260508914, 0.41889050951938, 0.4237377724595843, 0.4306361808719015, 0.4394358353405909, 0.4500045339785825, 0.4622233646351257, 0.4759836330247159, 0.49096285036437626, 0.5091089506253322, 0.534254797351304])",-155.52084871362692,-251.77598530723407,-55.28264204051912,0.2152167767964084,-0.0065354208852351076,0.42408711205918503
9,1708915953.3595061,-271.9856262207031,-201.66172790527344,50.150840759277344,0.6412738138126334,0.09501028348862277,1.8723422629390725,"array('d', [-157.83653259277344, -156.57923551158152, -155.35020118403474, -154.13971972572048, -152.9391259536422, -151.74073071332083, -150.53759332172652, -149.32340513126695, -148.09239884859693, -146.8392872242554, -145.5592191739456, -144.24774839577432, -142.9008104913631, -141.51487131282903, -140.34963359036777, -139.55551518572116])","array('d', [-256.8806457519531, -254.15731528884967, -251.42066124478063, -248.6757725622879, -245.92652226263675, -243.17631600246906, -240.4281814886258, -237.68491422167446, -234.94915601438416, -232.22345653107385, -229.51031698208683, -226.81222198509374, -224.1316621969365, -221.47106283491482, -219.32422661531623, -217.93527555633761])","array('d', [-55.301841735839844, -55.34962488028783, -55.3483947299135, -55.331256169423575, -55.317374189625816, -55.30276124383017, -55.28825773965832, -55.27370054857952, -55.259133318548656, -55.24455634335987, -55.229978405595695, -55.21540685341408, -55.20085104587765, -55.18633097582555, -55.17469415214861, -55.16754091394191])","array('d', [0.42168371965761364, 0.3068147890206845, 0.20287707300739027, 0.10883032991854256, 0.02373331006868347, -0.05326566452710958, -0.12293722398852912, -0.18597866321380108, -0.24302092045753507, -0.2946348914752199, -0.34133714159317197, -0.38359506837539703, -0.4218315213127468, -0.4472738679371215, -0.4147642207539049, -0.37529411431377424])","array('d', [0.02561057437039918, 0.006564417657500071, -0.007155644717416278, -0.004317474506669138, -0.004927042954728454, -0.004816798438828943, -0.0048516603453465455, -0.004853146896629904, -0.004858292026759774, -0.004859705989065192, -0.004858969624321887, -0.004855494573664819, -0.004848531270116286, -0.004831831764369398, -0.004698107040961064, -0.004250930305116225])","array('d', [0.4391047124436356, 0.42665752209491176, 0.41816087019200004, 0.413045166735272, 0.41089656192131907, 0.4114006976296687, 0.41430942716997277, 0.41942010245273376, 0.4265621673021507, 0.43558821723440166, 0.4463679068577205, 0.4587837369612566, 0.4727281165053426, 0.48791502215600735, 0.5063714847981525, 0.5319157096262106])",-155.35020118403474,-251.42066124478063,-55.3483947299135,0.20287707300739027,-0.007155644717416278,0.41816087019200004
10,1708915953.3968742,-272.3074035644531,-200.8024139404297,50.17775344848633,0.640416776204455,0.10522624148394315,1.832670039416666,"array('d', [-157.63343811035156, -156.3930075267036, -155.17957187185937, -153.98361196991857, -152.79657409382503, -151.61085637287735, -150.41958638066387, -149.21651258604612, -147.9959166748397, -146.75255464023894, -145.4816144490668, -144.17868573495983, -142.83973765229322, -141.46123883816512, -140.30302212615544, -139.5119599861922])","array('d', [-256.539794921875, -253.80886970297377, -251.0652737974618, -248.31403164733982, -245.5589014933632, -242.8032069751107, -240.04990863026498, -237.30175035952706, -234.56133310563737, -231.83117404076617, -229.11374834459966, -226.41151968350871, -223.72696177470408, -221.06250173621032, -218.91561283172746, -217.52492080025766])","array('d', [-55.35728073120117, -55.41196508920756, -55.41314719289013, -55.39526603527459, -55.3812957875884, -55.36646008133778, -55.351762331488445, -55.33700613704952, -55.32224215204392, -55.30746940436963, -55.29269708754054, -55.27793264289109, -55.263185663643824, -55.24847705862573, -55.23670984479931, -55.22946897455455])","array('d', [0.40709400869035056, 0.2936134714231729, 0.19093202579535268, 0.09802200326093044, 0.01395353079469509, -0.06211477556007542, -0.1309442315016897, -0.1932237038937626, -0.24957650499700315, -0.30056663030371716, -0.34670440159799, -0.38845156740583575, -0.4262258694258563, -0.4528921734901536, -0.42029581384009534, -0.3802993042331382])","array('d', [0.02802831482214127, 0.008752079881293761, -0.007689717002605128, -0.004287880409549431, -0.0050135462694035704, -0.004879205851595131, -0.004918674730008902, -0.004918825287797658, -0.004923788224188706, -0.004924734150004958, -0.00492353674692082, -0.004919532788781512, -0.004911952670859169, -0.00489412072367411, -0.004755662407744336, -0.004303007483125926])","array('d', [0.43267089296152444, 0.4207418010490597, 0.4126828883272559, 0.40794770477320647, 0.40613690312256007, 0.40694563404191864, 0.4101322076422441, 0.4154984849578427, 0.4228771339470485, 0.4321231052174044, 0.44310781047675596, 0.4557150917564289, 0.46983840882152444, 0.4852253188051005, 0.503978945184793, 0.5299029411919595])",-155.17957187185937,-251.0652737974618,-55.41314719289013,0.19093202579535268,-0.007689717002605128,0.4126828883272559
11,1708915953.4238718,-272.4617919921875,-200.37181091308594,50.19283676147461,0.6407224232919616,0.10917897040894285,1.8133073733012601,"array('d', [-157.23480224609375, -156.02515055235202, -154.8400727808192, -153.67038669176904, -152.50776648311742, -151.34476648106886, -150.17464784304488, -148.9912696792276, -147.78900959024804, -146.56270863866146, -145.3076320079978, -144.01944067711617, -142.69417064576035, -141.32830514119036, -140.182158797462, -139.3961534880242])","array('d', [-255.85552978515625, -253.11104073817853, -250.3550939927526, -247.59256583762883, -244.8270474053007, -242.061690366662, -239.29933938550562, -236.5426456233847, -233.79413792529886, -231.05627640507615, -228.33149099256687, -225.62220931486996, -222.9308762980145, -220.25992190730713, -218.11357704429182, -216.72002448000413])","array('d', [-55.46869659423828, -55.53304926118168, -55.54145627762178, -55.52537761799617, -55.510539288284, -55.49539218077846, -55.48026956173988, -55.46511416170789, -55.44994827779944, -55.43477704436707, -55.41960864198443, -55.40445096014046, -55.38931380688327, -55.37421919122558, -55.362178781887515, -55.354753162574085])","array('d', [0.37903963245917527, 0.2682288197698137, 0.16796304105428866, 0.07723880452879382, -0.004851886791339957, -0.07913062260202851, -0.14634080801437435, -0.2071551037262406, -0.26218215806473405, -0.31197269808100236, -0.3570250398956245, -0.3977900694117641, -0.4346757047932049, -0.4632687470049434, -0.43036062296377225, -0.3894063173823857])","array('d', [0.031415643778646675, 0.01181706214305156, -0.005916469248417859, -0.004820964125306556, -0.005067188431569228, -0.005031521046535202, -0.005049959977909984, -0.005053621831294256, -0.005056954804731604, -0.005057239085048449, -0.005055107713416746, -0.005050139298847485, -0.0050414833391519455, -0.005021961841573647, -0.004877002790112038, -0.004412798532440612])","array('d', [0.42095139187719144, 0.4100039640968309, 0.4027792410290216, 0.39877228252128577, 0.39760999023404764, 0.3990048439494088, 0.40272698491737624, 0.4085865734687757, 0.4164222350425178, 0.42609328823943743, 0.437474416451641, 0.45045197005805304, 0.46492138391509014, 0.4806867920635168, 0.49999214257213725, 0.5266115221830162])",-154.8400727808192,-250.3550939927526,-55.54145627762178,0.16796304105428866,-0.005916469248417859,0.4027792410290216
12,1708915953.4410343,-272.6119079589844,-199.93994140625,50.20884704589844,0.6415053602002928,0.1122647658474438,1.794505657423034,"array('d', [-157.0390167236328, -155.84297645018074, -154.67034861925143, -153.5120995298293, -152.36001246354937, -151.2067180403048, -150.0455428568587, -148.8704006432285, -147.67571667676856, -146.45637457131477, -145.20767834578297, -143.92532503262225, -142.60538455014975, -141.2443471102853, -140.1029273580963, -139.3186699529132])","array('d', [-255.5121307373047, -252.7617524178624, -250.00049444779535, -247.23314618724217, -244.46322533893192, -241.69380745118437, -238.92768648835622, -236.16747322098138, -233.41566550748323, -230.6746992900584, -227.9469856644323, -225.23493755944241, -222.54098842717255, -219.86757242665, -217.72197422720436, -216.32743913461704])","array('d', [-55.524452209472656, -55.59175830604689, -55.60283834200279, -55.58762320477599, -55.57237312375238, -55.55707934846885, -55.54175635554433, -55.526412815434846, -55.51105760930642, -55.49569873849162, -55.48034391098314, -55.46500125868755, -55.449680780058564, -55.43440549324834, -55.42224068082092, -55.4147320247361])","array('d', [0.3654507766708497, 0.2559331134703249, 0.15683742490523944, 0.0671719298258872, -0.013960772531725238, -0.08737268400612529, -0.15379853425646184, -0.21390313410853584, -0.26828802903627663, -0.317497519178035, -0.362024105393373, -0.4023134119562315, -0.4387685984718598, -0.46836310427943956, -0.43543897091885586, -0.3940013939898582])","array('d', [0.03245043496801286, 0.012753380015119546, -0.0050692537954420015, -0.005074133011789342, -0.005092327829453132, -0.005103382015463908, -0.00511184965891239, -0.005117133431009924, -0.005119672887544814, -0.005119619836097031, -0.005117019804830515, -0.005111550785118162, -0.005102300259712212, -0.005081613340516533, -0.004931540095002854, -0.0044621449190486795])","array('d', [0.4157652256271397, 0.40528686102424794, 0.3984629105762013, 0.3948072216443144, 0.393958678933686, 0.39563772589868945, 0.39961996953456624, 0.40571942103995745, 0.4137774808329035, 0.42365550975391675, 0.43522972694697387, 0.4483876655118749, 0.4630256963885002, 0.47897709357785884, 0.4985583464628702, 0.5255307902194297])",-154.67034861925143,-250.00049444779535,-55.60283834200279,0.15683742490523944,-0.0050692537954420015,0.3984629105762013
13,1708915953.4702795,-272.7573547363281,-199.50682067871094,50.22592544555664,0.6426921236178899,0.1145109594129862,1.7762933249222388,"array('d', [-156.84518432617188, -155.66181671481027, -154.50073912786985, -153.3530510892716, -152.21063714594638, -151.06620424171777, -149.91314287533856, -148.7454207149301, -147.55751023304592, -146.34433733295927, -145.10124474604729, -143.82396553962005, -142.5086036079427, -141.15166229409945, -140.01432448758152, -139.23149921747074])","array('d', [-255.16751098632812, -252.4116830888896, -249.64555224539023, -246.87380566727003, -244.0998827474003, -241.32679222775866, -238.5572805014427, -235.7939213621314, -233.03918436021317, -230.29548358351985, -227.56521328012064, -224.85077340480223, -222.1545874375112, -219.47909182818097, -217.3343799707812, -215.93904220964978])","array('d', [-55.57990646362305, -55.64833907274069, -55.66043867903567, -55.64548562015001, -55.629959985551004, -55.614502718793766, -55.59899421870396, -55.583470906771005, -55.56793608351178, -55.55239897740243, -55.53686711452933, -55.52134873374274, -55.50585391036371, -55.49040612031533, -55.47811963982887, -55.4705283637292])","array('d', [0.3521585438460011, 0.24390580275156948, 0.14595466314251304, 0.05732479887885371, -0.022870825881215043, -0.09543483440631675, -0.1610934702746704, -0.220503865789682, -0.27426061861483325, -0.3229017422615833, -0.3669140492552292, -0.4067380170423051, -0.4427721500402731, -0.4730370560669277, -0.4399792769784939, -0.3981096297236633])","array('d', [0.03284513648752502, 0.013110520751011564, -0.0047460994827385585, -0.005214828378676279, -0.005136940120529884, -0.005167441060411667, -0.0051715366240616826, -0.005177288130219482, -0.005179273766820633, -0.005178850240988717, -0.005175821687660646, -0.005169910160167868, -0.005160180247207953, -0.005138749429155645, -0.004985803693838102, -0.004511243650915757])","array('d', [0.41093177473938597, 0.40090844988097096, 0.3944746126835195, 0.39116170864630556, 0.3906199073427665, 0.3925771831643526, 0.3968143290412407, 0.4031490200653324, 0.41142530349693435, 0.42150649290432385, 0.433270279746893, 0.44660533438785155, 0.46140893096056435, 0.4775366499523143, 0.497370132142383, 0.5246595096349275])",-154.50073912786985,-249.64555224539023,-55.66043867903567,0.14595466314251304,-0.0047460994827385585,0.3944746126835195
14,1708915953.5038652,-273.03326416015625,-198.63697814941406,50.263084411621094,0.6458316428701073,0.11703013122525362,1.7418137979371702,"array('d', [-156.6531982421875, -155.48173069733386, -154.33146802702856, -153.19363150388057, -152.06020033231698, -150.9239566873656, -149.7783532189809, -148.6174105123315, -147.4356474610057, -146.22803170735963, -144.98994429240517, -143.7171540239925, -142.40579855681017, -141.05239426470305, -139.9186428308604, -139.13697130674512])","array('d', [-254.8217315673828, -252.0608216296828, -249.29017521397657, -246.5143703254848, -243.73676594217312, -240.96031103600868, -238.18770732795934, -235.42149454420147, -232.6641162104698, -229.9179664996876, -227.18542445224685, -224.46887845209724, -221.77074321279082, -219.0934584071226, -216.94977934710124, -215.55379667605007])","array('d', [-55.63544464111328, -55.70382628075546, -55.715879756051926, -55.70080105991903, -55.68508786041974, -55.6694566537893, -55.65377254156582, -55.6380751946146, -55.62236734866323, -55.60665841457281, -55.590955929205286, -55.5752681705312, -55.559605258428476, -55.54399097075225, -55.53158648178043, -55.52391451858498])","array('d', [0.33919578846949744, 0.23217661558349062, 0.13534165474809437, 0.04772175089526625, -0.03156002381215919, -0.103297146541496, -0.16820758513625628, -0.22694098370641907, -0.2800851643213473, -0.328172009692075, -0.3716827850022877, -0.4110529484162519, -0.4466764641353134, -0.477607984979441, -0.4444032715651102, -0.4021126348604216])","array('d', [0.03282727799796244, 0.01309436171995249, -0.0047607207814919, -0.005283071792553252, -0.005193929409184072, -0.005226380706913466, -0.005229686489433918, -0.005235167689211719, -0.005236750944462153, -0.005235933179656585, -0.005232495444788904, -0.005226163533806109, -0.0052159948523245285, -0.005193945055802118, -0.005038777603794571, -0.00455921324567467])","array('d', [0.4063910378095891, 0.3968080524687398, 0.3907529498325098, 0.3877736294376603, 0.38753086648506835, 0.38975974135681396, 0.3942459559991426, 0.4008106631294816, 0.40930042845119297, 0.4195804280661907, 0.4315297614541811, 0.44503818985090476, 0.46000385672335437, 0.4763045285829047, 0.496385436939283, 0.5239848135039759])",-154.33146802702856,-249.29017521397657,-55.715879756051926,0.13534165474809437,-0.0047607207814919,0.3907529498325098
15,1708915953.5216007,-273.1632385253906,-198.2003631591797,50.283164978027344,0.6477123824556991,0.11751476291416382,1.7255352734222065,"array('d', [-156.27439880371094, -155.12383956674176, -153.9924177999823, -152.87156536546325, -151.75343250834678, -150.6309503940603, -149.49769178985417, -148.3477810380217, -147.17582841682855, -145.9768841994363, -144.74640560124482, -143.48023276973527, -142.17457096458685, -140.8259814783522, -139.69747775104736, -138.91711766494055])","array('d', [-254.1268768310547, -251.35709112743962, -248.57868270162652, -245.7959845270222, -243.01218698149242, -240.2301424679633, -237.4524725140592, -234.68165824047279, -231.920098742846, -229.17015495820547, -226.43418118179687, -223.71454758080014, -221.0136556243976, -218.3339455417431, -216.1928395995801, -214.79612648409028])","array('d', [-55.74441146850586, -55.80884868541487, -55.81733222358121, -55.80074140598867, -55.7849495972643, -55.76894606907671, -55.752952347132926, -55.73693506388758, -55.720912036569985, -55.704889669924704, -55.68887614390634, -55.672879616355395, -55.6569102427289, -55.6409921252038, -55.62837195756354, -55.62055162966541])","array('d', [0.31417022938449946, 0.2095325512647755, 0.11485245619975429, 0.029182355702972507, -0.04833516381123567, -0.11847592228418444, -0.18194191064031565, -0.23936831647670376, -0.29132988107400015, -0.3383466511720321, -0.38088918237850944, -0.4193832426720827, -0.4542140303198964, -0.4854869840531379, -0.45189475813285396, -0.4088912099368363])","array('d', [0.03144526718063399, 0.01184386650789703, -0.005892215681232713, -0.005180262678280774, -0.00534491165857565, -0.005324498166423328, -0.00533781144016262, -0.005340385082712637, -0.005341662500170232, -0.005339993776420096, -0.005335810612330776, -0.005328709976402074, -0.005317771767342945, -0.005294740542801413, -0.005136221063003069, -0.004647382553670679])","array('d', [0.3983857915151361, 0.3896439963522138, 0.38431568784264075, 0.38197866934224484, 0.3823131305030725, 0.38506723328946846, 0.39003575796128603, 0.39704631339863866, 0.40595015743488083, 0.41661594876137453, 0.4289254299619745, 0.44277041926249494, 0.4580507078214401, 0.47466748188577707, 0.49517725146801733, 0.5233042683066277])",-153.9924177999823,-248.57868270162652,-55.81733222358121,0.11485245619975429,-0.005892215681232713,0.38431568784264075
16,1708915953.540688,-273.28765869140625,-197.7626953125,50.304264068603516,0.6496431091343393,0.11758552801949775,1.7097628870704866,"array('d', [-156.08737182617188, -154.94659752400517, -153.8239818747071, -152.7110448765025, -151.60001345928728, -150.48389174500952, -149.35630960730325, -148.21144135653185, -147.04394139358922, -145.84890005407794, -144.6218115942863, -143.35855093573457, -142.05535635216393, -140.70881705295156, -139.582676847317, -138.80283223078612])","array('d', [-253.77789306640625, -251.00397729572038, -248.22198982525083, -245.43612494612577, -242.64948507929012, -239.864884097172, -237.08490607557147, -234.31200576925175, -231.54856221168768, -228.7969214981265, -226.05942699150123, -223.3384409343791, -220.63635914947463, -217.95561979036836, -215.81592585419105, -214.4189263270458])","array('d', [-55.79754638671875, -55.85825636842632, -55.86336661923215, -55.84544256419045, -55.82974526566839, -55.81354342164811, -55.79741266049895, -55.78124709608984, -55.76507940623865, -55.748912981438465, -55.73275659972883, -55.71661825498207, -55.70050805515326, -55.684449927212846, -55.67172980438696, -55.66383904713792])","array('d', [0.30214451219568483, 0.19865123138786914, 0.10500662992545784, 0.020273482871104906, -0.05639624603310678, -0.1257698917709569, -0.18854176775968715, -0.24534011470121822, -0.29673338806803484, -0.343235946973402, -0.38531320067469277, -0.4233862606635968, -0.45783611296450333, -0.4889602630192916, -0.4553702047324267, -0.41203592298178743])","array('d', [0.03013938904823337, 0.010662259004259145, -0.006961378308137904, -0.005020443243006473, -0.005437512614568534, -0.005364979136190681, -0.005388520622457558, -0.005388573482355653, -0.0053899160892016025, -0.005387788001573399, -0.005383260624870072, -0.005375811922677398, -0.005364560521806326, -0.005341297261606128, -0.005182477900299167, -0.00468923691024675])","array('d', [0.39463939767780515, 0.38629792883220515, 0.38131699475838515, 0.37928794549516925, 0.3798998270285214, 0.3829068013775719, 0.3881078311508171, 0.39533351087728263, 0.40443727595300055, 0.4152894071528256, 0.42777288306000716, 0.44178048822437505, 0.4572127918970647, 0.4739757435659076, 0.4946828257641408, 0.5230558016278893])",-153.8239818747071,-248.22198982525083,-55.86336661923215,0.10500662992545784,-0.006961378308137904,0.38131699475838515
17,1708915953.5647895,-273.4064025878906,-197.32408142089844,50.326141357421875,0.6516128442308579,0.11733612563221271,1.694564792678529,"array('d', [-155.90179443359375, -154.77047774143594, -153.65636673761307, -152.5510594635652, -151.44685569719312, -150.33683234941319, -149.21467499999144, -148.07460708661475, -146.91132646127383, -145.71996301514403, -144.49604764391214, -143.23548971775153, -141.93456025222483, -140.5898809354329, -139.46594756331274, -138.68657104954087])","array('d', [-253.42788696289062, -250.64999879532638, -247.86458883718552, -245.07570030690906, -242.28634706483635, -239.49931088301452, -236.71713973251474, -233.94226356872835, -231.17704250212245, -228.42380873473422, -225.68489547078678, -222.96265766822606, -220.25948603383486, -217.57781464924506, -215.4395410594513, -214.04228164883708])","array('d', [-55.84962463378906, -55.90556895079336, -55.906366233033346, -55.886768136803795, -55.87124614733616, -55.85484061708946, -55.83858504915864, -55.82227988731916, -55.80597695430666, -55.789675748337565, -55.77338581382432, -55.757114939176866, -55.74087318749942, -55.724684302623196, -55.71187150595134, -55.703915008401694])","array('d', [0.2903370296725422, 0.1879673784202695, 0.09533947911572678, 0.0115262822999409, -0.06431104113070732, -0.13293149518175731, -0.19502185508943182, -0.2512035407279102, -0.30203883583166047, -0.34803651510125144, -0.38965693483193503, -0.42731663451651575, -0.46139246432858444, -0.49211930083657307, -0.4584362968257672, -0.4148102249232183])","array('d', [0.028469734025154007, 0.009151492528874578, -0.00832836195052068, -0.004796060997018611, -0.005539574993128764, -0.0053998307944234, -0.005436653145716948, -0.005433559760248065, -0.005435090106423619, -0.005432477494492223, -0.0054276132549279646, -0.005419819602362289, -0.005408260482164782, -0.005384773581661836, -0.005225675864686436, -0.004728284562888914])","array('d', [0.3910191310540696, 0.3830684316712432, 0.37842748911928176, 0.37670046297736975, 0.3775848101231038, 0.38084041036815697, 0.3862702230770277, 0.3937077028750389, 0.4030083759404802, 0.4140440841939672, 0.42669899893659763, 0.4408668400429215, 0.45644893249800544, 0.47335060538339957, 0.49423682575269157, 0.5228274124501946])",-153.65636673761307,-247.86458883718552,-55.906366233033346,0.09533947911572678,-0.00832836195052068,0.37842748911928176
18,1708915953.6018379,-273.62384033203125,-196.44590759277344,50.37323760986328,0.6549219701056463,0.11585007953374547,1.6656332404309708,"array('d', [-155.7175750732422, -154.59520430037858, -153.48910292050886, -152.39093948105676, -151.29309406796415, -150.18870861075376, -149.07152465105315, -147.93581397944192, -146.77631760032523, -145.58820473929103, -144.3670428184018, -143.1087756098897, -141.80970687481977, -140.4664887777119, -139.3443989086692, -138.56527575764792])","array('d', [-253.07693481445312, -250.29531080460285, -247.50670126252123, -244.71499008734037, -241.92312945815934, -239.13385539144514, -236.3496846350694, -233.57302353417361, -230.80621487289633, -228.05157818470303, -225.31143758467087, -222.5881416581342, -219.8840767812776, -217.2016746741353, -215.06491840186072, -213.66751906451307])","array('d', [-55.900630950927734, -55.950945582929876, -55.94950538843617, -55.93011796615841, -55.91437715017231, -55.897843043460576, -55.881441521418665, -55.86499529923302, -55.84855164305415, -55.83211098050661, -55.81568263353419, -55.7992743713502, -55.7828961516257, -55.766571462090084, -55.75366121552016, -55.74563585549297])","array('d', [0.27871281764648087, 0.17744935547107782, 0.08582237752528918, 0.0029148518892667535, -0.07210298629565573, -0.13998193936649225, -0.20140136138268236, -0.25697595726038414, -0.30726193479069164, -0.3527625709393227, -0.393933247465769, -0.43118600280599373, -0.46489361513448924, -0.4953362072696179, -0.4615381593270803, -0.417616906185547])","array('d', [0.02649743327219616, 0.007366880847880016, -0.008069507981190376, -0.004908271188615489, -0.005574539690430082, -0.0054503259505998755, -0.005483522653534746, -0.005480726917930926, -0.0054817482802098135, -0.005478797399401627, -0.005473575657732999, -0.0054654556918576885, -0.0054536092280373216, -0.005429965225505835, -0.005270903773988363, -0.004769207639244866])","array('d', [0.3875911069215757, 0.38002300887324214, 0.37571581003681553, 0.3742858240740521, 0.3754385219788706, 0.3789392497291966, 0.38459479799215385, 0.3922413696446839, 0.4017365044702878, 0.4129535514961565, 0.4257778365318748, 0.4401039875944686, 0.4558340659832861, 0.4728750504725813, 0.4939429427096751, 0.5227542910199221])",-153.48910292050886,-247.50670126252123,-55.94950538843617,0.08582237752528918,-0.008069507981190376,0.37571581003681553
19,1708915953.621697,-273.7225646972656,-196.00645446777344,50.398353576660156,0.6561318959056691,0.11472235868944429,1.6515364783878366,"array('d', [-155.35256958007812, -154.24712627486335, -153.15611286480524, -152.07132735881936, -150.98531002346553, -149.89132888438252, -148.78323571752892, -147.65539781429123, -146.50264181270387, -145.32021526221584, -144.10375852916908, -142.84928424472085, -141.5531618293035, -140.21210588122318, -139.09303942633838, -138.31405757115954])","array('d', [-252.3731231689453, -249.58451046055455, -246.7899524084487, -243.99300965162644, -241.1965296328526, -238.40316028440782, -235.6153612463433, -232.83549544511007, -230.0658742596351, -227.3087945837784, -224.5665646395082, -221.84152220887378, -219.13604666176303, -216.45256577594762, -214.3190248620874, -212.9215493534265])","array('d', [-55.997798919677734, -56.03434154233303, -56.0276759079, -56.0090478485808, -55.99282872753042, -55.976074199195196, -55.95940189778748, -55.94269793111742, -55.92599660090197, -55.90930094444159, -55.892619670779986, -55.87596054802751, -55.85933335663751, -55.84276133761321, -55.82967694984837, -55.82152788880385])","array('d', [0.2558250055681885, 0.15673960480957716, 0.06708341851084516, -0.014040860938574172, -0.08744515110283566, -0.1538641054179916, -0.21396246581312087, -0.26834171560266806, -0.3175460991809237, -0.3620680685947276, -0.40235321084607156, -0.438804701854496, -0.4717873018236414, -0.5016061396408065, -0.4674570077766987, -0.42297250098161654])","array('d', [0.02167280787632243, 0.003001378872029762, -0.007273748098990979, -0.005179968489724438, -0.0056254008350033885, -0.0055456727026144854, -0.005568865110938118, -0.005567197911598163, -0.005567081576167908, -0.005563473597948415, -0.005557531829263897, -0.00554875342186495, -0.005536305157701603, -0.005512166354408535, -0.005352148881986858, -0.004842719783123383])","array('d', [0.38110332011180026, 0.3742828844496243, 0.37063028013359145, 0.3697844952003075, 0.3714660419243129, 0.3754505746170859, 0.38155213786524445, 0.3896121561866081, 0.39949200820373554, 0.41106792651901114, 0.4242274548598968, 0.4388669740253201, 0.4548899739291249, 0.47220532001236454, 0.4936261332295065, 0.5228604413977249])",-153.15611286480524,-246.7899524084487,-56.0276759079,0.06708341851084516,-0.007273748098990979,0.37063028013359145
20,1708915953.6380005,-273.8155212402344,-195.5663299560547,50.424339294433594,0.657000606276323,0.11338401840880108,1.6376905364991836,"array('d', [-155.171630859375, -154.0742143972409, -152.99032612425205, -151.91182613200948, -150.831334494943, -149.74218023826873, -148.63826897211842, -147.5140147892165, -146.3642864713132, -145.18437023918418, -143.9699425705382, -142.71705025601668, -141.42209533949597, -140.08182360710438, -138.96401117626158, -138.18494150470087])","array('d', [-252.02027893066406, -249.22840454885187, -246.43107657317034, -243.63170078674406, -240.83308268399168, -238.03782863530716, -235.248372151052, -232.46705624972364, -229.69617809298174, -226.9380244692543, -224.1948966604994, -221.4691278846301, -218.7630947070956, -216.07922345338636, -213.94736832473825, -212.54994313606116])","array('d', [-56.0438346862793, -56.07258484252783, -56.062974539717864, -56.04479989652137, -56.02833364158861, -56.011477382555306, -55.99467490683525, -55.97784794828064, -55.96102351919289, -55.94420608983172, -55.927403982774386, -55.91062487412817, -55.8938782609721, -55.877186373469875, -55.86401273732024, -55.855797757925586])","array('d', [0.24463266137377407, 0.14661235206950718, 0.05791990045951507, -0.022332355703652156, -0.09494760649799351, -0.16065260840299825, -0.2201049578857154, -0.2738996727794849, -0.32257514727097175, -0.36661853992548166, -0.40647064802272564, -0.4425303136420522, -0.47515837624356094, -0.5046655366218081, -0.4704902626060918, -0.42571710301343096])","array('d', [0.018943071747133552, 0.0005314112629467538, -0.006815739787999987, -0.0053256222607529725, -0.005646581839874211, -0.005591895478413667, -0.005609519452309176, -0.005608528164002754, -0.005607828254142271, -0.005603915208567918, -0.0055976524245903575, -0.005588628755334423, -0.005576047779851106, -0.005552330251340709, -0.005395443154650218, -0.004881893270452389])","array('d', [0.378029343671169, 0.37157198186494583, 0.3682383834785584, 0.36767804803577686, 0.3696185019115037, 0.37384022905049447, 0.38016068596615216, 0.3884237618394625, 0.3984926535027191, 0.41024496435622365, 0.4235692968894558, 0.43836287263831325, 0.4545298704424785, 0.4719799339509272, 0.49357797615091265, 0.5230299230427121])",-152.99032612425205,-246.43107657317034,-56.062974539717864,0.05791990045951507,-0.006815739787999987,0.3682383834785584
21,1708915953.6648977,-273.9026794433594,-195.12557983398438,50.451412200927734,0.6573647697372013,0.11170671923295758,1.624230277456631,"array('d', [-154.9918212890625, -153.90224689830137, -152.82530573155955, -151.75291885111523, -150.67778700968427, -149.59329909891454, -148.49341394160095, -147.37259197611928, -146.22574383079512, -145.04819420074483, -143.8356555490733, -142.58420874819095, -141.2902884201966, -139.9506716143649, -138.83399857814848, -138.05478725928208])","array('d', [-251.66647338867188, -248.87145141459033, -246.07144934495008, -243.26972242105813, -240.46904251276868, -237.67197554171636, -234.88093020890608, -232.09823054786926, -229.3261602699765, -226.56699667898917, -223.8230346281785, -221.0966031930973, -218.3900764828741, -215.70587960499643, -213.5757311499108, -212.17838622044633])","array('d', [-56.08833312988281, -56.10841328363246, -56.09553998593458, -56.07789507400765, -56.061178166204726, -56.04423281862023, -56.027309602017176, -56.010369761243844, -55.993432234247756, -55.97650308237086, -55.95959022439422, -55.942701291544516, -55.92584558932627, -55.909044797471076, -55.89579333698513, -55.887521060905556])","array('d', [0.23355500875881235, 0.13658887657146468, 0.04885028394842837, -0.0305388848337871, -0.10237318180039336, -0.16737154739696544, -0.2261845058503319, -0.27940067576647515, -0.3275526610730669, -0.3711223810969154, -0.4105458924738801, -0.4462177478372565, -0.47849490593270316, -0.5076884191737833, -0.473380766465752, -0.42833253838192964])","array('d', [0.015906012454343366, -0.0022166338633680675, -0.00629751948774143, -0.0054794698624023265, -0.005662145525033782, -0.005635261306455964, -0.00564675114658579, -0.005646539467790156, -0.00564522696809365, -0.005641004510754048, -0.005634403869720035, -0.005625099284152439, -0.005612307941800427, -0.005588672749116851, -0.005433074836779582, -0.004915943148554399])","array('d', [0.37502951536182805, 0.3689299885157831, 0.365911499716552, 0.365633597765722, 0.3678305399064771, 0.3722874586462223, 0.3788251028306218, 0.387289745379316, 0.3975463456533149, 0.4094738391568112, 0.4229618601530199, 0.4379084521311418, 0.4542184698789831, 0.471802214402226, 0.49357326334945695, 0.5232331704502279])",-152.82530573155955,-246.07144934495008,-56.09553998593458,0.04885028394842837,-0.00629751948774143,0.365911499716552
22,1708915953.7082503,-274.0596618652344,-194.24264526367188,50.50801086425781,0.656642720875945,0.10741417365450302,1.5975804227619932,"array('d', [-154.81307983398438, -153.73094828102558, -152.66055633905648, -151.59388686921406, -150.5237232993033, -149.4435137162172, -148.34726992645807, -147.22949861520652, -146.08515229553075, -144.90959426160467, -143.69857314972327, -142.44820414602134, -141.15495471378355, -139.8156334867281, -138.69978313776824, -137.92024700002656])","array('d', [-251.31173706054688, -248.5137705943877, -245.71127470789062, -242.90736222335343, -240.10478183126926, -237.30606057697477, -234.51358408557888, -231.7296587218469, -228.95655589105277, -226.19654439068503, -223.45191349299336, -220.72498886661919, -218.01814280253652, -215.33379972386743, -213.20544263620334, -211.8082801498898])","array('d', [-56.1313591003418, -56.14185645949823, -56.12538711182137, -56.10834807938159, -56.09137403821992, -56.07434980513123, -56.05731272875263, -56.04026756498042, -56.023224361889895, -56.00619092034353, -55.989174710303516, -55.97218330788626, -55.955225801568815, -55.938323233501116, -55.9249988707957, -55.916672298340835])","array('d', [0.22255690285665616, 0.12663737792217417, 0.039845794789233176, -0.03868648429363509, -0.10974543532721132, -0.17404223884872438, -0.23222039762926686, -0.28486217699908895, -0.3324944322054166, -0.37559388095780843, -0.41459187328745295, -0.4498787031730037, -0.48180747643877114, -0.5106876872563532, -0.47623485003637556, -0.43091501912502794])","array('d', [0.012549277036935931, -0.0052539339120813945, -0.005717945704699542, -0.005642725048555714, -0.005672859947505731, -0.0056766267421975965, -0.005681405398879534, -0.005682086775821923, -0.0056801420653967245, -0.005675621938664836, -0.005668694372164767, -0.005659127294146302, -0.005646153452975465, -0.005622676477482305, -0.005468735960777398, -0.004948210031199347])","array('d', [0.3721804946644696, 0.36643482714846976, 0.3637286264973641, 0.3637310823413286, 0.36618293290825876, 0.370873799906167, 0.3776276196037296, 0.3862929779899495, 0.3967365486366929, 0.40883856588369805, 0.4224896728831401, 0.43758871948424116, 0.45404122600238367, 0.4717581027510507, 0.4937007010220747, 0.5235664935324718])",-152.66055633905648,-245.71127470789062,-56.12538711182137,0.039845794789233176,-0.005717945704699542,0.3637286264973641
23,1708915953.7178767,-274.1299133300781,-193.80062866210938,50.53755569458008,0.6556336004658011,0.10507183634159144,1.5843467249734775,"array('d', [-154.4512176513672, -153.38357931887484, -152.3258156948848, -151.2700694722578, -150.20928393312144, -149.13703085610877, -148.04743048466614, -146.9350851515618, -145.7950342245705, -144.6227213317644, -143.41397059239526, -142.1649689485938, -140.8722526521442, -139.53269660229032, -138.4177981700462, -137.63716581145553])","array('d', [-250.58447265625, -247.78090706119096, -244.97364176316293, -242.16559591416805, -239.35945501706288, -236.5576776552182, -233.7626044926086, -230.97650901802808, -228.20163999753822, -225.4402510990095, -222.69462215916394, -219.96707361985608, -217.2599755780016, -214.57575236775733, -212.45128641484848, -211.05473867647797])","array('d', [-56.213687896728516, -56.20911631372715, -56.18941223550804, -56.172759739574694, -56.15543210013546, -56.13820857760317, -56.12094379516495, -56.10367968121179, -56.08641864403917, -56.06916989094434, -56.05194041866022, -56.034737650432064, -56.01757036905669, -56.000458938954154, -55.98698829854662, -55.97855464999581])","array('d', [0.1999672466630806, 0.10619740988603053, 0.02135094521111018, -0.05542131774927175, -0.1248877401951776, -0.1877435641318793, -0.24461787054965017, -0.29607987541189895, -0.34264462641226257, -0.38477815735035614, -0.42290215107713547, -0.4573981544338813, -0.4886113591934175, -0.5168466036431162, -0.48195793022880495, -0.43609347446710295])","array('d', [0.005084420712440918, -0.007915302682194876, -0.005265058993067221, -0.005827282993266511, -0.005726226574906516, -0.005755693183289435, -0.005754249281540799, -0.005755207448099967, -0.005752263161633084, -0.005747055682867289, -0.005739449099252224, -0.00572929518439197, -0.00571584579532831, -0.005692230044465185, -0.00553906210359034, -0.0050118425113622345])","array('d', [0.36663199946810343, 0.36160911354079134, 0.3595428382688747, 0.3601211642885959, 0.36309753753657154, 0.36827042085182676, 0.37547005161082975, 0.38454960446615366, 0.39537916578073395, 0.40784156589020926, 0.4218294735155998, 0.4372433657913837, 0.45399011369065784, 0.47198184095635826, 0.4942739970738934, 0.5245542909660621])",-152.3258156948848,-244.97364176316293,-56.18941223550804,0.02135094521111018,-0.005265058993067221,0.3595428382688747
24,1708915953.7524626,-274.1940002441406,-193.35838317871094,50.56793212890625,0.6542358880513962,0.1026278540298743,1.571103736174404,"array('d', [-154.275390625, -153.2149800418798, -152.16352204593542, -151.11325242028693, -150.05718390885878, -148.9889494668198, -147.9027217252124, -146.79314971934105, -145.65531529318562, -144.48470147225788, -143.2771694583165, -142.02894148960766, -140.73658768033877, -139.39701556284973, -138.28265056207346, -137.50151667505727])","array('d', [-250.22691345214844, -247.42060334322798, -244.6109644043429, -241.80086745033896, -238.99294869472166, -236.18963782817855, -233.3932534381494, -230.6060535742338, -227.8302762513283, -225.06816800023205, -222.32200422522484, -219.59410293936622, -216.88683324922815, -214.20261949809023, -212.08000599665678, -210.6837401433398])","array('d', [-56.251182556152344, -56.24227859460357, -56.22331496093345, -56.2063573683622, -56.18894095788531, -56.171585892595786, -56.154199817726, -56.1368138283534, -56.11943247864164, -56.10206444259172, -56.08471666739198, -56.067396318573856, -56.05011176022685, -56.032881690419394, -56.01931883660173, -56.01081564122574])","array('d', [0.18891687449550643, 0.09619861875980092, 0.012303664045306773, -0.0636076370214072, -0.1322950288601568, -0.19444595669047618, -0.25068244667885337, -0.3015673313202969, -0.34760988230853196, -0.3892709071062627, -0.4269673595927603, -0.46107650771884773, -0.4919396720683138, -0.5198595167120954, -0.4849178563459016, -0.43877172546207405])","array('d', [0.0014186739218226157, -0.007210719538089086, -0.005460977776459946, -0.005837856998277361, -0.005774210183668225, -0.00579554190738944, -0.005795244401997652, -0.005795476080653212, -0.005792209599508059, -0.005786638602039001, -0.005778740954936547, -0.005768394891007134, -0.005754932245929944, -0.005732222905350545, -0.005584739552154515, -0.005053172341216918])","array('d', [0.363875238764434, 0.35920412177898986, 0.3574502671994696, 0.3583103955808178, 0.3615438854064443, 0.3669533451699057, 0.3743719781387722, 0.38365512656045664, 0.39467449489008105, 0.40731414934004495, 0.4214677274853944, 0.4370364889766621, 0.45392795806061736, 0.47205485151447374, 0.4945233439925108, 0.525018891950735])",-152.16352204593542,-244.6109644043429,-56.22331496093345,0.012303664045306773,-0.005460977776459946,0.3574502671994696
