,current_time,x_pos,y_pos,z_pos,roll,pitch,yaw,vel,x_traj,y_traj,z_traj,roll_traj,pitch_traj,yaw_traj,x_cmd,y_cmd,z_cmd,roll_cmd,pitch_cmd,yaw_cmd,vel_cmd,effector_dmg,effector_x,effector_y,effector_z,cost,time_solution
0,0.6384963989257812,-293.54736328125,-224.0543670654297,49.98966979980469,0.629087388515472,0.039263490587472936,2.2313241521504263,23.073105361140268,"array('d', [-227.0656280517578, -225.89408059655202, -224.67786859959503, -223.4188250581273, -222.11922917112557, -220.78178652421894, -219.4096076440512, -217.08055967917463, -214.7239759456007, -212.34381538172977, -209.94389822004584, -207.52763083303796, -205.0979137948778, -202.65715106427885, -200.20730470912594, -198.24077380335962])","array('d', [-291.3519287109375, -292.28677471376767, -293.1631909050188, -293.9772573998655, -294.72518730072795, -295.4033615538746, -296.00836167008424, -296.91608558235947, -297.7499427791095, -298.51409100648857, -299.2138733908935, -299.8550497398313, -300.44330805830475, -300.9839911972626, -301.48196794871967, -301.84596496368766])","array('d', [-49.998069763183594, -49.94242717940085, -49.89495149631816, -49.8548060922869, -49.821118393704126, -49.793038687915924, -49.76977963804699, -49.73777027308588, -49.71121338626402, -49.68893852080394, -49.67000886448171, -49.6536859305105, -49.63939886315601, -49.626719104128206, -49.61534036223601, -49.607118693876004])","array('d', [0.6288893818855283, 0.6437831497342673, 0.6572595893933492, 0.669453577352122, 0.6804871549094096, 0.6904707495767696, 0.6995042763755439, 0.6795092909430027, 0.6452003422601239, 0.6023567956589181, 0.5554809006056027, 0.5078474779680313, 0.46168791536938847, 0.4183884385903418, 0.3786528484808811, 0.3426192967814808])","array('d', [-0.040011212229728726, -0.03429144436275596, -0.0291066051595737, -0.024503824025074988, -0.02048397409980608, -0.017015697605686032, -0.014047144860905098, -0.01160184545288927, -0.009676190445509108, -0.008169080820765864, -0.006994385924903684, -0.006079319495371666, -0.0053623570998610915, -0.004791024619530964, -0.004319860287007936, -0.003908771690967693])","array('d', [2.2683341662075858, 2.219998475136952, 2.170214478721128, 2.119092811529885, 2.0667374497850832, 2.0132458761456764, 1.9587092655859952, 1.9263647755468354, 1.8957752954507232, 1.8675517561677757, 1.8419186995269148, 1.8188545906657514, 1.798202025527874, 1.7797405380254692, 1.7632312559895544, 1.7447474243845928])",-220.78178652421894,-295.4033615538746,-49.793038687915924,0.6904707495767696,-0.017015697605686032,2.0132458761456764,14.999999864172777,-1.0,"[-254.98522060870968, -257.2142718014007, 49.94024822682497]","[-274.79694314202766, -259.7966385781093, 49.03083517800015]","[-267.1598508006399, -244.69144576163654, 59.68484712403703]",10000000000.0,0.03408479690551758
1,0.6710469722747803,-293.81439208984375,-223.67149353027344,49.988731384277344,0.6291684508323665,0.03910514712333683,2.226907865205083,23.076569660747516,"array('d', [-225.94781494140625, -224.76339484283176, -223.53508752607902, -222.26478992783467, -220.9548421301762, -219.60800727212683, -217.31773695085815, -214.99623609991113, -212.64696516212777, -210.27381172001296, -207.8805538471157, -205.47058018190177, -203.046790994405, -200.61160096645597, -198.16698907334526, -196.20435879932904])","array('d', [-292.18701171875, -293.105497842337, -293.96489551809356, -294.76130889966083, -295.4909827522983, -296.1503366254451, -297.15168574240994, -298.07858642694515, -298.9328633055282, -299.71852903308695, -300.44077839587266, -301.1052360998859, -301.71747409459385, -302.28273817033266, -302.8058165885158, -303.19030098643526])","array('d', [-49.99491882324219, -49.93935104464538, -49.89216279298428, -49.85247081165128, -49.819371713063724, -49.79199896693249, -49.75447640097355, -49.72355304480718, -49.69786182973381, -49.67628937014926, -49.65794146550673, -49.64211106732496, -49.62825014706007, -49.61594629300661, -49.60490409433824, -49.59692547746479])","array('d', [0.6293071508407587, 0.6441611627116617, 0.6576016296585736, 0.6697630681354566, 0.6807671936464044, 0.690724138727579, 0.6922330240098907, 0.6727726515476906, 0.6390473508783143, 0.5967806222298268, 0.5504437886046902, 0.5032996877710294, 0.4575790657129309, 0.4146728950814916, 0.3752912181182233, 0.339577567558004])","array('d', [-0.040042914450168665, -0.03416261687504905, -0.028854066529617615, -0.02415322220841427, -0.020050956898435095, -0.01650720031127317, -0.01356113645947495, -0.011217284933833015, -0.009366919434514578, -0.007915476727406378, -0.00678188990019384, -0.0058972707859792665, -0.005203102471687633, -0.004649259748057911, -0.004192153364862621, -0.003793217883352399])","array('d', [2.254465476670537, 2.2060895773102023, 2.1562684176316163, 2.1051124522546183, 2.052725481611524, 1.9992048172688854, 1.9667201255467082, 1.934834386972387, 1.9046493767274866, 1.8767735203620501, 1.851436508298555, 1.8286246833278215, 1.8081884718043224, 1.7899140777796705, 1.7735679205726453, 1.755263136032575])",-219.60800727212683,-296.1503366254451,-49.79199896693249,0.690724138727579,-0.01650720031127317,1.9992048172688854,25.00000022170026,-1.0,"[-254.98522060870968, -257.2142718014007, 49.94024822682497]","[-274.79694314202766, -259.7966385781093, 49.03083517800015]","[-267.1598508006399, -244.69144576163654, 59.68484712403703]",10000000000.0,0.02734971046447754
2,0.7681629657745361,-295.3755798339844,-221.35260009765625,49.98301696777344,0.6318342685699458,0.03666216135025037,2.202646152177129,23.089556353126547,"array('d', [-225.19705200195312, -224.00403025662982, -222.76768289394138, -221.4899435832377, -220.17318729378928, -218.8202100930702, -216.52062877341467, -214.19053517649579, -211.8333777681106, -209.45300528598835, -207.0531428351657, -204.63712130011425, -202.20778410842001, -199.76749300270484, -197.31817919669467, -195.35210677080036])","array('d', [-292.7346496582031, -293.64195501632884, -294.4897659299635, -295.2742039712232, -295.9915359289298, -296.6382075374512, -297.61800668690466, -298.52310746938196, -299.3553914558413, -300.11891852804746, -300.8189199867895, -301.4610478799781, -302.050894454968, -302.5937206472705, -303.0943261648484, -303.46080938345534])","array('d', [-49.99311447143555, -49.93787328883007, -49.89105613640536, -49.851749768334635, -49.819030882047365, -49.79202097945427, -49.75506261590809, -49.72465594779861, -49.69943157304212, -49.67827788096614, -49.660304594739344, -49.64480944389541, -49.63124922865677, -49.61921595291595, -49.60841796604341, -49.60061602089961])","array('d', [0.6292621493339536, 0.6441204436605177, 0.6575647855337923, 0.6697297301891257, 0.6807370282211251, 0.6906968439124253, 0.691950927741833, 0.6723295038439052, 0.6385197969890448, 0.5962245709013312, 0.5498959940405006, 0.5027815920202968, 0.4571009482419041, 0.4142375364340917, 0.3748969471343392, 0.33922081638665313])","array('d', [-0.039846252650022555, -0.033924217156988776, -0.028597723407846783, -0.023895262479616444, -0.019801699181498142, -0.0162723464350105, -0.013344277829124913, -0.011020428160942194, -0.009189952670604235, -0.00775710695224009, -0.006640277452928307, -0.005770433598253882, -0.005089156950848141, -0.0045465525703447, -0.004099324449019296, -0.003709222799299866])","array('d', [2.2450514594700675, 2.1966798924307653, 2.1468627369105993, 2.0957104669319717, 2.043326901881062, 1.9898093717735454, 1.9573350528602276, 1.9254729929314227, 1.8953183117954402, 1.8674744454562402, 1.842168115635809, 1.8193842635123514, 1.7989728895369528, 1.780720294252405, 1.764393228001232, 1.7461094185957873])",-218.8202100930702,-296.6382075374512,-49.79202097945427,0.6906968439124253,-0.0162723464350105,1.9898093717735454,25.000000223364932,-1.0,"[-262.3747921911402, -253.1629719151787, 49.924207929428704]","[-282.33587832665216, -254.40948999324436, 49.95932162659428]","[-273.2082838419444, -239.83924754673, 60.176711409338466]",10000000000.0,0.08201813697814941
3,0.815162181854248,-295.881591796875,-220.5657196044922,49.97919464111328,0.6360651850700376,0.03230978548526773,2.1972971121456957,23.10319563895437,"array('d', [-223.28762817382812, -222.07441518114916, -220.81923314878944, -219.52410391418212, -218.1914861087696, -216.82425471416994, -214.50315053031989, -212.1532640225652, -209.778012392134, -207.38114944337767, -204.96627210774614, -202.53657205432447, -200.094755952603, -197.64305830825478, -195.18329560719832, -193.20963002711304])","array('d', [-294.0794982910156, -294.9597052391282, -295.77944959647533, -296.5348976111559, -297.22237143012603, -297.8383818298031, -298.7661091519102, -299.6185572073422, -300.3977457940273, -301.1078480790735, -301.7541819659445, -302.3424636070363, -302.87833228234797, -303.367083613533, -303.8135432357967, -304.1366652836442])","array('d', [-49.987892150878906, -49.93399093063003, -49.88852394613646, -49.85051875573623, -49.819016442923925, -49.79312079531694, -49.75783870523157, -49.72892843592651, -49.70503063316677, -49.68505017394669, -49.66811562866506, -49.65354336398903, -49.64080711859372, -49.62951336695556, -49.6193821394134, -49.61206244365279])","array('d', [0.6292673349380491, 0.6441251357890069, 0.6575690311467821, 0.669733571777597, 0.6807405042314358, 0.6906999891199934, 0.6913288055616722, 0.6713103475695974, 0.6372901732881875, 0.5949207003019527, 0.5486076114334942, 0.5015612437182736, 0.45597403434801914, 0.4132111908736263, 0.3739674378579343, 0.3383797615368104])","array('d', [-0.03896825015544891, -0.03301493979381843, -0.027705635084600493, -0.023051069246360446, -0.019022338975007623, -0.015564605939162559, -0.01270963908666134, -0.01045668041300316, -0.00869130525807876, -0.007316173345307319, -0.0062493635187763985, -0.0054223113412166036, -0.00477748610351508, -0.004266077275561271, -0.003845935737318219, -0.003479947191113863])","array('d', [2.2225049893048148, 2.1741329230596733, 2.124315306147201, 2.0731626103547978, 2.0207786528860754, 1.9672607616350763, 1.9348072493902195, 1.90299873555673, 1.8729142332274547, 1.8451450659338466, 1.8199107046700822, 1.7971926228065627, 1.7768397198989883, 1.758638472278169, 1.7423563869092933, 1.7241220054976347])",-216.82425471416994,-297.8383818298031,-49.79312079531694,0.6906999891199934,-0.015564605939162559,1.9672607616350763,25.00000022661666,-1.0,"[-265.15363222603406, -251.42542326173242, 49.92551703152502]","[-285.1369050316233, -252.13537411394645, 50.33144530700899]","[-275.4340082784768, -237.80515021990223, 60.356338211391716]",10000000000.0,0.04482722282409668
4,0.8390936851501465,-296.13116455078125,-220.17047119140625,49.977169036865234,0.6390334367752073,0.02948109619319431,2.194985286393438,23.11136069303149,"array('d', [-222.516845703125, -221.29586935281418, -220.03344149407158, -218.7316233861032, -217.39291098131653, -216.02021435821197, -213.6908802775221, -211.33344578598738, -208.95131691091518, -206.54821101095064, -204.1276752053806, -201.69284672832416, -199.24637855730415, -196.79045509321637, -194.32684753575916, -192.3504122951535])","array('d', [-294.60400390625, -295.47341848861214, -296.2819706976596, -297.025844639602, -297.7013848954966, -298.30512883529326, -299.2120096722747, -300.0433690416004, -300.8012831369401, -301.48997176999944, -302.11478876571414, -302.6814770083702, -303.19569545941135, -303.66275428746155, -304.0874900197801, -304.3932126502323])","array('d', [-49.98614501953125, -49.93238776682571, -49.887124916464536, -49.84935498560435, -49.81809913900535, -49.792448494065155, -49.7575587059851, -49.72901516054677, -49.705453395982985, -49.68577735074286, -49.66911700363491, -49.65479126742003, -49.64227680452853, -49.63118294207263, -49.621232247877685, -49.61404318036221])","array('d', [0.6295263171195983, 0.6443594726193197, 0.6577810679515806, 0.6699254307051978, 0.6809141055091147, 0.6908570704155629, 0.6912287883007485, 0.6710417922541788, 0.6369263555079641, 0.5945158701133542, 0.5481981234038821, 0.5011689185001004, 0.45560993815792367, 0.41287905764169036, 0.3736665750235555, 0.33810752957214213])","array('d', [-0.03889849409461023, -0.03289347952814548, -0.027555274536225676, -0.02288786455233962, -0.018856887434545166, -0.01540327019023009, -0.012556957767424793, -0.010315766837217315, -0.008563163037666138, -0.0072005675427534955, -0.006145411396116688, -0.005328862173172011, -0.004693351606736848, -0.0041901617057238175, -0.0037773019775746734, -0.003417844586833594])","array('d', [2.213647977509771, 2.1652509749487177, 2.1154103108244113, 2.064236345197946, 2.011832786130571, 1.958296855273592, 1.9258416004768284, 1.894045130154878, 1.8639803496931358, 1.8362338228060644, 1.8110220464026723, 1.7883249660521652, 1.7679908910696296, 1.749806235219502, 1.7335386997441524, 1.7153202991756864])",-216.02021435821197,-298.30512883529326,-49.792448494065155,0.6908570704155629,-0.01540327019023009,1.958296855273592,25.000000241918777,-1.0,"[-265.15363222603406, -251.42542326173242, 49.92551703152502]","[-285.1369050316233, -252.13537411394645, 50.33144530700899]","[-275.4340082784768, -237.80515021990223, 60.356338211391716]",10000000000.0,0.02019786834716797
5,0.8782522678375244,-296.62347412109375,-219.37625122070312,49.9732666015625,0.6462839841842649,0.0227846670895815,2.190641061463628,23.129572540401853,"array('d', [-222.12991333007812, -220.90535704258372, -219.63957462916284, -218.33464936851317, -216.9930981385006, -215.61785077437324, -213.2846719042609, -210.9237100304328, -208.53836726641006, -206.13234516114778, -203.70916849696619, -201.27194969474178, -198.82331699679298, -196.36543154607813, -193.90004340271386, -191.92232804056235])","array('d', [-294.86328125, -295.727665984593, -296.5309735970533, -297.269397673904, -297.9392944678671, -298.5372150412353, -299.4341711910056, -300.25547022536796, -301.0032163474862, -301.68165346947217, -302.29615463273996, -302.8524774658634, -303.35629208108253, -303.81291708633387, -304.22719546237676, -304.52453608118185])","array('d', [-49.985252380371094, -49.931819215303484, -49.88686731851686, -49.84938676146504, -49.81839428425794, -49.79297954109531, -49.75843796763653, -49.7302005219653, -49.706906902357986, -49.68746584446814, -49.671012125290176, -49.656869077631626, -49.64451720522936, -49.633569011435306, -49.62374955635403, -49.61665539125071])","array('d', [0.6298919916152954, 0.644690348574918, 0.6580804568705192, 0.6701963289501542, 0.6811592242728809, 0.6910788627054408, 0.6913269260289284, 0.6710537042893777, 0.636884047604576, 0.5944438493971963, 0.5481134439111527, 0.501082337530838, 0.4555274000145461, 0.4128031274469915, 0.3735977135838638, 0.3380452211489962])","array('d', [-0.03867967799305918, -0.032679815868883924, -0.027353939323659017, -0.0227029715930188, -0.018690240678353624, -0.015255028261120622, -0.012426307480623833, -0.010201252236019915, -0.008462914215653837, -0.007112615567018733, -0.006067883495371624, -0.005260090779362137, -0.004631926450935384, -0.004134947197132575, -0.003727435172043869, -0.00337272343599292])","array('d', [2.209546939530645, 2.1611147122370764, 2.1112414929055094, 2.06003748360519, 2.0076062380789823, 1.9540448278104061, 1.9215790690575938, 1.8897790528417815, 1.8597152323183603, 1.8319720765015584, 1.806764646944503, 1.7840720521612747, 1.7637421861535563, 1.7455613061345316, 1.7292970982516878, 1.7110823691014951])",-215.61785077437324,-298.5372150412353,-49.79297954109531,0.6910788627054408,-0.015255028261120622,1.9540448278104061,25.000000228163078,-1.0,"[-265.15363222603406, -251.42542326173242, 49.92551703152502]","[-285.1369050316233, -252.13537411394645, 50.33144530700899]","[-275.4340082784768, -237.80515021990223, 60.356338211391716]",10000000000.0,0.030079364776611328
6,0.9116246700286865,-297.106689453125,-218.5769805908203,49.97096252441406,0.6543819904327388,0.015069171786308386,2.1866233507778983,23.148636268395627,"array('d', [-221.35260009765625, -220.12194729673013, -218.85037359576032, -217.54001839660035, -216.19345251393946, -214.8136573025471, -212.4735802372315, -210.1062641221496, -207.71511136830705, -205.30380276345846, -202.87582946181567, -200.43426422477143, -197.9816943001105, -195.5202413167125, -193.05161876573746, -191.07158370179647])","array('d', [-295.3755798339844, -296.23143230844977, -297.02567339591127, -297.7545206570978, -298.41435795351157, -299.0017675136411, -299.8806470886503, -300.68350454161185, -301.4125017890671, -302.07193750378104, -302.66723186373184, -303.20418095865006, -303.6884854893907, -304.12548820464673, -304.5200512106934, -304.8015505079341])","array('d', [-49.98301696777344, -49.93240547522449, -49.889890430163334, -49.854492015668264, -49.82526205824675, -49.8013267738727, -49.768843644038185, -49.74232632844504, -49.720479200858044, -49.70226527630167, -49.68686400875407, -49.67363477954831, -49.66208651730627, -49.65185345526868, -49.64267648611183, -49.6360466586593])","array('d', [0.6318342685699458, 0.6464477935988576, 0.6596706590323171, 0.6716352034985981, 0.6824611719217172, 0.69225691375818, 0.6922752008252289, 0.6718144675939578, 0.637499813737464, 0.5949519356900642, 0.5485433706195196, 0.5014555354123761, 0.45585821259071757, 0.4131003685926678, 0.37386640074091615, 0.3382883393644519])","array('d', [-0.03666216135025037, -0.03092838389631089, -0.02585070303116659, -0.021425426468957485, -0.017613924567679715, -0.014355513645159293, -0.01167642163538462, -0.009572922925087012, -0.007932371085313762, -0.006660121967836161, -0.00567736473668053, -0.004918723819384097, -0.00432974423233494, -0.0038644896330579043, -0.003483458524612032, -0.0031519642165024515])","array('d', [2.202646152177129, 2.1540265239419405, 2.103980125161956, 2.0526163138279196, 2.0000378194078707, 1.9463409114310126, 1.9138049418436673, 1.8819493991201715, 1.85184272429137, 1.8240664967313103, 1.7988330687627625, 1.7761194480267442, 1.7557720639473282, 1.7375762193348463, 1.7212990043080156, 1.7030700091794877])",-214.8136573025471,-299.0017675136411,-49.8013267738727,0.69225691375818,-0.014355513645159293,1.9463409114310126,25.00000022892537,-1.0,"[-265.15363222603406, -251.42542326173242, 49.92551703152502]","[-285.1369050316233, -252.13537411394645, 50.33144530700899]","[-275.4340082784768, -237.80515021990223, 60.356338211391716]",10000000000.0,0.030211448669433594
7,0.9765670299530029,-297.580810546875,-217.77264404296875,49.97010040283203,0.6624292731285093,0.006689170841127639,2.1822824637081957,23.16515563812783,"array('d', [-220.5657196044922, -219.33017407743714, -218.0537821521596, -216.73876866121387, -215.38778705133814, -214.00389808762196, -211.65751865210942, -209.2843409381342, -206.88778332603496, -204.47152336499317, -202.039034644637, -199.5933635787844, -197.13706687757875, -194.67223464992892, -192.20054985616565, -190.21832262022673])","array('d', [-295.881591796875, -296.7307002059766, -297.51743083587405, -298.23803384976713, -298.8889291418641, -299.46673865946633, -300.3287924127778, -301.11425766218935, -301.82536289933637, -302.4664787621765, -303.04309273423917, -303.5610590763905, -304.0261267461323, -304.4436778244377, -304.81860638251806, -305.084258373703])","array('d', [-49.97919464111328, -49.93461711571423, -49.89722053292784, -49.86612509888104, -49.840482947201004, -49.819515386169826, -49.79110240250189, -49.767941833461585, -49.748885999805296, -49.733018169965256, -49.71961423469289, -49.70810974723044, -49.698072636731304, -49.68918152847328, -49.68120913557969, -49.675449719650544])","array('d', [0.6360651850700376, 0.650276085548475, 0.6631346412029012, 0.6747695445419932, 0.6852972413628042, 0.6948230961021812, 0.6946156926871938, 0.6739203747806707, 0.6393816760338523, 0.5966313497800687, 0.5500454241435506, 0.5028039959661597, 0.4570732761101921, 0.4141981565859537, 0.37485950014878267, 0.3391869329601151])","array('d', [-0.03230978548526773, -0.02722062973650477, -0.022721740643596552, -0.018807138611519236, -0.01544024543330216, -0.012565381517434407, -0.010204877771322689, -0.0083547094756627, -0.00691413785195374, -0.005798817556300267, -0.004938730234705809, -0.004275948812832703, -0.00376232936491148, -0.003357328439292773, -0.0030261218431043664, -0.0027381486321601104])","array('d', [2.1972971121456957, 2.1482674728743043, 2.097842291911763, 2.046129059523002, 1.9932286825207415, 1.9392356585905106, 1.9065370291603916, 1.8745365689024713, 1.844305441371506, 1.8164242140349471, 1.7911024733571592, 1.7683141369085897, 1.7479029051821173, 1.7296519131889656, 1.7133266150134174, 1.6950448366441515])",-214.00389808762196,-299.46673865946633,-49.819515386169826,0.6948230961021812,-0.012565381517434407,1.9392356585905106,25.000000242582182,-1.0,"[-267.02207937808464, -250.18666335680814, 49.92841466662405]","[-287.00813926356017, -250.53793131924965, 50.58721742371284]","[-276.9238114944283, -236.38160339950903, 60.4818984834281]",10000000000.0,0.03231453895568848
8,1.029970407485962,-298.4992370605469,-216.15443420410156,49.976173400878906,0.6771015524864192,-0.009877851232886266,2.172894136109624,23.191431113776993,"array('d', [-219.37625122070312, -218.1343837224857, -216.85144500706593, -215.5298513062049, -214.1724405215346, -212.78244995789103, -210.4265375870952, -208.04441449871138, -205.63955093524356, -203.215645245103, -200.77616487327444, -198.32413104355956, -195.86206403598436, -193.39201234465105, -190.91561620399364, -188.93003435451266])","array('d', [-296.62347412109375, -297.4638949993053, -298.24034908759603, -298.9491473419172, -299.5867778443441, -300.14993864774124, -300.98582952843526, -301.7439086822586, -302.4265282868468, -303.03820366093356, -303.5845631999698, -304.0715859353377, -304.50512598170496, -304.89065208902224, -305.23312934924655, -305.4724920283489])","array('d', [-49.9732666015625, -49.9418583380955, -49.91556489201876, -49.893749546503656, -49.8758014547301, -49.861161925789396, -49.84137744235415, -49.82529404961363, -49.81209483821228, -49.801129238246105, -49.79188475939212, -49.783962879254325, -49.777059223405814, -49.77094792097093, -49.76546969702395, -49.7615123665644])","array('d', [0.6462839841842649, 0.6595224381922508, 0.671501087813534, 0.6823398191774901, 0.6921471097391039, 0.7010211138825896, 0.7004386073626943, 0.6792833931650781, 0.6442593666976892, 0.6010392204917268, 0.5540201731050763, 0.5063891542665162, 0.46031097866037995, 0.4171255262948118, 0.3775079806114548, 0.34158337740070277])","array('d', [-0.0227846670895815, -0.019156624714857455, -0.015956498831195383, -0.013178014356455246, -0.010793136189984901, -0.008760458294033376, -0.007095077225018697, -0.0057934404056310266, -0.004782836999134386, -0.004002685718060375, -0.003402919552670243, -0.002942279550728079, -0.0025865858034956665, -0.0023071229796758335, -0.002079260849369772, -0.0018813932980578194])","array('d', [2.190641061463628, 2.1406108232355714, 2.089261922868213, 2.036697166975599, 1.983012900101384, 1.9282991942390342, 1.895199134914073, 1.8628317143698752, 1.832279202159022, 1.804122931799099, 1.7785676217210016, 1.7555805237609359, 1.7349989414852263, 1.7166006581845519, 1.7001469291442473, 1.6817242130287582])",-212.78244995789103,-300.14993864774124,-49.861161925789396,0.7010211138825896,-0.008760458294033376,1.9282991942390342,25.000000242878368,-1.0,"[-268.55092996781724, -249.17301420773896, 49.93077511440543]","[-288.53209239755313, -249.23083590162062, 50.796687701349946]","[-278.1391726344328, -235.2219730343226, 60.581317482929904]",10000000000.0,0.04298591613769531
9,1.068469762802124,-298.7227783203125,-215.748046875,49.97969436645508,0.6803086996078488,-0.013672718778252565,2.1702255765583853,23.197138202297143,"array('d', [-218.17543029785156, -216.9277188766225, -215.63853220160124, -214.31052166604022, -212.94675010009826, -211.550668396293, -209.1852006208065, -206.79410013763712, -204.38090573814793, -201.9493495569486, -199.50290156989772, -197.04456277452806, -194.5768192557945, -192.10167830892848, -189.62073673011818, -187.6319622393782])","array('d', [-297.3448791503906, -298.1770433996868, -298.9434138876326, -299.64036545441985, -300.26446076725335, -300.8124833337048, -301.62111661010994, -302.35051378717486, -303.00316619473415, -303.583756114682, -304.0980761264881, -304.5522511987333, -304.95225860973545, -305.303668644203, -305.6115295789357, -305.8228137776503])","array('d', [-49.97031021118164, -49.955270992735464, -49.94271662054464, -49.93233226514228, -49.923817290065536, -49.91689795210606, -49.907585942964296, -49.90004900644462, -49.893890071007036, -49.888793938681005, -49.88451303546161, -49.880855354651175, -49.87767462712496, -49.874862627305355, -49.87234337105814, -49.87052375238849])","array('d', [0.6584760546684263, 0.6705542807294231, 0.6814831125833618, 0.6913719294413349, 0.7003197016866122, 0.7084159812066149, 0.707432320888242, 0.6857559999613237, 0.6501664197846287, 0.6063896917515873, 0.5588519651106735, 0.5107509476758115, 0.46425156782322036, 0.4206888641584462, 0.38073189803489443, 0.3445004987719342])","array('d', [-0.01092323102056986, -0.009158832694080733, -0.007606424765203626, -0.0062619231768451, -0.0051106442572198315, -0.004131506814922417, -0.003331464160256338, -0.002708486734982152, -0.0022267037012804218, -0.0018563826606955095, -0.001573067823775201, -0.001356687501969552, -0.0011906647751908645, -0.0010610969858149788, -0.0009560605560152701, -0.0008650797455794018])","array('d', [2.1845123926785326, 2.133268664517829, 2.080800817797338, 2.0272057251272915, 1.9725739700503155, 1.9169900562839568, 1.8834040881997869, 1.85059036390111, 1.8196458893230212, 1.791153687912929, 1.7653129360922548, 1.7420829306277879, 1.7212932305765878, 1.7027150916233107, 1.6861046218909628, 1.667509991968132])",-211.550668396293,-300.8124833337048,-49.91689795210606,0.7084159812066149,-0.004131506814922417,1.9169900562839568,25.000000231132237,-1.0,"[-268.55092996781724, -249.17301420773896, 49.93077511440543]","[-288.53209239755313, -249.23083590162062, 50.796687701349946]","[-278.1391726344328, -235.2219730343226, 60.581317482929904]",10000000000.0,0.030694007873535156
10,1.0994210243225098,-298.94427490234375,-215.3404541015625,49.98392105102539,0.6830916404724118,-0.01719498261809353,2.1674028197911124,23.201056467288648,"array('d', [-217.77264404296875, -216.5228754846866, -215.23151094297333, -213.90128236407722, -212.53532916843642, -211.13717451811664, -208.76847584677176, -206.37435599137052, -203.95837634163468, -201.52427898338973, -199.07553296550128, -196.61513069656948, -194.14554513548725, -191.66876831127382, -189.1863812136826, -187.1966057439935])","array('d', [-297.580810546875, -298.4099630229212, -299.1727182067899, -299.8654710992446, -300.4848087973998, -301.02754341175427, -301.8266941199069, -302.54614059120485, -303.18842163503456, -303.7582757009429, -304.26155009627223, -304.70441809799576, -305.09289752743103, -305.4325919401763, -305.72857676915754, -305.9302366679007])","array('d', [-49.97010040283203, -49.96089835878584, -49.95323129137671, -49.946902755225196, -49.94172571006976, -49.937530290639735, -49.93190195442572, -49.92736213605938, -49.923665297439115, -49.920616801613384, -49.91806396062067, -49.91588849268264, -49.91400040082855, -49.91233320697309, -49.910840381836785, -49.909762268649224])","array('d', [0.6624292731285093, 0.6741313010380763, 0.6847197346972398, 0.6943005465037863, 0.7029696242287238, 0.7108137304984674, 0.7096904938231388, 0.6878388077801325, 0.6520622443411275, 0.6081036323706029, 0.5603978279965549, 0.5121454379658059, 0.4655109677144148, 0.4218275670220444, 0.3817621191626017, 0.3454326814815159])","array('d', [-0.006689170841127639, -0.005598493577483275, -0.004640292670684794, -0.003811605044727008, -0.0031029573933852024, -0.0025009847063018767, -0.00200988066571947, -0.001628340855494904, -0.001334040615645373, -0.001108518784934026, -0.0009366219295280171, -0.0008059327809942532, -0.0007062044992078401, -0.0006288412459852462, -0.0005664595759282573, -0.0005125541691189124])","array('d', [2.1822824637081957, 2.130640531085951, 2.077805824523965, 2.023873205295001, 1.96893130952243, 1.9130627639721607, 1.8793182874143974, 1.8463596239511644, 1.8152883660609433, 1.7866878651484828, 1.7607553255083443, 1.7374473523708802, 1.7165909333126574, 1.6979551812583804, 1.6812945286937813, 1.6626448754481002])",-211.13717451811664,-301.02754341175427,-49.937530290639735,0.7108137304984674,-0.0025009847063018767,1.9130627639721607,25.000000231389723,-1.0,"[-270.42816550479614, -247.76423488116254, 49.93733325960768]","[-290.3930977879575, -247.44805140557725, 51.07816932957926]","[-279.6070861906024, -233.620548703721, 60.69389201962602]",10000000000.0,0.023345947265625
11,1.1273791790008545,-299.38140869140625,-214.5219268798828,49.994380950927734,0.688021123409271,-0.023368755355477246,2.161459998288427,23.208189786890586,"array('d', [-217.36863708496094, -216.11683495086467, -214.82331812556592, -213.49089963993055, -212.1227957564162, -210.72260188935698, -208.3507316077909, -205.95365355025677, -203.5349516564026, -201.0983776528204, -198.64739927998568, -196.1850000054702, -193.71363937546553, -191.23529393391044, -188.75152870196416, -186.76080620144785])","array('d', [-297.8144836425781, -298.64060321031246, -299.3997321171978, -300.0882844087567, -300.70287086406637, -301.2403317241074, -302.0300337994564, -302.7395712694998, -303.3715301083546, -303.93070442482434, -304.42299563225737, -304.8546246656909, -305.2316492682779, -305.5597057029332, -305.8438960611176, -306.0360001357555])","array('d', [-49.97041320800781, -49.96719195137643, -49.96452588188165, -49.96234188101026, -49.96057094247076, -49.95915086481013, -49.95726969726062, -49.95577381407381, -49.954573888593174, -49.95359930707472, -49.95279480800038, -49.95211767976857, -49.951535516462876, -49.95102450094023, -49.95056815006003, -49.950238774556674])","array('d', [0.6663045883178708, 0.6776378315460004, 0.687892574996041, 0.6971714513881231, 0.70556732662784, 0.7131642290465181, 0.7119021143915852, 0.6898770360280142, 0.6539162828576262, 0.6097789862128882, 0.5619084007959616, 0.5135078379291286, 0.4667412761688819, 0.4229399334888024, 0.3827685087274051, 0.34634330049929973])","array('d', [-0.0023484604898840965, -0.0019531463494294322, -0.0016073829223301778, -0.0013095871327652923, -0.001055896887427534, -0.000841123148686529, -0.0006667204059468258, -0.0005322297761679871, -0.00042942561476171526, -0.00035153891784917186, -0.0002930362872092369, -0.0002493943345882878, -0.00021687873493861031, -0.00019234298763755683, -0.00017305940442917674, -0.00015659094180275])","array('d', [2.1800468126919608, 2.1280122190409463, 2.074815917664926, 2.0205507542046663, 1.9653034160091778, 1.9091546543405065, 1.8752542472766083, 1.842153174728954, 1.8109574981090917, 1.7822508326107367, 1.756228393598547, 1.7328441074995289, 1.7119224163716467, 1.6932303192869005, 1.6765205998857575, 1.6578171564849102])",-210.72260188935698,-301.2403317241074,-49.95915086481013,0.7131642290465181,-0.000841123148686529,1.9091546543405065,25.000000231639355,-1.0,"[-270.42816550479614, -247.76423488116254, 49.93733325960768]","[-290.3930977879575, -247.44805140557725, 51.07816932957926]","[-279.6070861906024, -233.620548703721, 60.69389201962602]",10000000000.0,0.023305416107177734
12,1.1512937545776367,-299.8109130859375,-213.6991729736328,50.007633209228516,0.692233324050903,-0.028209013864397985,2.1549854437497,23.216431604352028,"array('d', [-216.5595703125, -215.3036268585942, -214.00576565717148, -212.66895980025961, -211.29657646958083, -209.89235220982738, -207.51424809006244, -205.11138179093535, -202.68738018762625, -200.246011181386, -197.79073679118176, -195.3245199340689, -192.84979120587562, -190.3684945525382, -187.88216183094826, -185.8896991385215])","array('d', [-298.27362060546875, -299.09338712849006, -299.84502887697, -300.5249943117423, -301.1299388866616, -301.65675710976274, -302.4274613670418, -303.1171245299754, -303.7284253905564, -304.2662661669635, -304.7366525028572, -305.1458965855943, -305.5001322316877, -305.8050577867843, -306.06582578190245, -306.2389683642574])","array('d', [-49.97333908081055, -49.98150085216733, -49.9883342463532, -49.99400671658312, -49.99867860308737, -50.00249611421238, -50.0076690908859, -50.011889418091556, -50.01536778435744, -50.01827105263242, -50.02073000250644, -50.02284587416507, -50.024695719142784, -50.02633662094689, -50.02780892339245, -50.02887271466021])","array('d', [0.6735975146293637, 0.6842367447970662, 0.6938635192169422, 0.7025741857036941, 0.7104559233629416, 0.7175876150392069, 0.7160465697507631, 0.6936836137634792, 0.6573698797366008, 0.6128939370542399, 0.56471356232866, 0.516036069307118, 0.4690236281702071, 0.4250032647907033, 0.38463523467631056, 0.3480323841504608])","array('d', [0.0059204730205237865, 0.00497767081753783, 0.004147403804662878, 0.0034279106777762303, 0.0028115634568108743, 0.002287204331336609, 0.0018583343573517048, 0.0015235144563582222, 0.0012635167149067665, 0.0010624525588853859, 0.0009072959613145573, 0.0007874016284633303, 0.0006940320652400714, 0.0006199257018417374, 0.0005589337789307861, 0.0005057441330450279])","array('d', [2.1753682057049613, 2.1225883722153873, 2.0687062295575194, 2.013810707017912, 1.9579847137128756, 1.9013053726413642, 1.8671104639364586, 1.8337415853254524, 1.802312800284743, 1.7734078190601161, 1.7472178217556054, 1.7236915202303884, 1.7026484814890246, 1.6838516966943522, 1.667050846104427, 1.6482475151499056])",-209.89235220982738,-301.65675710976274,-50.00249611421238,0.7175876150392069,0.002287204331336609,1.9013053726413642,25.00000024351622,-1.0,"[-270.42816550479614, -247.76423488116254, 49.93733325960768]","[-290.3930977879575, -247.44805140557725, 51.07816932957926]","[-279.6070861906024, -233.620548703721, 60.69389201962602]",10000000000.0,0.022507667541503906
13,1.1790249347686768,-300.0229187011719,-213.2863006591797,50.01520919799805,0.6941289901733397,-0.030352922156453084,2.151843504109655,23.219139507543527,"array('d', [-215.748046875, -214.4877031042976, -213.1852988558201, -211.84396456429118, -210.46721480853233, -209.05892300355399, -206.6745828788563, -204.2659670504288, -201.8367417360101, -199.3906857386455, -196.9312499127561, -194.46137175408518, -191.9834488401897, -189.49938923121326, -187.01068899722813, -185.0166534364696])","array('d', [-298.7227783203125, -299.5355775929746, -300.27917618367724, -300.9500534211413, -301.5449070803978, -302.0606844105267, -302.8117947819574, -303.4810412681707, -304.07119518487735, -304.5872637816469, -305.0353524211323, -305.4218596474544, -305.75299066941955, -306.03450170734686, -306.27159205927825, -306.42559157523834])","array('d', [-49.97969436645508, -49.99851323509928, -50.01421456843798, -50.027199344098584, -50.03784913900643, -50.046510046138835, -50.05818285166562, -50.06765132830446, -50.075410587528886, -50.08185166482221, -50.08728028278758, -50.09193258030006, -50.09598786013468, -50.09957854432907, -50.102797697689006, -50.105123231983185])","array('d', [0.6803086996078488, 0.6903092765962657, 0.6993581736578424, 0.7075459550188208, 0.7149545665594629, 0.7216581557687697, 0.7198277953656573, 0.6971328216921434, 0.6604829166786329, 0.6156912535242717, 0.5672265440985244, 0.5182977938182469, 0.47106404247703226, 0.4268474718882225, 0.38630366475326017, 0.34954204223963614])","array('d', [0.013672718778252565, 0.011456736761641596, 0.00951121537111643, 0.007830081938190065, 0.006393726525165934, 0.005174552870708705, 0.004180311703399905, 0.0034073818447766086, 0.0028100010367166604, 0.0023505313650283048, 0.0019982432691730144, 0.0017281033379077176, 0.0015196001769588977, 0.001355682615860774, 0.0012218729777650405, 0.0011055961862828172])","array('d', [2.1702255765583853, 2.1167525344473614, 2.0622329571642095, 2.006752020577577, 1.950389023186732, 1.8932176306049764, 1.8587509157707651, 1.8251369326543416, 1.7934962803273227, 1.764412033168857, 1.7380711724208129, 1.7144173456279619, 1.6932655189317591, 1.674374968388649, 1.6574925356368693, 1.638599826244602])",-209.05892300355399,-302.0606844105267,-50.046510046138835,0.7216581557687697,0.005174552870708705,1.8932176306049764,25.00000023261669,-1.0,"[-270.42816550479614, -247.76423488116254, 49.93733325960768]","[-290.3930977879575, -247.44805140557725, 51.07816932957926]","[-279.6070861906024, -233.620548703721, 60.69389201962602]",10000000000.0,0.021530628204345703
14,1.2099075317382812,-300.0229187011719,-213.2863006591797,50.01520919799805,0.6941289901733397,-0.030352922156453084,2.151843504109655,23.219139507543527,"array('d', [-215.3404541015625, -214.07776160752772, -212.7729924447196, -211.4293471796086, -210.05040575393963, -208.64010193557522, -206.25271113276372, -203.84130593416614, -201.40956784451438, -198.96127668176825, -196.49987396963667, -194.02828163727807, -191.54887871177323, -189.06355391191784, -186.5737844865611, -184.57905264772305])","array('d', [-298.94427490234375, -299.75328973784946, -300.4926307300571, -301.1587908579224, -301.74848718572525, -302.2586912900096, -302.9999935271342, -303.65907810511635, -304.2387599057354, -304.7440936233947, -305.1812285995874, -305.55660084747, -305.8764461776567, -306.1465453828575, -306.3721174662937, -306.51682155494956])","array('d', [-49.98392105102539, -50.00757614445106, -50.02729184301402, -50.04357851341608, -50.05692071367928, -50.06775707440139, -50.08234077566565, -50.094152714500446, -50.10381832127281, -50.1118309808082, -50.118576036532524, -50.12435085137264, -50.12938101769508, -50.13383297876275, -50.137823536092796, -50.14070621602386])","array('d', [0.6830916404724118, 0.6928273858511091, 0.7016366533411634, 0.7096076088800211, 0.7168200282867238, 0.7233460955006136, 0.7213710875814513, 0.6985227809624832, 0.6617252270256996, 0.6167997898840177, 0.5682178512552046, 0.5191876353977404, 0.4718658129371213, 0.42757184485970523, 0.3869589577802121, 0.3501349759436774])","array('d', [0.01719498261809353, 0.014393199400620607, 0.011936151001366784, 0.009815221849159565, 0.008004816846277941, 0.006469405061181903, 0.005218490523218919, 0.0042472974227987246, 0.003497711947297891, 0.0029220302027835694, 0.0024813719740957065, 0.0021441101847283458, 0.0018843587359152127, 0.0016806108974791916, 0.0015146056050368854, 0.0013704716306804166])","array('d', [2.1674028197911124, 2.1136401977748256, 2.058854490840674, 2.003129274380701, 1.946542310451386, 1.8891657963574835, 1.8545866950095422, 1.8208728505015743, 1.789146900250733, 1.7599911323938258, 1.7335904679019325, 1.709886297813912, 1.688691626358411, 1.6697641902474698, 1.652849680527509, 1.6339218343300947])",-208.64010193557522,-302.2586912900096,-50.06775707440139,0.7233460955006136,0.006469405061181903,1.8891657963574835,25.000000232829848,-1.0,"[-270.42816550479614, -247.76423488116254, 49.93733325960768]","[-290.3930977879575, -247.44805140557725, 51.07816932957926]","[-279.6070861906024, -233.620548703721, 60.69389201962602]",10000000000.0,0.022955894470214844
15,1.252692461013794,-300.8515625,-211.6320343017578,50.052833557128906,0.7001043558120726,-0.036504071205854395,2.1391442577030997,23.223187001587213,"array('d', [-214.5219268798828, -213.25437478149294, -211.9447779465788, -210.59646812463572, -209.21314698723455, -206.86553435236826, -204.48944757339058, -202.08794265680837, -199.66477703404294, -197.22385142206966, -194.76874256387796, -192.30250372502954, -189.8276330084092, -187.34612333351743, -184.8595415048121, -182.8668648927692])","array('d', [-299.38140869140625, -300.1824876639589, -300.91301731829157, -301.56951620575023, -302.1487382383812, -303.00752856351977, -303.78419531756106, -304.4784067151802, -305.0928752300649, -305.63261480824127, -306.10377397393876, -306.5128087720039, -306.86598349580123, -307.1691090988241, -307.42743321213254, -307.5981159678577])","array('d', [-49.994380950927734, -50.02646443841038, -50.05307603491308, -50.074919617233164, -50.09265817967372, -50.11647056574259, -50.13565106715603, -50.151207815571816, -50.163949072004456, -50.17451630309681, -50.1834130668926, -50.19102960969697, -50.19766302573136, -50.203533113980995, -50.208794403195895, -50.212594952591374])","array('d', [0.688021123409271, 0.6972877668689779, 0.7056725733496073, 0.7132594606428955, 0.7201243606594186, 0.7263359790898959, 0.7250764137422143, 0.7025671090137948, 0.6658262986533078, 0.6207716798043582, 0.5719533057873007, 0.5226358962080504, 0.475013341418673, 0.43042766778021174, 0.38954396825020204, 0.3524739903546159])","array('d', [0.023368755355477246, 0.019477432918109095, 0.01606352574878066, 0.013111536124702072, 0.010582625574162627, 0.008502278947249716, 0.006869512097302503, 0.00559719250772518, 0.004612287264901991, 0.003854169816274603, 0.003272952146664707, 0.00282771889567393, 0.002484741681423204, 0.0022158193693777102, 0.001996867643428056, 0.0018068404010193133])","array('d', [2.161459998288427, 2.107181326593097, 2.0519215835702362, 1.9957614436988311, 1.9387758890160478, 1.904131034943851, 1.8693174680471718, 1.8353383153200042, 1.8033471475181408, 1.7739447608918173, 1.7473238301845597, 1.7234268617540083, 1.7020647487596066, 1.6829919489257625, 1.6659507535433418, 1.6468841101322846])",-206.86553435236826,-303.00752856351977,-50.11647056574259,0.7263359790898959,0.008502278947249716,1.904131034943851,25.00000023116635,-1.0,"[-272.96032993954435, -245.79782066586867, 49.9478798048925]","[-292.8855368223081, -244.97179020208512, 51.46570863317482]","[-281.5716082259259, -231.39943507773378, 60.83513743617337]",10000000000.0,0.03449273109436035
16,1.294743299484253,-301.0543518066406,-211.21670532226562,50.063350677490234,0.7015276551246641,-0.03745612874627104,2.1357268849995474,23.22328689788128,"array('d', [-213.6991729736328, -212.42641756008058, -211.111744301069, -209.75860451182248, -208.370810322656, -206.01633394855315, -203.6339006790003, -201.22661854314217, -198.7982655500148, -196.35273437157812, -193.89357444666805, -191.42380115482527, -188.94587050758346, -186.46173317706405, -183.9729158349504, -181.9787683951697])","array('d', [-299.8109130859375, -300.60339729427386, -301.32452421130574, -301.9708387512417, -302.5391319419247, -303.37877136902364, -304.13563871228746, -304.8094644223039, -305.40304133774663, -305.92146697798626, -306.3709651684505, -306.7580548335688, -307.0890508400489, -307.3698042542027, -307.60559454989954, -307.75812875572717])","array('d', [-50.007633209228516, -50.04632808540697, -50.07836509872366, -50.104612299734384, -50.12588342097582, -50.15437456387335, -50.17727160216721, -50.19580198684792, -50.21094721626346, -50.223484409707865, -50.23402235103444, -50.24303197578274, -50.250871211243044, -50.25780441024954, -50.26401701169406, -50.26850450645525])","array('d', [0.692233324050903, 0.7010991239672139, 0.7091212321781444, 0.7163799364757856, 0.7229478842105943, 0.7288908090721976, 0.7273504882790741, 0.7045694052340848, 0.6675838621972229, 0.6223191511350928, 0.5733247786590323, 0.5238605511976528, 0.47611403071962594, 0.43142127660352875, 0.39044271664545427, 0.35328721160573473])","array('d', [0.028209013864397985, 0.023469000237971913, 0.019319518603595376, 0.01573829658430835, 0.012675258026083384, 0.010160113165287421, 0.00819063125863508, 0.006659358231686632, 0.005476630267819259, 0.0045683192179192585, 0.0038736474095844384, 0.00334292157410553, 0.0029352773764882204, 0.00261660500574927, 0.002357798651722621, 0.0021334243182547065])","array('d', [2.1549854437497, 2.1002626171803462, 2.044595111456326, 1.988061053213475, 1.9307329879816062, 1.8959000803802164, 1.8609169934667136, 1.8267908361385676, 1.7946767094622393, 1.7651729528289843, 1.7384683148647166, 1.7145014706316166, 1.6930801861665254, 1.6739565767352242, 1.656871249154186, 1.6377562920680298])",-206.01633394855315,-303.37877136902364,-50.15437456387335,0.7288908090721976,0.010160113165287421,1.8959000803802164,25.00000023177943,-1.0,"[-273.68524943816465, -245.23484348490976, 49.95091321717401]","[-293.59539326161206, -244.2626154976632, 51.57601188201023]","[-282.1323510960559, -230.76598517234717, 60.873303647489095]",10000000000.0,0.030790328979492188
17,1.3317241668701172,-301.65362548828125,-209.9656982421875,50.097564697265625,0.7060189247131345,-0.039480786770582185,2.12599511543778,23.22514779926964,"array('d', [-213.2863006591797, -212.0110491783998, -210.69395346104506, -209.33852035914433, -207.94861312884424, -205.59090848902804, -203.20550091376194, -200.79552234564895, -198.36475943955853, -195.91709980113558, -193.45607877014882, -190.98469280279784, -188.50537719385483, -186.02006199683666, -183.53025440326311, -181.5354666127383])","array('d', [-300.0229187011719, -300.81122805231536, -301.52780700227333, -302.169212994985, -302.7322547370517, -303.5627113913764, -304.3100985843012, -304.9741768022259, -305.5577769778986, -306.0660356256883, -306.5052113440334, -306.88185187101413, -307.2022951054597, -307.47241028856564, -307.697491259713, -307.84140478876674])","array('d', [-50.01520919799805, -50.05682779744024, -50.09125614968114, -50.11943762523375, -50.142254583400735, -50.17278464964339, -50.1972943045763, -50.21710948843557, -50.23328914246419, -50.246670778841285, -50.257909857797785, -50.26751299218442, -50.2758649282201, -50.28324960207515, -50.28986598634542, -50.29464501954209])","array('d', [0.6941289901733397, 0.7028143937623597, 0.7106732726115123, 0.7177842808615573, 0.7242185876740665, 0.7300405892193386, 0.7283657395153328, 0.7054571685299644, 0.6683587762815256, 0.6229985953261429, 0.5739252591278212, 0.5243958685276788, 0.47659478402950267, 0.4318551471794953, 0.3908351511146268, 0.35364230102969063])","array('d', [0.030352922156453084, 0.025231168589912402, 0.0207520914121503, 0.01688987351803612, 0.013588990175473476, 0.010880854313325212, 0.008762525200148375, 0.007117236216911024, 0.005847755583125124, 0.0048738516213874036, 0.004129853328810879, 0.0035621436351178756, 0.0031266819831848405, 0.0027867366366363068, 0.0025109771573596767, 0.002272025974203476])","array('d', [2.151843504109655, 2.096919816121069, 2.0410679777699925, 1.9843649476591423, 1.9268821559402567, 1.8919643233784253, 1.8569050002653942, 1.8227132509625323, 1.7905446296049208, 1.7609961861617667, 1.7342547911418844, 1.7102573416717823, 1.6888101783710674, 1.6696643630394121, 1.652559753536615, 1.6334236899572478])",-205.59090848902804,-303.5627113913764,-50.17278464964339,0.7300405892193386,0.010880854313325212,1.8919643233784253,25.000000232039483,-1.0,"[-273.68524943816465, -245.23484348490976, 49.95091321717401]","[-293.59539326161206, -244.2626154976632, 51.57601188201023]","[-282.1323510960559, -230.76598517234717, 60.873303647489095]",10000000000.0,0.028244972229003906
18,1.393214225769043,-302.0459899902344,-209.12783813476562,50.12113952636719,0.709234893321991,-0.040937110781669596,2.1196727911618094,23.224455383797977,"array('d', [-212.0464630126953, -210.76385065919376, -209.43970208271952, -208.077667637859, -206.68174222937023, -205.2562387561675, -202.8462854098375, -200.41460325760124, -197.96493746006004, -195.5010203931163, -193.0261740666956, -190.54316311854552, -188.05419585590153, -185.5609918815111, -183.06486910613407, -181.06628845472767])","array('d', [-300.647216796875, -301.4230880123432, -302.12624001619156, -302.7532681093123, -303.3010323576424, -303.7666826336021, -304.43049510351915, -305.00995495823247, -305.5081959150371, -305.9305920631378, -306.2835737010497, -306.57380737464064, -306.8077117652032, -306.991211081957, -307.1296371267427, -307.2042170935046])","array('d', [-50.04265594482422, -50.09110846045344, -50.1312196886554, -50.16412807972069, -50.19089554081328, -50.21246921777067, -50.24126178742709, -50.26438466376997, -50.28315355272572, -50.298597534021525, -50.31151430922419, -50.322515391927666, -50.332061909126544, -50.34049196388974, -50.34804086317555, -50.353492811948996])","array('d', [0.6987852454185483, 0.7070275481171403, 0.714485492666145, 0.7212337205333177, 0.7273397700901979, 0.7328647523711617, 0.7297294366884753, 0.7057991293890657, 0.6680554061435533, 0.6223370462389398, 0.573104198093865, 0.5235400188098126, 0.4757730284254671, 0.4310975823725585, 0.3901479197473449, 0.35302046831746603])","array('d', [0.03533634170889844, 0.02937775014109255, 0.02419675336748183, 0.019758694273440527, 0.015995940032843367, 0.012822899339839511, 0.010254517502293229, 0.008277038471155976, 0.006763464474981171, 0.005611024708693373, 0.004737021772382636, 0.004074918082177389, 0.0035707251918397813, 0.0031798519296214415, 0.0028645367445452024, 0.0025919399468412375])","array('d', [2.142455295720372, 2.0870356422849747, 2.030728842436617, 1.9736089277185793, 1.9157445376343523, 1.8571991875926506, 1.8219926565156888, 1.7877423329536264, 1.7555725808226605, 1.7260538584792324, 1.699355077771875, 1.675402829998629, 1.6539983981047348, 1.6348909242522678, 1.6178200252130954, 1.5987209354521987])",-205.2562387561675,-303.7666826336021,-50.21246921777067,0.7328647523711617,0.012822899339839511,1.8571991875926506,25.00000023459114,-1.0,"[-275.12917487719665, -244.11345994153024, 49.956974074654646]","[-295.0044241780618, -242.84979381339986, 51.79480245213548]","[-283.2471342740601, -229.50752774080038, 60.94630889431317]",10000000000.0,0.0581507682800293
19,1.4445035457611084,-302.62310791015625,-207.86900329589844,50.157630920410156,0.7132425904273985,-0.043305438011884634,2.1093732873585562,23.222506586630573,"array('d', [-211.21670532226562, -209.9288693576162, -208.59977415579462, -207.23315909951964, -205.83310052832337, -203.46007238460388, -201.06067887872103, -198.6381488547691, -196.19629065856572, -193.73894805767304, -191.26957210136484, -188.791055406081, -186.30572410052122, -183.81540216346767, -181.32149813879022, -179.324168376294])","array('d', [-301.0543518066406, -301.8213345475927, -302.5149611662605, -303.1318552513843, -303.668913507019, -304.4542300384681, -305.1552203186777, -305.77179615061874, -306.3069685329396, -306.7660482028348, -307.1554434373486, -307.4818226240626, -307.75161801437963, -307.9707719711866, -308.14463526072245, -308.2473859365556])","array('d', [-50.063350677490234, -50.114605386250716, -50.156826604247364, -50.1912368562743, -50.21896669068664, -50.25588154943941, -50.28536203943008, -50.30907509410167, -50.328344028102194, -50.34420989877452, -50.35748369775025, -50.36878972228314, -50.37860036245364, -50.387262930556275, -50.39501961773736, -50.40062154991939])","array('d', [0.7015276551246641, 0.7095089832604614, 0.7167307882367017, 0.7232653481562418, 0.7291780629023253, 0.7345281083826907, 0.7321847824738946, 0.7086884479975446, 0.6711026938198815, 0.6253541312193354, 0.5759769890149783, 0.5262092168638163, 0.4782165601399419, 0.43331674807113835, 0.3921569088355027, 0.35483827698132797])","array('d', [0.03745612874627104, 0.03100453383506951, 0.025391569968872315, 0.02057321590938185, 0.0164704712604257, 0.013118421496572075, 0.010510036676700824, 0.008494320738755957, 0.006946796283846012, 0.005765689296756084, 0.004868369124486926, 0.0041878341047537895, 0.0036693475817561457, 0.0032674256150061237, 0.0029433404562489614, 0.002663244500247935])","array('d', [2.1357268849995474, 2.0800133749545133, 2.023437142426927, 1.9660704553888617, 1.9079802750282246, 1.8727292263346238, 1.8373761194454605, 1.8029404493718633, 1.7705753892335285, 1.7408698785509804, 1.7140016732251964, 1.6898999180313152, 1.6683651582343935, 1.649144409599934, 1.631974798879637, 1.6127675967283592])",-203.46007238460388,-304.4542300384681,-50.25588154943941,0.7345281083826907,0.013118421496572075,1.8727292263346238,25.00000023324021,-1.0,"[-275.12917487719665, -244.11345994153024, 49.956974074654646]","[-295.0044241780618, -242.84979381339986, 51.79480245213548]","[-283.2471342740601, -229.50752774080038, 60.94630889431317]",10000000000.0,0.03690910339355469
20,1.4968559741973877,-303.0004577636719,-207.02694702148438,50.182884216308594,0.715977907180786,-0.04429354891180991,2.102407113709722,23.22147534639938,"array('d', [-209.9656982421875, -208.6703613268684, -207.3341593675426, -205.96096779657304, -204.55498764542602, -203.12071887588732, -200.69806982681843, -198.25522516068506, -195.79593756006201, -193.32388110128048, -190.84228071511146, -188.35378669723852, -185.86048985038994, -183.36399714716103, -180.86552267521506, -178.86581714378104])","array('d', [-301.65362548828125, -302.40767011903444, -303.08735012662, -303.68933894284555, -304.2105944635318, -304.64838122270316, -305.26411292326134, -305.7944509215776, -306.242721419934, -306.61447569178364, -306.91629085905043, -307.1549484286657, -307.3369547876743, -307.46830066301925, -307.5543686820551, -307.58691506755144])","array('d', [-50.097564697265625, -50.151593264072325, -50.19613565382193, -50.23252771237195, -50.26200181229807, -50.28564715834025, -50.317045574262146, -50.34213103890463, -50.36239226230475, -50.378987743287425, -50.392811534184716, -50.4045463765582, -50.414705324541224, -50.42366322000164, -50.4316797093338, -50.43746854038292])","array('d', [0.7060189247131345, 0.7135728524442041, 0.7204079295205985, 0.7265925635623506, 0.732188652339151, 0.7372522031934742, 0.7333723609578472, 0.7088117999359672, 0.670563767071199, 0.62445718802848, 0.5749309021734526, 0.5251439634096766, 0.477203007482136, 0.43238497727218894, 0.3913119688273055, 0.3540737435876677])","array('d', [0.039480786770582185, 0.03268637252861371, 0.02681032286274422, 0.021800803571144323, 0.017571115092767674, 0.01401663163116054, 0.011150581339403479, 0.008954761655072155, 0.007282296304538116, 0.006015322398956633, 0.0050597085325805435, 0.004340202741765167, 0.003796055493361438, 0.0033772624951265815, 0.0030415404449432924, 0.002752099741361164])","array('d', [2.12599511543778, 2.0697975180394512, 2.0127776449287564, 1.9550048103568727, 1.896543169733093, 1.837451993414473, 1.8019604606933413, 1.7674795879884875, 1.7351283640355373, 1.7054672136228621, 1.678655006107043, 1.6546102858452016, 1.6331285687838786, 1.6139551136566725, 1.5968270051632696, 1.5776652907088087])",-203.12071887588732,-304.64838122270316,-50.28564715834025,0.7372522031934742,0.01401663163116054,1.837451993414473,25.000000244749657,-1.0,"[-277.5831723697057, -242.0393388091648, 49.96456367620345]","[-297.38227910044634, -240.28628570404896, 52.183161764047384]","[-285.12727928332583, -227.22129519578488, 61.07816049936739]",10000000000.0,0.04927492141723633
21,1.5866875648498535,-303.91888427734375,-204.90853881835938,50.24828338623047,0.723111808300018,-0.046564962714910514,2.085119263329778,23.217334259798925,"array('d', [-209.12783813476562, -207.8276899731277, -206.4869125554878, -205.10947898634132, -203.69967941117616, -201.3120780854426, -198.89949975433632, -196.46526488884052, -194.01319793371255, -191.54709325399537, -189.07031255516722, -186.58564030045545, -184.09528988906465, -181.60097631439723, -179.10400708915856, -177.10497401391012])","array('d', [-302.0459899902344, -302.7915641897265, -303.46207878669026, -304.0542401724092, -304.56504766602296, -305.3047306719365, -305.95880540774573, -306.5273472469244, -307.01355736108303, -307.42292766541004, -307.76202027022646, -308.0376263252044, -308.2562732333779, -308.42397651041335, -308.5461434733523, -308.6073575104397])","array('d', [-50.12113952636719, -50.177046823743574, -50.222906312522646, -50.26011821978021, -50.28996373840218, -50.329488497810715, -50.360883171280214, -50.386002525751444, -50.40631047183284, -50.422952758086176, -50.436817930947825, -50.448587321415076, -50.458774657221184, -50.46775627153293, -50.47579331885957, -50.4815968691041])","array('d', [0.709234893321991, 0.7164827814028809, 0.7230409423132844, 0.7289750121949874, 0.73434438103458, 0.7392027867483828, 0.7361608506081128, 0.7120507783991171, 0.6739567115768238, 0.6278035239285029, 0.5781101587400762, 0.528094422167638, 0.4799025669108891, 0.43483622982325126, 0.3935310091654414, 0.3560816144887612])","array('d', [0.040937110781669596, 0.033743389947941384, 0.027516108102564604, 0.022193706469850555, 0.017678304746885518, 0.014004130309338135, 0.011159727223938034, 0.008972584236613049, 0.007301824649041453, 0.006033265551871591, 0.0050749170852175795, 0.004352678563158068, 0.0038063268981098184, 0.003385992021409758, 0.0030492740236113328, 0.002759097178379251])","array('d', [2.1196727911618094, 2.063126373179858, 2.0057869890798954, 1.9477217867059706, 1.8889928676622945, 1.853391685417022, 1.8177302742852819, 1.7830391044426337, 1.7504686432036805, 1.7205991358813755, 1.693598668273643, 1.6693882065272185, 1.647762204147548, 1.6284634341909348, 1.611226163949479, 1.5919449212158188])",-201.3120780854426,-305.3047306719365,-50.329488497810715,0.7392027867483828,0.014004130309338135,1.853391685417022,25.000000234341968,-1.0,"[-278.25730746533344, -241.44120092223974, 49.96528802949112]","[-298.03115043387743, -239.5531488504098, 52.295608528783326]","[-285.63750572346635, -226.5687122264047, 61.116151389021226]",10000000000.0,0.08318209648132324
22,1.679349660873413,-304.62689208984375,-203.20556640625,50.304317474365234,0.7283238768577573,-0.048531934618949835,2.0722081224110465,23.20981616848349,"array('d', [-207.02694702148438, -205.71400668040553, -204.36125804915412, -202.97289437655314, -201.553405349524, -199.1515170983312, -196.72617868210847, -194.28079183919854, -191.81918150198837, -189.34507484757262, -186.86172758377327, -184.37180184212707, -181.8773867618533, -179.38007914889755, -176.8810781681405, -174.881195423423])","array('d', [-303.0004577636719, -303.72289616716677, -304.3686522512195, -304.93452168656063, -305.41761243035086, -306.10934848333073, -306.7142959943468, -307.2327086969125, -307.66798461857917, -308.0257933377133, -308.3128417652692, -308.5360327774485, -308.70197788796844, -308.8167556283167, -308.8858209289561, -308.90442943722013])","array('d', [-50.182884216308594, -50.243253624257896, -50.292561072026125, -50.33239419469541, -50.364189981892864, -50.406077679310826, -50.439169072779116, -50.46550527475122, -50.486687808537425, -50.503963604572036, -50.51829530469054, -50.530418170602125, -50.54088465594411, -50.550098028412414, -50.55833682455284, -50.564285146021845])","array('d', [0.715977907180786, 0.7225841132055344, 0.7285616561284756, 0.7339703610819615, 0.7388643600330809, 0.7432926332276973, 0.7394881751839546, 0.7147465993859656, 0.6761590731078632, 0.6296358550562694, 0.5796707969702556, 0.5294550337811983, 0.4811113824159317, 0.4359232393829144, 0.3945137106175093, 0.35697079961368333])","array('d', [0.04429354891180991, 0.036353411454862, 0.02951589063466026, 0.023698308439445672, 0.01878131841230145, 0.014796897669504538, 0.011728192517731004, 0.009380330449534003, 0.007595673089949114, 0.006247563804182815, 0.005234755140879811, 0.004476229459529974, 0.0039064877391641025, 0.003471483649877659, 0.003125339551825317, 0.002827924106706513])","array('d', [2.102407113709722, 2.0451232760439177, 1.987108892809083, 1.9284264246610647, 1.8691335413538908, 1.8332234566318761, 1.797295858141721, 1.7623937779294736, 1.7296607377075919, 1.6996660293197747, 1.6725673690203737, 1.6482777139857272, 1.626585954287034, 1.6072312288823514, 1.5899455105616571, 1.5706112687545666])",-199.1515170983312,-306.10934848333073,-50.406077679310826,0.7432926332276973,0.014796897669504538,1.8332234566318761,25.000000235312925,-1.0,"[-279.8966007201282, -239.9340240166691, 49.965901470679206]","[-299.60111409692894, -237.69955125106588, 52.56191457605029]","[-286.8641764133019, -224.932170527069, 61.20855599870185]",10000000000.0,0.06973910331726074
