,current_time,x_pos,y_pos,z_pos,roll,pitch,yaw,vel,x_traj,y_traj,z_traj,roll_traj,pitch_traj,yaw_traj,x_cmd,y_cmd,z_cmd,roll_cmd,pitch_cmd,yaw_cmd,vel_cmd,effector_dmg,effector_x,effector_y,effector_z,cost,time_solution
0,16.390751600265503,-246.68914794921875,-223.19485473632812,50.07443618774414,0.6320151090621946,0.038112979382276424,-0.28333000739547193,23.064738043074207,"array('d', [-222.0574951171875, -222.70189556286752, -223.39818073064302, -224.131885289167, -224.8912816107164, -225.66685680668024, -226.4516891406479, -227.2409761011658, -228.03149536349505, -228.8212089252213, -229.60894781019897, -230.3941535354285, -231.17666760118541, -231.95656568354443, -232.73403494985257, -233.2112779055542])","array('d', [-250.18121337890625, -247.76718061815563, -245.3669409786634, -242.97751457264536, -240.59592768023384, -238.21944601326894, -235.8459396718168, -233.4738723615728, -231.10219232274352, -228.7302297083287, -226.35760165467784, -223.98412831210555, -221.60976236957111, -219.2345332554423, -216.85850614527388, -215.3940048782491])","array('d', [-50.072967529296875, -49.990406100417246, -49.92849229827786, -49.88142572570036, -49.84517885224028, -49.81690418164643, -49.794555772807755, -49.77664300056052, -49.762067254187755, -49.75001160879795, -49.73986523442954, -49.73117113207815, -49.72358984222633, -49.7168742375174, -49.710852035086205, -49.70750130785638])","array('d', [0.6333536505699155, 0.49834168030457293, 0.37617778679873254, 0.26563931525019446, 0.16729344925805237, 0.09572868528354657, 0.04527653270788443, 0.011300026004001804, -0.010105549251097053, -0.022245977169795508, -0.027890499837517548, -0.029305115923282655, -0.02827428048946821, -0.026117193253592182, -0.02370013374161423, -0.021444769759588294])","array('d', [-0.037943881005048634, -0.02827876523884356, -0.021372647368434486, -0.016366388906793893, -0.012693414539156221, -0.009972206163108222, -0.007940652319714215, -0.006415137972976779, -0.005264717035054086, -0.00439435622233548, -0.0037337852675144024, -0.003229916182604327, -0.002841602818722018, -0.0025359856875144886, -0.002285951956567076, -0.002068415354816141])","array('d', [-0.2477771480891366, -0.2726910818037742, -0.29101260327331985, -0.304030571213021, -0.3126335080271151, -0.3178023923805524, -0.3205575056601943, -0.3216568118129727, -0.32167324227127797, -0.3210344675158985, -0.32004873249805166, -0.3189257849365824, -0.31779610253973994, -0.3167293847850112, -0.31575255776070743, -0.3143159015038695])",-225.66685680668024,-238.21944601326894,-49.81690418164643,0.09572868528354657,-0.009972206163108222,-0.3178023923805524,25.00000024187949,-1.0,"[-245.68257068021654, -223.45853214715342, 50.01691748558806]","[-226.291782952908, -219.11493612662235, 52.28198369320469]","[-231.7964140555787, -234.74963528120293, 41.09023589541782]",10000000000.0,0.03838706016540527
1,16.436644077301025,-245.8218994140625,-223.4991912841797,50.0749397277832,0.631630778312683,0.03807740285992614,-0.2919927080485487,23.063151433803156,"array('d', [-222.4692840576172, -223.14656076893408, -223.8754859978748, -224.6416460554135, -225.4333518802378, -226.24109251149918, -227.05794509688715, -227.87911016104502, -228.7013709403672, -229.5226967246635, -230.34192698657506, -231.1585123352415, -231.9723035460956, -232.7833853716287, -233.5919535755747, -234.08845437805903])","array('d', [-248.86671447753906, -246.4617101049378, -244.07119364018627, -241.6919865519721, -239.32095315372055, -236.9552172764434, -234.59254434434715, -232.23132673280716, -229.8704663137094, -227.5092655582176, -225.14732751646486, -222.784467641794, -220.42063990320247, -218.0558783305938, -215.6902540915132, -214.23165014394067])","array('d', [-50.0734748840332, -49.990564433152734, -49.92814403855379, -49.88051192940563, -49.84369608466052, -49.81487860968015, -49.79202767424439, -49.77365767450187, -49.75866989885546, -49.74624464434809, -49.73576711079102, -49.72677601514091, -49.71892779588838, -49.71197166274028, -49.70573222039651, -49.702259326306724])","array('d', [0.6329700946807859, 0.4979946245501702, 0.37586375773143954, 0.26535516994781644, 0.16649442869380138, 0.09459210456189125, 0.04393942757850478, 0.009867816199033439, -0.011554125864271262, -0.023655096330102758, -0.029223733015344047, -0.030541922140583218, -0.02940650916638342, -0.027145648038012997, -0.024631225817049938, -0.0222872567853289])","array('d', [-0.038038488477468435, -0.0284620454979725, -0.021594128868141157, -0.016597261490705596, -0.012917874868239934, -0.01018225822045661, -0.008132934525931425, -0.006588955489444901, -0.005420824180020759, -0.004534211055495051, -0.0038591025636202747, -0.0033424089549135548, -0.0029428423129177726, -0.00262733465853477, -0.0023685415625894534, -0.0021431455273796538])","array('d', [-0.26143304904433706, -0.2863268186291588, -0.3046325182703055, -0.3176374476290884, -0.3262179952451049, -0.3313481410995488, -0.33405441387498563, -0.3350993096676472, -0.3350592115571347, -0.33436436489305593, -0.3333248138663446, -0.33215143055975005, -0.33097526179964865, -0.32986615277863696, -0.3288508864981068, -0.32735824532295127])",-226.24109251149918,-236.9552172764434,-49.81487860968015,0.09459210456189125,-0.01018225822045661,-0.3313481410995488,25.00000024161719,-1.0,"[-244.8482485475184, -223.76018428705888, 50.017531068134495]","[-225.4178913816714, -219.5451120824824, 52.18418441323259]","[-231.08214368272266, -235.1497894131673, 41.03024827950634]",10000000000.0,0.041680097579956055
2,16.48294186592102,-244.93499755859375,-223.81951904296875,50.07447814941406,0.6312258839607239,0.03792522102594369,-0.300777121386256,23.064210818869018,"array('d', [-222.75341796875, -223.45183255943903, -224.20173004977238, -224.9887334176771, -225.8011810344718, -226.6295657603639, -227.46696593808298, -228.3085853305031, -229.15121160458506, -229.99281928711943, -230.8322536136021, -231.6689712194491, -232.5028289261494, -233.3339173465194, -234.16243776700364, -234.6713044385691])","array('d', [-247.99395751953125, -245.59500400587328, -243.2109862516546, -240.8385963972376, -238.47459384725434, -236.11601060414733, -233.76054445519728, -231.40654179155942, -229.0528746768428, -226.69882786599013, -224.34399548046153, -221.9881901063578, -219.6313666977037, -217.27356240382346, -214.91485239776935, -213.46016926435624])","array('d', [-50.0736198425293, -49.99076836184671, -49.92823061535782, -49.88038952739723, -49.84332366839247, -49.814244756819555, -49.7911376372782, -49.77252544959381, -49.757313448934255, -49.744683109378556, -49.734019261491625, -49.72485947306727, -49.716858713110966, -49.70976466463063, -49.703400487732296, -49.69985728754511])","array('d', [0.6326568722724916, 0.49771120916773426, 0.37560731286161747, 0.26512312899736595, 0.16594371504014424, 0.09383347647314272, 0.04305858189201935, 0.008930707166041059, -0.012498256088126486, -0.024571386699151276, -0.030089508797930223, -0.031344493920673094, -0.030140972745500264, -0.027812720521983657, -0.02523513780212458, -0.022833698996081418])","array('d', [-0.037968020886182674, -0.028483767999840263, -0.021665487931914255, -0.016692713826887973, -0.013022306023503242, -0.010286985484373262, -0.008233237066114996, -0.006682521020158234, -0.005506769077054423, -0.004612464574454182, -0.003930024157240877, -0.0034065554939109264, -0.0030008316653699504, -0.002679770649198659, -0.00241597695310105, -0.002186066847497451])","array('d', [-0.2702415426585337, -0.2951188526608424, -0.31341163541005135, -0.3264059190359798, -0.3349703006311355, -0.3400742527120181, -0.3427481634774758, -0.3437573449935822, -0.3436803331677894, -0.34294898170347865, -0.3418744576703415, -0.34066833200894586, -0.339462001114226, -0.33832539347251744, -0.33728519401566215, -0.3357562674387121])",-226.6295657603639,-236.11601060414733,-49.814244756819555,0.09383347647314272,-0.010286985484373262,-0.3400742527120181,25.000000241436904,-1.0,"[-243.50336793004738, -224.26359328515343, 50.017603954068086]","[-224.0118379537276, -220.25914173715123, 52.028729753696126]","[-229.93282784952325, -235.81296260359954, 40.93726749174337]",10000000000.0,0.040551185607910156
3,16.51210355758667,-244.06495666503906,-224.14266967773438,50.07327651977539,0.6292619705200195,0.037377431988715994,-0.3093066652629037,23.07245599836781,"array('d', [-223.04568481445312, -223.76514103418617, -224.5358952115601, -225.343610978082, -226.1766570954257, -227.02553315225174, -227.88332086381658, -228.74522876078422, -229.60805004685633, -230.46976529558006, -231.32922610145, -232.18589556857467, -233.03963689902824, -233.89054682796234, -234.73883238033036, -235.25995495389273])","array('d', [-247.12350463867188, -244.73079133394398, -242.35344700762462, -239.98803860543956, -237.63122320513017, -235.27994261002306, -232.93182808293645, -230.5851808464345, -228.23884378277, -225.8920844290723, -223.54448838343964, -221.1958656995948, -218.84617259697225, -216.49544958235978, -214.14377603951263, -212.69308513979107])","array('d', [-50.07406997680664, -49.99081070019094, -49.92780052018563, -49.87947634257133, -49.84194595403792, -49.812435514579924, -49.788935577958846, -49.769969974309625, -49.754441931716656, -49.74152959400536, -49.730614010752355, -49.72122901452308, -49.71302615693963, -49.70575015397658, -49.699221697365836, -49.695586124695495])","array('d', [0.6321858763694761, 0.4972850344108648, 0.37522169395655414, 0.2647742065369298, 0.16529744345056335, 0.09299563271441894, 0.04211123151545736, 0.007937053976464967, -0.013491085583417313, -0.025530158407239278, -0.030992783948844034, -0.03218050246109757, -0.03090547682040322, -0.028506909455752343, -0.025863577378016905, -0.023402334690790158])","array('d', [-0.03811088576912871, -0.028666651565189445, -0.021860468956221738, -0.01688433256600412, -0.013202542464222013, -0.010452245085241969, -0.00838251155084341, -0.006816246733889714, -0.005626121493915722, -0.004718928644862867, -0.004025139581318367, -0.003491772679220817, -0.0030774370938572364, -0.002748854877498896, -0.002478427593761507, -0.0022425745290089263])","array('d', [-0.27903859218093363, -0.3038911635749975, -0.32216452923032746, -0.3351428080241246, -0.34368666090580136, -0.3487609400130851, -0.3513996236182684, -0.35237067977574765, -0.3522546916941294, -0.35148504654169166, -0.3503739789543143, -0.3491337174363634, -0.3478959774310489, -0.34673074859967057, -0.3456646019678562, -0.34409792289942265])",-227.02553315225174,-235.27994261002306,-49.812435514579924,0.09299563271441894,-0.010452245085241969,-0.3487609400130851,25.00000024124817,-1.0,"[-243.50336793004738, -224.26359328515343, 50.017603954068086]","[-224.0118379537276, -220.25914173715123, 52.028729753696126]","[-229.93282784952325, -235.81296260359954, 40.93726749174337]",10000000000.0,0.026786088943481445
4,16.56762385368347,-242.76600646972656,-224.64222717285156,50.071842193603516,0.6112099885940552,0.0353577807545661,-0.32224707206222003,23.09108631057432,"array('d', [-223.34603881835938, -224.08607892533735, -224.87724268079188, -225.7052326815055, -226.55844715370617, -227.42739256351882, -228.30515418970558, -229.18694530202586, -230.06956442432093, -230.95099781194534, -231.83010294904852, -232.70634887744166, -233.57960462455577, -234.4499724981485, -235.31766473861146, -235.85083108677972])","array('d', [-246.2550506591797, -243.86862795722593, -241.4980047208806, -239.13962338228532, -236.79003965462118, -234.44610605312326, -232.10538802037885, -229.76614209111165, -227.42718225304, -225.0877589589708, -222.7474493057687, -220.40606076327848, -218.06355072219077, -215.71996293348025, -213.37538087555075, -211.92871889414158])","array('d', [-50.074729919433594, -49.991334229471356, -49.92805511273755, -49.87940173102525, -49.841524136668, -49.81167238185288, -49.787849656648575, -49.76858560858404, -49.75278526163527, -49.73962629421048, -49.72848812561857, -49.71890246271923, -49.71051863046917, -49.70307923585562, -49.69640308776332, -49.69268433469004])","array('d', [0.6318296790122986, 0.4969627336832734, 0.37493006416863084, 0.2645103289552638, 0.16473920459912875, 0.09224609176269548, 0.04125035181679437, 0.007026416248589677, -0.014405511924323376, -0.0264158688387602, -0.031828698715149865, -0.03295490751866466, -0.031613958951212044, -0.02915032283556565, -0.026446062515184058, -0.023929389086051304])","array('d', [-0.038129091262817306, -0.0287564399087987, -0.021985313257588974, -0.017022675953706996, -0.013341977268360424, -0.010585977062902551, -0.00850717338852811, -0.006930520740899523, -0.005729870844435842, -0.0048126529975172925, -0.004109639127031545, -0.0035679465179266944, -0.0031461679505364586, -0.0028109486283221332, -0.002534586446840114, -0.002293389165179522])","array('d', [-0.28766290744277473, -0.31249677934734804, -0.33075546546934076, -0.3437216429867129, -0.35224853129280603, -0.3572966615964542, -0.35990356657710687, -0.36083982560613415, -0.36068802673123596, -0.3598830576957426, -0.35873820018862457, -0.35746633198593286, -0.3561994896773011, -0.3550077340028554, -0.35391753699640355, -0.3523159066881126])",-227.42739256351882,-234.44610605312326,-49.81167238185288,0.09224609176269548,-0.010585977062902551,-0.3572966615964542,25.00000024105314,-1.0,"[-242.20527896072343, -224.76951439789644, 50.017364962384]","[-222.6582311390663, -220.96677281987573, 51.87534180525406]","[-228.82255722560208, -236.51937921231598, 40.91552801574647]",10000000000.0,0.04982900619506836
5,16.60616135597229,-241.9039764404297,-224.9853973388672,50.07207107543945,0.5849679708480835,0.03239957988262168,-0.3310822685572765,23.105791215561073,"array('d', [-223.81951904296875, -224.59075449288576, -225.41283283980957, -226.27152017093672, -227.15526824814884, -228.05461760545086, -228.96266349021363, -229.87462517506836, -230.78730795565423, -231.69870527102242, -232.6076820049673, -233.5137146305706, -234.41667945244507, -235.31668573553654, -236.21395223181085, -236.76549886823858])","array('d', [-244.93499755859375, -242.55846216362195, -240.19838181589472, -237.85100755534185, -235.51274218587506, -233.18030978269135, -230.85117645188024, -228.52352967122025, -226.19613857521637, -223.8682268573844, -221.53935801948285, -219.2093350332069, -216.87811658719264, -214.54575095449425, -212.2123274867581, -210.77201119230284])","array('d', [-50.07447814941406, -49.99137965327537, -49.928071224817096, -49.879205843249345, -49.84102191787337, -49.81082318274461, -49.78664471061411, -49.767034337847655, -49.75090675558307, -49.737444105847466, -49.72602718940689, -49.716187353715284, -49.707572653991484, -49.69992401398265, -49.693058427782745, -49.68923265082023])","array('d', [0.6312258839607239, 0.49641639727624454, 0.3744357184951432, 0.2640630264328631, 0.16419372003732596, 0.09138878224337717, 0.04020332055441296, 0.00588363432898425, -0.015573696469890286, -0.027559357974243782, -0.03291453259989123, -0.033964173893576734, -0.03253871460849412, -0.029990568249195396, -0.02720679439269675, -0.024617727816214185])","array('d', [-0.03792522102594369, -0.028719626785467457, -0.022043987673332283, -0.01713277516190455, -0.013476562664174298, -0.010728857600119804, -0.008648922436566718, -0.007065945372355005, -0.005856388415906127, -0.004929250224326374, -0.0042162097206319225, -0.003664876521440689, -0.0032340833767704824, -0.0028905686653509146, -0.0026066436165952775, -0.002358589194449595])","array('d', [-0.300777121386256, -0.32557931406013724, -0.3438131263682094, -0.35675879596380566, -0.36526525144383926, -0.3702853091438682, -0.3728546220632817, -0.3737478585316157, -0.3735507075198432, -0.3727003708455014, -0.371511754189453, -0.37019876062561563, -0.36889395971687616, -0.3676675694678774, -0.3665459623212685, -0.36489880122103885])",-228.05461760545086,-233.18030978269135,-49.81082318274461,0.09138878224337717,-0.010728857600119804,-0.3702853091438682,25.00000024073784,-1.0,"[-240.91474012480325, -225.2938296835235, 50.020619114140864]","[-221.31273961721124, -221.6858305841414, 51.677096883149616]","[-227.72660317096205, -237.4474796563581, 41.16839701883923]",10000000000.0,0.02786850929260254
6,16.660310745239258,-240.6131134033203,-225.5166015625,50.07762145996094,0.5253469944000242,0.02615889161825165,-0.3446253975245615,23.131493350505632,"array('d', [-224.14266967773438, -224.93403194262518, -225.77587587930293, -226.65404647716602, -227.55705630750072, -228.47549069939421, -229.40246530461073, -230.33321280132705, -231.2645504558411, -232.19448272857818, -233.12188481207622, -234.04624285352463, -234.9674421965428, -235.88560048561783, -236.80094417502625, -237.3637120802591])","array('d', [-244.06495666503906, -241.69500786677185, -239.34188682769465, -237.0017230133314, -234.67082477628162, -232.3458397350531, -230.02417449138224, -227.70397567084945, -225.3839868149329, -223.06341733820736, -220.74182459537568, -218.41901093474297, -216.0949378498623, -213.76965823390464, -211.4432667147805, -210.00693534285526])","array('d', [-50.07327651977539, -49.991282113161645, -49.92865101742551, -49.880187101029584, -49.842226701055544, -49.81213757838366, -49.787996850466016, -49.76837999996641, -49.75221987181943, -49.73871048138439, -49.72724033516402, -49.7173457071267, -49.708677705620545, -49.700979017229955, -49.694067477185754, -49.6902151255396])","array('d', [0.6292619705200195, 0.49463937474738184, 0.3728278018702163, 0.26260812316349913, 0.1628772485845368, 0.08998027878019678, 0.038764775998737865, 0.004463064050818452, -0.01694095525782722, -0.028849305041391587, -0.0341129398374363, -0.03506484242732427, -0.03354165524321997, -0.03090018659871367, -0.02803012179849968, -0.025362705327715424])","array('d', [-0.037377431988715994, -0.028380173298388617, -0.02183915256256971, -0.017014924496491737, -0.013414638685056737, -0.010702491834205735, -0.00864472158790352, -0.007075105649784637, -0.005873138761409194, -0.004949829112660853, -0.004238191695869696, -0.0036867308932459065, -0.0032548881946490252, -0.0029098285150370353, -0.0026241758033277254, -0.0023744529744425917])","array('d', [-0.3093066652629037, -0.33400597826293277, -0.352158969442521, -0.3650379790405912, -0.37348749898157413, -0.37845317766918496, -0.38096637564944474, -0.3818034892719593, -0.3815516546452465, -0.38064918240750395, -0.3794117275518438, -0.3780536059078872, -0.3767075170771072, -0.375443595138144, -0.3742879871645002, -0.3725913281371143])",-228.47549069939421,-232.3458397350531,-49.81213757838366,0.08998027878019678,-0.010702491834205735,-0.37845317766918496,25.00000024052215,-1.0,"[-240.0584671714903, -225.65380559699744, 50.02734752921391]","[-220.4198908103165, -222.18087820018542, 51.53237038711963]","[-227.0039166088241, -238.21203324766643, 41.5497518865352]",10000000000.0,0.0446629524230957
7,16.70506715774536,-240.1820831298828,-225.69839477539062,50.08171463012695,0.5011695027351378,0.023825325071811496,-0.34925453265639755,23.140461722843526,"array('d', [-224.64222717285156, -225.46308570174648, -226.33225324137447, -227.23602412865228, -228.16321754057552, -229.10463504513595, -230.05353691805539, -231.00526455196814, -231.95672587871007, -232.9060049401396, -233.8520486589075, -234.79440853051076, -235.73302956791738, -236.6680838256498, -237.5998472547507, -238.17254122974074])","array('d', [-242.76600646972656, -240.40596013023006, -238.06271046961112, -235.73226674224384, -233.41085518509735, -231.09506503988845, -228.78226569423822, -226.4705877266628, -224.15877535136008, -221.84605033349013, -219.53198979327564, -217.2164198471735, -214.8993272029424, -212.5807896402681, -210.2609252385389, -208.82811687727136])","array('d', [-50.071842193603516, -49.99414799694124, -49.934584600361326, -49.88833843343471, -49.8520019450333, -49.82311734911009, -49.79988242777892, -49.7809572460387, -49.76533462261958, -49.752251504622045, -49.74112733733485, -49.73152073254477, -49.723098818543974, -49.7156155171753, -49.70889613956916, -49.70514983526382])","array('d', [0.6112099885940552, 0.47830526455299893, 0.3580480864382257, 0.24923488239862787, 0.150776633091295, 0.07883401019108759, 0.028509065528991875, -0.00494783800264931, -0.025548768928176428, -0.03669777623617735, -0.041249556924782715, -0.041540335141000306, -0.039408535338823304, -0.03621101938474482, -0.03283584666233146, -0.02971110539900115])","array('d', [-0.0353577807545661, -0.026948060660144758, -0.020809641731036835, -0.01626524342104122, -0.01286176157718557, -0.01028934845992869, -0.008331519504587867, -0.006833757426783287, -0.005683609976756524, -0.004797711000731821, -0.004113073407042856, -0.003581103674273738, -0.0031634082515553355, -0.00282882330584523, -0.0025513146318955114, -0.0023085254542946475])","array('d', [-0.32224707206222003, -0.34601198555435175, -0.36342796346419876, -0.3756973578363138, -0.3836251145044731, -0.3881280998651861, -0.390220124829325, -0.39067150877728807, -0.390066353433551, -0.3888410164028386, -0.3873094202239632, -0.3856840587832822, -0.384095672406412, -0.38261235612379324, -0.3812582228766364, -0.37927098361218897])",-229.10463504513595,-231.09506503988845,-49.82311734911009,0.07883401019108759,-0.01028934845992869,-0.3881280998651861,25.000000240207175,-1.0,"[-238.7850985577545, -226.20624961653473, 50.04576421438212]","[-219.094359225557, -222.93618829279117, 51.30333468573031]","[-225.93392353134988, -239.49092429899653, 42.406083656801684]",10000000000.0,0.033507585525512695
8,16.752052307128906,-239.32269287109375,-226.0670928955078,50.09414291381836,0.44842219352722157,0.018965663388371357,-0.3584258993479868,23.15692209077043,"array('d', [-224.9853973388672, -225.82551743381873, -226.71102885446493, -227.62880810550465, -228.56806561429602, -229.5198777074119, -230.4777011598916, -231.4370287352021, -232.3948947582831, -233.34949441149848, -234.29987489089066, -235.24567904188947, -236.1869352336883, -237.12389146532638, -238.05689272614555, -238.62991463077282])","array('d', [-241.9039764404297, -239.55050640433095, -237.21326193541915, -234.8882270030545, -232.57162660215087, -230.26006227436997, -227.95092638029982, -225.642380966355, -223.33320764511282, -221.02266871044762, -218.7103823969563, -216.39621459699174, -214.08018923226294, -211.76241812391697, -209.4430500635877, -208.01023767889737])","array('d', [-50.07207107543945, -50.00080050547909, -49.946038524723036, -49.90343542221191, -49.86990191161653, -49.843203162961174, -49.8216960740145, -49.80415610659309, -49.78966089794025, -49.77751039457459, -49.76717115319706, -49.75823706808214, -49.750401515408996, -49.743437557529205, -49.73718386795962, -49.733696841432945])","array('d', [0.5849679708480835, 0.45456050282438154, 0.3365629356021982, 0.2297943122371653, 0.13318607746431343, 0.06287975822175912, 0.014012823543423357, -0.01811951880929204, -0.037507613244583814, -0.04754465475396999, -0.051078917230571556, -0.050441450939408314, -0.04746541909804237, -0.04350196930856535, -0.03943306350779413, -0.0356805145961631])","array('d', [-0.03239957988262168, -0.02475231283529688, -0.019154220418382117, -0.01499924894129563, -0.01188040327298341, -0.009518409227040902, -0.0077175187768549385, -0.006337591206292536, -0.005276344829836559, -0.004457752070522299, -0.003824233032226749, -0.003331273821782179, -0.0029436449850456115, -0.002632715425105105, -0.0023745481744695757, -0.002148580535024346])","array('d', [-0.3310822685572765, -0.3535232537958005, -0.36988588512130904, -0.38127861966152526, -0.388452669833234, -0.39229023128601537, -0.39378389170700445, -0.3936927942351328, -0.39259472335629825, -0.3909216860120486, -0.38898395999574875, -0.38699062702542664, -0.3850691332804824, -0.38328441892473253, -0.38165763205921555, -0.3792709753855789])",-229.5198777074119,-230.26006227436997,-49.843203162961174,0.06287975822175912,-0.009518409227040902,-0.39229023128601537,25.00000024001024,-1.0,"[-237.91827022322607, -226.59319916454038, 50.06569612417528]","[-218.19401922029414, -223.46766310585087, 51.154248704058546]","[-225.2087694740619, -240.4026580498917, 43.15429713404404]",10000000000.0,0.041701555252075195
9,16.818588495254517,-237.6134033203125,-226.82150268554688,50.1380615234375,0.3332445621490478,0.009673858061432686,-0.3748425682398935,23.181692559844276,"array('d', [-225.16000366210938, -226.0097854670262, -226.90308745004342, -227.8271479231052, -228.77142136589714, -229.72715617104714, -230.68793423147392, -231.6493458484131, -232.60850745776582, -233.56368691976596, -234.51399730140747, -235.4591416259547, -236.3992032598322, -237.3344803472585, -238.2653634774007, -238.83676851288405])","array('d', [-241.47412109375, -239.12399136643958, -236.78963685370604, -234.46704539584485, -232.15245705995684, -229.84249444514214, -227.5345752758859, -225.22688982257708, -222.91824957467333, -220.6079470075219, -218.29562957700884, -215.98119052655443, -213.66467876037498, -211.346228565027, -209.02600877232823, -207.5925226117847])","array('d', [-50.072994232177734, -50.00600673615354, -49.95447764133228, -49.914350238348696, -49.882738049134524, -49.85754960959711, -49.83724508213255, -49.820675517729136, -49.806974620815126, -49.79548434698032, -49.78570292589798, -49.77724815286567, -49.76983131085863, -49.76323860994478, -49.75731797057023, -49.754016553457305])","array('d', [0.5675589442253112, 0.4388081627000696, 0.3223096275482241, 0.21689738461719515, 0.12151645544697016, 0.052317697371613923, 0.004433734445973517, -0.02680983243678602, -0.04538802764632907, -0.05468582760797487, -0.05754621945286501, -0.05629586750787713, -0.05276362450884576, -0.048296204622759575, -0.04377108992687658, -0.03960572357598118])","array('d', [-0.030435834079980725, -0.02328006448685091, -0.0180336978000956, -0.01413466690336315, -0.011204645894174385, -0.0089835037236663, -0.007288573446077017, -0.005988857784596573, -0.004988601240167375, -0.004216530019751491, -0.0036186014942820926, -0.0031529970345941442, -0.00278659752976334, -0.0024924758261347644, -0.0022481164835623487, -0.00203418040001185])","array('d', [-0.335619135699, -0.3572028242989593, -0.37287772343415, -0.3836947034290143, -0.3903716151682323, -0.39376941652552555, -0.39486770730306503, -0.3944184066948123, -0.392995139473868, -0.39102698511965345, -0.38882173742035553, -0.3865861505681762, -0.38444543729328096, -0.38246241680485876, -0.3806562605753821, -0.3780068029495467])",-229.72715617104714,-229.84249444514214,-49.85754960959711,0.052317697371613923,-0.0089835037236663,-0.39376941652552555,25.000000239914247,-1.0,"[-236.6578947301655, -227.16740561524688, 50.10597426126972]","[-216.89242686525287, -224.23743526629525, 50.96710946283246]","[-224.13864186544922, -241.68902299140194, 44.41467067686618]",10000000000.0,0.060952186584472656
10,16.874451875686646,-236.33493041992188,-227.39828491210938,50.19160461425781,0.2457026839256286,0.003304324811324346,-0.3853984316203258,23.194854335706992,"array('d', [-225.88192749023438, -226.769430133109, -227.69112596558958, -228.63592177281785, -229.59441663055506, -230.55867677352956, -231.52288977303076, -232.48313031446816, -233.43693271234704, -234.38294172164225, -235.320616390907, -236.2499783113845, -237.17140327258764, -238.08545662553144, -238.99277216621653, -239.5478907137219])","array('d', [-239.751953125, -237.41530249753623, -235.09171543777765, -232.77730249220343, -230.46845756950884, -228.16197252751286, -225.85544310054695, -223.54724220646577, -221.23636425270374, -218.92227900591345, -216.60480010056267, -214.28397227286453, -211.95997981944598, -209.63307664400375, -207.3035368280382, -205.86376861324484])","array('d', [-50.08716583251953, -50.0399308118798, -50.003411313814226, -49.97484352755169, -49.952244652307826, -49.93416804074222, -49.919542490402364, -49.907565019149324, -49.89762799240131, -49.88926858694725, -49.88213318706341, -49.87595203318318, -49.87052106707878, -49.86568890477024, -49.86134747890615, -49.85892656831881])","array('d', [0.4753963351249692, 0.35541597790045787, 0.24685325155038923, 0.1486216260298743, 0.059738000263422096, -0.0036216031381816087, -0.04629839419251361, -0.07282275092064851, -0.08709782759293054, -0.09246969516124912, -0.09175497141465332, -0.08725688401184532, -0.08078029049460185, -0.07364696633246788, -0.06670940210540385, -0.060361168620986595])","array('d', [-0.02140910737216461, -0.016463695464436018, -0.01281384492759375, -0.010086387808556738, -0.008027311148297012, -0.006460247213743939, -0.0052602782657136995, -0.004337135504135714, -0.003624396821737788, -0.00307234927851313, -0.0026431384611932413, -0.0023073906024826123, -0.002041815986577535, -0.0018274916007235051, -0.0016486345111969849, -0.0014917466313611142])","array('d', [-0.3538752039286753, -0.3711610143350608, -0.38332241744315126, -0.39115754273892706, -0.39523374830716757, -0.39631465724119913, -0.3953208970043924, -0.392972121934681, -0.3898230198501513, -0.38628862663929986, -0.38266411707663006, -0.37914397328189, -0.37584142740669796, -0.37280786467685373, -0.37005181375674706, -0.366010546110513])",-230.55867677352956,-228.16197252751286,-49.93416804074222,-0.0036216031381816087,-0.006460247213743939,-0.39631465724119913,25.00000023954758,-1.0,"[-235.7939546605528, -227.56715210014016, 50.14240438395664]","[-216.0045731666811, -224.7644694936663, 50.86721490911237]","[-223.395499280529, -242.51448064150063, 45.36164360075594]",10000000000.0,0.04234957695007324
11,16.927035570144653,-235.48126220703125,-227.78610229492188,50.238037109375,0.19067104160785664,0.0003614100569392611,-0.3916211565348765,23.20207416463825,"array('d', [-226.4418182373047, -227.35537972219925, -228.29530494142315, -229.2517312145479, -230.21612750024877, -231.1811957096359, -232.14160252912922, -233.0938222406249, -234.03574913601307, -234.96636301280782, -235.8854367773939, -236.79328445351703, -237.69055193397122, -238.57805205505636, -239.45664404348614, -239.98284808799727])","array('d', [-238.4665985107422, -236.13973294846537, -233.8232940211306, -231.51356284568803, -229.2071154451367, -226.90093061070576, -224.5927901914365, -222.28125399234423, -219.965500598435, -217.64517510886301, -215.3202524582918, -212.99092168542734, -210.65749369442435, -208.32033230566716, -205.9798067894128, -204.5584768276245])","array('d', [-50.112735748291016, -50.081166589313455, -50.056609201466195, -50.037281167421526, -50.02189565074643, -50.00950903661548, -49.99941988274614, -49.99110088850212, -49.984152282624315, -49.97826924431116, -49.973218768045264, -49.96882305148536, -49.964947486180925, -49.961491942232385, -49.95838441843513, -49.95668205454806])","array('d', [0.39195746183395375, 0.27991735626934316, 0.17853926729815095, 0.08680857085893368, 0.0038072073816579457, -0.05442706559127535, -0.0924672239857447, -0.11474665727303433, -0.12512522778094368, -0.12692786334523434, -0.12295590072976416, -0.11549608290003796, -0.10633372840621576, -0.09676869922582641, -0.08763077131027527, -0.07929160803016029])","array('d', [-0.014269080944359214, -0.011040782701380982, -0.008645407684106739, -0.0068471736576989455, -0.005484057703973812, -0.004442647296104228, -0.003642053347076341, -0.003023473514922268, -0.002543426484250068, -0.00216925049228954, -0.0018760248318394272, -0.0016444139329621521, -0.001459130425105478, -0.0013078295900067049, -0.0011803172281378623, -0.0010679953996163129])","array('d', [-0.3668731888148448, -0.3805497628902122, -0.3896789438976793, -0.3948890317053189, -0.39664193684884885, -0.3956292081584719, -0.3927290788464043, -0.38864139047499263, -0.3839089179640206, -0.3789366866481557, -0.374009609599362, -0.3693113416880317, -0.3649441100168531, -0.3609486177048859, -0.35732340426920334, -0.35191318956322365])",-231.1811957096359,-226.90093061070576,-50.00950903661548,-0.05442706559127535,-0.004442647296104228,-0.3956292081584719,25.000000246115295,-1.0,"[-234.09482504788548, -228.3586332633865, 50.23749499430139]","[-214.26875458384168, -225.77307602902894, 50.729250769693685]","[-221.90250083003693, -243.92441540133572, 47.22856551676872]",10000000000.0,0.044464826583862305
12,16.975247621536255,-234.2037811279297,-228.36859130859375,50.31771469116211,0.11686857044696798,-0.001769437803886939,-0.4001237591120858,23.21114141837033,"array('d', [-227.01283264160156, -227.94922556019108, -228.90415173965644, -229.86882891758043, -230.83551176824045, -231.79748840119464, -232.74987199278337, -233.68952640411968, -234.61471356424664, -235.52476636937894, -236.4197947975144, -237.30043013619098, -238.16761267933123, -239.02242539081843, -239.86597347477033, -240.36919742277502])","array('d', [-237.18772888183594, -234.86979007994793, -232.5593950257439, -230.25303757144744, -227.94751122650916, -225.64001321596317, -223.32853760506347, -221.01185730145835, -218.6893607718727, -216.3608915092718, -214.0266049738347, -211.68684956141217, -209.34207394227954, -206.99275971915307, -204.6393766288268, -203.2098597616965])","array('d', [-50.15351104736328, -50.13702173733496, -50.12399790547324, -50.113575634546734, -50.10512821113436, -50.09819457702978, -50.092431354378014, -50.08758025477777, -50.083445573125694, -50.079878324812796, -50.07676486217657, -50.0740185819689, -50.07157380566572, -50.06938120539333, -50.06740433287152, -50.06632080360087])","array('d', [0.3037081658840179, 0.20006608394748013, 0.10628684168038503, 0.02143186669279322, -0.05534809086345737, -0.10837136136773634, -0.1416167118341237, -0.15945145508870756, -0.1657151634649922, -0.16372784315393363, -0.15628593981158506, -0.14566547673522684, -0.13363467714694213, -0.12147179705236322, -0.10998302346893722, -0.0995167639924765])","array('d', [-0.007404509931802621, -0.005813574969813168, -0.004625359953328663, -0.0037274598996671457, -0.0030419277968953364, -0.002513796883397971, -0.002103627746814642, -0.001782609569909052, -0.0015293619114028862, -0.0013278001360830687, -0.0011656751626590775, -0.0010335534784956643, -0.0009240938624029465, -0.0008315307024174702, -0.0007513057779301806, -0.0006798097516581802])","array('d', [-0.3785316189143321, -0.3886036817729224, -0.39463492655339455, -0.39711781211423297, -0.39642684513106113, -0.3931892406096957, -0.3882472543034525, -0.38228913677742626, -0.3758504271634062, -0.36932832014182815, -0.3629979817591918, -0.3570317676108829, -0.3515199428266552, -0.34649141456004706, -0.34193364891969175, -0.33513384636603977])",-231.79748840119464,-225.64001321596317,-50.09819457702978,-0.10837136136773634,-0.002513796883397971,-0.3931892406096957,25.0000002460319,-1.0,"[-233.670348866594, -228.55688333912406, 50.2643507058709]","[-213.8366413634189, -226.01996782289157, 50.698062986069075]","[-221.52461062465625, -244.23276107528687, 47.6666787174925]",10000000000.0,0.04604816436767578
13,17.026868104934692,-232.92840576171875,-228.9497528076172,50.4054069519043,0.05566423758864395,-0.0020271395333112427,-0.40742508967849234,23.216838821963606,"array('d', [-227.39828491210938, -228.34788853577436, -229.3110617071022, -230.27963281423172, -231.24631136249292, -232.2047305451895, -233.15026736633138, -234.08002603106408, -234.99250527543322, -235.88727169119517, -236.76466175101402, -237.62552152055812, -238.47099115891433, -239.30233705883475, -240.1208312752727, -240.60769885985312])","array('d', [-236.33493041992188, -234.02232073684104, -231.71532052901065, -229.41057702880866, -227.1050379633679, -224.7960539801003, -222.4817659774281, -220.1610950070066, -217.83357585067378, -215.49918978832045, -213.15821667620153, -210.81111357274736, -208.45842194753934, -206.10070169836277, -203.73848844404938, -202.3033984487528])","array('d', [-50.19160461425781, -50.18412191313904, -50.177978721790794, -50.172852679123295, -50.16851065195343, -50.16478195247952, -50.16154026108901, -50.158691306320115, -50.15616434187133, -50.153906104521084, -50.15187641004055, -50.15004484155979, -50.14838817014118, -50.146888266555294, -50.14553034351886, -50.144785406324765])","array('d', [0.2457026839256286, 0.14758054866672354, 0.058795961150691856, -0.021539662922953857, -0.09423034436119271, -0.14395951426452105, -0.17412330557216507, -0.18906659276045526, -0.19263095902970961, -0.1881439788330193, -0.17840600974179413, -0.16569036386201977, -0.15175640323560494, -0.1378692921301443, -0.12482008109931703, -0.11294189012590504])","array('d', [-0.003304324811324346, -0.002692058871321543, -0.0022302038104879845, -0.001876533109478495, -0.0016016755213804628, -0.001384901364753243, -0.0012113476733221415, -0.0010701717107976575, -0.0009533490091064672, -0.0008548836973286172, -0.0007702833523849188, -0.00069620728576341, -0.0006302305568881004, -0.0005706856995308332, -0.0005165557686721571, -0.00046739914022186923])","array('d', [-0.3853984316203258, -0.39318883722982956, -0.3972257186300081, -0.3979308633832428, -0.39563203333641805, -0.39091903167546715, -0.3846144720320285, -0.377404115682408, -0.3698217233047658, -0.36226083505714696, -0.35499074205528713, -0.34817635257983054, -0.341899783854146, -0.336181817494162, -0.3310022787083482, -0.32327659014834476])",-232.2047305451895,-224.7960539801003,-50.16478195247952,-0.14395951426452105,-0.001384901364753243,-0.39091903167546715,25.000000245981845,-1.0,"[-232.0409098782001, -229.31668553886323, 50.37418228641107]","[-212.18216156398844, -226.95481557121965, 50.60152706585272]","[-220.05698127094507, -245.2821218256424, 49.15340412924666]",10000000000.0,0.04320383071899414
14,17.10872721672058,-231.22071838378906,-229.71983337402344,50.5290412902832,-0.010101560503244475,0.0007798395818098263,-0.4156926115367073,23.227160515237564,"array('d', [-227.98028564453125, -228.94737578911815, -229.92126703422048, -230.89453481528787, -231.86045764382058, -232.81310666229382, -233.74819205860882, -234.66313565294197, -235.5567633947449, -236.4289733247267, -237.28042754768722, -238.11228278723303, -238.9259687855604, -239.7230175380774, -240.5049422775861, -240.97626117717])","array('d', [-235.0550994873047, -232.7497312317985, -230.44722521127775, -228.1444556764583, -225.83859758851756, -223.52722678812586, -221.20869730791173, -218.88214730911704, -216.54732742058837, -214.20442199002915, -211.8538931709909, -209.4963558824442, -207.13248496439877, -204.76295147538545, -202.38838335702158, -200.9201129726745])","array('d', [-50.26344680786133, -50.26451961929219, -50.264856722292116, -50.2646593972076, -50.26407892973702, -50.263230582130895, -50.262203176691145, -50.26106581600272, -50.259872679739715, -50.258666451855014, -50.25748070772423, -50.256341469585756, -50.255268075985654, -50.25427348217923, -50.253364100216146, -50.25285533630565])","array('d', [0.16467972099781034, 0.07426793358237624, -0.007540041990815511, -0.08156296574697318, -0.1485416770727317, -0.19386952121298293, -0.21983860960721968, -0.23079187661408632, -0.23059618795805994, -0.22260595860293048, -0.20963797038677062, -0.19396856388302852, -0.17734858152474703, -0.16102681244204067, -0.14577389587968398, -0.13190168750352854])","array('d', [0.0006025987095200462, 0.0002613432774972325, 1.249048153653992e-05, -0.00016735044324439895, -0.0002948958223286113, -0.0003823237965954538, -0.000438660757898898, -0.00047069344658656824, -0.00048360027937104327, -0.00048141845397312673, -0.0004674105570410433, -0.0004443644322366633, -0.00041484294386559696, -0.00038139017448400467, -0.00034669420504031414, -0.0003137022207419066])","array('d', [-0.3945562084529063, -0.39924005021051606, -0.40052366622692115, -0.39874922647921796, -0.39419060490538177, -0.38738959789993244, -0.379145497597547, -0.3701475406573901, -0.3609310912133469, -0.35188658359345526, -0.34327572551620333, -0.33525286032025337, -0.3278881975170047, -0.3211905374787867, -0.3151284338431485, -0.3062463216005531])",-232.81310666229382,-223.52722678812586,-50.263230582130895,-0.19386952121298293,-0.0003823237965954538,-0.38738959789993244,25.00000023872875,-1.0,"[-230.28405567651131, -230.12693910209268, 50.49750196070049]","[-210.40439442310878, -227.9363127265563, 50.512486378299485]","[-218.4470444825749, -246.24766547337782, 50.41178582000187]",10000000000.0,0.07218813896179199
15,17.15133023262024,-230.79335021972656,-229.9113006591797,50.55996322631836,-0.024719692766666485,0.0018439374398439,-0.41739158233138507,23.230616196929784,"array('d', [-228.75631713867188, -229.74363805388757, -230.7303774877142, -231.7098266117422, -232.67582417889514, -233.62287872854935, -234.54702528514525, -235.44601563266556, -236.3190371386905, -237.1663662406491, -237.98904280675504, -238.7885862662573, -239.56676483656426, -240.32542044655963, -241.06634694306462, -241.50262297651105])","array('d', [-233.35337829589844, -231.05660324512775, -228.75957572806718, -226.4594309552067, -224.15360749630125, -221.83994289893226, -219.51703611204007, -217.18427978037312, -214.84168117409496, -212.48966676407008, -210.12891518090044, -207.76022723427025, -205.38443303987108, -203.00233132565918, -200.6146544534998, -199.163604233275])","array('d', [-50.37552261352539, -50.37996203125043, -50.382699020246264, -50.38417979679788, -50.38473895685189, -50.38463024883684, -50.38404794937732, -50.38314197261837, -50.38202872010844, -50.38079891843939, -50.379523210811655, -50.378255995449365, -50.37703785530041, -50.37589684682501, -50.37484888196566, -50.37427221744421])","array('d', [0.07475084811449043, -0.0071030830703225235, -0.08116758948742465, -0.14818393220179402, -0.20882283098208101, -0.24958881554010098, -0.2710839260663074, -0.2776924527314805, -0.27334410733876835, -0.26144899018696416, -0.24485993037238762, -0.2258679612538565, -0.20622108974921072, -0.18715338866158496, -0.1694143143808041, -0.15329242468211576])","array('d', [0.002174898050725576, 0.0013897361171181044, 0.0008095344455059712, 0.0003822153951465314, 7.03157562930113e-05, -0.00015354767977588613, -0.0003096871703176889, -0.0004133646982975118, -0.00047618929118007475, -0.0005071358243567014, -0.0005133270305400843, -0.000500656659901596, -0.0004742952493244837, -0.00043909870263218373, -0.00039992666955054396, -0.0003618687577906138])","array('d', [-0.4050714214656017, -0.4063731008995199, -0.4046150176399239, -0.4000713623503626, -0.392968788528101, -0.3837984566323798, -0.37333766932823326, -0.36228969398928546, -0.3511977409031411, -0.34045170575748024, -0.33030567417330403, -0.3209018600427957, -0.3122963136986785, -0.30448345723165593, -0.297418325116648, -0.2868889324482443])",-233.62287872854935,-221.83994289893226,-50.38463024883684,-0.24958881554010098,-0.00015354767977588613,-0.3837984566323798,25.000000245817052,-1.0,"[-229.4221283872469, -230.51936565233657, 50.55719732172599]","[-209.5348558841844, -228.40076705688435, 50.46813341050306]","[-217.64238912627627, -246.6778006419761, 50.934982484405516]",10000000000.0,0.03808021545410156
16,17.19745945930481,-229.5115203857422,-230.48312377929688,50.65131378173828,-0.06544515490531927,0.004456596449017419,-0.422369643053736,23.238852478547884,"array('d', [-228.9497528076172, -229.941644215459, -230.93139564284604, -231.91243765019877, -232.87872001384412, -233.824838531733, -234.74689117384793, -235.64269676674442, -236.5115194236299, -237.35371772074504, -238.17041435529418, -238.96320857535466, -239.73394310513328, -240.484527998481, -241.21681864549086, -241.65512709045657])","array('d', [-232.92840576171875, -230.63360000445726, -228.337868620446, -226.03840324413335, -223.73269997018488, -221.41865355903172, -219.09491605298442, -216.76093611546906, -214.41677814317566, -212.06292266251162, -209.70009655077075, -207.32914185676975, -204.95092291770226, -202.56626637226574, -200.17592719903982, -198.69782465670116])","array('d', [-50.4054069519043, -50.4094909028832, -50.411897137328936, -50.41306770974097, -50.41333480219646, -50.412950764921234, -50.41210905910729, -50.41095911949771, -50.409617069226286, -50.40817348118799, -50.40669891664041, -50.405247711534045, -50.40386034185373, -50.402564629285266, -50.40137601988218, -50.40071070067995])","array('d', [0.05566423758864395, -0.024373363891901777, -0.09679438700968182, -0.16232364421803325, -0.22161697048443701, -0.26146473692014816, -0.2820388262117305, -0.2877386388208329, -0.28251246626622223, -0.2697862051151844, -0.2524231064476856, -0.2327191049033522, -0.212422663314097, -0.1927652973824217, -0.1744922197608936, -0.1578871038872648])","array('d', [0.0020271395333112427, 0.001252937976993324, 0.0006815812524850989, 0.00026187819208465423, -4.3116312806799315e-05, -0.0002604873248987473, -0.0004103768769812995, -0.0005079471680007326, -0.0005647455800852482, -0.0005897084731637622, -0.0005899393705117938, -0.0005713351250397801, -0.00053909843848997, -0.0004981546775346018, -0.0004534781674927225, -0.0004103243543053657])","array('d', [-0.40742508967849234, -0.40801319277328296, -0.40560812771859395, -0.4004719119321018, -0.39282260573279987, -0.3831406171988081, -0.37219891274855554, -0.36070523146677064, -0.3492053480932797, -0.3380894674456581, -0.32761015958173445, -0.31790698570982295, -0.3090328337777603, -0.3009788993099454, -0.29369718604874656, -0.2830329238072241])",-233.824838531733,-221.41865355903172,-50.412950764921234,-0.26146473692014816,-0.0002604873248987473,-0.3831406171988081,25.00000023840468,-1.0,"[-228.56958914422435, -230.90556004721543, 50.61576639518719]","[-208.6754439253026, -228.85839268646478, 50.43662453650888]","[-216.84393823973755, -247.08763100208566, 51.421800189549]",10000000000.0,0.03589177131652832
17,17.254457712173462,-228.65695190429688,-230.86215209960938,50.71027374267578,-0.08992211520671851,0.006139921955764177,-0.42520789702865047,23.244941719591054,"array('d', [-229.71983337402344, -230.72780660866366, -231.7282721497204, -232.71511184813087, -233.68263961739385, -234.62573837603406, -235.54070668767827, -236.42558655540432, -237.27990760483507, -238.10431773617898, -238.90023365895178, -239.66953865000863, -240.41434050314777, -241.1367912651295, -241.83896448304048, -242.25722435952963])","array('d', [-231.22071838378906, -228.93292852027054, -226.6418480900553, -224.3448694713722, -222.03969449747478, -219.72442239186427, -217.39789309421337, -215.059755442479, -212.71027936600981, -210.35013999960196, -207.9802374125139, -205.60156094074554, -203.21509634771, -200.82176854954938, -198.42241147594652, -196.9386689450529])","array('d', [-50.5290412902832, -50.52679282666404, -50.52405176689823, -50.5209836404726, -50.517716315222614, -50.51434938191032, -50.51096089108661, -50.507612368747715, -50.50435262482429, -50.501220566513354, -50.49824710125465, -50.49545618149968, -50.492865045588964, -50.490483727574976, -50.488313937751016, -50.487101342660495])","array('d', [-0.010101560503244475, -0.08388072422868142, -0.1506388781819248, -0.21104415904287135, -0.265701120295919, -0.30252765156926104, -0.32000967395056074, -0.32261641789007595, -0.3143752692380653, -0.29877807603436096, -0.27873200291741135, -0.2565549719893613, -0.23399999914675434, -0.2122913554045332, -0.19216030893026767, -0.17387385352034096])","array('d', [-0.0007798395818098263, -0.0010150084575690026, -0.0011751679955550667, -0.0012776245590219286, -0.0013352746421747973, -0.0013578954363368005, -0.0013529800256479839, -0.0013262839645614218, -0.0012822465209454076, -0.0012243663171681285, -0.0011555543496552284, -0.0010784678544522005, -0.0009958199588561794, -0.000910655438759779, -0.0008265791861958813, -0.0007479201470252155])","array('d', [-0.4156926115367073, -0.4138222752987216, -0.4091758918638053, -0.4019785898272271, -0.392422089186054, -0.38094895794441863, -0.3683177233917151, -0.3552558401417611, -0.34232050139893855, -0.32990414186434697, -0.31825432043071605, -0.3075011469242066, -0.2976860877655273, -0.2887886629749061, -0.2807499308959432, -0.2689813404100263])",-234.62573837603406,-219.72442239186427,-50.51434938191032,-0.30252765156926104,-0.0013578954363368005,-0.38094895794441863,25.000000238153387,-1.0,"[-227.47030611483598, -231.400304646543, 50.68927790652442]","[-207.56852553712937, -229.4408219229354, 50.407218883084894]","[-215.8078843629555, -247.59510378652058, 51.99939228971622]",10000000000.0,0.05473184585571289
18,17.29160189628601,-227.3771209716797,-231.4252166748047,50.794681549072266,-0.12426692992448814,0.00939352251589288,-0.4289513071391246,23.25009086627214,"array('d', [-229.9113006591797, -230.9225221784711, -231.9250408217771, -232.9128325254995, -233.880288102338, -234.82235132891338, -235.73536205752254, -236.61741055191007, -237.46808606771202, -238.28810254300282, -239.07894421756768, -239.8425597016139, -240.5811177071798, -241.29682578563208, -241.99180740242895, -242.40529956168405])","array('d', [-230.79335021972656, -228.50699811248302, -226.21681896160686, -223.92025294999684, -221.61505077029767, -219.29935995158542, -216.97206428148422, -214.63285927819905, -212.28206272644664, -209.920394835347, -207.54879548275747, -205.16828754538858, -202.7798841475374, -200.38453209536658, -197.98308268824627, -196.498038796358])","array('d', [-50.55996322631836, -50.55532802579982, -50.55067364301762, -50.546055085376985, -50.541517710668415, -50.5370988873125, -50.5328293317595, -50.528734319615445, -50.5248347835939, -50.52114815970155, -50.51768883439381, -50.51446809407361, -50.51149353003529, -50.50876790072329, -50.50628750122067, -50.50490173831753])","array('d', [-0.024719692766666485, -0.09710775848210051, -0.16260719479149727, -0.22187354073309637, -0.2754999511161733, -0.31168110305362995, -0.32849027624576665, -0.33041578571662966, -0.3215056136440522, -0.305268524067834, -0.28462295071481336, -0.2618926085278228, -0.23883200887027645, -0.2166640308171158, -0.1961169120788338, -0.1774539364216187])","array('d', [-0.0018439374398439, -0.0018638921788353621, -0.001859686324004011, -0.0018355642588396292, -0.0017950139265850526, -0.0017409484847089416, -0.0016757846486929369, -0.001601466279569942, -0.001519530623996929, -0.0014312423562048585, -0.001337777921314877, -0.0012404388348068003, -0.0011408738788294993, -0.0010412912223148178, -0.0009446410103997325, -0.0008547469127897057])","array('d', [-0.41739158233138507, -0.41497353113479174, -0.409825409900744, -0.4021651111898253, -0.3921791290963164, -0.38030146378696633, -0.3672875641760536, -0.3538701566464033, -0.3406094866789466, -0.3278986919020644, -0.31598422378126007, -0.30499399416895917, -0.2949667973804764, -0.28587942639125147, -0.2776703930398566, -0.2656535555409973])",-234.82235132891338,-219.29935995158542,-50.5370988873125,-0.31168110305362995,-0.0017409484847089416,-0.38030146378696633,25.00000023809815,-1.0,"[-226.4731372235244, -231.84561154504686, 50.75265562389727]","[-206.56586666098997, -229.95872654256326, 50.378164318987864]","[-214.8594521456391, -248.0363579612803, 52.479516763922305]",10000000000.0,0.036046504974365234
19,17.342271089553833,-226.52618408203125,-231.79580688476562,50.847755432128906,-0.1465725004673005,0.011760508641600501,-0.4312042435023448,23.25574681853128,"array('d', [-230.48312377929688, -231.50393361377954, -232.51270277099024, -233.50365964215015, -234.4714034041709, -235.41104284093254, -236.31902579004404, -237.19357356071632, -238.0344422828124, -238.8425330465265, -239.61952242999823, -240.36754537771483, -241.08894427038808, -241.7860846940844, -242.46123201585192, -242.86155941427285])","array('d', [-229.5115203857422, -227.22945377522618, -224.94203741442115, -222.64684891371638, -220.34177911536878, -218.0251135640728, -215.6958602349463, -213.3538479110823, -210.99953183857772, -208.6337619034428, -206.25759240121423, -203.87214237460256, -201.47850312561948, -199.077683741933, -196.67058469731725, -195.18201910617375])","array('d', [-50.65131378173828, -50.64079823631544, -50.6313937820791, -50.62289666937426, -50.61515796254978, -50.60806777311057, -50.601544308761696, -50.59552636187721, -50.58996815689175, -50.58483563292065, -50.58010348563363, -50.57575252657869, -50.57176708319661, -50.56813228031022, -50.564831135443036, -50.56298775245613])","array('d', [-0.06544515490531927, -0.13395768383467643, -0.1959503891325166, -0.25204371337123416, -0.30279905509565735, -0.3372507170354284, -0.35222498804782665, -0.3522714016701082, -0.3415024063262893, -0.32347940528139757, -0.3011560922145753, -0.27687480341445975, -0.25239568568524634, -0.22893852769435852, -0.20722347855012338, -0.1875035742606209])","array('d', [-0.004456596449017419, -0.003964080840353823, -0.0035661387371410526, -0.003237054264565598, -0.0029585667688303017, -0.002717611952182901, -0.002504716922546, -0.002312845985582798, -0.002136660750361418, -0.0019721063717277926, -0.001816214277749353, -0.001667043165920652, -0.0015237040464656665, -0.0013864292813378055, -0.001256652301830614, -0.00113706642945463])","array('d', [-0.422369643053736, -0.41842013643954995, -0.4118649722745195, -0.4029035200468906, -0.3917087933767729, -0.3786900405458951, -0.3645940446432915, -0.35017025311614147, -0.33598864296934733, -0.3224448530955857, -0.3097823311250538, -0.2981226984984003, -0.28749704062523485, -0.27787427753793126, -0.26918558091625117, -0.2564700392737294])",-235.41104284093254,-218.0251135640728,-50.60806777311057,-0.3372507170354284,-0.002717611952182901,-0.3786900405458951,25.00000023792637,-1.0,"[-225.40040545761232, -232.31870432051113, 50.816395158036734]","[-205.48808485571897, -230.5106770575896, 50.33626427593711]","[-213.83577289217203, -248.49322474082948, 52.97142712974003]",10000000000.0,0.049458980560302734
20,17.37494158744812,-225.67420959472656,-232.16485595703125,50.898681640625,-0.16897754371166238,0.01369024999439707,-0.4333161552760262,23.261141887640722,"array('d', [-230.86215209960938, -231.88835665357183, -232.9005044568129, -233.89296846203627, -234.86046855106753, -235.79820922240825, -236.7026984720425, -237.5722345003072, -238.40667493310218, -239.20703627467634, -239.9751142959068, -240.71315950644978, -241.42362187686282, -242.10896470499907, -242.77154089722325, -243.16354826215607])","array('d', [-228.65695190429688, -226.37732772346203, -224.09142041049844, -221.79689555060526, -219.49173327007205, -217.17430650796777, -214.8437009608289, -212.4998288097033, -210.14323126614076, -207.77483898303888, -205.3957770741901, -203.00722364231365, -200.61031757324156, -198.20610548623134, -195.79551716709318, -194.30478406918544])","array('d', [-50.71027374267578, -50.6959664265954, -50.68349448817038, -50.672490696088175, -50.66268247889781, -50.653865676064974, -50.64588610699317, -50.63862669199297, -50.631998417952595, -50.62593376305599, -50.62038158800892, -50.615302846763626, -50.61066670229788, -50.606446790856324, -50.60261749484749, -50.600479653121])","array('d', [-0.08992211520671851, -0.15610535540447862, -0.21599043291275907, -0.2701766965025178, -0.3192064584157597, -0.3526601657588378, -0.3665548069215045, -0.3654820829793048, -0.3535978908522077, -0.33449884332448343, -0.3111622311361074, -0.2859430360998951, -0.260605577615465, -0.23636815191256216, -0.2139461718119049, -0.19358651922459388])","array('d', [-0.006139921955764177, -0.005319676920560464, -0.004668773650091103, -0.004143058433929419, -0.0037107472455879358, -0.003348748474019957, -0.0030400670089221257, -0.00277194590891523, -0.0025346382623355227, -0.002320659961456449, -0.0021243583944017793, -0.0019416847254832693, -0.0017700953961150066, -0.0016085305586608458, -0.0014574281174864778, -0.001318735916395578])","array('d', [-0.42520789702865047, -0.42033254079718435, -0.41292401343377, -0.40317162145349417, -0.3912409851169272, -0.377525913154845, -0.3627679845937286, -0.34772809915663166, -0.33298289644102247, -0.3189298376268355, -0.3058105610160482, -0.2937427403738705, -0.28275260722114093, -0.2728041351412926, -0.2638239010153213, -0.25068401191585254])",-235.79820922240825,-217.17430650796777,-50.653865676064974,-0.3526601657588378,-0.003348748474019957,-0.377525913154845,25.000000237821336,-1.0,"[-225.1635837026703, -232.42271120281936, 50.8301150758114]","[-205.2502676658736, -230.63143921149305, 50.32892741460573]","[-213.60899190659006, -248.5915226401027, 53.07976952294978]",10000000000.0,0.027763843536376953
21,17.411717176437378,-224.82118225097656,-232.5322723388672,50.9473762512207,-0.19188940525054937,0.015048752538859742,-0.4349338253352305,23.267460750063716,"array('d', [-231.23939514160156, -232.27027658423555, -233.28519167154317, -234.27864461717826, -235.24546594503187, -236.18094800544625, -237.08165226835837, -237.9459483113851, -238.77379056802607, -239.56630670002173, -240.32540763164388, -241.05345554275917, -241.75300424980907, -242.42661120306872, -243.07671350442783, -243.46048771931703])","array('d', [-227.80223083496094, -225.52475236818395, -223.2400969243007, -220.94601809832443, -218.64058470749072, -216.32225595528465, -213.99019354109475, -211.64439095880005, -209.2854729979568, -206.91444846533236, -204.53251058499055, -202.14089385441926, -199.74078222777229, -197.3332575525604, -194.91927685798305, -193.4264462875914])","array('d', [-50.76718521118164, -50.748292430893464, -50.73213641850128, -50.71814592734861, -50.70589351180278, -50.6950565696583, -50.685389772218166, -50.67670557674367, -50.668860378789624, -50.661744373511304, -50.6552737583149, -50.64938438663802, -50.644026294030894, -50.639158721707794, -50.63474540779653, -50.63228204374648])","array('d', [-0.11299785226583485, -0.17698514763876805, -0.2348832519245543, -0.2872716276413062, -0.3346745933315255, -0.36721474004456617, -0.38010649070570185, -0.37798499651021455, -0.36505036147931, -0.34493483133276015, -0.32063954847366566, -0.29453235152643686, -0.26838196917656604, -0.24340548763141318, -0.22031390319767086, -0.19934828137209015])","array('d', [-0.008181511424481775, -0.006953345729816983, -0.005987664022099477, -0.005217633139259465, -0.004594729869755162, -0.004083381320903591, -0.003657185679683413, -0.003296206495279388, -0.0029851511573922083, -0.002712213854512135, -0.0024683521458340896, -0.002246844705146645, -0.002043032622735064, -0.001854178137867013, -0.0016793906088334218, -0.001519575901984051])","array('d', [-0.4277110536906382, -0.421957983207749, -0.41373874106132763, -0.4032338194928288, -0.39060231602272977, -0.37622305341005946, -0.3608327005030317, -0.34520394528107123, -0.32992027124856504, -0.31538106061673854, -0.30182621860352243, -0.2893695584000552, -0.2780325646079752, -0.2677743865635957, -0.2585171349728571, -0.24497424293100648])",-236.18094800544625,-216.32225595528465,-50.6950565696583,-0.36721474004456617,-0.004083381320903591,-0.37622305341005946,25.000000237724414,-1.0,"[-223.88720095628523, -232.97980851163456, 50.90167941838418]","[-203.96905004595934, -231.27599424208017, 50.29812225593274]","[-212.38289497973258, -249.10329492598993, 53.673705724888684]",10000000000.0,0.03373146057128906
