,current_time,x_pos,y_pos,z_pos,roll,pitch,yaw,vel,x_traj,y_traj,z_traj,roll_traj,pitch_traj,yaw_traj,x_cmd,y_cmd,z_cmd,roll_cmd,pitch_cmd,yaw_cmd,vel_cmd,effector_dmg,effector_x,effector_y,effector_z,cost,time_solution
0,15.727741003036499,-361.77764892578125,-258.26263427734375,50.045257568359375,0.6363065838813777,0.037611726671457235,0.9747930924084521,23.132917620300365,"array('d', [-260.4848327636719, -258.39863441922506, -256.3504752915801, -254.33962236377, -252.36458947824792, -250.42345506142289, -248.51406765901004, -246.6341822699895, -244.78155113965389, -242.95398362754918, -241.1493847134538, -239.36577854778028, -237.6013213816736, -235.8543068324035, -234.1231655183363, -233.07864823608915])","array('d', [-363.4103698730469, -362.03513186111877, -360.60266475408554, -359.1177721284339, -357.5853278989688, -356.01005558896935, -354.39639316181723, -352.7484247485267, -351.06985709815876, -349.364023140823, -347.63390063918246, -345.88213837602433, -344.1110854085513, -342.3228208894618, -340.5191831540423, -339.40794054638087])","array('d', [-50.0406608581543, -49.96321185529925, -49.91147011082111, -49.876412953351235, -49.852301765772175, -49.83545040229839, -49.82346538735413, -49.81477437494755, -49.80833157435396, -49.803432527973534, -49.79959700621905, -49.79649473711064, -49.79389835281989, -49.79165379061454, -49.789661917720295, -49.78856710738142])","array('d', [0.6364833712577818, 0.6125659407434926, 0.5814975665130386, 0.5460490078530411, 0.5083571963337675, 0.4700116975008255, 0.43215751268852376, 0.39559168387347843, 0.36084483538364626, 0.3282461885913731, 0.2979737877513517, 0.2700926354881606, 0.24458339075826704, 0.2213638761297729, 0.20030516911836524, 0.18124362845387956])","array('d', [-0.03736093640327441, -0.024817833350332018, -0.016713822647808133, -0.01142114759953925, -0.007926410371378529, -0.0055936996974648295, -0.004020592446258567, -0.0029500898641051515, -0.0022163958589195877, -0.0017112702582865523, -0.0013629588624623165, -0.001122862331461478, -0.0009570121680757195, -0.0008405801398012561, -0.0007543567094069924, -0.0006825705417137794])","array('d', [1.0022317330029349, 0.973958872891776, 0.9472957036342693, 0.9225000379393132, 0.8996687205856073, 0.8787924658618762, 0.8597973481686798, 0.8425733293846596, 0.8269927293755405, 0.8129217145894789, 0.8002272407684791, 0.7887811538990498, 0.778462564280611, 0.7691591940689854, 0.7607681263972652, 0.7483559072824072])",-250.42345506142289,-356.01005558896935,-49.83545040229839,0.4700116975008255,-0.0055936996974648295,0.8787924658618762,25.00000024617029,-1.0,"[-361.2177478063532, -257.3853453270045, 49.98809594496732]","[-359.85844397027074, -241.30645873351423, 61.80425856211555]","[-343.2699005438724, -249.90748704049471, 54.673863127567984]",10000000000.0,0.0248105525970459
1,15.752851486206055,-361.77764892578125,-258.26263427734375,50.045257568359375,0.6363065838813777,0.037611726671457235,0.9747930924084521,23.132917620300365,"array('d', [-260.1108703613281, -258.0312294992313, -255.98983057469817, -253.98586020799695, -252.01777162982603, -250.0835996833449, -248.18116293891268, -246.30819679469298, -244.46244155148483, -242.64170012238466, -240.84387487378189, -239.06698991139658, -237.3092030626295, -235.56881044557, -233.84424561233723, -232.80369992753734])","array('d', [-363.1422424316406, -361.7571032455278, -360.3150154615294, -358.82084527959404, -357.2794913076083, -355.6956769225444, -354.07382494545953, -352.41799615968586, -350.73187018615255, -349.0187518116366, -347.28159130426775, -345.52301155597695, -343.7453378401272, -341.9506278463507, -340.14070079012885, -339.0257258963605])","array('d', [-50.041255950927734, -49.96388956948699, -49.91221529210554, -49.87721072537206, -49.85313952611684, -49.83631819710064, -49.82435565261912, -49.81568149529956, -49.80925144555465, -49.804362186712325, -49.80053433766928, -49.79743825057013, -49.79484701014844, -49.792606872541306, -49.790618915604405, -49.789526249725085])","array('d', [0.6365473866462705, 0.6116940380308622, 0.5799759517488746, 0.5441099045293122, 0.5061812368004539, 0.4677345018054875, 0.42987746109651126, 0.3933773208929615, 0.35874129174011, 0.326280511932535, 0.29615929383067546, 0.26843246227566564, 0.24307343970644857, 0.2199953003905845, 0.19906653792732243, 0.18012286850362147])","array('d', [-0.03732492029666896, -0.024787622954140276, -0.016689941901014027, -0.011402858232405149, -0.007912632295152442, -0.005583391759543233, -0.004012880496586656, -0.0029442858332476593, -0.0022119760843009617, -0.0017078434230494144, -0.0013602357812867432, -0.0011206315882677938, -0.0009551221301881252, -0.0008389265532354399, -0.0007528746674233699, -0.0006812295345517113])","array('d', [0.9974713484433037, 0.9692228637139005, 0.9426284674482781, 0.9179278279138883, 0.8952045266692047, 0.874440282577664, 0.8555554257869566, 0.8384364701547516, 0.8229538408657637, 0.808972834664656, 0.796360202941141, 0.784988011503655, 0.7747358513081447, 0.765492071451293, 0.7571544430162862, 0.744820928794387])",-250.0835996833449,-355.6956769225444,-49.83631819710064,0.4677345018054875,-0.005583391759543233,0.874440282577664,25.00000024617507,-1.0,"[-360.9362354771689, -257.0221335862283, 49.98885327919326]","[-359.49043446348344, -240.9460312977536, 61.79853552044452]","[-342.95042524861043, -249.60584685245675, 54.626667581724725]",10000000000.0,0.02334737777709961
2,15.794692754745483,-360.9388427734375,-257.168701171875,50.046546936035156,0.6357002854347225,0.037498086690902724,0.9614623943951468,23.130624632358025,"array('d', [-259.3664855957031, -257.2998950296052, -255.2719159158182, -253.2815805658892, -251.32722603739938, -249.40680408207854, -247.51807660184366, -245.65874242694187, -243.82652008401186, -242.0192013009351, -240.23468460918465, -238.47099517314962, -236.72629493264355, -234.99888582162828, -233.2872079603001, -232.2544388266703])","array('d', [-362.6006774902344, -361.19615141922105, -359.7352539905457, -358.2229682268712, -356.6642357752011, -355.06377554393225, -353.4259776261939, -351.7548548866084, -350.0540322607949, -348.3267583047259, -346.57592862809827, -344.80411480949965, -343.01359507409325, -341.206384703242, -339.38426515922816, -338.26205739443077])","array('d', [-50.042659759521484, -49.965113639959625, -49.913342721366114, -49.878285741273984, -49.854185686090325, -49.83734807187169, -49.82537596805178, -49.81669586399409, -49.81026182110089, -49.80536964021484, -49.80153947366906, -49.798441430276576, -49.79584847102956, -49.79360679149582, -49.7916174406496, -49.79052399170434])","array('d', [0.6364106535911556, 0.6097502263986855, 0.5767863497747397, 0.5401274666953658, 0.501756857934261, 0.46313079130711016, 0.4252843674602534, 0.3889267610706216, 0.3545197275299303, 0.3223393392736918, 0.2925233022982883, 0.2651067378510364, 0.24004907626877214, 0.2172542326933371, 0.1965857472170379, 0.17787815603943763])","array('d', [-0.037419043481349945, -0.024838091382295924, -0.016717191202181018, -0.011417750084769038, -0.007920936205749726, -0.005588175049174256, -0.0040157762561423725, -0.002946164461439577, -0.0022133012189087253, -0.0017088610576505583, -0.0013610751253015042, -0.001121359144942731, -0.0009557709480197385, -0.0008395123288466829, -0.0007534049454211034, -0.0006817093499694189])","array('d', [0.9880959550526476, 0.9599099674819901, 0.9334626475934366, 0.9089582648962237, 0.88645482628646, 0.8659168532659406, 0.8472537716813939, 0.8303455987872306, 0.8150592300647979, 0.8012583847232009, 0.7888095018530812, 0.7775851406669472, 0.7674658800443451, 0.7583413328703813, 0.750110646534806, 0.7379346623653842])",-249.40680408207854,-355.06377554393225,-49.83734807187169,0.46313079130711016,-0.005588175049174256,0.8659168532659406,25.000000246184158,-1.0,"[-360.0809641732269, -255.9395217503758, 49.99031298664801]","[-358.36956483461626, -239.86738907102904, 61.769857266512005]","[-341.98050588129377, -248.71276741713916, 54.47890201094455]",10000000000.0,0.03809833526611328
3,15.833690881729126,-360.3709411621094,-256.4451599121094,50.046974182128906,0.6351189017295835,0.03714009374380101,0.9525704542782645,23.13197426873058,"array('d', [-258.9974365234375, -256.937192003378, -254.91573226743557, -252.93201588286314, -250.9843244843376, -249.07057027959328, -247.1884882856328, -245.3357600642513, -243.51009394475577, -241.70927651519742, -239.9312046742105, -238.17390428359064, -236.43553942884088, -234.71441499020844, -233.008974378496, -231.97996821049836])","array('d', [-362.328125, -360.91431555634506, -359.4444133555851, -357.9234563173087, -356.35640583172653, -354.7479781184594, -353.10254731940773, -351.4241032545695, -349.71624467878627, -347.9821932783515, -346.22481856523854, -344.4466676235364, -342.6499962192069, -340.83679938594804, -339.0088405567785, -337.8831679824059])","array('d', [-50.04358673095703, -49.965874037410664, -49.91400265622937, -49.87888353290832, -49.8547439002028, -49.83788024087232, -49.825890369250615, -49.81719766637765, -49.81075432149382, -49.805854986334346, -49.80201909481783, -49.798916299468885, -49.79631926877372, -49.79407401151339, -49.792081460796844, -49.790986242796684])","array('d', [0.6363299489021299, 0.6088053951096767, 0.5752467904902118, 0.5382099568923594, 0.4996290651, 0.46091811824884327, 0.4230775195578686, 0.38678875583958167, 0.3524918910136287, 0.32044625048042263, 0.2907768191365063, 0.2635092858790924, 0.23859637470078182, 0.21593760582622062, 0.1953941398570948, 0.17679994501494903])","array('d', [-0.03750285878777504, -0.02488816552849568, -0.016747829400429175, -0.011437021192905066, -0.007933441510164237, -0.005596574811557923, -0.004021633320253943, -0.0029504133395161355, -0.002216511287843815, -0.0017113858503260914, -0.0013631380199894119, -0.0011231031382443856, -0.000957287902429682, -0.0008408603745790158, -0.0007546190314547576, -0.000682807900540179])","array('d', [0.9835843602803089, 0.9554291279325885, 0.9290527999718227, 0.9046427013520604, 0.8822446807022088, 0.861815111748475, 0.8432582585564107, 0.8264510596017688, 0.8112587325692264, 0.7975442420996609, 0.7851738730447353, 0.7740204144511188, 0.7639649121628749, 0.7548975793742053, 0.7467182191252824, 0.7346178561458423])",-249.07057027959328,-354.7479781184594,-49.83788024087232,0.46091811824884327,-0.005596574811557923,0.861815111748475,25.000000246188396,-1.0,"[-359.50215521839874, -255.22364086149597, 49.991276848266466]","[-357.6137395864318, -239.15401707490324, 61.74717229516101]","[-341.3268189115864, -248.12639997979292, 54.38289636745874]",10000000000.0,0.03374981880187988
4,15.862504959106445,-359.79571533203125,-255.7265167236328,50.047019958496094,0.6329787373542781,0.035902556031942374,0.9442606727269026,23.138814471406853,"array('d', [-258.26263427734375, -256.2148780837357, -254.20625244150608, -252.23556975523493, -250.3010023956762, -248.40038477395223, -246.5313990155041, -244.69169265238523, -242.87895384244436, -241.09095891807416, -239.3256014049175, -237.58090837079254, -235.8550479571955, -234.146330678607, -232.4532062612739, -231.43163211256316])","array('d', [-361.77764892578125, -360.3458224493594, -358.8584335447398, -357.32062660546455, -355.7374018321256, -354.1134711150722, -352.4531787149633, -350.76047082848453, -349.038896426186, -347.291625951725, -345.5214790384949, -343.7309558757099, -341.9222691720056, -340.0973751014253, -338.25800246585305, -337.1255535194906])","array('d', [-50.045257568359375, -49.96733286829767, -49.91534053937206, -49.88015078872182, -49.855968628169585, -49.839078344941115, -49.82707099987258, -49.8183661926182, -49.8119139685001, -49.80700774749712, -49.803166246649276, -49.80005869672647, -49.797457516523224, -49.79520856708044, -49.793212694641326, -49.792115630503396])","array('d', [0.6363065838813777, 0.6070892090778395, 0.5723627617447252, 0.5345801286825264, 0.4955799567104458, 0.4566942494810075, 0.41885612852828324, 0.38269334926677173, 0.3486038124282768, 0.3168142212760258, 0.28742472011621595, 0.2604425302096423, 0.2358072065621906, 0.21340960766562275, 0.1931061744503644, 0.17472970811635974])","array('d', [-0.037611726671457235, -0.024949777662556332, -0.01678343125632759, -0.011458168171382186, -0.007946454158324495, -0.005604939324285445, -0.0040272928551487895, -0.002954464205554807, -0.0022195802139599137, -0.0017138359332559538, -0.0013651821790455988, -0.0011248673119169498, -0.0009588467620378393, -0.00084225795259727, -0.000755881092999094, -0.0006839498611522234])","array('d', [0.9747930924084521, 0.9466900300475667, 0.9204448536610553, 0.8962118638450273, 0.8740132886257145, 0.8537896661253825, 0.8354351913441472, 0.8188207527287964, 0.8038082267772888, 0.790259030060817, 0.7780390729253627, 0.767021527057655, 0.757088293535392, 0.7481307109731163, 0.7400498247722117, 0.7280945770783488])",-248.40038477395223,-354.1134711150722,-49.839078344941115,0.4566942494810075,-0.005604939324285445,0.8537896661253825,25.000000246196443,-1.0,"[-359.50215521839874, -255.22364086149597, 49.991276848266466]","[-357.6137395864318, -239.15401707490324, 61.74717229516101]","[-341.3268189115864, -248.12639997979292, 54.38289636745874]",10000000000.0,0.024370193481445312
5,15.903621673583984,-359.2141418457031,-255.01504516601562,50.04697799682617,0.6265524029731748,0.03299572318792336,0.9363623420384266,23.14665044202081,"array('d', [-257.5322265625, -255.49714687877747, -253.50152080938557, -251.5440125260905, -249.622685895597, -247.73529932688388, -245.87948410759287, -244.05285574300746, -242.25308406464816, -240.4779368126627, -238.72530562829323, -236.9932201152252, -235.27985365922382, -233.58352347149162, -231.90268654441311, -230.88852046752527])","array('d', [-361.22015380859375, -359.77035769127804, -358.26556670599325, -356.711020766395, -355.11175101293355, -353.472459546391, -351.79745703778974, -350.0906435642098, -348.3555166293426, -346.5951942887689, -344.81244550339454, -343.00972300283155, -341.1891960228397, -339.35278155941734, -337.50217352868003, -336.36305747678904])","array('d', [-50.0462646484375, -49.96849079079949, -49.91661945272365, -49.88152284118338, -49.85741083355469, -49.840572846679166, -49.82860438729657, -49.81992859791626, -49.81349822959376, -49.80860872255645, -49.80478028356806, -49.80168323200073, -49.799090771961964, -49.79684931558346, -49.79486007189751, -49.79376663366769])","array('d', [0.6359784007072447, 0.605102687243867, 0.5692420706120551, 0.5307439619961599, 0.49135069676069576, 0.45231240612492346, 0.4144954318691233, 0.3784743881587182, 0.3446055627041997, 0.31308350272585644, 0.2839838887606207, 0.2572957716981258, 0.23294576848509474, 0.21081625240566756, 0.1907590759446225, 0.17260596537229553])","array('d', [-0.037545319646596895, -0.024895252391234572, -0.016740941568562852, -0.011425967352499431, -0.007922394140832935, -0.005587058205645723, -0.0040139887056939725, -0.002944498225216857, -0.0022120213434083974, -0.00170799494756913, -0.0013605534420981147, -0.0011210832668903468, -0.000955644958807845, -0.0008394585885454476, -0.0007533726005572827, -0.0006816800831245773])","array('d', [0.9659654657032828, 0.9379315288258309, 0.911831438443226, 0.8877867962843145, 0.8657967626526842, 0.8457865661057831, 0.827640748232401, 0.8112244487519384, 0.7963964125791142, 0.7830166519689676, 0.7709508018556296, 0.7600724862754391, 0.7502645121833875, 0.7414193819361509, 0.7334394136706903, 0.7216329065050995])",-247.73529932688388,-353.472459546391,-49.840572846679166,0.45231240612492346,-0.005587058205645723,0.8457865661057831,25.000000246204163,-1.0,"[-358.6220862823478, -254.15932258746702, 49.994977925129625]","[-356.4887180261655, -238.05130184077538, 61.656041663385466]","[-340.3441796741633, -247.2469179480385, 54.25370920607358]",10000000000.0,0.03996992111206055
6,15.939172983169556,-358.92041015625,-254.66119384765625,50.04716491699219,0.6216117739677426,0.031015392392873698,0.9325578371670584,23.1518856086199,"array('d', [-256.80633544921875, -254.7843787344259, -252.80218840213047, -250.85827647159536, -248.95059686414572, -247.0768317919506, -245.23456214000635, -243.4213721434652, -241.6349142266054, -239.87294853083938, -238.13336582722866, -236.4141992543521, -234.7136284008734, -233.0299780755391, -231.361713369147, -230.35512320495152])","array('d', [-360.6557922363281, -359.1877325932692, -357.66527788612086, -356.0937580561276, -354.4782306012709, -352.8233842251511, -351.1334932107301, -349.412409321444, -347.66357683327584, -345.89005996256975, -344.0945757732471, -342.27952848335525, -340.4470429410922, -338.59899616337833, -336.7370464764268, -335.5912020369521])","array('d', [-50.046791076660156, -49.969321271495396, -49.91767313302041, -49.88273892765826, -49.858744839498236, -49.8419927250784, -49.8300872549994, -49.8214581940096, -49.81506303306667, -49.8102005928876, -49.806393489914846, -49.80331375946795, -49.80073581921956, -49.798506920685696, -49.79652882129607, -49.79544149353585])","array('d', [0.6354686021804805, 0.6029223055046139, 0.5659253496834035, 0.5267155834314429, 0.4869366055212411, 0.4477552486090162, 0.40997019684223795, 0.37410233600073606, 0.34046591260287457, 0.30922298679859, 0.28042451485871295, 0.25404117699305107, 0.22998650843095286, 0.20813430913632097, 0.1883318100978481, 0.17040968421179342])","array('d', [-0.0374049134552479, -0.024791680747775213, -0.016665445602206834, -0.011371179763453601, -0.007882591674743094, -0.005557982175466475, -0.003992545375623025, -0.0029284683077119554, -0.002199821371908148, -0.0016984963269182983, -0.001352951588392758, -0.0011148061150457157, -0.0009502908736207279, -0.0008347555335968097, -0.0007491521646656085, -0.0006778612744668258])","array('d', [0.956932918229375, 0.9289790856827369, 0.9030345803447487, 0.8791879158608791, 0.8574151593035904, 0.8376263165166973, 0.8196963724656088, 0.8034847955821353, 0.788847256330731, 0.7756424062185135, 0.763735641474079, 0.7530010728744233, 0.7433224476636013, 0.7345934670165344, 0.7267177570501624, 0.7150649356119385])",-247.0768317919506,-352.8233842251511,-49.8419927250784,0.4477552486090162,-0.005557982175466475,0.8376263165166973,25.000000246211723,-1.0,"[-358.0271675345702, -253.45705352569576, 50.00064928689371]","[-355.74049231940353, -237.26364287642593, 61.51344946775576]","[-339.6852880265971, -246.6602705284255, 54.16948569565508]",10000000000.0,0.0342252254486084
7,15.968104124069214,-358.3270568847656,-253.95733642578125,50.04884338378906,0.6079581379890439,0.02627066150307655,0.9248799840596059,23.161658567759897,"array('d', [-256.4451599121094, -254.4295853784633, -252.4539236979961, -250.51661082721742, -248.6155471919781, -246.7483786056864, -244.91266225403035, -243.1059679417813, -241.325940312535, -239.57033639890088, -237.8370470477338, -236.1241075422843, -234.42970085336665, -232.75215580133136, -231.0899416923547, -230.08699505195224])","array('d', [-360.3709411621094, -358.89410151980155, -357.36317063316324, -355.7835162846523, -354.16020524398004, -352.49791762646055, -350.8009088554854, -349.0730065913125, -347.31762895117413, -345.53781389119393, -343.73625326985234, -341.9153278035932, -340.07714086983583, -338.22355016467, -336.3561968231687, -335.2071472140299])","array('d', [-50.046974182128906, -49.97005876282721, -49.91878957361953, -49.884116785052996, -49.8603049978311, -49.843681612783186, -49.831868362689825, -49.823306483458815, -49.816961241655605, -49.8121367776389, -49.80835938055413, -49.805303637788924, -49.80274573854224, -49.80053414236751, -49.798571387210096, -49.79749248467444])","array('d', [0.6351189017295835, 0.6017816815585628, 0.5642501375998632, 0.5247086510224384, 0.4847531545532242, 0.44551052822011156, 0.40774713071958446, 0.3719582343513098, 0.33843806781902125, 0.3073332324965121, 0.2786829245531508, 0.25244909025794454, 0.228539050790494, 0.20682254142048911, 0.18714461373680732, 0.16933546442452263])","array('d', [-0.03714009374380101, -0.024611362105781725, -0.016541596158901394, -0.011285242344361722, -0.00782225440019104, -0.005515043350043653, -0.003961508807508053, -0.0029056225058264264, -0.0021826372815056646, -0.0016852340068149144, -0.0013424038854245946, -0.0011061323964705976, -0.0009429102117128975, -0.0008282792165722386, -0.000743341979787461, -0.0006726040013116559])","array('d', [0.9525704542782645, 0.9246608897932462, 0.8987958487921467, 0.8750480929426544, 0.8533827993459846, 0.8337028442331985, 0.8158787616373839, 0.7997673945180316, 0.7852230038595709, 0.7721036329991543, 0.7602745945428726, 0.7496102548866461, 0.739994828944269, 0.7313226060965241, 0.7234978507998975, 0.7119201545693489])",-246.7483786056864,-352.49791762646055,-49.843681612783186,0.44551052822011156,-0.005515043350043653,0.8337028442331985,25.000000246215244,-1.0,"[-358.0271675345702, -253.45705352569576, 50.00064928689371]","[-355.74049231940353, -237.26364287642593, 61.51344946775576]","[-339.6852880265971, -246.6602705284255, 54.16948569565508]",10000000000.0,0.02411365509033203
8,15.991310119628906,-358.0274353027344,-253.60740661621094,50.05059814453125,0.5995903015136717,0.023571250960230695,0.9210294644024709,23.167155457833246,"array('d', [-255.7265167236328, -253.72310483083575, -251.7597838274556, -249.83484572123783, -247.9460967408558, -246.09112281249446, -244.26744521312656, -242.47261460540136, -240.70426811562922, -238.9601631691356, -237.23819620498816, -235.5364113091222, -233.85300200926227, -232.18630838897573, -230.5348110035426, -229.53828773143238])","array('d', [-359.79571533203125, -358.3022844052871, -356.75550012723363, -355.16076203343374, -353.523125601495, -351.8472335441699, -350.13728994119197, -348.39706515895125, -346.62991902032024, -344.83883310592194, -343.0264464419618, -341.1950912734062, -339.34682718524556, -337.4834727656675, -335.60663452837525, -334.4519786576658])","array('d', [-50.047019958496094, -49.97267701884769, -49.92313845079609, -49.88964427136636, -49.86664596512008, -49.85059230898184, -49.83918456008679, -49.83091658338541, -49.824788863724926, -49.82012938566751, -49.816480762704245, -49.81352885001767, -49.81105761751228, -49.80892080901135, -49.80702436567754, -49.8059818901794])","array('d', [0.6329787373542781, 0.5983193815954041, 0.5599376698101641, 0.5199124110044855, 0.4797483301426869, 0.44049756858895656, 0.40286707389685833, 0.3673057341005409, 0.3340720013339192, 0.3032851917246103, 0.2749640072174899, 0.2490553881835232, 0.22545617000115883, 0.2040294189865742, 0.18461683506508708, 0.16704823549077708])","array('d', [-0.035902556031942374, -0.023783107277961922, -0.015980603272756504, -0.010900319937852822, -0.00755440948006422, -0.005325784151987402, -0.003825475541699031, -0.002805926213185653, -0.0021078989603957312, -0.0016276963785224882, -0.0012967242868439845, -0.0010686117646015211, -0.0009110037601988777, -0.0008002901569836351, -0.000718233511112898, -0.0006498849173066301])","array('d', [0.9442606727269026, 0.9165166652344524, 0.8908701187601665, 0.8673660167949434, 0.8459510577971975, 0.8265165166827342, 0.8089260593413198, 0.7930327908151759, 0.7786892603070472, 0.7657530955465421, 0.7540900144825744, 0.7435752986539358, 0.734094378472801, 0.7255429106974679, 0.717826565727475, 0.7064087208793891])",-246.09112281249446,-351.8472335441699,-49.85059230898184,0.44049756858895656,-0.005325784151987402,0.8265165166827342,25.000000246221504,-1.0,"[-357.4244727796022, -252.7599269477514, 50.009441924036906]","[-354.98505911148646, -236.42964720894886, 61.29532800392737]","[-339.01959940442197, -246.07150357517347, 54.07461459352295]",10000000000.0,0.02178049087524414
9,16.02383327484131,-357.4223937988281,-252.91160583496094,50.05643081665039,0.5805408358573911,0.017882997170090748,0.9129548231747484,23.176988120904408,"array('d', [-255.3701629638672, -253.37255371876302, -251.4150062722474, -249.4957481243085, -247.61255000303632, -245.76297980184185, -243.94455169629074, -242.15481620186492, -240.391414704074, -238.6521115998399, -236.9348118556974, -235.2375688382285, -233.55858555004406, -231.8962113614465, -230.24893567910635, -229.25490810024456])","array('d', [-359.50592041015625, -358.00460863017804, -356.4504680968068, -354.84887320040536, -353.2048443273125, -351.52298418406605, -349.80745569431235, -348.0619892841122, -346.2899073620588, -344.4941572409098, -342.677347029009, -340.8417813689274, -338.98949539435273, -337.1222861608952, -335.2417413010701, -334.08491939886727])","array('d', [-50.046966552734375, -49.975187413605525, -49.92736337119983, -49.89503105060193, -49.872831351688866, -49.85733507297867, -49.846322872874076, -49.83834086445089, -49.8324243311673, -49.82792472693272, -49.82440068324411, -49.82154908474581, -49.819161503181704, -49.81709683756097, -49.81526434467247, -49.81425700462627])","array('d', [0.6303263306617736, 0.5952303132425473, 0.5566213099890843, 0.5165238895281679, 0.47639854186389696, 0.43726279780654753, 0.399797173994512, 0.3644306737236597, 0.33140695600625303, 0.30083446551632453, 0.27272406188358744, 0.24701721180884334, 0.22360716617032048, 0.20235495280397117, 0.18310153693521453, 0.16567713691925903])","array('d', [-0.034666027873754376, -0.022960772520926636, -0.015426571444298428, -0.010521852468061943, -0.0072920275752779646, -0.005140961134419219, -0.0036929832803862524, -0.002709048495270315, -0.0020354200573228735, -0.001571996105382653, -0.0012525684530971628, -0.0010323839389593944, -0.0008802199840618239, -0.0007732963842328616, -0.0006940205247340886, -0.0006279760992626632])","array('d', [0.9402613202717641, 0.9126860647263755, 0.887218587020071, 0.8638929238933128, 0.8426492524940562, 0.8233753257369348, 0.8059331925088312, 0.7901754994997495, 0.7759550188922948, 0.7631299882608652, 0.7515669436470028, 0.7411420844384958, 0.7317417910726418, 0.7232626578796538, 0.7156112479434313, 0.7042891492101423])",-245.76297980184185,-351.52298418406605,-49.85733507297867,0.43726279780654753,-0.005140961134419219,0.8233753257369348,25.000000246224175,-1.0,"[-356.8138646437225, -252.0683331545339, 50.02194695457959]","[-354.2197203717607, -235.5650524266767, 61.01795262544867]","[-338.3463645806502, -245.48486937718843, 53.9728261115272]",10000000000.0,0.031038522720336914
10,16.046624898910522,-357.4223937988281,-252.91160583496094,50.05643081665039,0.5805408358573911,0.017882997170090748,0.9129548231747484,23.176988120904408,"array('d', [-254.66119384765625, -252.67464661221803, -250.7278408559063, -248.81889760470858, -246.94554393374972, -245.10533801848416, -243.29580324690937, -241.5145099510183, -239.7591250644478, -238.02744129355733, -236.3173928108921, -234.6270618955441, -232.95467941130659, -231.2986210724976, -229.65740085601422, -228.66685965752205])","array('d', [-358.92041015625, -357.4041426236045, -355.8364154458037, -354.2224709772273, -352.567200189458, -350.87508255839697, -349.15016702080896, -347.3960808168351, -345.6160543062074, -343.8129534735903, -341.98931501804134, -340.1473811361577, -338.289132499271, -336.4163187434605, -334.53048624686295, -333.37064152087873])","array('d', [-50.04716491699219, -49.98294807449245, -49.94016976770431, -49.91125009596474, -49.89139214391854, -49.87752779717519, -49.867672100062265, -49.86052508416944, -49.85522437681526, -49.851190364736546, -49.84802867851142, -49.84546854027704, -49.843323797612314, -49.84146844933163, -49.83982145855925, -49.838916039719116])","array('d', [0.6216117739677426, 0.5861230919013725, 0.547481574392848, 0.5076016278252933, 0.4678588881930875, 0.4292077911689957, 0.39228297734276535, 0.357480630445565, 0.32502128901546695, 0.2949974344307116, 0.2674092600372601, 0.24219152735424407, 0.21923379384743832, 0.19839573539621677, 0.17951883590573978, 0.16243537467665814])","array('d', [-0.031015392392873698, -0.020538740265518166, -0.0137980878354373, -0.009411363319765222, -0.006523348614117888, -0.004600268058532563, -0.0033059031159102816, -0.002426389553315286, -0.0018242248367846266, -0.0014098980147602732, -0.0011242173460529676, -0.000927180549096769, -0.0007908874189069931, -0.0006949910706631742, -0.000623789416793304, -0.0005644283591852094])","array('d', [0.9325578371670584, 0.9055018596585798, 0.8805403031160823, 0.8576917239910239, 0.8368889798023287, 0.8180175013867578, 0.8009398447458642, 0.7855106408902691, 0.7715853311932063, 0.759025064308622, 0.7476992917939345, 0.7374870109496328, 0.728277222245569, 0.7199689328268277, 0.7124708958168402, 0.7013749562709275])",-245.10533801848416,-350.87508255839697,-49.87752779717519,0.4292077911689957,-0.004600268058532563,0.8180175013867578,25.000000246228645,-1.0,"[-356.5054250979348, -251.72482492649004, 50.02960775062512]","[-353.8290552950896, -235.1257087531443, 60.86041505858652]","[-338.00530984881095, -245.1952971865496, 53.91689514191545]",10000000000.0,0.020956039428710938
11,16.07063627243042,-356.809814453125,-252.2212371826172,50.06592559814453,0.5590396523475645,0.011990654282271817,0.904229120412145,23.18738698604083,"array('d', [-253.95733642578125, -251.9816977417466, -250.04509621140417, -248.14558663002447, -246.28089244830232, -244.4485985793503, -242.64626957002247, -240.87152307568687, -239.1220750980622, -237.39576674944266, -235.69057863989164, -234.00463683464181, -232.33621301382752, -230.68372064002295, -229.04570840950296, -228.05684424536489])","array('d', [-358.3270568847656, -356.7962101186551, -355.21572351381405, -353.59060851043137, -351.9255511728152, -350.22485017986037, -348.4923965591657, -346.7316807684402, -344.9458153089351, -343.1375648868784, -341.30937924226475, -339.46342587387227, -337.6016212046491, -335.72565950633395, -333.8370393364809, -332.6757253077795])","array('d', [-50.04884338378906, -49.99444991037183, -49.95821575656887, -49.933715923173274, -49.91688673144821, -49.905130168981565, -49.89676598608169, -49.89069407980485, -49.88618485333756, -49.8827480648119, -49.88005025301702, -49.877862538358045, -49.87602762803557, -49.87443908202987, -49.87302843193631, -49.87225286130745])","array('d', [0.6079581379890439, 0.5726988450851949, 0.5345820527399842, 0.4954072506821299, 0.45646739963062166, 0.4186595841088744, 0.38257983458441136, 0.34859914041286355, 0.3169222751193007, 0.28763251884358115, 0.2607254105129525, 0.2361341981908522, 0.21374908961052794, 0.19343189409906564, 0.1750272359934497, 0.15837120664120588])","array('d', [-0.02627066150307655, -0.017395745813341305, -0.011687850591249771, -0.00797429058205434, -0.005529944287283094, -0.003902490474218699, -0.002807141206698869, -0.0020628056547290895, -0.0015530807061617843, -0.0012022042850878118, -0.0009600845926111936, -0.0007928767036273925, -0.0006769849777155471, -0.0005952159707262371, -0.0005343200201254863, -0.0004834730940467569])","array('d', [0.9248799840596059, 0.898600703996094, 0.8743586307632757, 0.8521645210958638, 0.8319508341123083, 0.813606476490397, 0.7969991900632238, 0.7819892924153257, 0.7684377930530295, 0.7562110077886911, 0.7451830519753622, 0.7352370708921325, 0.7262657252006088, 0.7181712371363723, 0.7108651744765956, 0.7000523487201148])",-244.4485985793503,-350.22485017986037,-49.905130168981565,0.4186595841088744,-0.003902490474218699,0.813606476490397,25.000000246232258,-1.0,"[-356.5054250979348, -251.72482492649004, 50.02960775062512]","[-353.8290552950896, -235.1257087531443, 60.86041505858652]","[-338.00530984881095, -245.1952971865496, 53.91689514191545]",10000000000.0,0.021872997283935547
12,16.106290578842163,-356.50115966796875,-251.87893676757812,50.07301712036133,0.5478151440620421,0.008906113915145371,0.8998019854214531,23.19203326828936,"array('d', [-253.60740661621094, -251.6372206732954, -249.70559887433024, -247.8105777240571, -245.94989190216975, -244.1211509844156, -242.32194979183254, -240.5499379304953, -238.8028630202042, -237.07859644497123, -235.3751472577929, -233.6906679457194, -232.02345455771453, -230.3719429291361, -228.73470223806714, -227.7461463883763])","array('d', [-358.0274353027344, -356.4893830937693, -354.90272931395066, -353.2723437526906, -351.6027895619415, -349.89825912470997, -348.1625521738069, -346.3990811792936, -344.6108922205737, -342.80069347958835, -340.97088655684195, -339.1235978735144, -337.26070870585346, -335.38388315581153, -333.49459378947313, -332.3329968461882])","array('d', [-50.05059814453125, -50.00179186923979, -49.96927646124798, -49.947286087979805, -49.93217503671336, -49.92161301198163, -49.91409316552245, -49.90862907268378, -49.90456662790158, -49.901466391072276, -49.89902952055659, -49.89705095250205, -49.89538980064886, -49.89395074640458, -49.8926724650824, -49.89196961508037])","array('d', [0.5995903015136717, 0.5646384286403974, 0.5269554441126354, 0.4882829255613638, 0.44987366240660026, 0.41259801728686546, 0.37703497176326434, 0.3435452070513123, 0.31232779193080035, 0.28346339840030144, 0.25694700928340464, 0.23271264912998332, 0.21065213898187696, 0.19062939470182472, 0.1724913998594406, 0.15607668701340066])","array('d', [-0.023571250960230695, -0.015609176618817493, -0.010489320940107355, -0.0071587727288779344, -0.004966712148720256, -0.0035072796841115516, -0.0025249932330605007, -0.0018574209911883966, -0.0014001642150307725, -0.0010852787861550626, -0.0008678451460938095, -0.0007175172181640485, -0.0006131454785453781, -0.0005393293696602514, -0.0004842151390350959, -0.00043813631874191713])","array('d', [0.9210294644024709, 0.8952145184359052, 0.8713956169904058, 0.8495818669573318, 0.8297074771838014, 0.8116646990066422, 0.795325159562728, 0.7805530464399157, 0.7672129635937586, 0.7551744475265968, 0.7443144448071629, 0.7345185649180281, 0.725681603004497, 0.7177076266405543, 0.7105097984712375, 0.6998566169694224])",-244.1211509844156,-349.89825912470997,-49.92161301198163,0.41259801728686546,-0.0035072796841115516,0.8116646990066422,25.000000246233835,-1.0,"[-355.5685490566524, -250.7041776497449, 50.05965812609362]","[-352.6314167590221, -233.802390659304, 60.34084727890953]","[-336.967961854579, -244.34530868665883, 53.74516233154025]",10000000000.0,0.0244598388671875
13,16.131091833114624,-355.8785705566406,-251.1982879638672,50.091407775878906,0.5250796675682067,0.0027304261457173954,0.891203121342931,23.19802084956868,"array('d', [-253.2588348388672, -251.2942352817835, -249.3676676487949, -247.47715826869722, -245.6204592649249, -243.795209965859, -241.9990397825521, -240.2296339948484, -238.48477508183262, -236.7623675376334, -235.06045135633158, -233.3772076569577, -231.7109588239717, -230.0601648264199, -228.42341691064763, -227.4349877811091])","array('d', [-357.7258605957031, -356.1804993240983, -354.5876335193509, -352.95198222264577, -351.2779778558614, -349.5696999736053, -347.8308516200624, -346.06476284226756, -344.2744096498136, -342.46244069112055, -340.63120693231355, -338.7827916344007, -336.91903917401913, -335.04158199391543, -333.1518653906027, -331.99013983728355])","array('d', [-50.053077697753906, -50.01009893195162, -49.98146026800417, -49.96208467414684, -49.948762899065784, -49.9394440775767, -49.932802288256674, -49.9279696907599, -49.92437091784353, -49.92161951365478, -49.91945274478996, -49.9176903901546, -49.91620868034019, -49.91492390104068, -49.91378218013022, -49.91315434966513])","array('d', [0.5904586911201475, 0.5558967656374508, 0.5187226632470124, 0.4806196882420707, 0.4428006667911949, 0.4061097472103258, 0.3711095147019554, 0.33815105010648694, 0.3074284272188221, 0.27902038943247603, 0.2529219928183946, 0.2290686048114773, 0.20735415463065593, 0.1876450818169742, 0.16979106368064834, 0.1536333215763295])","array('d', [-0.02075531892478459, -0.013746381146767859, -0.009240241798068058, -0.006309288044451079, -0.004380362337136698, -0.0030961360126589435, -0.0022317219557894887, -0.0016441601679110507, -0.0012415750718982378, -0.0009641762733769527, -0.0007724376041215802, -0.0006396611834513505, -0.000547248356548397, -0.0004816691112978257, -0.0004325274222338668, -0.000391367334330933])","array('d', [0.9170956770565846, 0.8917802248359106, 0.8684146953718658, 0.8470073444498043, 0.8274948096771169, 0.8097732518185835, 0.7937186493237387, 0.7791994431463329, 0.7660841465710339, 0.7542457750618426, 0.7435643179228554, 0.7339280218347777, 0.7252339578649256, 0.7173881548377923, 0.710305466007641, 0.6998221357236543])",-243.795209965859,-349.5696999736053,-49.9394440775767,0.4061097472103258,-0.0030961360126589435,0.8097732518185835,25.000000246235356,-1.0,"[-355.34970371864364, -250.47042522800126, 50.068735394075986]","[-352.35343377666277, -233.4990164292275, 60.217314103416854]","[-336.72693691940054, -244.15082328377187, 53.709502896609]",10000000000.0,0.023470401763916016
14,16.157102346420288,-355.8785705566406,-251.1982879638672,50.091407775878906,0.5250796675682067,0.0027304261457173954,0.891203121342931,23.19802084956868,"array('d', [-252.91160583496094, -250.9529224077123, -249.0316809934514, -247.14590491307163, -245.2933689552328, -243.47174649197095, -241.67870527828148, -239.91196964103582, -238.16935997907652, -236.4488166803742, -234.74841321237227, -233.06636162885715, -231.40101274381922, -229.75085256513609, -228.11449614224549, -227.1261191539556])","array('d', [-357.4223937988281, -355.8693811572859, -354.27002474473477, -352.6288859998712, -350.9502598120943, -349.2381066550317, -347.4960273334748, -345.7272646283438, -343.93472029049013, -342.12097982585743, -340.2883404598637, -338.43883961684446, -336.5742824620009, -334.6962677751256, -332.8062118393632, -331.6444209704948])","array('d', [-50.05643081665039, -50.01939540948771, -49.99470863128913, -49.97799713492458, -49.966497305512014, -49.95844346988542, -49.952694314706385, -49.948502976415796, -49.94537440838094, -49.9429762043455, -49.94108246894637, -49.939538330700294, -49.938237490348286, -49.93710807937929, -49.93610383183435, -49.93555151703316])","array('d', [0.5805408358573911, 0.546431439116731, 0.5098277337701128, 0.4723532028086683, 0.43517979585587646, 0.39912496931903124, 0.36473473543217233, 0.3323506031916312, 0.302161815327272, 0.27424543485608555, 0.24859688621641718, 0.22515319429637443, 0.20381071026551045, 0.18443869521492068, 0.16688979068219598, 0.1510081409697065])","array('d', [-0.017882997170090748, -0.011847147356875014, -0.007967331506336882, -0.005444061753895013, -0.0037835360683731714, -0.0026779866107291732, -0.0019337568817653957, -0.001427756419834881, -0.0010808851528650908, -0.0008416689580705845, -0.000676081816373663, -0.0005611462026875733, -0.00048086536053162736, -0.00042361842989227126, -0.00038049893973540175, -0.00034429001233881636])","array('d', [0.9129548231747484, 0.8881745811895632, 0.865294297436651, 0.8443217511877618, 0.8251963727972618, 0.8078185750818558, 0.7920690035102629, 0.7778206382754068, 0.7649461571713945, 0.7533222798481038, 0.7428322354330924, 0.7333670792062319, 0.724826306620143, 0.7171180361224349, 0.7101589226984566, 0.6998579129771266])",-243.47174649197095,-349.2381066550317,-49.95844346988542,0.39912496931903124,-0.0026779866107291732,0.8078185750818558,25.000000246236915,-1.0,"[-354.9358590812291, -250.03154964705894, 50.087312141749315]","[-351.82862004467796, -232.93175038687983, 59.983873707834306]","[-336.2721091539012, -243.7866739961003, 53.64623989519308]",10000000000.0,0.024452924728393555
15,16.185651779174805,-354.9324645996094,-250.18711853027344,50.1309700012207,0.49176424741744973,-0.00586412521079192,0.878598050275121,23.203164762038455,"array('d', [-252.2212371826172, -250.27515010249425, -248.36520057431963, -246.48942508853452, -244.64565605672914, -242.83164414462598, -241.04514145935514, -239.28395717677301, -237.54599364530307, -235.8292686227921, -234.13192763749691, -232.4522492976684, -230.78864556441104, -229.13965844472096, -227.50395417845695, -226.5155751399588])","array('d', [-356.809814453125, -355.24079322465235, -353.6278564668883, -351.97524388783177, -350.28696670537335, -348.5667382498083, -346.817946214283, -345.043650862744, -343.2465981957816, -341.4292409621489, -339.5937631557966, -337.74210543967655, -335.87599006184035, -333.99694450700525, -332.1063235227723, -330.9444921684138])","array('d', [-50.06592559814453, -50.04107958348864, -50.024491636152256, -50.01323546341469, -50.00546302583969, -49.99999421907006, -49.99606661250553, -49.99318156381985, -49.99100880806733, -49.98932682611422, -49.987985310901905, -49.98688142122865, -49.98594472850778, -49.98512769307371, -49.98439966577986, -49.983999064186726])","array('d', [0.5590396523475645, 0.5259747384102124, 0.4906437111875947, 0.45454979943271684, 0.4187828725109384, 0.38410687246180275, 0.3510347157136205, 0.3198889837446698, 0.29084961314942337, 0.26399076829700496, 0.23930914326229183, 0.21674564848988812, 0.19620205841297345, 0.1775538406459964, 0.16066009206495943, 0.1453712760473763])","array('d', [-0.011990654282271817, -0.007953840158852409, -0.005359890937262804, -0.0036732157641074276, -0.0025632608311636656, -0.0018241184969042556, -0.0013262731015246908, -0.0009874191071238246, -0.0007546684451416493, -0.0005936040814825354, -0.00048147860620182363, -0.00040294327844720996, -0.0003473385070358787, -0.00030696338326775753, -0.00027597539635448176, -0.0002497131907369863])","array('d', [0.904229120412145, 0.8805853710206999, 0.8587353168521068, 0.838686517871963, 0.8203845137494749, 0.8037386511958629, 0.7886393008174091, 0.7749688929599051, 0.7626087893722133, 0.7514434533296747, 0.741362905591135, 0.7322641049165295, 0.7240516551952674, 0.7166380876176099, 0.7099438694732512, 0.7000337758348902])",-242.83164414462598,-348.5667382498083,-49.99999421907006,0.38410687246180275,-0.0018241184969042556,0.8037386511958629,25.00000024624011,-1.0,"[-354.296838072768, -249.36416262353197, 50.12095905528547]","[-351.0230110791506, -232.07945460373273, 59.6352076060723]","[-335.57313349447264, -243.2328664702881, 53.56044947480084]",10000000000.0,0.027492523193359375
16,16.209421634674072,-354.6141357421875,-249.85255432128906,50.14736557006836,0.4810746014118192,-0.008240263909101583,0.8743934194233751,23.204307360703314,"array('d', [-251.87893676757812, -249.9393040209046, -248.03511736991507, -246.16442886719113, -244.32510476401384, -242.5149376106663, -240.73172406409898, -238.97331764206072, -237.23766331265458, -235.52281897682272, -233.8269675071324, -232.14842198208495, -230.48562602342074, -228.83715062997047, -227.2016885434481, -226.21325063186032])","array('d', [-356.50115966796875, -354.9240732293916, -353.30429504023544, -351.64590636257407, -349.9527774152416, -348.2284979926418, -346.47634883183485, -344.69929829820853, -342.9000137544195, -341.08088075832876, -339.2440258722097, -337.3913405864648, -335.5245049384274, -333.6450100605492, -331.75417927809906, -330.5923767862265])","array('d', [-50.07301712036133, -50.05454991466517, -50.04219597878615, -50.0337886762999, -50.027960165632585, -50.02383725843167, -50.02085602134646, -50.01864782175299, -50.0169686943898, -50.01565519993982, -50.014596634351875, -50.01371742981338, -50.012965971418495, -50.01230748496748, -50.01171951186292, -50.01139581885572])","array('d', [0.5478151440620421, 0.5153281789756506, 0.4806802521693166, 0.44531660597512857, 0.4102875823511028, 0.37633140586355185, 0.3439451682109105, 0.31344251124123457, 0.28499912071706207, 0.25868803863821255, 0.2345068718729922, 0.21239871636662833, 0.19226827195531118, 0.17399429641613218, 0.15743927409514202, 0.14245695916773674])","array('d', [-0.008906113915145371, -0.005917644020412641, -0.003997576880165739, -0.0027491051539409984, -0.0019274151160460842, -0.0013800433989204677, -0.0010111015100171272, -0.0007596530429256866, -0.0005865368598034057, -0.00046626511115619823, -0.00038199319981154346, -0.00032236515334028016, -0.00027951636897339464, -0.0002478018542958257, -0.00022299053189357024, -0.00020177049848242275])","array('d', [0.8998019854214531, 0.876739247623051, 0.8554158293180135, 0.8358395583003404, 0.8179591792762991, 0.80168855502516, 0.786922933442555, 0.7735494804088324, 0.7614539165635855, 0.7505246021132014, 0.7406549852406735, 0.7317450119711154, 0.7237018775160773, 0.7164403563881389, 0.7098828577578534, 0.7001745802485538])",-242.5149376106663,-348.2284979926418,-50.02383725843167,0.37633140586355185,-0.0013800433989204677,0.80168855502516,25.00000024624168,-1.0,"[-353.9751344778792, -249.03237108342853, 50.139766138623145]","[-350.6191547204933, -231.6616206564752, 59.466846575314875]","[-335.2225220958945, -242.95628202105473, 53.51921440085985]",10000000000.0,0.021234750747680664
17,16.23401951789856,-354.29443359375,-249.51918029785156,50.165287017822266,0.47076806426048246,-0.01031671185046441,0.8702289621022082,23.20569715185735,"array('d', [-251.53794860839844, -249.60462021397674, -247.70603100131794, -245.8402558464404, -244.00519855783423, -242.198695585108, -240.4185892805123, -238.66277817757756, -236.9292502670789, -235.21610383279787, -233.5215592297921, -231.8439640812262, -230.18179370466873, -228.53364810326727, -226.8982465213987, -225.90963899935593])","array('d', [-356.19073486328125, -354.60585966471325, -352.97949365249735, -351.3155641993204, -349.6178038198387, -347.88968135069945, -346.13437265925927, -344.35475592323417, -342.55342127836576, -340.7326882591531, -338.8946269644451, -337.04108051615424, -335.17368740870893, -333.2939029763407, -331.403019580752, -330.2413399972744])","array('d', [-50.08148956298828, -50.06939757705432, -50.06127257978828, -50.055708696275914, -50.051818703376725, -50.04903647140445, -50.04699660108806, -50.04546047227509, -50.04427041676813, -50.04332107726007, -50.04254136196904, -50.04188299146122, -50.04131318196825, -50.04080994007302, -50.04035900515985, -50.04011055371778])","array('d', [0.5364924073219296, 0.5046244291022298, 0.4706880405362329, 0.4360739705424525, 0.40179561451141177, 0.3685673547137811, 0.3368718139451739, 0.30701468006925076, 0.27916811184374374, 0.25340456579079224, 0.22972296188698357, 0.20806887865753892, 0.1883501570288236, 0.17044899339748967, 0.15423134984373205, 0.13955430900802532])","array('d', [-0.005822620354592733, -0.003883358294422125, -0.0026374357884956737, -0.0018271912664894973, -0.0012937039458794436, -0.0009380156699737244, -0.0006978865834272376, -0.0005337545822036492, -0.00042018442684432767, -0.0003406145742250066, -0.00028410043116224514, -0.00024327699237841467, -0.00021307444032068866, -0.00018990557760349263, -0.00017115514630735844, -0.00015486789781854387])","array('d', [0.8955003182080129, 0.8730152044040732, 0.8522147021299006, 0.8331073705703751, 0.8156453590528623, 0.7997471066147749, 0.785312732434897, 0.7722341047026102, 0.7604012615085624, 0.7497064186710309, 0.7400464136637146, 0.7313241455414814, 0.7234493703480528, 0.7163390788714461, 0.7099175984219918, 0.7004101403531227])",-242.198695585108,-347.88968135069945,-50.04903647140445,0.3685673547137811,-0.0009380156699737244,0.7997471066147749,25.00000024624315,-1.0,"[-353.327507761218, -248.37252648559797, 50.180761811085794]","[-349.80676871559996, -230.84298189693322, 59.142874457480914]","[-334.5180512188853, -242.40505486722492, 53.435547067598385]",10000000000.0,0.02352309226989746
18,16.25751233100891,-354.29443359375,-249.51918029785156,50.165287017822266,0.47076806426048246,-0.01031671185046441,0.8702289621022082,23.20569715185735,"array('d', [-251.1982879638672, -249.2713033661584, -247.37833972675907, -245.517500039367, -243.6867279732269, -241.88390490612167, -240.10691937061753, -238.3537151732302, -236.62232349335116, -234.91088312980852, -233.21765204120524, -231.5410125126834, -229.8794716723971, -228.23165863898885, -226.59631926562054, -225.60754237914867])","array('d', [-355.8785705566406, -354.28594786886043, -352.65301836261057, -350.9835613036187, -349.2811752811457, -347.54921077029707, -345.7907405893114, -344.0085540092695, -342.2051648348647, -340.3828271959016, -338.54355514703457, -336.6891437180073, -334.8211900348574, -332.9411137360895, -331.0501762717897, -329.8886193936786])","array('d', [-50.091407775878906, -50.08570757232548, -50.08181987747456, -50.07910301097075, -50.07715228632761, -50.07570974415432, -50.074609188539824, -50.07374243187987, -50.07303837920418, -50.07244994615506, -50.071945791953546, -50.071505030245326, -50.07111378810915, -50.07076291065224, -50.0704463698616, -50.07027169683578])","array('d', [0.5250796675682067, 0.49384838467309955, 0.46063564845031585, 0.4267797251360312, 0.3932584016488201, 0.3607630493173385, 0.3297623205389775, 0.3005542402942933, 0.2733076072314688, 0.24809438745139656, 0.22491486901570262, 0.2037171465975955, 0.18441222500774682, 0.16688575710925793, 0.15100719863283754, 0.13663697608686154])","array('d', [-0.0027304261457173954, -0.001844519441173698, -0.0012751361517098522, -0.0009045397560500372, -0.000660117554367625, -0.0004966433140735456, -0.00038565274151174366, -0.000309030800252922, -0.00025511083469084163, -0.00021628332456613607, -0.0001875198672166297, -0.0001654575413148262, -0.00014783022465816178, -0.00013311718202602452, -0.0001203287849081703, -0.00010887830007700942])","array('d', [0.891203121342931, 0.8692925528372946, 0.8490125446523069, 0.8303724606336519, 0.8133277797181622, 0.7978013892037177, 0.7836981475150762, 0.7709145099430377, 0.7593447397362875, 0.7488848382070794, 0.7394349808449345, 0.7309009834137613, 0.7231951378432198, 0.7162366346447522, 0.7099517087601108, 0.7006458984657878])",-241.88390490612167,-347.54921077029707,-50.07570974415432,0.3607630493173385,-0.0004966433140735456,0.7978013892037177,25.0000002462446,-1.0,"[-353.327507761218, -248.37252648559797, 50.180761811085794]","[-349.80676871559996, -230.84298189693322, 59.142874457480914]","[-334.5180512188853, -242.40505486722492, 53.435547067598385]",10000000000.0,0.021581411361694336
19,16.28446912765503,-353.3285217285156,-248.5260772705078,50.22836685180664,0.44230878353118885,-0.014985995367169509,0.8591042915966849,23.2074655372094,"array('d', [-250.5229034423828, -248.60851847187035, -246.72672913628494, -244.87570667695988, -243.05347777770214, -241.25801338141645, -239.487292710518, -237.73934802324814, -236.01229476573096, -234.30435080107355, -232.6138475239018, -230.93923496837246, -229.2790824867744, -227.63207618544965, -225.99701402187497, -225.00799982459628])","array('d', [-355.2493591308594, -353.6416090717904, -351.9958093645966, -350.3154689080596, -348.6039371027571, -346.86434175820887, -345.09956038346223, -343.3122127846203, -341.5046665923927, -339.6790501883794, -337.83726950409863, -335.9810265086522, -334.1118380687579, -332.23105441215216, -330.3398767633774, -329.17847912207213])","array('d', [-50.116127014160156, -50.122724542236675, -50.12698034533677, -50.12972766921691, -50.131492498167496, -50.13261094797706, -50.133300713337334, -50.133704928651696, -50.13391931648925, -50.13400910569563, -50.13401960707235, -50.13398279359976, -50.13392131385168, -50.13385082187179, -50.13378118881896, -50.133742013015755])","array('d', [0.502648830413818, 0.4726875867964459, 0.4409034237856847, 0.408537296214125, 0.37650060483948083, 0.34544156113573365, 0.3158024373328787, 0.2878666746565897, 0.26179660102049873, 0.23766316991707565, 0.2154692258375315, 0.19516765063022956, 0.17667551697853404, 0.159885146847488, 0.14467277435329987, 0.13090535145806823])","array('d', [0.0032213663216681338, 0.0020757732775428164, 0.0013411262654192705, 0.0008646813305456923, 0.0005523915543575445, 0.0003458144336535605, 0.0002082920045452381, 0.00011660968888134384, 5.591311936020194e-05, 1.657449171230122e-05, -7.767320520124895e-06, -2.1455117552449278e-05, -2.7625742143055876e-05, -2.874910137853742e-05, -2.6986740111435814e-05, -2.4418917694864658e-05])","array('d', [0.8827653686192372, 0.8619631645110895, 0.8426890087877409, 0.8249537505692305, 0.8087189387791399, 0.793915618720255, 0.7804574030255257, 0.7682492816376509, 0.7571934338286882, 0.7471929995802378, 0.7381544872326261, 0.729989276623061, 0.7226145213338275, 0.7159536476630863, 0.7099365778981799, 0.7010264131079361])",-241.25801338141645,-346.86434175820887,-50.13261094797706,0.34544156113573365,0.0003458144336535605,0.793915618720255,25.000000246247417,-1.0,"[-352.675666607917, -247.7166579603912, 50.22592474832095]","[-349.00390903559594, -230.04738662474372, 58.84654228985298]","[-333.81528926268686, -241.8442961514311, 53.356664785468354]",10000000000.0,0.023000001907348633
20,16.321576595306396,-352.6798400878906,-247.86932373046875,50.27719497680664,0.4252553284168242,-0.01727702654898178,0.8524547974255421,23.2052060645785,"array('d', [-250.18711853027344, -248.27903084459047, -246.40284346686207, -244.55676509019568, -242.73886385826688, -240.94715416133363, -239.17965883423938, -237.43445260748402, -235.70969143452615, -234.00363125889226, -232.3146389175277, -230.6411972026081, -228.98190559835083, -227.33547783820876, -225.7007371582265, -224.71172156818608])","array('d', [-354.9324645996094, -353.31727436767846, -351.66510188440435, -349.9793345846662, -348.2632074505729, -346.5197447407621, -344.75173233049145, -342.9617099705531, -341.1519758451055, -339.3245983014578, -337.4814314327362, -335.62413242759214, -333.7541794107315, -331.8728890153791, -329.981433252447, -328.8200155345572])","array('d', [-50.1309700012207, -50.14302496982387, -50.15088915645006, -50.15605293024423, -50.1594566508132, -50.16170082107055, -50.1631739352764, -50.16413093678855, -50.16474177441308, -50.165121673863474, -50.16535009485253, -50.16548258600046, -50.16555810552263, -50.16560339663285, -50.165635430838805, -50.16565201227725])","array('d', [0.49176424741744973, 0.46241469225137755, 0.43131748785012813, 0.3996682008122548, 0.3683469620265971, 0.3379813982151972, 0.3090009898794111, 0.281681924220254, 0.25618312935642745, 0.23257478748873717, 0.21086071939675, 0.19099590068954758, 0.17290016392842406, 0.15646893164838888, 0.14158164201603218, 0.12810837900196426])","array('d', [0.00586412521079192, 0.0038140873636682204, 0.002499207521320034, 0.0016460469538968248, 0.0010862685695760918, 0.0007152570805242408, 0.00046736960057019506, 0.00030100688263528494, 0.00018952299063049972, 0.00011562926248528271, 6.790368492452926e-05, 3.857843599536787e-05, 2.211187617976747e-05, 1.4252127911866214e-05, 1.1422441432787298e-05, 1.0335150078178472e-05])","array('d', [0.878598050275121, 0.8583245450759449, 0.8395315490125264, 0.822230390187466, 0.8063852074312782, 0.7919306406210507, 0.7787842273173089, 0.7668548338084175, 0.7560482737963732, 0.7462709959460494, 0.7374324687360528, 0.7294466927045155, 0.7222331270383452, 0.7157172190474536, 0.7098306594878099, 0.7011133190280924])",-240.94715416133363,-346.5197447407621,-50.16170082107055,0.3379813982151972,0.0007152570805242408,0.7919306406210507,25.000000246248813,-1.0,"[-352.02125190179095, -247.06485415098146, 50.27665268754067]","[-348.2154894000702, -229.2731733227479, 58.58160693706928]","[-333.1166697464896, -241.2764662015461, 53.29515206310687]",10000000000.0,0.033031463623046875
21,16.34475874900818,-352.6798400878906,-247.86932373046875,50.27719497680664,0.4252553284168242,-0.01727702654898178,0.8524547974255421,23.2052060645785,"array('d', [-249.51918029785156, -247.62389010107262, -245.7591610579974, -243.9232761778668, -242.11438263065688, -240.3305768610788, -238.56996413692988, -236.83069977885307, -235.11101695264435, -233.40924450385108, -231.72381737891877, -230.05328151805375, -228.39629463194808, -226.75162393309392, -225.11814164512694, -224.12951028219345])","array('d', [-354.29443359375, -352.66433436836655, -350.99927514522483, -349.3024253716644, -347.5768104001531, -345.8252623066054, -344.0503952687624, -342.25459786266657, -340.4400362557259, -338.608664008159, -336.7622355949559, -334.9023217737077, -333.03032561552976, -331.1474984721217, -329.25495544500603, -328.0931686381125])","array('d', [-50.165287017822266, -50.186529842030154, -50.200456430880884, -50.20966900965832, -50.21580862719459, -50.21992265513866, -50.222688204500535, -50.224549152682044, -50.2258009133581, -50.226643280587716, -50.22721354273718, -50.22760723603471, -50.227891032249886, -50.22811054168706, -50.2282948013681, -50.22839477427128])","array('d', [0.47076806426048246, 0.4425565975841805, 0.4127498904684105, 0.38245715002024483, 0.3524981068006041, 0.3234598433479303, 0.29574595865643416, 0.2696173244626276, 0.24522502515514674, 0.22263659137131508, 0.20185672744587302, 0.182843629622149, 0.16552182157627637, 0.1497922573630716, 0.13554028482982666, 0.12264193246922314])","array('d', [0.01031671185046441, 0.006737469873324609, 0.004442151661465462, 0.0029527744318114993, 0.0019752320365723575, 0.0013268088201957705, 0.0008928700785480159, 0.000600761546832004, 0.00040393056046683266, 0.00027216140184280993, 0.0001854941005600912, 0.000130379949544868, 9.721035580391079e-05, 7.870588396301585e-05, 6.886600844377458e-05, 6.231224359244536e-05])","array('d', [0.8702289621022082, 0.8509602711027722, 0.8330854941700052, 0.8166159982755269, 0.8015199603558799, 0.7877380747297238, 0.77519471175778, 0.7638056304223049, 0.7534832122414283, 0.7441399659517929, 0.7356908455302673, 0.7280547588076615, 0.7211555225640418, 0.7149224351956445, 0.7092905806332365, 0.7009496479045592])",-240.3305768610788,-345.8252623066054,-50.21992265513866,0.3234598433479303,0.0013268088201957705,0.7877380747297238,25.00000024625167,-1.0,"[-351.6927820454874, -246.74014488168314, 50.30310922737005]","[-347.82307650764534, -228.8934398842421, 58.4591192681135]","[-332.76735852383723, -240.9911414902284, 53.26576083213452]",10000000000.0,0.021591901779174805
