,x_pos,y_pos,z_pos,roll,pitch,yaw,vel,x_traj,y_traj,z_traj,roll_traj,pitch_traj,yaw_traj,x_cmd,y_cmd,z_cmd,roll_cmd,pitch_cmd,yaw_cmd,vel_cmd,effector_dmg,effector_x,effector_y,effector_z,cost,time_solution
0,-271.35662841796875,-293.39459228515625,49.94964599609375,0.6265320777893062,0.03871151432394989,1.846236364045415,23.09659732896206,"array('d', [-296.1202697753906, -293.7234617504245, -291.3064444039214, -288.8710833417499, -286.4193483552649, -283.9533748270436, -281.47557802445385, -278.9886965461485, -276.4954301309101, -273.99815198204897, -271.4987947409562, -268.99884852910566, -266.499414099533, -264.001274300084, -261.5049645028276, -259.01083747689813])","array('d', [-270.70562744140625, -271.41113425051014, -272.04650030538505, -272.60900133981784, -273.096146301115, -273.50576385474614, -273.8368632132828, -274.09127530150164, -274.2731485553847, -274.38792441693874, -274.4415523367096, -274.43997413360495, -274.3888240935852, -274.29327695555236, -274.15799016863457, -273.9871057350043])","array('d', [-49.95621871948242, -49.87203912003845, -49.809985562287316, -49.764044852031674, -49.7298438312989, -49.704200907622635, -49.68479858696005, -49.66994585774092, -49.65840661981178, -49.64927589447485, -49.6418906799607, -49.63576632854463, -49.6305518320539, -49.625999049169906, -49.62194204086989, -49.61828346367222])","array('d', [0.6247392296791076, 0.6400279363749544, 0.6538617315039303, 0.6663790680698569, 0.6777052234762582, 0.6840108331329599, 0.6694965221128546, 0.6402881708791863, 0.6017397749432905, 0.5581445822790614, 0.5127307655807226, 0.4677973224832784, 0.42488375533826966, 0.38492141211631714, 0.34835007373136323, 0.3152002098359837])","array('d', [-0.03890184313058856, -0.028626282912912696, -0.021146554933705687, -0.015699003431411975, -0.011728913483223266, -0.008834083718659161, -0.006723146023318811, -0.005184771464678789, -0.00406532661991106, -0.0032528241776757626, -0.0026651594713120812, -0.0022413957729006838, -0.0019353105312084934, -0.0017106652913425995, -0.0015378260491782409, -0.0013914827595808792])","array('d', [1.871369228759084, 1.8426067076696313, 1.8129571596852903, 1.782488026066182, 1.7512627290268108, 1.719471538573937, 1.6879567045730501, 1.6578340067259663, 1.6297739008592655, 1.6040828791875694, 1.5808186112472553, 1.5598894965915, 1.5411249123981325, 1.5243200887383428, 1.509263813178978, 1.4957559857941727])",-283.9533748270436,-273.50576385474614,-49.704200907622635,0.6840108331329599,-0.008834083718659161,1.719471538573937,25.000000247975333,-1.0,"[-271.5673472066595, -292.86496157925404, 49.89382994434651]","[-300.44091838684704, -271.1006993817104, 67.00037191808329]","[-262.067758416955, -261.1601364175635, 72.35628471432105]",10000000000.0,0.020896196365356445
1,-271.45794677734375,-292.9396057128906,49.94861602783203,0.6269639730453488,0.03871301934123032,1.8421075801041462,23.098496909025435,"array('d', [-295.66644287109375, -293.26662382961786, -290.8468886841198, -288.4091173329534, -285.9552925287119, -283.4875622600696, -281.00835195292353, -278.52039425458827, -276.02636931411536, -273.52862369974605, -271.02906117411277, -268.52914360843704, -266.0299455869061, -263.5322264515065, -261.036500828605, -258.54310334399645])","array('d', [-270.8193054199219, -271.5145282664507, -272.13948553800935, -272.6914635413475, -273.1679822172795, -273.56688933163383, -273.8872412603014, -274.13091181763747, -274.3020776034785, -274.4061958045908, -274.44922286763864, -274.43710215561833, -274.37546643625296, -274.2694874182661, -274.12381894188394, -273.9425993496449])","array('d', [-49.95502853393555, -49.87107600082037, -49.80924285830033, -49.76350228533177, -49.729476229534875, -49.70398293284591, -49.68470707715719, -49.66996079027668, -49.65851130110706, -49.64945674074303, -49.642136812082306, -49.63606910841698, -49.63090440604849, -49.62639592759257, -49.62237872238921, -49.61875610414856])","array('d', [0.6250239014625546, 0.6402855180796347, 0.6540948010893255, 0.6665899581700999, 0.6778960447438619, 0.6839118492963241, 0.6692014841058771, 0.6398762989283767, 0.6012715045084537, 0.5576621062599495, 0.5122610393844416, 0.467355682465791, 0.42447724578634993, 0.38455156266975493, 0.3480151674797038, 0.3148971741005027])","array('d', [-0.03881159797310839, -0.028534792266988587, -0.021061550428798502, -0.015623708843596984, -0.011664048910471543, -0.008779075920712743, -0.0066768337153065025, -0.005145805833733599, -0.004032391869018809, -0.003224745534221737, -0.0026409447469308038, -0.0022202411135508653, -0.001916589213929655, -0.0016939102074046662, -0.00152271125121136, -0.0013778063235792464])","array('d', [1.867088631787572, 1.8383097685734113, 1.8086451100324106, 1.7781620253724386, 1.7469238663635138, 1.715129864083382, 1.6836278262829327, 1.6535272011039355, 1.625493203012759, 1.599828831509128, 1.5765898086816241, 1.5556836550057014, 1.5369395082480108, 1.5201527009320843, 1.505112278850686, 1.4916184419756078])",-283.4875622600696,-273.56688933163383,-49.70398293284591,0.6839118492963241,-0.008779075920712743,1.715129864083382,25.000000247989213,-1.0,"[-271.75604518880795, -291.9908083345476, 49.89169123731793]","[-300.41179508273996, -270.0516198798463, 67.14045954017126]","[-261.95221204088546, -260.354763246172, 72.3203672297604]",10000000000.0,0.023801565170288086
2,-271.45794677734375,-292.9396057128906,49.94861602783203,0.6269639730453488,0.03871301934123032,1.8421075801041462,23.098496909025435,"array('d', [-295.21246337890625, -292.80970358886475, -290.38731958864224, -287.9472050885112, -285.49135544637846, -283.02193090378125, -280.5413665216002, -278.0523886747294, -275.55765786714016, -273.0594941583517, -270.55977265891585, -268.05992725789054, -265.561006644083, -263.0637469130577, -260.5686421819497, -258.07600914357914])","array('d', [-270.9309387207031, -271.6159600841264, -272.23059406221034, -272.7721375417462, -273.2381214107734, -273.62641242202847, -273.9361138049979, -274.1691418391839, -274.3297008719639, -274.42326348390213, -274.4557928424579, -274.4332336443424, -274.3612169783883, -274.2449113988629, -274.08896703909807, -273.89751850298035])","array('d', [-49.953880310058594, -49.87018476787616, -49.808592960963935, -49.76306715907429, -49.729226324090334, -49.70388986738209, -49.6847455782021, -49.670109372645804, -49.65875226067758, -49.64977579847331, -49.642522614007966, -49.63651269575841, -49.631398711654526, -49.62693532099197, -49.6229586078336, -49.619372568017894])","array('d', [0.62529981136322, 0.6405351717042027, 0.6543206970505293, 0.6667943573061546, 0.6780809927435563, 0.6838092126495474, 0.6689045301835574, 0.6394637390844559, 0.6008033291781506, 0.5571801675397365, 0.5117920572970723, 0.466914845943712, 0.4240715175830781, 0.384182436217746, 0.3476809174222904, 0.31459473211418276])","array('d', [-0.03870721161365507, -0.02843341887148511, -0.02096963791990276, -0.015543578895868155, -0.011595790315969393, -0.008721674826228775, -0.006628821821080128, -0.005105620564752881, -0.003998568470919915, -0.003196005199080605, -0.0026162224684143664, -0.0021986821537004937, -0.001897531746457081, -0.0016768638332225365, -0.0015073360693699225, -0.0013638942824835917])","array('d', [1.8628473440792899, 1.8340526355337192, 1.8043733261758315, 1.7738767152827466, 1.7426260862576193, 1.7108295795241444, 1.6793405124504792, 1.6492620286473756, 1.6212541392992217, 1.595616383597895, 1.5724025576483511, 1.5515193148029127, 1.5327955590089972, 1.5160267271446073, 1.5010021232367297, 1.487522246394994])",-283.02193090378125,-273.62641242202847,-49.70388986738209,0.6838092126495474,-0.008721674826228775,1.7108295795241444,25.00000024800274,-1.0,"[-271.85963801455836, -291.4955580114693, 49.89056100251318]","[-300.3902691243213, -269.45783078261115, 67.22092935015857]","[-261.88233041975246, -259.90175621486605, 72.30227716160235]",10000000000.0,0.022362947463989258
3,-271.6545715332031,-292.02899169921875,49.94648742675781,0.6279295682907102,0.03865187987685195,1.8335748175766806,23.102286678545013,"array('d', [-294.303955078125, -291.89549644393446, -289.46799152746416, -287.0233627611157, -284.563631130968, -282.090981248677, -279.6078664749357, -277.11699991056196, -274.6210025581386, -272.12214163076726, -269.62223532857, -267.1226620695358, -264.6244192666643, -262.12819701625267, -259.63444886855314, -257.14345605286417])","array('d', [-271.14788818359375, -271.81262978534033, -272.4067475423025, -272.9275589652612, -273.3726165468525, -273.7398248135422, -274.0283803447967, -274.24028369521056, -274.37979395243036, -274.45241378505307, -274.4641192099079, -274.4208571059692, -274.3282548092154, -274.19147424172047, -274.01515785626134, -273.8034325570603])","array('d', [-49.951725006103516, -49.868308805422174, -49.80702430960777, -49.76179632881603, -49.72822637836401, -49.70312777590373, -49.68418831483378, -49.66972690259242, -49.65851871926884, -49.64966965904032, -49.64252633988495, -49.636612167830236, -49.631582591097924, -49.6271944269804, -49.62328534483796, -49.61976041372305])","array('d', [0.6258426904678343, 0.6410263890756681, 0.6547651689482392, 0.6671965321453801, 0.6784448956121302, 0.683600351981335, 0.6683090614892779, 0.6386385272013311, 0.5998678100145325, 0.5562176142454606, 0.5108556135280279, 0.46603470859398405, 0.42326151639263476, 0.38344551911937674, 0.34701362835381017, 0.31399094394169147])","array('d', [-0.03860629722476003, -0.02831109258040171, -0.020846061383652043, -0.015428713542603872, -0.011493714733954238, -0.008633229813830866, -0.006553185849272146, -0.005041231861061042, -0.003943654967531209, -0.0031488667650702413, -0.0025753635334468577, -0.0021628598925911976, -0.0018657603941216448, -0.0016483987011277016, -0.001481649962082795, -0.0013406525293874806])","array('d', [1.8544319728997092, 1.8256060693117504, 1.7958979176885297, 1.7653746794343521, 1.7340995031729287, 1.702298294900281, 1.6708353209406175, 1.6408011345507179, 1.6128453913946628, 1.5872607573808226, 1.5640972073456407, 1.5432596759641557, 1.5245766053743228, 1.5078436418299062, 1.4928506042289922, 1.4793985877270794])",-282.090981248677,-273.7398248135422,-49.70312777590373,0.683600351981335,-0.008633229813830866,1.702298294900281,25.000000248028936,-1.0,"[-271.85963801455836, -291.4955580114693, 49.89056100251318]","[-300.3902691243213, -269.45783078261115, 67.22092935015857]","[-261.88233041975246, -259.90175621486605, 72.30227716160235]",10000000000.0,0.0184786319732666
4,-271.8430480957031,-291.1146545410156,49.94374465942383,0.6291260123252865,0.037959046661853735,1.8250256637719013,23.112116766918895,"array('d', [-293.849365234375, -291.4382293174077, -289.00832138511424, -286.56157940753104, -284.1000379510602, -281.62589421580645, -279.1416106734695, -276.64989425911426, -274.15334720111747, -271.65421148403556, -269.1542780676082, -266.65489876336756, -264.15704634674915, -261.66138877773517, -259.16836005766703, -256.6782243050237])","array('d', [-271.2532653808594, -271.9082292201846, -272.49244580205334, -273.00324311078725, -273.4381847177586, -273.79519399484883, -274.0735128857464, -274.275183129695, -274.4044909701153, -274.4669544004518, -274.46855639931465, -274.4152455631944, -274.3126479728354, -274.16592280591783, -273.9797091818185, -273.7581305962753])","array('d', [-49.95066452026367, -49.86725153216866, -49.806017769872085, -49.7608608426467, -49.727367180018994, -49.70234228600676, -49.683470389178765, -49.66906922461961, -49.6579140627409, -49.64911147692322, -49.64200896977098, -49.636130832498004, -49.631133299524905, -49.62677383528954, -49.62289060920683, -49.61938905132843])","array('d', [0.6261923909187315, 0.6413428111572378, 0.6550514795131633, 0.6674555966804347, 0.6786793069146221, 0.6835570811284106, 0.6680764969910857, 0.6382914514681894, 0.5994634381278359, 0.5557960756025975, 0.5104427213325498, 0.465645313989315, 0.4229026101101005, 0.3831188370222335, 0.3467177930334944, 0.31372326105004966])","array('d', [-0.03861828893423085, -0.028296966563165413, -0.020819791263078518, -0.01539820227162985, -0.01146319043355892, -0.008604750252890354, -0.006527564769108166, -0.0050186040502136165, -0.003923818626909783, -0.003131482439076662, -0.0025600633559669608, -0.002149303081476013, -0.0018536578856614275, -0.0016375208392726286, -0.0014718253803500487, -0.001331762879416258])","array('d', [1.850384668507848, 1.8215386578104333, 1.7918119163680784, 1.7612715165775787, 1.7299805200592817, 1.698173260894121, 1.6667192539958278, 1.6367031329454538, 1.6087696271427285, 1.5832080885810496, 1.5600666128245153, 1.5392492559920403, 1.5205841882388773, 1.5038671138560782, 1.4888880649105274, 1.4754483960905334])",-281.62589421580645,-273.79519399484883,-49.70234228600676,0.6835570811284106,-0.008604750252890354,1.698173260894121,25.00000024804123,-1.0,"[-272.043927502031, -290.5815656473705, 49.888524042030376]","[-300.3347324632093, -268.35778120309004, 67.37376809588118]","[-261.73670441392255, -259.07236926082754, 72.27002746084099]",10000000000.0,0.02541375160217285
5,-271.9340515136719,-290.6557922363281,49.94207763671875,0.6301147341728208,0.0371836237609386,1.8210648457196095,23.121425955525794,"array('d', [-293.39459228515625, -290.9807594980434, -288.5484344767841, -286.09957207441823, -283.63622118024324, -281.16059196278155, -278.6751559555156, -276.1826134430475, -273.68554716524045, -271.18617310461644, -268.6862542403436, -266.18711511022167, -263.6897032684075, -261.1946640354469, -258.7024114328369, -256.21319209926213])","array('d', [-271.35662841796875, -272.00155908279845, -272.5756204051593, -273.07615062225585, -273.50072437792824, -273.84728425673165, -274.1151188893842, -274.30631221617887, -274.4251780755694, -274.47724982497976, -274.46851721152785, -274.4049302439142, -274.29211340467765, -274.135222787879, -273.93889386459887, -273.7072464398026])","array('d', [-49.94964599609375, -49.86606146662452, -49.804751119857634, -49.75957191639883, -49.726085621612846, -49.701083088543456, -49.68224008529559, -49.66786965695065, -49.65674462765296, -49.64797041462952, -49.64089407387315, -49.63503981670817, -49.6300639694443, -49.62572415529434, -49.6218587181532, -49.618373258031056])","array('d', [0.6265320777893062, 0.6416501725758135, 0.6553295916504196, 0.6677072429706529, 0.6789070059107244, 0.6834985806522178, 0.6678234519492426, 0.6379212444616109, 0.5990351645293313, 0.5553511117205122, 0.5100076307515089, 0.4652353361361784, 0.42252487449363757, 0.3827750577018147, 0.34640648008640745, 0.3134415734212944])","array('d', [-0.03871151432394989, -0.028341860563320113, -0.02083665190835891, -0.015399426645823252, -0.011456208228051051, -0.00859390722739085, -0.00651531572778876, -0.0050062652091173105, -0.003912041787121002, -0.003120546868416407, -0.002550050335457391, -0.0021401968360869592, -0.0018454013542448253, -0.0016300442673729248, -0.0014650589356505978, -0.0013256403465121134])","array('d', [1.846236364045415, 1.817370812577167, 1.7876260055062057, 1.7570689286232952, 1.7257625588982883, 1.6939499656796626, 1.662506076236317, 1.6325093690458083, 1.6045994787701359, 1.5790623452908996, 1.5559441388239408, 1.5351480229632983, 1.5165018992750101, 1.4998015416522468, 1.484837209756135, 1.4714105320516029])",-281.16059196278155,-273.84728425673165,-49.701083088543456,0.6834985806522178,-0.00859390722739085,1.6939499656796626,25.000000248053688,-1.0,"[-272.20340530998, -289.7516696107673, 49.886980062395104]","[-300.2752439908962, -267.355053239944, 67.50411513625961]","[-261.5970489187155, -258.3288536669049, 72.2501605665101]",10000000000.0,0.019459247589111328
6,-271.9340515136719,-290.6557922363281,49.94207763671875,0.6301147341728208,0.0371836237609386,1.8210648457196095,23.121425955525794,"array('d', [-292.9396057128906, -290.52312207337053, -288.0884255464843, -285.637487348689, -283.17237074842257, -280.6952991411504, -278.2087532461664, -275.7154269170084, -273.21788369298514, -270.7183138246887, -268.2184525246831, -265.71959720795235, -263.22267030294773, -260.72829454293554, -258.23686398969045, -255.74860780009587])","array('d', [-271.45794677734375, -272.0928755220168, -272.65680090917664, -273.14707273972135, -273.56127777695343, -273.89737864790175, -274.15471117475516, -274.33540219791513, -274.4437940464841, -274.4854363684895, -274.46632653180353, -274.39241669072055, -274.26933033910797, -274.1022209869996, -273.89572086659325, -273.6539464305389])","array('d', [-49.94861602783203, -49.86505787718632, -49.80381609294796, -49.75872157636397, -49.72532196271832, -49.70040106290958, -49.681631688020566, -49.667326181507484, -49.65625781778225, -49.64753296581424, -49.64049977086341, -49.63468348164421, -49.629741322154985, -49.62543164207176, -49.621593338498215, -49.618132403556665])","array('d', [0.6269639730453488, 0.6420409675993786, 0.6556831976422343, 0.6680271989314979, 0.6791965140583465, 0.6834997039405997, 0.6676265738052651, 0.6376030277944699, 0.5986544598681826, 0.5549493763102553, 0.5096116912501495, 0.46486077184702745, 0.42217916685915396, 0.3824602513383445, 0.3461213818175448, 0.3131836058164465])","array('d', [-0.03871301934123032, -0.028319637801021164, -0.020804179339564577, -0.015364184828824344, -0.011422080291330456, -0.008562676926071959, -0.0064875833045773485, -0.004982001439149236, -0.003890920229815475, -0.0031021341488201982, -0.002533908391399641, -0.0021259330098144557, -0.0018326890257299427, -0.001618627690806929, -0.0014547501523047577, -0.001316312572763929])","array('d', [1.8421075801041462, 1.813217170074079, 1.7834493818648893, 1.7528710909417555, 1.7215451664478962, 1.6897232898313597, 1.6582857864235727, 1.6283051238774213, 1.6004158961429138, 1.5749006195907187, 1.5518034944517844, 1.5310267373968114, 1.5123979297728727, 1.49571287111772, 1.4807620132210593, 1.4673472303693933])",-280.6952991411504,-273.89737864790175,-49.70040106290958,0.6834997039405997,-0.008562676926071959,1.6897232898313597,25.000000248065945,-1.0,"[-272.3052909063672, -289.20352785008214, 49.88631505291176]","[-300.24222258857066, -266.7013658723645, 67.58322310241164]","[-261.5151722886781, -257.8483583061559, 72.25653371719484]",10000000000.0,0.022063016891479492
7,-272.10906982421875,-289.7371826171875,49.9387321472168,0.6334314346313473,0.03431217372417448,1.8136389116433003,23.140135622358137,"array('d', [-292.02899169921875, -289.60715523093586, -287.16768572038495, -284.7125877966107, -282.24395443186825, -279.7640363428422, -277.2753325863679, -274.78052309828837, -272.2821313449432, -269.78229419049785, -267.28268937436263, -264.78455823368176, -262.28877127647013, -259.7959045715036, -257.30631094551745, -254.82018343520636])","array('d', [-271.6545715332031, -272.2687913744093, -272.81172375234274, -273.28074361610163, -273.6734638154492, -273.98788947398594, -274.2234554258275, -274.38237837913664, -274.4690603526572, -274.4890851672365, -274.4484662288971, -274.35316026738207, -274.20878878061643, -274.0204999309363, -273.7929192218567, -273.53015613240404])","array('d', [-49.94648742675781, -49.86312231527255, -49.80212353350244, -49.75727836406076, -49.72411268974563, -49.699401172664395, -49.680814428731985, -49.66666618763637, -49.65573270919976, -49.64712381919901, -49.64019099476787, -49.63446241091181, -49.62959770822956, -49.625357131080634, -49.62158098047407, -49.61817620994754])","array('d', [0.6279295682907102, 0.6429146743868357, 0.6564737603068521, 0.6687425296748918, 0.6798437721308498, 0.6835424358568627, 0.6672531278366766, 0.6369732389244731, 0.5978911534698557, 0.5541392182019913, 0.5088108972337224, 0.4641021148404556, 0.42147851328768215, 0.3818220960513987, 0.3455434325370548, 0.3126606556343695])","array('d', [-0.03865187987685195, -0.028226789916473097, -0.020702710743892176, -0.015266086900945778, -0.01133286184230814, -0.0084842016163469, -0.0064197718247616525, -0.0049238375817327856, -0.003841036668832398, -0.003059132765465661, -0.0024965194178123225, -0.002093081806302521, -0.0018035133493833825, -0.001592470583391284, -0.0014311423020944615, -0.0012949513046050468])","array('d', [1.8335748175766806, 1.8046287763798694, 1.774809561914062, 1.744183802131762, 1.7128141243023678, 1.6809701502960057, 1.6495434650153409, 1.619594039296213, 1.5917459676124026, 1.56627461198013, 1.5432200321418392, 1.5224824321474921, 1.5038886897571788, 1.4872346277126254, 1.4723110743493995, 1.4589203978767307])",-279.7640363428422,-273.98788947398594,-49.699401172664395,0.6835424358568627,-0.0084842016163469,1.6809701502960057,25.000000248090885,-1.0,"[-272.46955167732557, -288.2820520762597, 49.88727398518331]","[-300.19626402019685, -265.62020450533595, 67.71057579287003]","[-261.3927829287889, -257.07927119742783, 72.33034996685406]",10000000000.0,0.021422863006591797
8,-272.2744445800781,-288.8172912597656,49.93558883666992,0.6380366683006283,0.03002238087356094,1.8064372996476032,23.158610334754194,"array('d', [-291.57330322265625, -289.1487978450401, -286.7069600863387, -284.24980955167354, -281.7794533284707, -279.2981554680831, -276.8084236863462, -274.3129302991362, -271.8141780415782, -269.3142764163809, -266.8148738144513, -264.3171829879773, -261.82204800383874, -259.3300211775068, -256.84143435016534, -254.35646217641232])","array('d', [-271.7497863769531, -272.353442013519, -272.8856619606427, -273.34383509736386, -273.7255882883343, -274.02894890059144, -274.2534028936457, -274.40121325149863, -274.4768126877195, -274.4858025808427, -274.434204567924, -274.3279777156777, -274.1727424796798, -273.9736442564123, -273.73530507425477, -273.4618308127214])","array('d', [-49.94535446166992, -49.86240550592612, -49.8017629016384, -49.75721548975397, -49.724295206204516, -49.699784397713934, -49.68136146580395, -49.667347279349784, -49.65652427624527, -49.648007421844135, -49.641152344983546, -49.63549049188718, -49.63068401515831, -49.62649502474685, -49.6227651361858, -49.61940214326094])","array('d', [0.6284500956535336, 0.6433856670643037, 0.6568999321432969, 0.6691281459330811, 0.6801926921769685, 0.6835799929742018, 0.6670759368032595, 0.6366632910256474, 0.5975114902555924, 0.5537343711104835, 0.508409802137683, 0.4637216892331719, 0.42112699670488796, 0.3815018830271829, 0.34525342313225105, 0.31239824424955465])","array('d', [-0.03847326710820203, -0.02807189520892788, -0.020572171390830684, -0.01515800680678398, -0.01124428650188075, -0.008411930192185108, -0.0063607686442397095, -0.004875418755971881, -0.0038009356250549033, -0.0030254970392515944, -0.0024678736078622508, -0.002068278764526177, -0.0017816859024885616, -0.0015729894408141928, -0.0014135817278846355, -0.0012790618385428308])","array('d', [1.8292289833214619, 1.8002529215079404, 1.7704059575110638, 1.7397545853620504, 1.708361301479062, 1.676504927956396, 1.6450828244008102, 1.6151485597928295, 1.5873208469192164, 1.5618713733306102, 1.538838063522377, 1.518120075076789, 1.4995439111485878, 1.4829053946054862, 1.4679955374660956, 1.4546169539218972])",-279.2981554680831,-274.02894890059144,-49.699784397713934,0.6835799929742018,-0.008411930192185108,1.676504927956396,25.000000248103355,-1.0,"[-272.46955167732557, -288.2820520762597, 49.88727398518331]","[-300.19626402019685, -265.62020450533595, 67.71057579287003]","[-261.3927829287889, -257.07927119742783, 72.33034996685406]",10000000000.0,0.021451473236083984
9,-272.3533935546875,-288.3568115234375,49.934288024902344,0.640904664993286,0.02747579850256443,1.8030304322626927,23.169451260187135,"array('d', [-291.1146545410156, -288.6875850413796, -286.24348116336813, -283.7843735595328, -281.3123818374638, -278.82978287323095, -276.33909290541357, -273.84297721695305, -271.3439188483175, -268.84400108457913, -266.34484403823495, -263.84763280178635, -261.3531857691767, -258.8620321269418, -256.37448323269047, -253.8906957616338])","array('d', [-271.8430480957031, -272.4364684627269, -272.9582843562179, -273.4059013516439, -273.77696222663246, -274.06951766003345, -274.28310426422183, -274.42003137499177, -274.48476332732736, -274.48292042189985, -274.42053400886095, -274.3035669061218, -274.137639791705, -273.9278963910634, -273.67895619144355, -273.39492226674366])","array('d', [-49.94374465942383, -49.86193420656765, -49.802174556125244, -49.758311284317294, -49.72592182656635, -49.70182444776051, -49.683725586302735, -49.669967814971756, -49.65935025456132, -49.65100060776672, -49.64428416121152, -49.638739619146804, -49.63403451049468, -49.62993482291282, -49.626284826862616, -49.62299394389872])","array('d', [0.6291260123252865, 0.6439972618156041, 0.6574533260087453, 0.6696288774539831, 0.6806457728297253, 0.6837271619980528, 0.6670084353854717, 0.6364592769079324, 0.5972316517583747, 0.5534220520125304, 0.5080935548689672, 0.46341854966539403, 0.4208456061664618, 0.38124517542930236, 0.3450208819848735, 0.3121878322991178])","array('d', [-0.037959046661853735, -0.02767288582846958, -0.020263107978260253, -0.014918510293077279, -0.011058194531250225, -0.008266582790593516, -0.006246336913015649, -0.004784325837656542, -0.003727380295459976, -0.0029650665660674747, -0.0024172360598981495, -0.002024945402301386, -0.0017438332278269255, -0.0015393298057001857, -0.0013832714117910253, -0.0012516359279121042])","array('d', [1.8250256637719013, 1.796010586703251, 1.7661275610491693, 1.7354429064215202, 1.7040189488378952, 1.6721432067176953, 1.6407186221532815, 1.6107928225989667, 1.5829793939899621, 1.5575464325417503, 1.5345297059650234, 1.5138272554322745, 1.4952651256261018, 1.4786390589178764, 1.4637401805058492, 1.4503712918980725])",-278.82978287323095,-274.06951766003345,-49.70182444776051,0.6837271619980528,-0.008266582790593516,1.6721432067176953,25.000000248115246,-1.0,"[-272.6074757187237, -287.4622648312704, 49.89014263567891]","[-300.1523451896548, -264.6645306366756, 67.82177617593324]","[-261.2832629044407, -256.42873996649917, 72.44413426918923]",10000000000.0,0.023860931396484375
10,-272.3533935546875,-288.3568115234375,49.934288024902344,0.640904664993286,0.02747579850256443,1.8030304322626927,23.169451260187135,"array('d', [-290.6557922363281, -288.22632089714847, -285.7800967079377, -283.3191599941702, -280.8456432080012, -278.3618370565783, -275.870267468168, -273.3735946532811, -270.87428430046924, -268.3743957258568, -265.8755227041197, -263.37882425107244, -260.8850943409569, -258.3948400081657, -255.9083528819889, -253.42577224128829])","array('d', [-271.9340515136719, -272.51779670695225, -273.02972892874675, -273.4672739853452, -273.82809342877914, -274.1102630398268, -274.31336933346097, -274.4397685372923, -274.49395882775895, -274.4815824400461, -274.40868360070704, -274.2812318421082, -274.10485068544256, -273.88468443780266, -273.6253519585472, -273.33095513767887])","array('d', [-49.94207763671875, -49.86196612366453, -49.80349514192484, -49.7606115120819, -49.72896969084408, -49.70544623254155, -49.68779153682114, -49.674381254648985, -49.664039343633654, -49.65591211060606, -49.64937873336046, -49.64398822882657, -49.639415690568846, -49.635432516901275, -49.631886650271305, -49.62868973190183])","array('d', [0.6301147341728208, 0.6448918944201748, 0.6582628231377997, 0.6703613408117683, 0.6813085331388568, 0.6840921017327091, 0.6671568809766013, 0.6364624983358835, 0.5971462582076916, 0.5532894589788817, 0.5079418332658099, 0.4632651319991186, 0.4207000083410938, 0.381111423091293, 0.3448996051496599, 0.312078096470737])","array('d', [-0.0371836237609386, -0.02708529388707736, -0.01981710812886369, -0.014578901229241891, -0.01079831428184451, -0.008066311017665407, -0.006090525166493782, -0.004661590310740181, -0.0036291849634422194, -0.002885027033388995, -0.0023505960955838875, -0.0019681901495905573, -0.001694409675139785, -0.0014954496310149465, -0.0013437748373751617, -0.0012158979462690864])","array('d', [1.8210648457196095, 1.7919926307413303, 1.7620567969391763, 1.7313234077222552, 1.6998545388509998, 1.6679454835083638, 1.6365044472928698, 1.606573980390347, 1.5787629935842096, 1.5533361160605246, 1.5303268919962492, 1.509632096101829, 1.4910771447150666, 1.474457540384147, 1.4595643840417079, 1.4462005510202784])",-278.3618370565783,-274.1102630398268,-49.70544623254155,0.6840921017327091,-0.008066311017665407,1.6679454835083638,25.000000248126337,-1.0,"[-272.69849159238026, -286.89763051928395, 49.89307951245681]","[-300.1239361127776, -264.01661407538785, 67.90152418024437]","[-261.21244266868246, -255.99801319766974, 72.54885867584508]",10000000000.0,0.02344799041748047
11,-272.64398193359375,-286.5111389160156,49.93307876586914,0.6550852656364438,0.015296110883355115,1.7886588583376744,23.207258016025893,"array('d', [-289.7371826171875, -287.30320095385537, -284.8530015706214, -282.3886382877275, -279.9122712140714, -277.42622398366984, -274.9330478865734, -272.4354002731136, -269.9357192590716, -267.43602208559304, -264.9378541846228, -262.4423253827999, -259.9501827037175, -257.4618899767123, -254.9776999159893, -252.49771711386438])","array('d', [-272.10906982421875, -272.674564813558, -273.16764668730764, -273.58579839952625, -273.92673272581766, -274.188585901331, -274.37104790893403, -274.47657712044816, -274.5097525727174, -274.47627502957226, -274.3822284999384, -274.23360837602314, -274.03605445487364, -273.79472107117357, -273.51423321726924, -273.1986965923347])","array('d', [-49.9387321472168, -49.86485666744351, -49.8110248466504, -49.77160704272095, -49.74256904806625, -49.72101613360639, -49.70486678519778, -49.692620299574465, -49.68319167463472, -49.67579428939104, -49.66985671722208, -49.66496423557522, -49.660818292429425, -49.657208985136066, -49.65399683512164, -49.65110097463087])","array('d', [0.6334314346313473, 0.6478929693711202, 0.6609783082933154, 0.6728184136100479, 0.6835317847396591, 0.6857123096030491, 0.6683087348657415, 0.637271162382852, 0.5977165918607374, 0.5537022731883829, 0.5082550888218378, 0.46351750819554355, 0.4209151606634497, 0.3813021489893919, 0.3450716808146795, 0.3122337969852816])","array('d', [-0.03431217372417448, -0.024953158220264553, -0.018227899009672085, -0.013388413759757137, -0.009900698000556239, -0.007383837809084608, -0.005566056641240367, -0.00425307480262307, -0.003305648202001724, -0.00262364584271671, -0.002134575033709886, -0.0017852403614334925, -0.0015356788347500618, -0.0013547856375395087, -0.001217229764487262, -0.0011013952189121495])","array('d', [1.8136389116433003, 1.784374441759605, 1.7542609585879767, 1.7233636567185209, 1.6917437636450754, 1.6597095810806761, 1.6281793195061327, 1.5981880488220255, 1.5703364390589953, 1.5448821891992297, 1.5218538334367504, 1.5011448613770495, 1.4825786916156471, 1.4659496994512549, 1.451048403036374, 1.4376773968657017])",-277.42622398366984,-274.188585901331,-49.72101613360639,0.6857123096030491,-0.007383837809084608,1.6597095810806761,25.000000248147124,-1.0,"[-272.85454189684856, -285.8639753996741, 49.90124200792941]","[-300.060357580823, -262.8426445677894, 68.06334319965627]","[-261.0733141181004, -255.24924503037835, 72.79099859118244]",10000000000.0,0.04507899284362793
12,-273.422607421875,-278.20416259765625,50.099403381347656,0.6921904683113094,-0.027909383177757343,1.7063231031086779,23.272179818509397,"array('d', [-288.8172912597656, -286.3789745690152, -283.9249655885885, -281.4573292324872, -278.9782571460071, -276.4901121972303, -273.9954772401713, -271.4970128341559, -268.99713450488264, -266.4978208194951, -264.0005707926084, -261.5064458429054, -259.01614602632156, -256.53009143294724, -254.0484950143584, -251.57142807781793])","array('d', [-272.2744445800781, -272.8221217379368, -273.29660489542226, -273.6954502218207, -274.01643545964185, -274.25776874224135, -274.41925123298535, -274.50345508117357, -274.51505492639194, -274.4598250292563, -274.3439027641894, -274.1733209933215, -273.95374542299805, -273.6903483213006, -273.38776730661345, -273.0501175762736])","array('d', [-49.93558883666992, -49.87099427903359, -49.824006562795326, -49.78966052696484, -49.76440423905108, -49.74569319319632, -49.73170056486196, -49.72111121960827, -49.71297562233573, -49.706606207596856, -49.701504031530924, -49.69730729466695, -49.69375573743584, -49.6906665180073, -49.68791828091883, -49.68544087072745])","array('d', [0.6380366683006283, 0.6520599574241814, 0.6647487552466924, 0.6762300552337597, 0.6866187655411741, 0.6881659365032674, 0.67024482004213, 0.638804866590584, 0.5989497573838084, 0.5547171876265955, 0.509113576826704, 0.464263062338865, 0.42157635361163254, 0.3818963759449566, 0.34560884461542385, 0.3127198429290169])","array('d', [-0.03002238087356094, -0.02179638873916762, -0.01589450741909107, -0.011653947100969104, -0.008602341483443026, -0.006403321867584674, -0.004817298348017479, -0.003673287940339524, -0.0028489530347399717, -0.0022564681224292813, -0.00183235067847793, -0.001530082800140537, -0.001314755998656953, -0.001159214888003317, -0.0010413415694175805, -0.0009422451281654892])","array('d', [1.8064372996476032, 1.7769043772122282, 1.7465429320001238, 1.7154169276271851, 1.6835863908341522, 1.651371000116928, 1.6196989481736268, 1.5895997835937365, 1.5616665071603504, 1.536149572961292, 1.5130717952029855, 1.4923225854929987, 1.4737226391249927, 1.457064597038732, 1.4421379084079975, 1.4287444912743548])",-276.4901121972303,-274.25776874224135,-49.74569319319632,0.6881659365032674,-0.006403321867584674,1.651371000116928,25.00000024494808,-1.0,"[-273.5915610314541, -277.64538579391206, 50.10722602593248]","[-298.3627722441575, -253.03810504292227, 69.62308698817559]","[-258.79327492556234, -249.2624878845445, 74.09517788920314]",10000000000.0,0.03878188133239746
13,-273.44287109375,-277.7413635253906,50.11579895019531,0.6925546526908871,-0.028537604957818964,1.7019203166153762,23.272530857586094,"array('d', [-280.5151672363281, -278.0411412956526, -275.55655013203375, -273.06407908161583, -270.5665146088563, -268.0667542434704, -265.56771290289305, -263.07202338859065, -260.5817862794364, -258.0985015756035, -255.6231214585615, -253.15615314130935, -250.6977688367488, -248.24790311622817, -245.80633113731503, -243.37273121664103])","array('d', [-273.28778076171875, -273.6432253477202, -273.9171762134851, -274.10791069984003, -274.213915675523, -274.23424047713473, -274.17003921724523, -274.02522555044385, -273.8055536696784, -273.5175933218216, -273.16803473741504, -272.7632807594956, -272.30923918738006, -271.8112394131738, -271.27402189688166, -270.70177088351693])","array('d', [-50.024906158447266, -50.07267056012359, -50.10694354431873, -50.1316777167527, -50.14965277730236, -50.16282720536833, -50.172584680591896, -50.17990608269847, -50.18548938912174, -50.18983329100281, -50.19329535518405, -50.19613216344885, -50.19852664978885, -50.200606368304996, -50.2024554121382, -50.204122028024535])","array('d', [0.6882224678993223, 0.697469950933896, 0.7058374203436809, 0.7134086203959549, 0.7202593258466069, 0.7143657630507103, 0.6904647786406761, 0.6544614132596563, 0.6112677117408007, 0.5646672740317992, 0.5174126521165275, 0.47140685777189434, 0.4278840681612738, 0.3875568648300386, 0.35072470234192477, 0.3173488628513578])","array('d', [0.0223320759832859, 0.0159876718762297, 0.011506354508185155, 0.00833423174125681, 0.006083490359990679, 0.0044828045291298866, 0.003342222987832661, 0.002528481994271211, 0.00194785292528215, 0.0015341713510998954, 0.0012403818555392907, 0.0010325325650658822, 0.00088550942150053, 0.0007800252537931501, 0.0007005359733752296, 0.0006338711364212127])","array('d', [1.7297295490887503, 1.6971496487069948, 1.6639821430236432, 1.630275364531596, 1.596074233351814, 1.5618474499677542, 1.5286444111821875, 1.4974124466284076, 1.4686442901966938, 1.4425014394631324, 1.4189393649780115, 1.3978010149132647, 1.3788769493587658, 1.3619411853920345, 1.346772087198842, 1.333164971886814])",-268.0667542434704,-274.23424047713473,-50.16282720536833,0.7143657630507103,0.0044828045291298866,1.5618474499677542,25.000000248360106,-1.0,"[-273.62519690786274, -276.7184959612882, 50.1412620214364]","[-298.11268916357005, -251.93868338658277, 69.79637870359181]","[-258.4949121937554, -248.48391041601627, 74.09711023344447]",10000000000.0,0.017874956130981445
14,-273.4610290527344,-277.2783508300781,50.13283920288086,0.6928628087043759,-0.029043186455965098,1.697681159773145,23.274544049496882,"array('d', [-280.053466796875, -277.57776505222756, -275.09185388314046, -272.5984559399961, -270.1003848065994, -267.60055706744686, -265.10189015958713, -262.60699817583765, -260.1179495976702, -257.6362070029538, -255.16268487243124, -252.69785505248862, -250.24185780547327, -247.7945994161641, -245.3558302570053, -242.9252070064585])","array('d', [-273.3192443847656, -273.66234754190117, -273.92373322302495, -274.1017024943338, -274.1947679910326, -274.2020170120571, -274.1246813250633, -273.9667419721495, -273.73399622717136, -273.4330374714396, -273.0705662500513, -272.6529875217231, -272.1862066120995, -271.675548175164, -271.1257470719469, -270.54098188170735])","array('d', [-50.038414001464844, -50.089424781467244, -50.125979622772675, -50.152324211707466, -50.17144108690459, -50.18542945355819, -50.195770967123465, -50.203515015639894, -50.20940772759105, -50.21398183885393, -50.21761912672572, -50.22059344175655, -50.22309997278168, -50.22527476787902, -50.22720743852432, -50.228949244678795])","array('d', [0.6894034147262569, 0.6985385159081356, 0.7068042980030009, 0.7142834875584156, 0.7210509384456805, 0.7147181674941243, 0.6905074064654215, 0.6543041993638067, 0.6109954356815858, 0.5643403430020164, 0.517070993810324, 0.47107456841657325, 0.427573724892022, 0.38727319787247805, 0.35046767175493926, 0.3171162919376101])","array('d', [0.023863064125180213, 0.017061927346184134, 0.012263070298328153, 0.008869610561841962, 0.006464169742545127, 0.004755094019368532, 0.003538437118514823, 0.0026712776820599815, 0.002053206923781434, 0.0016134206326278895, 0.0013016122590001266, 0.0010815120186015114, 0.0009263023264698897, 0.0008153842884794943, 0.0007321410307316221, 0.0006624685774978893])","array('d', [1.7247843901303146, 1.6921299306265618, 1.6588939635709257, 1.625124396263576, 1.590865741960604, 1.5565996425020812, 1.5233834035756113, 1.4921551570557747, 1.463399978469434, 1.4372741131957818, 1.4137298898461372, 1.3926085986075796, 1.3737000694769574, 1.356778124636537, 1.3416212134020205, 1.3280248525237581])",-267.60055706744686,-274.2020170120571,-50.18542945355819,0.7147181674941243,0.004755094019368532,1.5565996425020812,25.000000248370466,-1.0,"[-273.62519690786274, -276.7184959612882, 50.1412620214364]","[-298.11268916357005, -251.93868338658277, 69.79637870359181]","[-258.4949121937554, -248.48391041601627, 74.09711023344447]",10000000000.0,0.01999831199645996
15,-273.47698974609375,-276.8173522949219,50.15034866333008,0.692966818809509,-0.029355343431234346,1.6935620913889746,23.27365994114685,"array('d', [-279.5914611816406, -277.11418086048167, -274.627042733696, -272.13280407014975, -269.6343036276019, -267.1344754856274, -264.63623825978, -262.1421868018794, -259.65435770755533, -257.1741767974292, -254.70252173661555, -252.23982995739277, -249.78621070461895, -247.34154284666803, -244.9055527605141, -242.47787618608837])","array('d', [-273.3483581542969, -273.67942822251223, -273.9285722648793, -274.09411436537744, -274.17459197664886, -274.1691290644893, -274.0790327792852, -273.90834910557646, -273.66291631793706, -273.3493498421123, -272.9743593955561, -272.5443512578425, -272.0652277335593, -271.5423083589122, -270.9803221265867, -270.3834417501959])","array('d', [-50.05284118652344, -50.106605672183534, -50.14508507422957, -50.17277932914649, -50.192846228990035, -50.20750609218018, -50.21832458175654, -50.22640962264797, -50.23254835761526, -50.237302445579935, -50.241074191128256, -50.2441520663941, -50.24674162613194, -50.24898609305704, -50.25097972115184, -50.252776267787596])","array('d', [0.6904965043067931, 0.6995275843511857, 0.7076992442197766, 0.7150932684542094, 0.7217836585486954, 0.7150243574183278, 0.6905142123473922, 0.654119179306534, 0.6107012456039452, 0.5639956846507406, 0.5167145308483039, 0.47072952324677747, 0.4272521126452393, 0.38697941620103093, 0.35020149937766704, 0.316875449189194])","array('d', [0.025164732709527075, 0.017970282666792608, 0.01289908512941005, 0.009316547526973801, 0.0067794723758716445, 0.004978530169744753, 0.0036976565357147483, 0.0027856024911100327, 0.002136223392358913, 0.0016747476029631153, 0.0013480991112857046, 0.0011180395560531809, 0.0009563066140796588, 0.0008411875656205142, 0.0007551503368156198, 0.000683288260484791])","array('d', [1.7199637750771386, 1.687240178885389, 1.6539407384577747, 1.6201129648250745, 1.5858009922568779, 1.551499167396092, 1.5182724834989265, 1.487049991715505, 1.4583092849704344, 1.4322015200014746, 1.4086760079938012, 1.3875724662551507, 1.3686800491290934, 1.3517724170977576, 1.3366281241553375, 1.3230428983226412])",-267.1344754856274,-274.1691290644893,-50.20750609218018,0.7150243574183278,0.004978530169744753,1.551499167396092,25.000000248380363,-1.0,"[-273.66059703849805, -275.3292830718576, 50.19437535460897]","[-297.7417488004804, -250.31120339973793, 70.04869023414705]","[-258.0599028521009, -247.2870340436662, 74.07429600655863]",10000000000.0,0.02227187156677246
16,-273.51318359375,-275.4328308105469,50.203670501708984,0.6927232742309567,-0.02939492650330062,1.6820109571006636,23.27244184958615,"array('d', [-279.1292419433594, -276.6504859487407, -274.16222103662386, -271.6672329403819, -269.16838066693253, -266.66861167599376, -264.17084246373327, -261.677646901997, -259.191029423551, -256.71237981301255, -254.24254021185624, -251.7819151921807, -249.33058460359982, -246.8884014792827, -244.4550696862154, -242.03020767886113])","array('d', [-273.3756408691406, -273.6950772604529, -273.9324369484543, -274.0860629498158, -274.1545132690303, -274.136943999321, -274.03473202934873, -273.85198178659545, -273.594566293451, -273.2691176828113, -272.88235057869906, -272.44066928121055, -271.94997054802707, -271.41556685670855, -270.8421798189737, -270.23397563551856])","array('d', [-50.06786346435547, -50.123906471422664, -50.16396762724244, -50.19276275436688, -50.213597745153464, -50.22879480473149, -50.23998996890494, -50.248340007938076, -50.25466617126557, -50.25955410265466, -50.263423094731564, -50.26657370467318, -50.2692200475358, -50.27151126262138, -50.27354541451291, -50.27537827105804])","array('d', [0.6912211179733273, 0.7001832418978193, 0.7082925076454354, 0.7156300752451806, 0.7222693806665593, 0.7151102612431, 0.6903268042643264, 0.653763655667699, 0.6102571406675902, 0.5635185385915888, 0.5162402014918714, 0.4702789343683468, 0.4268354938088707, 0.386599822061491, 0.3498577005250567, 0.31656436708797825])","array('d', [0.0262447204440833, 0.018719089724645546, 0.013419649338344023, 0.009679370327704087, 0.007032967257740753, 0.005156067384245648, 0.003822343635573534, 0.002873528326326119, 0.002198665834012992, 0.001719672333413489, 0.001381169450518687, 0.0011432874962254513, 0.0009765683782963054, 0.000858375621180208, 0.0007704134421286998, 0.0006970987457835465])","array('d', [1.7152950177576876, 1.6825255243956576, 1.6491839512731978, 1.6153175452891397, 1.5809701882281437, 1.5466487756259968, 1.5134256005311175, 1.482220541992643, 1.4535039551675553, 1.4274222711429867, 1.4039221356730018, 1.3828419840459287, 1.3639705173215138, 1.3470813976757232, 1.3319534019511647, 1.3183825428839675])",-266.66861167599376,-274.136943999321,-50.22879480473149,0.7151102612431,0.005156067384245648,1.5466487756259968,25.000000245561093,-1.0,"[-273.6748786614847, -274.40509755234956, 50.23012042827937]","[-297.503278668043, -249.2392141597695, 70.20224265398477]","[-257.78423292861413, -246.46046478534436, 74.03316388304836]",10000000000.0,0.026267290115356445
17,-273.5281066894531,-274.5087585449219,50.23863220214844,0.6931177377700803,-0.028836840763688146,1.674630315103803,23.273276579849185,"array('d', [-277.7413635253906, -275.25865810827264, -272.7674716294135, -270.27065581468315, -267.7711161270155, -265.27182872594665, -262.77569444526785, -260.285220192973, -257.80231465044795, -255.32826319923254, -252.86380661871178, -250.40925664207364, -247.96461064433703, -245.529649542849, -243.10401461551973, -240.68726781094574])","array('d', [-273.44287109375, -273.7290074678534, -273.93275356319214, -274.05250040864655, -274.0868577592689, -274.0350665031307, -273.8986958333393, -273.6820070002793, -273.39096074297146, -273.0322260425383, -272.61252218349745, -272.1382401081042, -271.6152544955985, -271.0488526272143, -270.4437309389231, -269.80403152143913])","array('d', [-50.11579895019531, -50.176648415929826, -50.21999234670096, -50.251029431072936, -50.273393450416314, -50.2896299799824, -50.30152790244169, -50.31034915926018, -50.316987871780334, -50.32208060791514, -50.32608256585524, -50.32931977486766, -50.332024361083654, -50.3343578730974, -50.33642627683699, -50.33828931760072])","array('d', [0.6925546526908871, 0.701389874188459, 0.7093843138979787, 0.7166179826820878, 0.7231632770669167, 0.7148885781807092, 0.6893597495115042, 0.6523547460720142, 0.6086328295953449, 0.5618348201134793, 0.5145961520762106, 0.4687309586659026, 0.425409754770792, 0.3853023974664623, 0.3486828229900679, 0.315501293843352])","array('d', [0.028537604957818964, 0.020284590701068448, 0.014489021455562218, 0.010409357903162933, 0.007530133438640889, 0.005493164360876779, 0.004049296860465686, 0.0030248138943777254, 0.0022982824200852904, 0.0017844805486017577, 0.0014231154461306678, 0.0011708605822791014, 0.0009957303156166448, 0.0008731248526445897, 0.0007831001046037007, 0.0007085782584844593])","array('d', [1.7019203166153762, 1.6690662185150746, 1.6356469899906998, 1.601709388795102, 1.5672968293120013, 1.5329526886313587, 1.4997697786497104, 1.468640856353685, 1.4400156133140332, 1.4140274388950191, 1.3906159380778278, 1.3696164168211855, 1.350816722746821, 1.3339908697429415, 1.3189185378085597, 1.305396806550995])",-265.27182872594665,-274.0350665031307,-50.2896299799824,0.7148885781807092,0.005493164360876779,1.5329526886313587,25.00000024841516,-1.0,"[-273.681875481328, -273.5687962323714, 50.26158940502493]","[-297.2966213395371, -248.29183701414047, 70.34688528863306]","[-257.54758861230675, -245.70824448917122, 73.99920604597251]",10000000000.0,0.03314566612243652
18,-273.5281066894531,-274.5087585449219,50.23863220214844,0.6931177377700803,-0.028836840763688146,1.674630315103803,23.273276579849185,"array('d', [-276.8173522949219, -274.33238051160413, -271.8395907106181, -269.34186430874985, -266.8421278790352, -264.34336926018824, -261.84847329107623, -259.35990073808495, -256.8794983153198, -254.40848558052335, -251.94754034695805, -249.49691722790266, -247.0565631942318, -244.62621530561887, -242.20547691801883, -239.79387723125473])","array('d', [-273.47698974609375, -273.7423277841576, -273.9251479651717, -274.0238681949161, -274.0371266500666, -273.9642130080232, -273.8068118551574, -273.56927587716444, -273.25761355082363, -272.8785104325538, -272.43868329202223, -271.9445103231042, -271.4018488839416, -270.8159676845666, -270.1915451411116, -269.5327067499155])","array('d', [-50.15034866333008, -50.21288243267772, -50.25732387583, -50.28906719673271, -50.31187605542298, -50.328382605173324, -50.34043373020031, -50.34933048549302, -50.355993607663564, -50.36107799338772, -50.36505163489972, -50.36824958981649, -50.370910350554716, -50.373199819508685, -50.375226643209395, -50.37705170718261])","array('d', [0.692966818809509, 0.7017628175481889, 0.7097217670339836, 0.7169233229303098, 0.7234395603143111, 0.7144868379479489, 0.6885150570671009, 0.6512573196601401, 0.6074228720412604, 0.5606077028809932, 0.5134115207441864, 0.46762195697300113, 0.4243909165943091, 0.3843760091350311, 0.3478440304423054, 0.31474232289142823])","array('d', [0.029355343431234346, 0.02081943856952233, 0.014835466329047019, 0.010630046167250929, 0.00766673441667607, 0.005573522567854976, 0.004092128190518089, 0.0030427962704022943, 0.0023000975410336862, 0.0017761542658846004, 0.0014088870177607583, 0.0011537340545725592, 0.0009778096884135155, 0.000855801060869341, 0.0007671371528897583, 0.0006941343811649068])","array('d', [1.6935620913889746, 1.6606818074467053, 1.6272385466141959, 1.5932789146584374, 1.5588461808013239, 1.5245067195681496, 1.4913658743058116, 1.460299055053028, 1.4317431530857725, 1.4058237328544794, 1.3824763559520366, 1.3615346851672867, 1.3427862844545246, 1.3260055789183542, 1.3109729575131983, 1.2974862681926376])",-264.34336926018824,-273.9642130080232,-50.328382605173324,0.7144868379479489,0.005573522567854976,1.5245067195681496,25.00000024843032,-1.0,"[-273.68351331366273, -273.01745767584794, 50.281881468627994]","[-297.156487154166, -247.675135834124, 70.45082350219863]","[-257.38846397886033, -245.21879789747715, 73.98221652327953]",10000000000.0,0.0204164981842041
19,-273.5361328125,-273.5839538574219,50.273155212402344,0.6941504478454585,-0.02822355367243295,1.6672741259124617,23.272768179329177,"array('d', [-275.8945617675781, -273.4075830193859, -270.91343354153867, -268.4150084504138, -265.9152443147041, -263.41713232972535, -260.9235355403975, -258.4368667789405, -255.9589122347972, -253.49082897246996, -251.03323604030706, -248.58633536315043, -246.15002781550302, -243.72401061192892, -241.3078528383266, -238.9010542307919])","array('d', [-273.5030212402344, -273.74875737938976, -273.91195061749517, -273.99103846511014, -273.98467949592043, -273.89220280015223, -273.71539457359313, -273.4586845853794, -273.1281167759172, -272.7303837170687, -272.2721925958601, -271.75990375985543, -271.19935358932287, -270.59578957548587, -269.9538701562875, -269.27770274042183])","array('d', [-50.18583297729492, -50.24867867313987, -50.29323969264712, -50.32498778932651, -50.347734271892875, -50.3641404695141, -50.376071093540546, -50.38483810136366, -50.391368956981374, -50.39632280419161, -50.40017041896554, -50.40324876131558, -50.4057976456375, -50.407983831333844, -50.409916347678035, -50.41165589727606])","array('d', [0.6927470564842222, 0.7015639683545306, 0.709541840825421, 0.716760518945681, 0.7232922490913998, 0.7137283633950732, 0.6873717687651492, 0.6499091902588997, 0.6060002620185267, 0.5591975987353168, 0.5120669765064642, 0.46637124094857035, 0.42324513843180667, 0.3833351513452739, 0.34690171154351673, 0.3138896774148593])","array('d', [0.02952925860881811, 0.020896758740047424, 0.014854791067203367, 0.01061511414081579, 0.007632092347145549, 0.005528061685163022, 0.004041277082120955, 0.0029898831513568047, 0.0022471968408341665, 0.0017246014585347968, 0.0013595808333615662, 0.0011073021618200737, 0.0009346852256772778, 0.000816239449635457, 0.0007311925175380657, 0.0006616103271818934])","array('d', [1.6856703917172293, 1.6528040719127148, 1.6193736266454484, 1.5854257427671137, 1.551003766943537, 1.5166959706528345, 1.4836191277938144, 1.4526318106454132, 1.4241590098429677, 1.3983193607008357, 1.3750451088887499, 1.354168809029486, 1.3354781144838503, 1.3187481142051287, 1.3037600753636434, 1.290312729972745])",-263.41713232972535,-273.89220280015223,-50.3641404695141,0.7137283633950732,0.005528061685163022,1.5166959706528345,25.000000248444,-1.0,"[-273.68351331366273, -273.01745767584794, 50.281881468627994]","[-297.156487154166, -247.675135834124, 70.45082350219863]","[-257.38846397886033, -245.21879789747715, 73.98221652327953]",10000000000.0,0.0216217041015625
20,-273.53753662109375,-273.1213073730469,50.2901611328125,0.6948451995849609,-0.027954077348113015,1.6634534011271338,23.272961438453184,"array('d', [-275.4328308105469, -272.94496175084674, -270.45022724138835, -267.95152671347194, -265.4518006651308, -262.95404166040817, -260.46110236876586, -257.9753732728639, -255.49861248933058, -253.03194811782075, -250.5759719511705, -248.1308614475141, -245.69649604624274, -243.27255440759532, -240.85858963720386, -238.4540877156591])","array('d', [-273.51318359375, -273.7498198389194, -273.9038906595456, -273.9738441140661, -273.9583493723978, -273.85675467433515, -273.67089373609423, -273.40523264290175, -273.0658325672856, -272.6593901696783, -272.1926089683022, -271.67184170192456, -271.1029155743469, -270.4910686847754, -269.8409505685865, -269.1566605412811])","array('d', [-50.203670501708984, -50.26620172366919, -50.31048933955268, -50.34200216799946, -50.364546527338625, -50.38077837468928, -50.39255745759666, -50.40119149465577, -50.407604514585316, -50.41245298886808, -50.416205685891974, -50.41919810202644, -50.421669005904214, -50.423784404026215, -50.425652742627456, -50.42733419004931])","array('d', [0.6927232742309567, 0.7015424492796403, 0.7095223695588904, 0.7167429006117021, 0.7232763073226627, 0.7134285177867369, 0.6868914022826837, 0.6493307553663368, 0.6053837198649947, 0.5585831684243221, 0.5114793691328896, 0.46582379164282844, 0.4227432720879872, 0.38287913857994904, 0.3464888569331698, 0.3135161110813755])","array('d', [0.02939492650330062, 0.020779152202852615, 0.014753369544059316, 0.010528065966998899, 0.00755723187635429, 0.0054632709372637025, 0.003984696588673245, 0.0029399750722948173, 0.002202745029084196, 0.0016846792033976797, 0.001323504640737983, 0.0010745813570792683, 0.0009049714803687574, 0.0007892772143126946, 0.0007067701736753941, 0.0006395120746222293])","array('d', [1.6820109571006636, 1.6491461481746221, 1.6157170895351396, 1.5817704768022744, 1.5473496650180678, 1.5130529352333397, 1.480002326776364, 1.4490487513502097, 1.4206117403041962, 1.3948067103369906, 1.371564330751554, 1.3507165931203522, 1.3320511447768901, 1.3153433415739613, 1.3003748245371822, 1.2869447090980222])",-262.95404166040817,-273.85675467433515,-50.38077837468928,0.7134285177867369,0.0054632709372637025,1.5130529352333397,25.00000024845019,-1.0,"[-273.6805675674026, -272.0915240275109, 50.315484922633]","[-296.9152097511486, -246.6514700058391, 70.63678050061502]","[-257.11708095352327, -244.40873277188015, 73.96530478429398]",10000000000.0,0.019835948944091797
21,-273.5372314453125,-272.6585693359375,50.30746841430664,0.6955821514129635,-0.027916230261325906,1.6597371558335163,23.27407627663102,"array('d', [-274.97088623046875, -272.4821445421945, -269.9868483682098, -267.48790093988737, -264.98824691999545, -262.4908806887151, -259.99864467260653, -257.51390693203587, -255.03839730209015, -252.57321460983556, -250.11892302958614, -247.6756751697508, -245.24332865499048, -242.82154322841322, -240.4098556758727, -238.00773790883693])","array('d', [-273.5215148925781, -273.7489533717649, -273.89378705559443, -273.9544763303305, -273.92970253701253, -273.8188346142793, -273.6237555973565, -273.3489697519863, -273.0005571791824, -272.58522003942244, -272.109659292556, -271.5802209152459, -271.00272357240857, -270.38239645249627, -269.72388055673576, -269.0312673960363])","array('d', [-50.2211799621582, -50.28311672815856, -50.32693195849147, -50.35806727853869, -50.38030713162282, -50.39629032223065, -50.407863386675906, -50.41632400752008, -50.42258868464706, -50.427308312243845, -50.430947580272665, -50.433839042711405, -50.43621937258157, -50.43825309457593, -50.44004759427065, -50.4416622355231])","array('d', [0.6928132772445674, 0.7016238873811663, 0.7095960578064686, 0.7168095764995223, 0.7233366381216694, 0.7131964523164671, 0.6864707559908015, 0.648804784475788, 0.6048133489222522, 0.5580095716181702, 0.5109281047838291, 0.4653088926729178, 0.4222707087011524, 0.3824495935565569, 0.34609994524984133, 0.3131642092061174])","array('d', [0.029129112139344226, 0.020568333501735963, 0.014585503261730094, 0.010393348320750126, 0.007447910879805882, 0.005373338886303325, 0.0039095651384690264, 0.0028761835553666134, 0.002147715746723367, 0.0016365164004167434, 0.0012808325523561523, 0.0010364152643448086, 0.0008706147850959785, 0.00075823764919481, 0.0006786892423343591, 0.0006141033949160766])","array('d', [1.6783168996360636, 1.6454463725472919, 1.6120120660140154, 1.5780606424662893, 1.5436354252475402, 1.5093447777236384, 1.4763161145773183, 1.445392685697151, 1.4169884847094765, 1.391215602845562, 1.3680030291025718, 1.3471821046663206, 1.3285404029550332, 1.3118534961916706, 1.2969033624020418, 1.2834894734325362])",-262.4908806887151,-273.8188346142793,-50.39629032223065,0.7131964523164671,0.005373338886303325,1.5093447777236384,25.00000024845642,-1.0,"[-273.67195006939636, -271.2865372216554, 50.344814777896474]","[-296.69273576600864, -245.763342249332, 70.80477431635639]","[-256.86985537432713, -243.71826664923285, 73.96006560238754]",10000000000.0,0.023006677627563477
22,-273.53521728515625,-272.1971740722656,50.324493408203125,0.6965095400810238,-0.027994805946946137,1.6561490679767468,23.275344160759158,"array('d', [-274.5087585449219, -272.0191772062726, -269.5233513635703, -267.0241899173166, -264.52464351616635, -262.02770996021536, -259.5362225088659, -257.05252747926994, -254.5783267539716, -252.11468992670376, -249.6621533909818, -247.2208446207486, -244.79059907673405, -242.37105720924367, -239.961739105201, -237.56210223723636])","array('d', [-273.5281066894531, -273.7463456824219, -273.881909004942, -273.93327204226875, -273.8991308753405, -273.7788775928197, -273.5744469226864, -273.29038413136243, -272.93279118732863, -272.50837842748945, -272.0238465138426, -271.4855364952664, -270.89925996038943, -270.27023835010425, -269.6031050633678, -268.90194456327276])","array('d', [-50.23863220214844, -50.29991847512866, -50.34322197948518, -50.37395197126905, -50.395867488191215, -50.411587759830404, -50.42294443903549, -50.43122401068236, -50.43733463368495, -50.441921053402694, -50.44544347685135, -50.44823122860292, -50.450518683554115, -50.4524687448876, -50.454187646652606, -50.455733897332195])","array('d', [0.6931177377700803, 0.7018993746816284, 0.7098453290461018, 0.7170351264629191, 0.7235407241370342, 0.7130988568325288, 0.6861736245034178, 0.6483909589914632, 0.6043441807742443, 0.55752710131833, 0.5104589078695558, 0.46486799920907046, 0.42186498313266024, 0.3820804841907634, 0.3457657123437613, 0.3128617827389671])","array('d', [0.028836840763688146, 0.02033899864685976, 0.014404586028583771, 0.010249361492856338, 0.007331950903431827, 0.005278605279213121, 0.003830920308531374, 0.0028097839292313734, 0.002090714901160884, 0.001586828758112861, 0.001236947633602217, 0.0009972528002911984, 0.0008354112394911895, 0.0007264555685628379, 0.0006499423321126197, 0.0005880921125446323])","array('d', [1.674630315103803, 1.6417404386330225, 1.6082883744802055, 1.574320672666023, 1.53988054918237, 1.5055863592977974, 1.4725709876499251, 1.4416701935409528, 1.4132924023596867, 1.3875462472013946, 1.3643588757117648, 1.3435608279258744, 1.3249394772063372, 1.3082705123908722, 1.2933361716998824, 1.2799362245559809])",-262.02770996021536,-273.7788775928197,-50.411587759830404,0.7130988568325288,0.005278605279213121,1.5055863592977974,25.000000248462637,-1.0,"[-273.6630408983038, -270.7032201777582, 50.366480132392006]","[-296.53438605678355, -245.1243044049903, 70.92421927197955]","[-256.69561553658656, -243.22425432804323, 73.96760113171638]",10000000000.0,0.02327871322631836
