,x_pos,y_pos,z_pos,roll,pitch,yaw,vel,x_traj,y_traj,z_traj,roll_traj,pitch_traj,yaw_traj,x_cmd,y_cmd,z_cmd,roll_cmd,pitch_cmd,yaw_cmd,vel_cmd,effector_dmg,effector_x,effector_y,effector_z,cost,time_solution
0,-55.31697082519531,-33.59708023071289,39.95966339111328,0.6352115273475645,0.03323761373758301,0.6979981223728996,23.14297684729783,"array('d', [-36.10090637207031, -35.10856948653541, -33.58646036396157, -32.08921413334008, -30.627309837139787, -29.197592816931394, -27.79675460464712, -26.421847196036676, -25.070326545477204, -23.740020666899774, -22.429081138280196, -21.135932542597413, -19.85922204835608, -18.597771288282498, -17.350535237833018, -16.116568000506547])","array('d', [-58.606163024902344, -57.46477291851958, -55.59032717705783, -53.661701370708194, -51.703217572634685, -49.7201036902464, -47.7158184095096, -45.69303901366196, -43.653974599491676, -41.60052700038454, -39.53438904821178, -37.4571086733516, -35.37012764664436, -33.27480235145684, -31.172417433667412, -29.064194916679053])","array('d', [-39.99999960000821, -39.99999959999984, -40.036425625224076, -40.10236126925769, -40.19281870060211, -40.30221683849262, -40.424566489446676, -40.55405954694131, -40.68534809877464, -40.81369331927374, -40.935054484353394, -41.046146607934425, -41.14446808334778, -41.22830454520088, -41.29673468355059, -41.34966257939321])","array('d', [0.6367381215095517, 0.5603335698935749, 0.495269842735117, 0.43932084351018064, 0.3911463253862593, 0.3496048307126978, 0.313707578135883, 0.2825909939477248, 0.25549819420644404, 0.23176563479160212, 0.2108130200085361, 0.19213541688916935, 0.17529696028580233, 0.15992577685430984, 0.14570990036070722, 0.13239403657019364])","array('d', [-0.008872226450428032, 0.008581067240385761, 0.021373823514897656, 0.03243804731848769, 0.041403669203766987, 0.047923168543988266, 0.05199385858948743, 0.053766655814386145, 0.053471208680084516, 0.051379921225766845, 0.04779282083491932, 0.04302641143979096, 0.03740049099184468, 0.03123256022035183, 0.024846107943658973, 0.018585273128178963])","array('d', [0.738362924256597, 0.6941609800849741, 0.6704980896319721, 0.6502498428161081, 0.6325808858575762, 0.6170290316802712, 0.6032425666827413, 0.5909441845127892, 0.5799119988610081, 0.5699673073584758, 0.560966007449351, 0.552792211100638, 0.5453532757450134, 0.5385757741482499, 0.5324020896764424, 0.5267874530037081])",-29.197592816931394,-49.7201036902464,-40.30221683849262,0.3496048307126978,0.047923168543988266,0.6170290316802712,24.483831496299548,-1.0,[],[],[],10000000000.0,0.0726461410522461
1,-54.57386779785156,-33.05900192260742,39.960205078125,0.6347897648811336,0.03360025212168679,0.6888835589077807,23.14071944361205,"array('d', [-34.97214126586914, -34.00012009339155, -32.50322769622531, -31.04014416716285, -29.61213819295715, -28.215771170818698, -26.847628029386808, -25.504719033204807, -24.18449360605304, -22.884793626801613, -21.60379668292071, -20.33996031933982, -19.091968210340063, -17.85868030925444, -16.63909143031691, -15.432296805584444])","array('d', [-57.15629959106445, -55.997300346670954, -54.086574323951055, -52.13369827662767, -50.151920223085874, -48.146272350293934, -46.12014244170082, -44.07616627314046, -42.016523287421485, -39.94309034877571, -37.857537312235564, -35.7613899604665, -33.656068050790246, -31.54290628014411, -29.423169128270196, -27.298059915372484])","array('d', [-39.99999960000821, -39.99999959999984, -40.03712730058618, -40.103661726407175, -40.19396335247383, -40.302555850932514, -40.42366112565124, -40.55165261982801, -40.681315869878965, -40.80801377240988, -40.92778241402154, -41.037384903258975, -41.13433781963456, -41.21692232001939, -41.2842007864276, -41.33605725784779])","array('d', [0.6364780068397519, 0.5569740884484612, 0.48977633202426574, 0.43232644114841945, 0.383158567089313, 0.34102688651524243, 0.30485540627358426, 0.27370732434434625, 0.24676445306633277, 0.22331250166069336, 0.20273006618081568, 0.18448013461057305, 0.1681034122923093, 0.15321305028087553, 0.13949052240010043, 0.12668249061089862])","array('d', [-0.00887222645042408, 0.008581067240389335, 0.021787885432206222, 0.03255117729623811, 0.041206616769034456, 0.0474987052133766, 0.0514260834632056, 0.05311802061582675, 0.0527889637469031, 0.05070210899374168, 0.0471472049480474, 0.04242789187824216, 0.03685221862807576, 0.030730390047816143, 0.024382826972878423, 0.01815288395064226])","array('d', [0.720522777238164, 0.6764982298704321, 0.6531979207489127, 0.6332519847936849, 0.6159319498133015, 0.6007553331650898, 0.5873552367881633, 0.5754433800766771, 0.5647900395738283, 0.5552110564974122, 0.5465586910266199, 0.5387147933731037, 0.5315854597395376, 0.5250966608892293, 0.5191905091027574, 0.5138219719981824])",-28.215771170818698,-48.146272350293934,-40.302555850932514,0.34102688651524243,0.0474987052133766,0.6007553331650898,24.47811700877705,-1.0,[],[],[],10000000000.0,0.053984642028808594
2,-53.071353912353516,-32.001670837402344,39.9599723815918,0.6329601407051082,0.0329095385968684,0.6707946817067004,23.138930919369155,"array('d', [-34.4166145324707, -33.456529855071345, -31.977157741792357, -30.54725921285894, -29.14990670311767, -27.782144369426327, -26.44080265449768, -25.12310843076209, -23.826716271153753, -22.54965496955288, -21.290266551363516, -20.047149604380103, -18.819105150398343, -17.60508770194453, -16.404166451186605, -15.215489634258965])","array('d', [-56.42318344116211, -55.25700217195402, -53.33315384152517, -51.38839655721063, -49.41188908392157, -47.409328102124725, -45.384422064284585, -43.34008608417868, -41.27876660964292, -39.20258515665959, -37.113425940650885, -35.01299543884278, -32.90285773501174, -30.78445465934078, -28.659122825940354, -26.528098208741024])","array('d', [-39.99999960000824, -39.99999959999984, -40.038171050953785, -40.10561130648287, -40.19590270522681, -40.30374868591377, -40.423598711008594, -40.550054804630655, -40.67809751966056, -40.803228659299954, -40.92156260649872, -41.02989041339754, -41.12572465211266, -41.207331418259095, -41.27376387661975, -41.32491039037687])","array('d', [0.6360238790512082, 0.55512675450224, 0.48695104079683976, 0.428812037219638, 0.3791827075804553, 0.3367679244800888, 0.30045294515361876, 0.269270161258847, 0.24237690575545986, 0.21903965692261446, 0.19862227249140937, 0.18057694931746385, 0.16443715121929944, 0.14981205112612747, 0.13638220966273076, 0.12389631020108664])","array('d', [-0.008872226450473496, 0.008581067240344624, 0.022638379210847322, 0.0330501242298154, 0.04137874353900307, 0.047403459876882596, 0.05114109743810885, 0.05272304009840262, 0.052350529225246085, 0.05026545160426325, 0.046736251351259625, 0.04205031976209902, 0.036507078097905134, 0.030416167431511203, 0.02410267611060495, 0.017915546078242934])","array('d', [0.7113998095181322, 0.6674229744039243, 0.6442450333226392, 0.6242425896209709, 0.6069444272476976, 0.5918403374034711, 0.5785463097551609, 0.5667619015000468, 0.556248475380209, 0.5468153093538631, 0.5383098210940701, 0.5306102680465566, 0.5236200483713715, 0.517263045272, 0.5114796535039474, 0.5062233067547338])",-27.782144369426327,-47.409328102124725,-40.30374868591377,0.3367679244800888,0.047403459876882596,0.5918403374034711,24.318512055596152,-1.0,[],[],[],10000000000.0,0.07093334197998047
3,-51.54861831665039,-30.97366714477539,39.96090316772461,0.6115640401840208,0.026196610182523634,0.6521283547070366,23.148816503254665,"array('d', [-33.32728958129883, -32.38777635171079, -30.9294856194773, -29.503411636284245, -28.11335760684035, -26.755589231231667, -25.426762428275204, -24.12396227213555, -22.84465472500654, -21.58664112505215, -20.348020074625982, -19.127151693698355, -17.922620849838243, -16.733198962455248, -15.557806148248211, -14.395475573050774])","array('d', [-54.94609832763672, -53.762434565374754, -51.795343355653685, -49.78450962316407, -47.74737299594771, -45.68871815813367, -43.61210572777673, -41.52029917451819, -39.415480782655806, -37.299413168178, -35.17357022420448, -33.039239243674636, -30.897594145967325, -28.749742349538312, -26.59675048468538, -24.4396538515233])","array('d', [-39.99999960000822, -39.99999959999982, -40.016067109986416, -40.044890385327776, -40.105252257206075, -40.1915493210022, -40.29802385726855, -40.41868856851071, -40.54751757431941, -40.678709274553235, -40.80693528664019, -40.927557038581156, -41.03680913716452, -41.131940310499644, -41.21130495773176, -41.274415715539554])","array('d', [0.635014712810516, 0.5527600111032422, 0.4839103783696449, 0.4254623093039054, 0.37579882705652307, 0.3335507607624021, 0.29754093424884, 0.26674923118622107, 0.24028893943639967, 0.21738987518461508, 0.19738589048780986, 0.17970540812032648, 0.16386418460171442, 0.14945981721631968, 0.13616769050190647, 0.12373814482405777])","array('d', [-0.008872226450473641, 0.008581067240344489, 0.004608111275835123, 0.018542267164881342, 0.030204023781517444, 0.03959708486601394, 0.04660746974559465, 0.05116663704280461, 0.053308906956053385, 0.05317519349014847, 0.050999944808588576, 0.04709907957361221, 0.04185589841868707, 0.035701615537605286, 0.029095703737124053, 0.02251484760654511])","array('d', [0.6934562484410147, 0.6496583214746011, 0.6268281143740219, 0.6073937459736496, 0.5905670999770911, 0.5758579432440794, 0.5628918997420228, 0.5513764130661459, 0.5410801392953232, 0.531819234442286, 0.523447650159181, 0.515849893127683, 0.5089353453223562, 0.5026335883084792, 0.4968903793204989, 0.4916640570375134])",-26.755589231231667,-45.68871815813367,-40.1915493210022,0.3335507607624021,0.03959708486601394,0.5758579432440794,24.67700805342354,-1.0,[],[],[],10000000000.0,0.06699752807617188
4,-50.003116607666016,-29.97894287109375,39.97356033325195,0.5588529706001281,0.009432326070964187,0.6305617849018913,23.151804885043354,"array('d', [-32.26354217529297, -31.346502549640302, -29.903334287508134, -28.50285019070781, -27.14004566494536, -25.810480756364168, -24.510423902758838, -23.23672757331344, -21.986732097611792, -20.7581876557243, -19.549187060048606, -18.358105069255828, -17.183542910712553, -16.024278351186922, -14.879222051760962, -13.747380621079794])","array('d', [-53.44906997680664, -52.24945322499039, -50.228161064371925, -48.178444028721096, -46.10578755159955, -44.01402334901157, -41.90611911576427, -39.784417209914054, -37.65081058400923, -35.50687596447837, -33.35397306599029, -31.193315083796616, -29.02601587631271, -26.853119490530617, -24.67561685100863, -22.494452868673925])","array('d', [-39.999999600002994, -39.99999960000131, -40.03953137804728, -40.10864489772711, -40.19876874135763, -40.30497522703623, -40.42243893347046, -40.54653967310753, -40.67292888479715, -40.797583045456925, -40.91685486624536, -41.02753368959671, -41.126928814340324, -41.212976698873554, -41.28436176924236, -41.34064049522598])","array('d', [0.634101092815399, 0.5498741043630422, 0.4800780824756867, 0.42114725527534463, 0.37135620721349544, 0.32924616065484436, 0.29356472679088785, 0.26322801528745315, 0.23729521390832753, 0.21495068223627248, 0.19549086070976052, 0.17831443806776118, 0.16291484076438567, 0.1488744608464413, 0.13586024340200248, 0.12362037138017323])","array('d', [-0.008872226444408476, 0.008581067248821746, 0.023008920639933157, 0.032498621493014856, 0.040007663750970625, 0.04554721155803259, 0.04918042377590892, 0.05100207445664384, 0.05112982446612003, 0.04970240302203094, 0.046879225967610336, 0.04284757504451364, 0.037833685156325604, 0.03211140246350781, 0.02600560240600852, 0.01989282233652895])","array('d', [0.6751720468190054, 0.6315178680943581, 0.6091868849302845, 0.5900930127184907, 0.5735733863697526, 0.5591389228519171, 0.546414860137391, 0.5351086388782405, 0.5249895608032641, 0.5158751230327977, 0.5076213072577659, 0.5001152904545992, 0.49326967261450644, 0.4870176693528895, 0.48130892670136444, 0.47610574440694237])",-25.810480756364168,-44.01402334901157,-40.30497522703623,0.32924616065484436,0.04554721155803259,0.5591389228519171,24.79374059418297,-1.0,[],[],[],10000000000.0,0.07849574089050293
5,-48.03715896606445,-28.78685188293457,40.03292465209961,0.4687772691249845,-0.01893609762191786,0.6022769371655323,23.140781729003756,"array('d', [-31.227455139160156, -30.332001331467268, -28.923823638917476, -27.55770404108796, -26.228875284971824, -24.93320691271493, -23.66722858067368, -22.428046136276517, -21.21325739479313, -20.020864338684834, -18.849186606769788, -17.69678645403334, -16.562410570685913, -15.444948589944723, -14.343401196012787, -13.256860970732854])","array('d', [-51.930908203125, -50.716172829759074, -48.67257236559929, -46.60118790763091, -44.507145468049586, -42.39413798035362, -40.265009121841246, -38.12203396263551, -35.9671027103109, -33.80182841850803, -31.627603255644534, -29.445633074552628, -27.25696932882079, -25.062545043730267, -22.86320594796969, -20.659745828765328])","array('d', [-39.999999600002994, -39.99999960000131, -40.03589026678325, -40.09970081029031, -40.18771987040891, -40.29384998810836, -40.412087001114095, -40.53722597794018, -40.66477698945792, -40.79077616307252, -40.91166146227138, -41.02423716842616, -41.1257215248544, -41.21386605301659, -41.28711861033256, -41.34479241227223])","array('d', [0.6199195981025694, 0.5396117108525419, 0.4731633597850988, 0.41731375184605174, 0.3703578789662851, 0.3308564375980525, 0.29757743020736, 0.26945864509452944, 0.24558214986016458, 0.22515617632184426, 0.2075017870013636, 0.1920427860501009, 0.17829793416533835, 0.1658748682799843, 0.15446533370934065, 0.14384147019573287])","array('d', [-0.008872226444418381, 0.008581067248812784, 0.020146640927476533, 0.03109155336211407, 0.03971482117119728, 0.045767637524139065, 0.04956111892658429, 0.05142474485116586, 0.051604147915359416, 0.05027531456977081, 0.047580654644519105, 0.043664503578215365, 0.03870616400511943, 0.03294683835925386, 0.02670001287985348, 0.0203478391321697])","array('d', [0.6571225682881217, 0.6145881425880285, 0.5926858188793691, 0.573842794496819, 0.5574309823121903, 0.5429825006513592, 0.5301376739824835, 0.5186151324774722, 0.5081927059222189, 0.4986945355216003, 0.48998186755800566, 0.4819460424163627, 0.4745028310881869, 0.4675876354499437, 0.4611512887315325, 0.4551562345672054])",-24.93320691271493,-42.39413798035362,-40.29384998810836,0.3308564375980525,0.045767637524139065,0.5429825006513592,24.799118816424553,-1.0,[],[],[],10000000000.0,0.09527111053466797
6,-46.8447380065918,-28.100173950195312,40.10542678833008,0.41402795910835233,-0.03597604483366019,0.5867332379010057,23.121567452795407,"array('d', [-29.97894287109375, -28.538225762682373, -27.139768415238542, -25.777873727420328, -24.447511093916802, -23.144575856671572, -21.865705461132265, -20.608150721199554, -19.369677564309907, -18.148487435639648, -16.943152774476697, -15.752562849932666, -14.575870158701518, -13.412431035506861, -12.261766392381732, -11.123581687918554])","array('d', [-50.003116607666016, -47.98054600064069, -45.929188505825884, -43.85513795381704, -41.76237736055855, -39.65392296510336, -37.532087351110135, -35.39867983690082, -33.255160873932596, -31.102761851943054, -28.942582326341924, -26.775667449038757, -24.60305425628574, -22.425777877037145, -20.24488753698589, -18.061550754192886])","array('d', [-39.999999599999654, -39.99999960002433, -40.03701700814109, -40.101284696642296, -40.18570408008609, -40.283300821861886, -40.387360205477506, -40.491628262371705, -40.590394354817846, -40.67851883530711, -40.75161124472796, -40.80654625036669, -40.842263091778094, -40.859810164718425, -40.85942132708979, -40.84040411726524])","array('d', [0.5588529706001281, 0.4783750271657334, 0.41159674369887633, 0.35626330555692864, 0.31051155524195206, 0.27276776574550604, 0.24168525129282664, 0.21610417969814055, 0.19502466030185786, 0.17758817073595098, 0.16306443446091806, 0.15084200563440792, 0.14042148726443265, 0.13141070388141182, 0.12352138983762859, 0.11656712900739878])","array('d', [-0.008872226426192252, 0.008581067247733129, 0.021029022624118324, 0.03060247836027879, 0.03734331973036775, 0.041302534990745925, 0.04263123311799058, 0.041544120255431874, 0.03826046680491694, 0.03301716575518898, 0.026175206608473597, 0.01838501799642029, 0.010653065000445572, 0.0036790725142744657, -0.003868543498997332, -0.01145196537120029])","array('d', [0.6305617849018913, 0.6080351199617183, 0.589212516541676, 0.5732625112689675, 0.5595848378870747, 0.5477243877222036, 0.5373274339053351, 0.5281150720463538, 0.5198659763118538, 0.5124044402451798, 0.5055915210415617, 0.4993180528200933, 0.49349880356792414, 0.488067331438012, 0.48297125756053627, 0.47816777870534954])",-23.144575856671572,-39.65392296510336,-40.283300821861886,0.27276776574550604,0.041302534990745925,0.5477243877222036,24.79633176277768,-1.0,[],[],[],10000000000.0,0.05461406707763672
7,-46.8447380065918,-28.100173950195312,40.10542678833008,0.41402795910835233,-0.03597604483366019,0.5867332379010057,23.121567452795407,"array('d', [-29.256258010864258, -27.837870334605963, -26.45604256442759, -25.104290866222122, -23.777460393908175, -22.47142890103456, -21.182893725010896, -19.90920940669117, -18.64825805009905, -17.398342550591465, -16.158097253726158, -14.92641306052056, -13.702375336041461, -12.485213700079647, -11.27426317469274, -10.06893847942263])","array('d', [-48.82717514038086, -46.76871814948637, -44.685758764372075, -42.583343774299045, -40.46524717472599, -38.334347780416365, -36.192867240147145, -34.04253183567816, -31.88468934563992, -29.720397437097596, -27.550492700240703, -25.37564555402064, -23.1964040616695, -21.01322838921484, -18.82651683818336, -16.636627658689207])","array('d', [-40.00083541870117, -40.02734956625716, -40.068457148072824, -40.11871949816373, -40.174631578440945, -40.23385517762321, -40.29475441152547, -40.35611160601728, -40.41695368504556, -40.47644939431073, -40.53385540849126, -40.588499737891624, -40.639796631276525, -40.68728978451605, -40.73072079576332, -40.7701177370443])","array('d', [0.5059946179389951, 0.41936477343527434, 0.3482810868705545, 0.2901533111786742, 0.24284739943466022, 0.20455279620063102, 0.17370695184664495, 0.1489506110091998, 0.12910053420457712, 0.11313244923933077, 0.1001701899684891, 0.0894787207086186, 0.08045973995593643, 0.07264913319886586, 0.06571587720405082, 0.05946219003897452])","array('d', [0.006948859896510969, 0.014142890504753588, 0.018669177357670864, 0.021496263667498537, 0.02320857059723833, 0.024158889397070508, 0.024558648380317318, 0.024532472551108683, 0.02415233791587199, 0.023460268995272315, 0.022484852382583888, 0.02125461790243621, 0.019809881213666565, 0.018213560580111997, 0.016560575050796767, 0.014984629247528723])","array('d', [0.6134722987797594, 0.5939197826894898, 0.5780918751661285, 0.5651392693385009, 0.5544414626869417, 0.5455260873502336, 0.5380247033224638, 0.5316466436090365, 0.5261622985489234, 0.5213915116281512, 0.517194805361915, 0.5134661960507366, 0.5101269066239238, 0.5071195843827884, 0.5044027926758538, 0.501945629566056])",-22.47142890103456,-38.334347780416365,-40.23385517762321,0.20455279620063102,0.024158889397070508,0.5455260873502336,25.000000248973706,-1.0,[],[],[],10000000000.0,0.022213459014892578
8,-45.64422607421875,-27.430437088012695,40.204734802246094,0.36569541692733737,-0.051197279244661366,0.5725330869343618,23.094300868833802,"array('d', [-28.78685188293457, -27.38998151007695, -26.026589655327527, -24.690544394257206, -23.376983411675134, -22.08203231235493, -20.80260301500677, -19.536239199472103, -18.28099180238899, -17.0353156121297, -15.79798221516674, -14.568006763534218, -13.344587195649883, -12.127055144075081, -10.91483808373517, -9.7074356970788])","array('d', [-48.03715896606445, -45.964491021740116, -43.86979571692688, -41.75764963693098, -39.631504090773404, -37.49399869475724, -35.34716763812082, -33.19258442831368, -31.031468875068175, -28.864769356701864, -26.693227827131455, -24.517431935797262, -22.33785683146899, -20.154898114809768, -17.96889671094285, -15.78016184615064])","array('d', [-40.03292465209961, -40.084190799329235, -40.1416684911933, -40.20290210802691, -40.266260544766155, -40.330598938542224, -40.39505224128834, -40.45890821945375, -40.52153051137666, -40.582315891795446, -40.640677930786296, -40.69605394114342, -40.74793455423778, -40.79591590629991, -40.83977338855385, -40.87955313505134])","array('d', [0.4687772691249845, 0.38562475612902697, 0.31764757826751144, 0.2623293993853773, 0.21758106903420932, 0.18162129908038818, 0.1529082243442258, 0.13009862653839502, 0.1120228922951682, 0.09766920102304423, 0.08617328882698869, 0.07681172372783705, 0.06899753828523209, 0.06227758889578675, 0.05633130768504581, 0.050970679615943565])","array('d', [0.01893609762191786, 0.02202812984793873, 0.023926414851056406, 0.025046691684129135, 0.025635660244326286, 0.025837372666690978, 0.025732728505622193, 0.025363765222649458, 0.02474955530312199, 0.023897752404323108, 0.022814198327226434, 0.021511960026392295, 0.020020395775997544, 0.018394175292226866, 0.01672151747473116, 0.015130255845090947])","array('d', [0.6022769371655323, 0.5844337699814695, 0.5700561713526889, 0.5583633957544134, 0.5487763912095446, 0.5408496976247371, 0.5342335212323861, 0.528650936073745, 0.5238830393976456, 0.519758416755671, 0.5161449878230407, 0.5129431850546329, 0.5100798846422797, 0.5075027606058304, 0.5051748682375654, 0.5030693299049631])",-22.08203231235493,-37.49399869475724,-40.330598938542224,0.18162129908038818,0.025837372666690978,0.5408496976247371,25.0000002471653,-1.0,[],[],[],10000000000.0,0.01964426040649414
9,-45.2427864074707,-27.21050262451172,40.243507385253906,0.35149663686752297,-0.055540554225444884,0.5682283202793935,23.082918653361133,"array('d', [-28.555925369262695, -27.169475867061728, -25.814949499768712, -24.486401565141296, -23.179119762161196, -21.889354820124037, -20.614126327922836, -19.351072669360832, -18.098329257124885, -16.85442684980535, -15.618205645471175, -14.388742879903361, -13.165292707230954, -11.947237673732726, -10.73405137523169, -9.52527529015363])","array('d', [-47.640804290771484, -45.56148158643667, -43.461274738319695, -41.344565082551064, -39.214662893222965, -37.07409943569929, -34.9248219301534, -32.76833186725464, -30.60578807099891, -28.438086429117785, -26.265923176702255, -24.089845793573225, -21.91029390777722, -19.727631563905778, -17.542171562448715, -15.3541980087387])","array('d', [-40.054080963134766, -40.11750040252544, -40.18300728769272, -40.24961217430791, -40.31660563934056, -40.38343021664039, -40.44960060219099, -40.51465379572156, -40.57811965282335, -40.639507665178364, -40.698309085440975, -40.75401544771829, -40.80615534677143, -40.854351015141454, -40.898394641022314, -40.9383412623941])","array('d', [0.45015776157379134, 0.3687525928488395, 0.3023370097170898, 0.2484307111386656, 0.2049666889945162, 0.17017825394461605, 0.14253398793404135, 0.12069887601815624, 0.10351034774979663, 0.08996305794852905, 0.07919894264896025, 0.07050060266966451, 0.0632869367945547, 0.057110443297456036, 0.05165588708230013, 0.046740183726433925])","array('d', [0.024824639782309654, 0.025898443653348518, 0.026502978568641943, 0.026782571645063234, 0.02681802489556313, 0.026650794275839197, 0.026297588907135145, 0.025759812073750846, 0.0250304958152023, 0.024100368335004178, 0.022964064179015718, 0.021627021745811534, 0.020113179502469592, 0.01847310750107564, 0.01679166971187082, 0.015193732218888123])","array('d', [0.5969020287182667, 0.5798929346534211, 0.5662273993531445, 0.5551557630573839, 0.5461179925005577, 0.5386811104370618, 0.5325040718315622, 0.5273164738562911, 0.522904554310928, 0.5191011375699008, 0.5157777578187017, 0.5128379996587666, 0.5102115259749948, 0.5078484931519202, 0.5057141767282555, 0.5037836905132268])",-21.889354820124037,-37.07409943569929,-40.38343021664039,0.17017825394461605,0.026650794275839197,0.5386811104370618,25.000000247162472,-1.0,[],[],[],10000000000.0,0.02320408821105957
10,-44.82405471801758,-26.982906341552734,40.286468505859375,0.3378893733024595,-0.05944094434380536,0.5639206926014759,23.072093495214347,"array('d', [-28.327064514160156, -26.950683371812403, -25.60468856907206, -24.28332546235069, -22.982031033160602, -21.697179480322934, -20.425896328454858, -19.165913078730263, -17.915448210224643, -16.67310719501739, -15.437797709239304, -14.208658039287087, -12.984997607497306, -11.766249003026207, -10.551931142692549, -9.341626561844175])","array('d', [-47.243282318115234, -45.157665545360736, -43.05223236237231, -40.931196515344226, -38.79774194091168, -36.65430014332114, -34.502736864156674, -32.344485363311314, -30.18064624900592, -28.012065035961218, -25.839393911481864, -23.66314153465324, -21.48371311913982, -19.301442070784997, -17.116613831316453, -14.929488016059064])","array('d', [-40.078182220458984, -40.153276227870606, -40.22649100816289, -40.29824618901519, -40.368718631099775, -40.43791602089955, -40.50571862737077, -40.571903532577764, -40.63616082283484, -40.69810874335446, -40.757313579020284, -40.81331930111972, -40.86569126522852, -40.91407699508229, -40.9582849464021, -40.99837872390023])","array('d', [0.4318498075008391, 0.3521627309556203, 0.28728404218883247, 0.23476787826509513, 0.1925685043012814, 0.1589333312092948, 0.1323410986756779, 0.11146483146694337, 0.09514891518672736, 0.0823944381371792, 0.07234951737579691, 0.06430277522889617, 0.05767896227121708, 0.05203619370887322, 0.047064526840901656, 0.042585748804132316])","array('d', [0.03048308566212659, 0.02961563000474822, 0.02897525314404596, 0.02844561171386905, 0.027948110454982824, 0.027425589113251853, 0.026833033175339246, 0.02613276039091834, 0.02529274771719652, 0.02428743387466244, 0.023100663015656827, 0.021730522882761078, 0.02019572076055196, 0.01854285727551601, 0.016853532396664848, 0.015249707894973463])","array('d', [0.5917373458531239, 0.5755358783629617, 0.5625626834289735, 0.5520967004426476, 0.5435955266344429, 0.5366378406129204, 0.5308908294459845, 0.5260902781563307, 0.5220273396465329, 0.5185389196329466, 0.5155000519242627, 0.5128173853476143, 0.5104232989108923, 0.5082703723365989, 0.5063260505626339, 0.5045673943826285])",-21.697179480322934,-36.65430014332114,-40.43791602089955,0.1589333312092948,0.027425589113251853,0.5366378406129204,25.000000247159708,-1.0,[],[],[],10000000000.0,0.020557880401611328
11,-44.01247787475586,-26.546432495117188,40.379188537597656,0.3146089911460875,-0.06542421132326132,0.5563177625325064,23.054399141527743,"array('d', [-28.100173950195312, -26.733613120482048, -25.395935140594208, -24.081574869166385, -22.78611563276654, -21.506051861859202, -20.23861207889772, -18.981618373293504, -17.73337013197749, -16.492545684063842, -15.258118566335035, -14.029286687928744, -12.805413464306225, -11.585980378377679, -10.370550625051097, -9.158745873480651])","array('d', [-46.8447380065918, -44.75310864110792, -42.64265241032836, -40.517442906150045, -38.38055267243577, -36.23432239610008, -34.08054216807699, -31.920581090304207, -29.755484558734704, -27.58605002020895, -25.41288743615442, -23.236468116625172, -21.0571640692047, -18.875279065025776, -16.691072028332577, -14.504777043131412])","array('d', [-40.10542678833008, -40.191849664840156, -40.27253865394038, -40.34928152668837, -40.42311622418202, -40.494599833484365, -40.563968211331414, -40.63123210787474, -40.69623767004247, -40.75870915825243, -40.818286078898524, -40.874563639563036, -40.927143161234206, -40.975696933574085, -41.02004933095902, -41.06027231554619])","array('d', [0.41402795910835233, 0.3359987255387, 0.2726073039311226, 0.22143942338296246, 0.18046882330607683, 0.14795579010089036, 0.12238834266540105, 0.10244689097839894, 0.08698227444504217, 0.07500161961353638, 0.06565890654659899, 0.05824851829551791, 0.05220084031803212, 0.04707942296940286, 0.04257946376315395, 0.038527495542375494])","array('d', [0.03597604483366019, 0.033221998375827, 0.03137128762642536, 0.030054625183903876, 0.029038673222746086, 0.02817049380641466, 0.027345102183017316, 0.026486828398882802, 0.025539291527882445, 0.02446109019041263, 0.02322557216033616, 0.021823669482405026, 0.020268988534325287, 0.01860424697923268, 0.01690783591209344, 0.015298843895166152])","array('d', [0.5867332379010057, 0.5713071210844293, 0.5590017492351063, 0.5491219619649867, 0.5411414306892415, 0.5346495312622042, 0.5293210622705373, 0.524897578529342, 0.5211748565925247, 0.517993673759882, 0.5152324077574727, 0.5128006524972138, 0.5106334092454572, 0.5086856050602274, 0.5069267911718119, 0.5053359229903623])",-21.506051861859202,-36.23432239610008,-40.494599833484365,0.14795579010089036,0.02817049380641466,0.5346495312622042,25.000000248968604,-1.0,[],[],[],10000000000.0,0.020690441131591797
12,-43.6065788269043,-26.330045700073242,40.42857360839844,0.3038162887096403,-0.06750481575727472,0.5527429143574575,23.043431948293257,"array('d', [-27.651966094970703, -26.304620575216266, -24.983339144355558, -23.68291715622506, -22.399210016352257, -21.128933965810226, -19.8695076271788, -18.61892093323573, -17.37562388943142, -16.13843105772303, -14.90643957822947, -13.67895956955981, -12.455456258921682, -11.23550343257111, -10.01874791724981, -8.804887033711267])","array('d', [-46.045108795166016, -43.94204431417224, -41.82187005260826, -39.68846247994552, -37.54471859947094, -35.3928269493915, -33.234446270162664, -31.070831731777062, -28.90292917945654, -26.731448436246634, -24.55692185072582, -22.37975164087285, -20.20024807125711, -18.01865958286301, -15.835195423251482, -13.65004483020305])","array('d', [-40.168731689453125, -40.27669228197511, -40.371576057122695, -40.45777356783141, -40.53796260336256, -40.61374747900999, -40.686042427238576, -40.755304376960545, -40.82167776842576, -40.88508975052922, -40.94532017569082, -41.002062639573516, -41.05498766151826, -41.10381524964152, -41.148400426128966, -41.18883102804425])","array('d', [0.3809156417846678, 0.30585834218404373, 0.24515788133469674, 0.19644927780215404, 0.15773577260804125, 0.12729651775999548, 0.10363280935966795, 0.08543562428836782, 0.07156527585778885, 0.06103811497750847, 0.053017458873446714, 0.046807211503270295, 0.04184736883486327, 0.03771100512715269, 0.034102548962561464, 0.03085726514657771])","array('d', [0.046424981206655634, 0.04007641160183908, 0.035918264344045124, 0.03310044353592595, 0.03109525102507341, 0.02956743125202858, 0.02829777496847998, 0.027138221792946397, 0.025985955805243554, 0.0247693688554905, 0.02344178362652011, 0.021980467133871428, 0.020389262177931914, 0.018703419665219462, 0.016995114474074924, 0.015377816810437516])","array('d', [0.5770626227047781, 0.5630525096829004, 0.5519772279092362, 0.543184194447277, 0.5361736828105835, 0.5305528997232362, 0.5260094564035305, 0.5222947492570089, 0.519212566461952, 0.5166105054558972, 0.5143729277113528, 0.5124147710074908, 0.5106758509693625, 0.5091154455723275, 0.5077070388462602, 0.5064331388835833])",-21.128933965810226,-35.3928269493915,-40.61374747900999,0.12729651775999548,0.02956743125202858,0.5305528997232362,25.000000248966604,-1.0,[],[],[],10000000000.0,0.022550582885742188
13,-43.200679779052734,-26.114734649658203,40.479652404785156,0.2933172285556791,-0.06881188601255424,0.549291090169225,23.032762177988275,"array('d', [-27.430437088012695, -26.092178034249265, -24.778676992713535, -23.48489893081908, -22.206824740055335, -20.941272229033427, -19.68574705768871, -18.43831622371019, -17.19749913281209, -15.962173321457609, -14.731493213866283, -13.504821030109051, -12.281669329105034, -11.061654836965026, -9.844463294115148, -8.629827292260428])","array('d', [-45.64422607421875, -43.53589479701077, -41.411190034824706, -39.273923927433245, -37.12692585422176, -34.97232137833613, -32.8117128101764, -30.646305294547425, -28.477000348205014, -26.304468393357457, -24.12920662610113, -21.95158579617339, -19.77188792214262, -17.590336041342034, -15.407116524953818, -13.222398041847828])","array('d', [-40.204734802246094, -40.32252476303064, -40.423877184336405, -40.51437210350928, -40.59743762496225, -40.67515771210356, -40.74875760805438, -40.81889901328734, -40.8858634389355, -40.94967141094758, -41.010167502607274, -41.0670907891554, -41.12014385575511, -41.169068861729166, -41.21373504034195, -41.254237493070626])","array('d', [0.36569541692733737, 0.2919686481060253, 0.23248152640505698, 0.1848885719300186, 0.14720433395342433, 0.11771492811450256, 0.09492641849414994, 0.07753358461447375, 0.06440026293006068, 0.054546395095602475, 0.04713909211301175, 0.04148626262625075, 0.037032055255209265, 0.033353748514074716, 0.030159920397629207, 0.02728982697249451])","array('d', [0.051197279244661366, 0.04320319745961771, 0.037988057170100814, 0.03448221838849883, 0.03202346494495109, 0.030193165440488383, 0.02871984267248529, 0.02742229496490927, 0.026176439973908883, 0.024896830896059697, 0.023527611545655087, 0.022039777270966832, 0.020432676063712397, 0.018738100696759987, 0.0170253201571517, 0.01540514804496138])","array('d', [0.5725330869343618, 0.5591637318502457, 0.5486490265343063, 0.5403538739833633, 0.5337895380824372, 0.5285706443178066, 0.5243901889701693, 0.5210037608795488, 0.518218614239061, 0.5158853429582902, 0.5138909743647555, 0.5121528550476929, 0.5106129912655626, 0.509232655235906, 0.5079871433177777, 0.5068606065513889])",-20.941272229033427,-34.97232137833613,-40.67515771210356,0.11771492811450256,0.030193165440488383,0.5285706443178066,25.00000024896563,-1.0,[],[],[],10000000000.0,0.0196533203125
14,-42.7947883605957,-25.900371551513672,40.532264709472656,0.28304621577262856,-0.06945902109146125,0.5459701577809193,23.02344416939285,"array('d', [-27.21050262451172, -25.88092491241043, -24.574882881977103, -23.287500264670204, -22.01487441361511, -20.753917230577244, -19.502215156762524, -18.257906941564567, -17.019576814509435, -15.78616129708104, -14.556868585719721, -13.33110988599037, -12.108442305577942, -10.888523010775332, -9.671074399337815, -8.455862233536942])","array('d', [-45.2427864074707, -43.129488129941656, -41.00047804194075, -38.85952134450369, -36.709390819079424, -34.5521567270867, -32.389370676871856, -30.222192280914495, -28.051482374342523, -25.877875010507235, -23.701834797883492, -21.523703216044197, -19.34373594026451, -17.162132264110586, -14.979057138931317, -12.79465984915706])","array('d', [-40.243507385253906, -40.37023729934003, -40.477464852840384, -40.57185368636719, -40.65751602584762, -40.73697349309501, -40.811735323630764, -40.882650354810245, -40.950125492544096, -41.014266799724155, -41.07497823873977, -41.13204070493463, -41.18518633379511, -41.234177730579084, -41.278897234083544, -41.31944657256215])","array('d', [0.35149663686752297, 0.2789851354162288, 0.2206123830229869, 0.17404900748753152, 0.1373185703568588, 0.10871248811001563, 0.08674031850898936, 0.07009962029992357, 0.05765689992638159, 0.048434958901354803, 0.041604065096064305, 0.0364755729330199, 0.032497294571597744, 0.029250290148611205, 0.026446930621995643, 0.023930174586421087])","array('d', [0.055540554225444884, 0.04604562454698052, 0.039865966799348444, 0.03573206644493376, 0.0328591708387673, 0.030752661716149404, 0.02909340680469339, 0.02766997880855165, 0.026338895860131262, 0.025002085075344977, 0.023595312578089868, 0.022083843323646223, 0.020462907405512657, 0.018761112669846258, 0.01704503002342699, 0.015422982270876089])","array('d', [0.5682283202793935, 0.5554515522425939, 0.545457652891252, 0.5376266683947, 0.5314794029134802, 0.5266369444564907, 0.5227970093213608, 0.5197188944902055, 0.5172129532166462, 0.5151324883738833, 0.5133669616819042, 0.511835938193323, 0.5104834556596103, 0.5092726456760258, 0.5081805011613025, 0.5071927152863362])",-20.753917230577244,-34.5521567270867,-40.73697349309501,0.10871248811001563,0.030752661716149404,0.5266369444564907,25.000000248964678,-1.0,[],[],[],10000000000.0,0.025005578994750977
15,-41.57732009887695,-25.26190757751465,40.695743560791016,0.2524865865707396,-0.06885167211294185,0.5365745584156852,22.994573754905517,"array('d', [-26.982906341552734, -25.66205687555037, -24.363573016308873, -23.082727038286386, -21.815725177327725, -20.559567706498335, -19.311917456010125, -18.07098150271032, -16.835406190300528, -15.60418484849077, -14.376577668678152, -13.152043364610543, -11.930182340147644, -10.710691117049176, -9.493327791410866, -8.27789042128585])","array('d', [-44.82405471801758, -42.70578686367222, -40.57242976142952, -38.427711611517154, -36.27435491006822, -34.11437898583758, -31.949287960584673, -29.78019838100322, -27.607932346005775, -25.433089104987108, -23.256101957125995, -21.077284170142896, -18.896865963252, -16.715023638948225, -14.531901374087028, -12.34762960649831])","array('d', [-40.286468505859375, -40.42122009665041, -40.53370883283919, -40.63157311575129, -40.71954119401517, -40.800529134819826, -40.876302362621374, -40.9478787148827, -41.01577849903922, -41.080185280010184, -41.14105696435243, -41.19821254894527, -41.251411179155745, -41.300434194207526, -41.345175930390056, -41.3857440920743])","array('d', [0.3378893733024595, 0.2665009440167658, 0.2091674743494049, 0.16357207202408441, 0.12774468390783753, 0.0999800080799986, 0.07878947925596504, 0.0628721065862949, 0.05109595776580497, 0.04248576333555171, 0.03621416788253587, 0.03159532416861174, 0.028080181312882018, 0.02525316774080557, 0.022830142743649043, 0.0206575692845831])","array('d', [0.05944094434380536, 0.048594073746292044, 0.04154508642937458, 0.03684483045960226, 0.033598350607628155, 0.031242651887243778, 0.0294157004866723, 0.027878849920505825, 0.026471145173978666, 0.02508313936827278, 0.02364304848414847, 0.022110965583526394, 0.020478390062718024, 0.018771022488361194, 0.017052942526522934, 0.015430141800204406])","array('d', [0.5639206926014759, 0.5517077996919441, 0.5422122395845389, 0.5348273460952303, 0.5290822905682261, 0.524603835919486, 0.5210938657109864, 0.5183149846496675, 0.5160803486305565, 0.5142457470248563, 0.512702907713286, 0.5113734865809119, 0.5102034559113355, 0.5091577327479246, 0.5082149494545334, 0.5073622956815634])",-20.559567706498335,-34.11437898583758,-40.800529134819826,0.0999800080799986,0.031242651887243778,0.524603835919486,25.000000248963694,-1.0,[],[],[],10000000000.0,0.04407691955566406
16,-40.765953063964844,-24.8391170501709,40.806922912597656,0.23161368072032906,-0.0661329552531243,0.5314567844059802,22.976555331713467,"array('d', [-26.330045700073242, -25.03193311803302, -23.753285023792746, -22.489721007145775, -21.237705507686975, -19.994451805842324, -18.75780965386088, -17.526155409130602, -16.298290784115558, -15.073352225505175, -13.850731598388203, -12.630008367927445, -11.41089325041295, -10.19318318301528, -8.976727403894643, -7.761406391441042])","array('d', [-43.6065788269043, -41.47541590159822, -39.33070378809205, -37.17608901008689, -35.01417492157429, -32.84685777130998, -30.67552576905926, -28.501189603656655, -26.324575613363752, -24.146196579006883, -21.966407671785145, -19.785451490805453, -17.60349427952726, -15.42065439744043, -13.237023538876988, -11.052684362248067])","array('d', [-40.42857360839844, -40.57986455826349, -40.703120374217725, -40.80801246975291, -40.90055667894, -40.984495239565234, -41.06213142504872, -41.13483893252442, -41.20337782600521, -41.26809644653291, -41.329068246027795, -41.38619457404636, -41.43929350837447, -41.48818754211899, -41.5327972719581, -41.57324285740252])","array('d', [0.3038162887096403, 0.235118473282307, 0.1803038711879607, 0.13707812691903815, 0.1034804755849707, 0.07780844811714958, 0.058573772367332445, 0.044475472988064785, 0.034382579596723015, 0.027322282598808725, 0.02247130879879939, 0.019149386377897294, 0.01681427210203807, 0.015058122899624781, 0.013605135941716385, 0.01231043719252969])","array('d', [0.06750481575727472, 0.053830996212128605, 0.04496192499460121, 0.039074722186145834, 0.0350448402245855, 0.032166667579135444, 0.029988613904669635, 0.02821518625269075, 0.026648932794317973, 0.02515664689398296, 0.023650754966241385, 0.02208048498708408, 0.020429404719437622, 0.01871688889423408, 0.017001410750630424, 0.015383513916497976])","array('d', [0.5527429143574575, 0.5419250116638752, 0.5336717150693642, 0.5274053796015912, 0.5226734294497409, 0.519115040567898, 0.5164413076697904, 0.5144222833235207, 0.5128775814006691, 0.5116688557259083, 0.510693290353799, 0.5098776614043502, 0.5091727425798069, 0.5085479280266558, 0.5079859919493404, 0.5074779228935827])",-19.994451805842324,-32.84685777130998,-40.984495239565234,0.07780844811714958,0.032166667579135444,0.519115040567898,25.000000248961005,-1.0,[],[],[],10000000000.0,0.025060176849365234
17,-40.765953063964844,-24.8391170501709,40.806922912597656,0.23161368072032906,-0.0661329552531243,0.5314567844059802,22.976555331713467,"array('d', [-25.900371551513672, -24.6159332317847, -23.34927508122143, -22.09618183656399, -20.853253074343865, -19.61782089749333, -18.387843505958568, -17.161797810050793, -15.938579122368703, -14.717410844289907, -13.497765254017684, -12.279295786096077, -11.061780852472422, -9.845079072962143, -8.629095697737165, -7.413761945958673])","array('d', [-42.7947883605957, -40.655640020812214, -38.5039676197575, -36.34331956297333, -34.17620549657322, -32.00443740525145, -29.82932886552583, -27.65182442584922, -25.472591494688498, -23.29209004153119, -21.110627687646467, -18.928404081532342, -16.745546595017636, -14.562138372381437, -12.378239193664973, -10.19390278744946])","array('d', [-40.532264709472656, -40.687511991152206, -40.81324081415972, -40.91964002123057, -41.01305558299862, -41.09744330003022, -41.17524688113349, -41.24793419918432, -41.31632996769291, -41.38082811695939, -41.44153515014468, -41.49837690959339, -41.55118969561962, -41.59980907914557, -41.64416390170197, -41.68437749479139])","array('d', [0.28304621577262856, 0.21595767116155024, 0.1626583017094307, 0.12086476043738992, 0.08861988388865397, 0.06422131048140133, 0.04617966718882735, 0.033192990453879016, 0.024130135990746992, 0.01801923048422945, 0.014039085667494074, 0.01151255119624919, 0.009901354474338406, 0.008802259635979533, 0.0079445002520148, 0.007188481746704725])","array('d', [0.06945902109146125, 0.05506004968024565, 0.045721607405381406, 0.03952695093765067, 0.03529357655016355, 0.03227972593308467, 0.030011049647172158, 0.02817759404801617, 0.02657262812854389, 0.02505690671064352, 0.023538822796522405, 0.021964766306789753, 0.020316112861616956, 0.01861030678524464, 0.01690388362123405, 0.015295267712357629])","array('d', [0.5459701577809193, 0.5359907259107298, 0.5284884820917828, 0.5229013163266408, 0.5187864382845088, 0.5157897246573145, 0.5136273185646906, 0.5120734441637638, 0.5109514173405372, 0.5101263227318832, 0.5094985869051855, 0.5089980633210415, 0.5085784337552995, 0.5082118178807133, 0.5078835195202281, 0.5075868517223853])",-19.61782089749333,-32.00443740525145,-41.09744330003022,0.06422131048140133,0.03227972593308467,0.5157897246573145,25.0000002489593,-1.0,[],[],[],10000000000.0,0.026934146881103516
18,-39.94932174682617,-24.414188385009766,40.916622161865234,0.21026587486267076,-0.06172816455364239,0.5271571437504632,22.965069695820677,"array('d', [-25.47407341003418, -24.202377678884297, -22.94686961267664, -21.703466186581004, -20.468886242049226, -19.24057234186142, -18.016586222941463, -16.7955020785736, -15.576306353256985, -14.358307341259568, -13.141055895498186, -11.924277726190972, -10.707817363991262, -9.491593645810145, -8.275566481443466, -7.059716700709958])","array('d', [-41.983097076416016, -39.83634969901231, -37.678142825165764, -35.51189044927689, -33.33999412219928, -31.164176456353246, -28.98567525770205, -26.80536947934332, -24.623868818596698, -22.441581874504315, -20.25877017916687, -18.075591822447826, -15.892136591761782, -13.708453586974603, -11.524571727317085, -9.340516944730991])","array('d', [-40.640560150146484, -40.795839572509415, -40.92142706410878, -41.027565896711096, -41.12063976916738, -41.204631140049955, -41.28200312953981, -41.35423834483722, -41.42217325629733, -41.486211655567466, -41.54646863365595, -41.60287760227895, -41.65528135380689, -41.703520535651705, -41.747527067768935, -41.78742458627687])","array('d', [0.26268717646598805, 0.1971956852511237, 0.14539677713494628, 0.10501834875383556, 0.0741072185889758, 0.05096158106131039, 0.03409144381541982, 0.022194344554291052, 0.014139439172633921, 0.008956227627368724, 0.005825987834180383, 0.004075001838553622, 0.003169197804691458, 0.002710089508593899, 0.0024319974263049457, 0.002200562471200412])","array('d', [0.06951394677162183, 0.055032278514851235, 0.04563712054669353, 0.0394035995030897, 0.03514382707137097, 0.03211251010027212, 0.029833006467115727, 0.027993897319530295, 0.026387525520097016, 0.02487405021211999, 0.023361438454362626, 0.021795690456115818, 0.020157710487248973, 0.01846428410801582, 0.016771010961359373, 0.015175039546832313])","array('d', [0.539609626927648, 0.5304433951634828, 0.5236710975194546, 0.518744856900855, 0.5152309007521403, 0.5127813419668753, 0.5111170866948841, 0.5100163518144735, 0.5093060379242431, 0.5088545764786444, 0.5085655684805136, 0.5083718825412127, 0.5082300471884377, 0.508114845505926, 0.508014048558608, 0.5079232331680628])",-19.24057234186142,-31.164176456353246,-41.204631140049955,0.05096158106131039,0.03211251010027212,0.5127813419668753,25.000000248957658,-1.0,[],[],[],10000000000.0,0.021237611770629883
19,-39.13339614868164,-23.99045753479004,41.02446746826172,0.18908461928367598,-0.05619602277874958,0.5236076871540883,22.955321189672723,"array('d', [-25.26190757751465, -23.99624527076325, -22.74599423570116, -21.507127543043378, -20.27641944102063, -19.05136595645194, -17.830079880321517, -16.611183766817753, -15.393709503163512, -14.177007742723978, -12.960668526318779, -11.744453577849777, -10.528240342208376, -9.311977608688283, -8.09565246008465, -6.879271159083241])","array('d', [-41.57732009887695, -39.42690724787728, -37.26559089179367, -35.09670273130501, -32.922583790203, -30.744909237642876, -28.564877888141282, -26.383335537176627, -24.20086300574, -22.01784333780154, -19.83451521270581, -17.651016151431207, -15.467417357224098, -13.283751103155572, -11.100031055891568, -8.916270801441373])","array('d', [-40.695743560791016, -40.84961432216282, -40.974182726819365, -41.07955114491218, -41.17201585176766, -41.25550463012513, -41.33244622982336, -41.40430166508992, -41.471893982019964, -41.53561884760203, -41.59558669342217, -41.65172851024232, -41.703886026127606, -41.751899481978306, -41.79570043683675, -41.83541161048314])","array('d', [0.2524865865707396, 0.1878107552402284, 0.13677516715602994, 0.0971139474863308, 0.0668764333547925, 0.04436157202714611, 0.028079500006070127, 0.01672791422129397, 0.009176498691921229, 0.0044557831371696, 0.0017485812313287566, 0.0003831481576568059, -0.00017228064502371903, -0.00031366301018516537, -0.0003040371777769212, -0.00027510423984375095])","array('d', [0.06885167211294185, 0.05456221901179993, 0.04528884410853106, 0.039133680566328446, 0.034925219959303797, 0.03192824383765963, 0.029672401729553974, 0.027850268412659498, 0.026256763302723203, 0.024753729281303188, 0.023250234510866368, 0.02169297708031869, 0.020063254444896036, 0.018377989669603745, 0.016692685234684805, 0.015104167492065413])","array('d', [0.5365745584156852, 0.5278126048147611, 0.5214034345477393, 0.5168060406603906, 0.5135910345006939, 0.5114135905734961, 0.5099969794256576, 0.5091214186139031, 0.5086156151869787, 0.5083496903443059, 0.5082288463289839, 0.5081874686840878, 0.5081835132556284, 0.5081930937447987, 0.5082052098722137, 0.5082165631840646])",-19.05136595645194,-30.744909237642876,-41.25550463012513,0.04436157202714611,0.03192824383765963,0.5114135905734961,25.000000248956866,-1.0,[],[],[],10000000000.0,0.020310163497924805
20,-38.725685119628906,-23.778873443603516,41.0777587890625,0.17866659164428692,-0.053009852766990766,0.521981076398168,22.95031523368781,"array('d', [-25.050283432006836, -23.78984539289961, -22.544042685759013, -21.308903808246267, -20.081259644242497, -18.858661270848177, -17.63927391023896, -16.421769469725483, -15.205225872258072, -13.989036375974104, -12.77283018362799, -11.556404814500686, -10.339670289847641, -9.12260495482657, -7.905222656331074, -6.68755389871948])","array('d', [-41.171607971191406, -39.01796563486591, -36.85398984463616, -34.68291998771474, -32.50703203539607, -30.327951661551054, -28.146837804774215, -25.9645027978716, -23.781498581583655, -21.598182801999776, -19.414771528143824, -17.23138199525415, -15.048067118229104, -12.864842633472135, -10.681707227623814, -8.498660947615898])","array('d', [-40.751304626464844, -40.90290250449671, -41.02587461073323, -41.13008148952587, -41.22166808121695, -41.30446653299327, -41.380844634386584, -41.45222430874939, -41.51940349716689, -41.5827618284122, -41.64239963616641, -41.69824170993077, -41.750126077000324, -41.79789076035069, -41.84146578041326, -41.880972313602804])","array('d', [0.24212403595447513, 0.1783349548545304, 0.128116582166253, 0.0892124371240587, 0.05967695072981051, 0.03781200345711507, 0.02212974905789091, 0.011329692553196642, 0.00428348132759223, 2.3909408253837252e-05, -0.002263632679147239, -0.00324806392516973, -0.0034581731445456625, -0.003286901952081668, -0.002994337356028735, -0.00270938872735636])","array('d', [0.06777160614728937, 0.05381495997937549, 0.04475393339575514, 0.038736241860619997, 0.034618179264930035, 0.03168170707111513, 0.02946723703056595, 0.02767418272205881, 0.026101872304168848, 0.024615027849263817, 0.02312461163873436, 0.021578558348362226, 0.019958938192038575, 0.018283094169151255, 0.01660665730151122, 0.015026326192034862])","array('d', [0.533905939259801, 0.5255516603773664, 0.5195070988802613, 0.5152385769389617, 0.5123214646134764, 0.5104143116802429, 0.5092430154409913, 0.5085900093962623, 0.5082859778023301, 0.5082028607052372, 0.508247552828001, 0.5083560148042934, 0.5084876604375732, 0.5086199432539241, 0.5087430858165014, 0.5088549002270628])",-18.858661270848177,-30.327951661551054,-41.30446653299327,0.03781200345711507,0.03168170707111513,0.5104143116802429,25.000000248956177,-1.0,[],[],[],10000000000.0,0.02352309226989746
21,-37.9106559753418,-23.35608673095703,41.18114471435547,0.1579317897558211,-0.0459985211491586,0.5188976089146476,22.941500384775786,"array('d', [-24.8391170501709, -23.583400545938368, -22.341548371328653, -21.109640065609025, -19.88456218824429, -18.663921137768725, -17.445935180379394, -16.229326175069627, -15.013218536838453, -13.797048415196384, -12.58048430826565, -11.363359544902954, -10.145616655625597, -8.92726342793306, -7.708340340815648, -6.4889011027902495])","array('d', [-40.765953063964844, -38.60931362643482, -36.44293417335407, -34.26994909964326, -32.09256345179942, -29.9123505821544, -27.730428153146008, -25.54757433536962, -23.3643118513354, -21.180972806185473, -18.997750623789933, -16.814742279065097, -14.631982455979328, -12.449470426163721, -10.267189971397444, -8.085126046675944])","array('d', [-40.806922912597656, -40.95509395229331, -41.07570219929174, -41.178230262518284, -41.26858560180736, -41.350449542223345, -41.42609309679307, -41.49687553039769, -41.56355394388181, -41.62648126278377, -41.68574038896523, -41.74124481014189, -41.792825296232536, -41.840315213810705, -41.883641470192664, -41.922922873094855])","array('d', [0.23161368072032906, 0.16875813426419728, 0.11939345768628515, 0.08127430904319309, 0.05246166456374073, 0.03126159229279515, 0.01618937139900576, 0.005947300982328138, -0.0005901348927786322, -0.004387114655449519, -0.00625501779066492, -0.006859394963919499, -0.006725627696142638, -0.006243320823608608, -0.005669400552442822, -0.005129886222315524])","array('d', [0.0661329552531243, 0.052698396530438535, 0.04397155591545859, 0.03817078780925928, 0.034195591128720275, 0.03135468437676354, 0.029205264462823552, 0.027457414896428348, 0.025917338550192293, 0.02445424530095411, 0.022982058997146476, 0.021450677059330542, 0.01984345570239402, 0.018178541724279122, 0.016512003537845175, 0.01494067991711661])","array('d', [0.5314567844059802, 0.5235135244592543, 0.517835855582778, 0.5138976066754111, 0.5112790784052362, 0.509642356966316, 0.5087161125594652, 0.508285122149521, 0.5081821536474211, 0.50828105036382, 0.5084904624152291, 0.5087479687081876, 0.5090144671656827, 0.5092687636385756, 0.5095023061491365, 0.5097140139809265])",-18.663921137768725,-29.9123505821544,-41.350449542223345,0.03126159229279515,0.03135468437676354,0.509642356966316,25.00000024895555,-1.0,[],[],[],10000000000.0,0.023241519927978516
22,-37.5032844543457,-23.14478302001953,41.230979919433594,0.14756692945957173,-0.04230092465877544,0.5174572030690054,22.93925510431125,"array('d', [-24.414188385009766, -23.166576267847606, -21.931289969480073, -20.704506673305858, -19.48322473212519, -18.26516314709932, -17.04864838062749, -15.832503922854517, -14.615948363007671, -13.398504296904626, -12.179919035101218, -10.96009741624124, -9.739046660557436, -8.516832990438607, -7.293549655684924, -6.069298153819814])","array('d', [-39.94932174682617, -37.78736798249172, -35.61689553021794, -33.440808856077375, -31.261162057799492, -29.07941958399327, -26.896614538285814, -24.713455860872298, -22.53040749526847, -20.347750422456347, -18.165632896540863, -15.984111577793765, -13.803184932900747, -11.622819557037692, -9.442969664210464, -7.2635935833873315])","array('d', [-40.916622161865234, -41.05561025818511, -41.169944085604804, -41.26807499250446, -41.355261102611486, -41.434770299537206, -41.50860741508788, -41.577958550164404, -41.64346713177503, -41.705410951878655, -41.76382306879922, -41.81858391425074, -41.86950242806445, -41.916397633247875, -41.95918696404747, -41.997982693609245])","array('d', [0.21026587486267076, 0.14939241023390665, 0.10182475125502043, 0.06534387016944675, 0.03802730374483003, 0.018192573237579373, 0.004363981753952663, -0.00474808143969157, -0.010261222013035812, -0.013131596988626234, -0.014162437956160807, -0.014011155539097294, -0.013195201315846599, -0.012096680780633612, -0.01096566302848066, -0.009922143120425593])","array('d', [0.06172816455364239, 0.04972065147906756, 0.04190887429858074, 0.03670295794238296, 0.03311988587823762, 0.030541233539067267, 0.02856994414536329, 0.026945191792592388, 0.02549192019046312, 0.024091571986419088, 0.022666156619437654, 0.021170970085741293, 0.019592985602351565, 0.01795274533116213, 0.016307834800731877, 0.014755940387397559])","array('d', [0.5271571437504632, 0.520041881338887, 0.5151017777972847, 0.5118259252673721, 0.5098048124778537, 0.5087079485848109, 0.5082698898168153, 0.5082804082907032, 0.5085767016557753, 0.5090366296117822, 0.5095725093245759, 0.5101252622660003, 0.5106588168278656, 0.5111547104497085, 0.5116068435035693, 0.5120163363275289])",-18.26516314709932,-29.07941958399327,-41.434770299537206,0.018192573237579373,0.030541233539067267,0.5087079485848109,25.00000024895447,-1.0,[],[],[],10000000000.0,0.01758289337158203
23,-37.095985412597656,-22.933475494384766,41.27943420410156,0.1373454779386519,-0.03848880901932724,0.5160461227085926,22.936890250004016,"array('d', [-24.202211380004883, -22.95796412994821, -21.72528346501211, -20.500394665230157, -19.280352219485007, -18.062931874106347, -16.846514521352933, -15.629974573649537, -14.41257757337741, -13.193888995481043, -11.97369505275852, -10.751935729738642, -9.528649928865972, -8.3039324169012, -7.077902178014183, -5.850683942313656])","array('d', [-39.54127502441406, -37.37703520264982, -35.20488759758009, -33.02761793017015, -30.84720341708052, -28.665053673065817, -26.48215959204237, -24.299195770094258, -22.116597120613235, -19.934619456360434, -17.753388847178478, -15.57294218750876, -13.39326020768456, -11.214293511014906, -9.035981843743192, -6.8582704078777175])","array('d', [-40.97087097167969, -41.104384626525025, -41.21499408589407, -41.310531109284305, -41.39586330502406, -41.47400959064818, -41.546814242190436, -41.615358671369165, -41.680217352410445, -41.74162227706107, -41.799575901548714, -41.85393816318588, -41.90450430834715, -41.95108427523743, -41.993589524504166, -42.03212839908186])","array('d', [0.19960919022560103, 0.13976357865130723, 0.09312136049871897, 0.057478150998544385, 0.03092113616584296, 0.01177483418979508, -0.0014307646963641067, -0.009980152360850775, -0.014986016708314814, -0.017399661676541188, -0.018019529187422233, -0.01749837416393447, -0.01634922852713761, -0.014950123886893952, -0.013547505976574415, -0.01225829143894611])","array('d', [0.0590989068150521, 0.047949407404257315, 0.04068837787981209, 0.03584079744150119, 0.03249408284608324, 0.030073525404276928, 0.028209534525161263, 0.026658756474264963, 0.02525739195807645, 0.023894231991440102, 0.022496147186660008, 0.02102169054451795, 0.019460039549412705, 0.017833232480064118, 0.01619985684791457, 0.014658237886498157])","array('d', [0.5253226319935661, 0.5186175735357137, 0.5140422349322785, 0.5110932911552417, 0.5093663733284164, 0.5085347948636711, 0.5083361617705515, 0.5085628460724471, 0.5090543474555081, 0.50969060050596, 0.5103858006516541, 0.5110825645641885, 0.511746341781031, 0.5123600272678879, 0.5129187295239749, 0.5134246462857649])",-18.062931874106347,-28.665053673065817,-41.47400959064818,0.01177483418979508,0.030073525404276928,0.5085347948636711,25.00000024895402,-1.0,[],[],[],10000000000.0,0.02018427848815918
