,current_time,x_pos,y_pos,z_pos,roll,pitch,yaw,vel,x_traj,y_traj,z_traj,roll_traj,pitch_traj,yaw_traj,x_cmd,y_cmd,z_cmd,roll_cmd,pitch_cmd,yaw_cmd,vel_cmd,effector_dmg,effector_x,effector_y,effector_z,cost,time_solution
0,6.510602951049805,-356.9049377441406,83.97900390625,50.065277099609375,0.6326467990875244,0.03715531900525093,-0.8825954635951184,23.075679625618967,"array('d', [87.2857666015625, 85.40096581202717, 83.48102655160905, 81.53622593163428, 79.57461158802232, 77.60259329746862, 75.62476506604587, 73.6442770710497, 71.66322611442776, 69.68292955943016, 67.70413639123626, 65.72719715918451, 63.752201394881475, 61.77908580832226, 59.8077145581232, 58.60122004550867])","array('d', [-359.45281982421875, -357.812512632402, -356.21255172996666, -354.6423817782846, -353.09296733699557, -351.55664117804895, -350.0276990139819, -348.5021422905397, -346.97727932247136, -345.45141353985076, -343.92358384200594, -342.39334634974745, -340.8605948764829, -339.32541932189275, -337.7880012242063, -336.8444681972085])","array('d', [-50.07330322265625, -49.99238280708249, -49.93107647447782, -49.88401580815906, -49.84744007314428, -49.81866538116776, -49.7957444939432, -49.77724463587972, -49.76209950741797, -49.74950875210498, -49.73886862788508, -49.729723723886075, -49.721733170385185, -49.714646975323376, -49.70828946839183, -49.70477174288992])","array('d', [0.6317626237869265, 0.4969020596012778, 0.3748751639850541, 0.26446065321459666, 0.16479112881370822, 0.09236462011393251, 0.04140932999155052, 0.007206405907990642, -0.014218572936907493, -0.02623166128622656, -0.031653378774365096, -0.03279188719045552, -0.03146461911202147, -0.02901465511705597, -0.026323237519972714, -0.02381825242556903])","array('d', [-0.03702132776379576, -0.02787905166282007, -0.02128108752746614, -0.01645029308349555, -0.01287106298580039, -0.010193866548395486, -0.008176752560930665, -0.006648760225027508, -0.005486801018833103, -0.0046006291602738595, -0.003922803480302574, -0.003401826976011977, -0.0029973737805058295, -0.00267693538768502, -0.0024134707354521215, -0.0021837991279424346])","array('d', [-0.8416089256617689, -0.8664392782390413, -0.8846952013682279, -0.897659101034849, -0.9061860551680485, -0.911237604648693, -0.9138499919707667, -0.9147929127804106, -0.9146483157027758, -0.9138506307882661, -0.9127128302748284, -0.911447603213634, -0.9101868912907367, -0.9090007281287723, -0.9079156024486164, -0.9063108398604446])",79.57461158802232,-353.09296733699557,-49.84744007314428,0.16479112881370822,-0.01287106298580039,-0.9061860551680485,25.00000024233332,-1.0,"[-356.22375681906743, 83.19765159713104, 50.01047752315484]","[-337.4803729786446, 78.00910727965936, 45.345226181993326]","[-352.86056197002233, 67.37088759278181, 38.25452322084522]",10000000000.0,0.047831058502197266
1,6.565953969955444,-356.0829772949219,82.84957885742188,50.061466217041016,0.632390797138214,0.03775886818766588,-0.8961047371241708,23.081776183203495,"array('d', [85.82794189453125, 83.91326578600557, 81.96419461248418, 79.99080548705648, 78.00098000668699, 76.00100060094282, 73.99538087620449, 71.98721614078529, 69.97856467629481, 67.9707178932441, 65.96440811333946, 63.95997577277418, 61.95750463186409, 59.95692826383223, 57.95810908407299, 56.73454356044854])","array('d', [-358.3028259277344, -356.6974609828581, -355.133114981744, -353.59903431510077, -352.0860281678501, -350.5862900793591, -349.0939967912939, -347.6050659070275, -346.11675233885114, -344.62732870073603, -343.1358194858715, -341.641777740838, -340.1451013941944, -338.6458884003149, -337.1443299115697, -336.2224929290866])","array('d', [-50.069393157958984, -49.98907754985889, -49.9278888309246, -49.88066603246355, -49.84377687917674, -49.8146163413645, -49.79128469905949, -49.772376885565095, -49.75684188277332, -49.7438869423494, -49.732911312397775, -49.72345990057692, -49.71519070285709, -49.707851882366164, -49.701265647983405, -49.69762032665142])","array('d', [0.6320067048072814, 0.4971229132584229, 0.375075000648949, 0.2646414728941715, 0.16471710866376152, 0.09177623163648062, 0.040489486290344566, 0.006095640184691979, -0.015414636059663017, -0.0274369820699826, -0.032816825037143886, -0.033882724116688884, -0.03246807757866281, -0.029927597517466015, -0.027149938215349924, -0.02456628221591994])","array('d', [-0.03665354475378979, -0.027758597270325907, -0.02130501019661542, -0.016554754549712405, -0.01301667647849643, -0.010356663789114505, -0.008342523875693938, -0.0068094472446859075, -0.005638174726177487, -0.004740794340935977, -0.0040512410423434115, -0.0035187888102716793, -0.0031035091102606404, -0.0027730681071521314, -0.0025004729072264737, -0.002262521955470495])","array('d', [-0.8600017269465587, -0.8848448912571892, -0.9031108724008576, -0.9160830638255054, -0.9246121651566609, -0.9296503585464041, -0.9322329166444813, -0.9331359094278602, -0.9329460218292045, -0.9321011975034715, -0.9309168947354263, -0.9296074148329643, -0.9283055976200201, -0.9270818288041168, -0.9259625725799461, -0.9243077464964848])",78.00098000668699,-352.0860281678501,-49.84377687917674,0.16471710866376152,-0.01301667647849643,-0.9246121651566609,25.000000241969328,-1.0,"[-355.6836496756419, 82.44373854218503, 50.008479668804625]","[-337.00254126619114, 77.12389124780366, 45.24241070593679]","[-352.4948205019011, 66.59150348000149, 38.23826250708758]",10000000000.0,0.05292654037475586
2,6.60754656791687,-355.5428161621094,82.08944702148438,50.05849075317383,0.6315727829933165,0.03785173594951626,-0.9052046974513195,23.087405188611374,"array('d', [84.7221450805664, 82.78576960996628, 80.81552650167946, 78.82135207488139, 76.81100682847972, 74.79067345469093, 72.76480505053992, 70.7364568336488, 68.7076592404241, 66.67968535485421, 64.65325624527793, 62.6287060797355, 60.60611562835354, 58.585417421077565, 56.56647380563328, 55.33036781399602])","array('d', [-357.4588317871094, -355.87975102233884, -354.34219200005117, -352.8352575536105, -351.3496458432433, -349.87745723930334, -348.41278190097995, -346.9514741866295, -345.4907481148834, -344.0288519940111, -342.5647980994641, -341.09813565604264, -339.6287641511584, -338.15678610624, -336.6823985045025, -335.77701385134066])","array('d', [-50.06689453125, -49.98574291007397, -49.923654672285714, -49.87554255581875, -49.83781351776378, -49.807880990486964, -49.783851354344925, -49.764318510502385, -49.74822656148264, -49.7347760898999, -49.72335914976309, -49.71351368136754, -49.704891362291306, -49.697234900161035, -49.69036199797101, -49.686557185265684])","array('d', [0.6324534416198728, 0.4975271374768834, 0.3754407578752745, 0.26497242372972923, 0.16501654779348576, 0.09167351076595434, 0.040119579407096415, 0.0055621413748482475, -0.016033649590980616, -0.02808489978069183, -0.03345505215248981, -0.03448741538146255, -0.03302695450366606, -0.030436843887117274, -0.027611177913007143, -0.024983629190778706])","array('d', [-0.03696536272764203, -0.028115191855092866, -0.021668141547082034, -0.01690344869567733, -0.013340382408076596, -0.010651081490979574, -0.008607025544056804, -0.007045459988726456, -0.005848162089229182, -0.004927623782907675, -0.004217801432602957, -0.0036677693030105285, -0.0032372810278793194, -0.0028936309986447224, -0.002609438559132786, -0.0023611181634362872])","array('d', [-0.8736306866023202, -0.8984973098604765, -0.9167817051467504, -0.9297690755462963, -0.9383111356489394, -0.9433531456713026, -0.9459263068853362, -0.9468115111648379, -0.9465989817506764, -0.945729278553515, -0.9445197212689471, -0.9431858386361425, -0.9418611816389071, -0.9406164517325576, -0.9394781545029747, -0.9377954836147263])",76.81100682847972,-351.3496458432433,-49.83781351776378,0.16501654779348576,-0.013340382408076596,-0.9383111356489394,25.000000241673483,-1.0,"[-355.14666039681947, 81.67906431531364, 50.004841372308]","[-336.53157385277353, 76.22334572458445, 45.135171196982704]","[-352.13843441421676, 65.79769407427149, 38.226358630267974]",10000000000.0,0.03932642936706543
3,6.659151315689087,-355.2755126953125,81.70777893066406,50.057064056396484,0.6300460696220397,0.03769734129309647,-0.9095420082423349,23.09238624358802,"array('d', [83.97900390625, 82.0285552598217, 80.04459734691908, 78.03697089615879, 76.01335478991797, 73.97986460500015, 71.94091199461212, 69.89952455660267, 67.85771357952966, 65.81673955249848, 63.777315807835315, 61.7397721992876, 59.70418743221768, 57.670493308210524, 55.63855211682351, 54.394338507855345])","array('d', [-356.9049377441406, -355.3433003237971, -353.8235027426838, -352.3345558196363, -350.86708660556417, -349.41313581298226, -347.96673813283, -346.52370747891956, -345.0812318232257, -343.63754411023757, -342.1916490314479, -340.74309362449907, -339.2917786399944, -337.8378097818368, -336.3813880098766, -335.48688218718155])","array('d', [-50.065277099609375, -49.98360503535634, -49.92094067427526, -49.87224961390149, -49.833967763987296, -49.80352295546971, -49.77902718432032, -49.759074798598675, -49.742607468960415, -49.72882191672109, -49.71710580793367, -49.706992714530415, -49.69813028012126, -49.690257679442524, -49.68318965852965, -49.679276255534376])","array('d', [0.6326467990875244, 0.4977020945631614, 0.3755990656047884, 0.2651156664886104, 0.16514615522088408, 0.09155349595244355, 0.039834991070053484, 0.005178265155439355, -0.016467643493680312, -0.028533424971089936, -0.03389393365675376, -0.03490182254895632, -0.03340938118252847, -0.030785136304306696, -0.0279266147694195, -0.025269048287296595])","array('d', [-0.03715531900525093, -0.028341209027161963, -0.021903019284044287, -0.017131920315005166, -0.013554452006417972, -0.010847166998715583, -0.008784181513864113, -0.007204254366426818, -0.005989962111585062, -0.005054147128788011, -0.00433084052376919, -0.003769028442314886, -0.003328286385711012, -0.002975686614545897, -0.0026836100523716555, -0.002428231311887714])","array('d', [-0.8825954635951184, -0.9074722443643171, -0.9257646117621677, -0.938758553049171, -0.9473062226236743, -0.9523483568148519, -0.9549134934961728, -0.9557855426083716, -0.9555569490050579, -0.9546699171122789, -0.9534429352539193, -0.9520922995323411, -0.9507520010936155, -0.9494929310426639, -0.948341611096622, -0.9466398998897394])",76.01335478991797,-350.86708660556417,-49.833967763987296,0.16514615522088408,-0.013554452006417972,-0.9473062226236743,25.000000241465067,-1.0,"[-354.6171927718099, 80.91046475600413, 50.00172670633403]","[-336.0691327307896, 75.31371570095486, 45.037266138506894]","[-351.78889627052615, 64.99415814826419, 38.22582237294036]",10000000000.0,0.03658771514892578
4,6.742410898208618,-353.96624755859375,79.78251647949219,50.053382873535156,0.5852026939392089,0.034471251070499365,-0.9298781593653819,23.131342009702234,"array('d', [82.84957885742188, 80.87826165148155, 78.8740110316176, 76.84651630097491, 74.80332854349355, 72.75045866063513, 70.69225236414383, 68.63169291708557, 66.57076075642598, 64.51069586276873, 62.45219870520621, 60.39559166004687, 58.340949509188775, 56.288202261468776, 54.23721150673877, 52.98110726759592])","array('d', [-356.0829772949219, -354.5478469662703, -353.0549726130123, -351.5932396273772, -350.15317703752584, -348.72674250723213, -347.30789279541995, -345.89238525904824, -344.4773720277423, -343.0610656097778, -341.6424614676408, -340.2211051471787, -338.7969008034275, -337.3699602072895, -335.9404914107689, -335.06230078018876])","array('d', [-50.061466217041016, -49.97830833542939, -49.91422971938247, -49.86423577979271, -49.8247777440906, -49.79328457109384, -49.7678614655074, -49.747091935366655, -49.72990517187224, -49.715485259092226, -49.703207946414494, -49.69259609788673, -49.68328809814394, -49.67501539921175, -49.6675865594779, -49.66347247725939])","array('d', [0.632390797138214, 0.49747045439751447, 0.37538946889224506, 0.26492601550782274, 0.16497454874300693, 0.09105734589381263, 0.03913249763551757, 0.004360272752253146, -0.01733291302244912, -0.02939698459239026, -0.034723020912065604, -0.03567696944027842, -0.03412151998486685, -0.03143276326703589, -0.028513028325363624, -0.025799657263150855])","array('d', [-0.03775886818766588, -0.02892725684109158, -0.02244940384175436, -0.017628868687750942, -0.013999433920296234, -0.011241781795332131, -0.00913224805545243, -0.007510620840387106, -0.006259765784872315, -0.005292366889991635, -0.0045420398225824755, -0.00395722048960653, -0.0034968759733572247, -0.00312745786505747, -0.00282073933183665, -0.002552311026181248])","array('d', [-0.8961047371241708, -0.9209680700381856, -0.9392498827657882, -0.9522351244522246, -0.9607753670782797, -0.9658040906232658, -0.9683455418131607, -0.9691877045103257, -0.9689260672051205, -0.9680050978298792, -0.966744884135612, -0.9653627528603017, -0.9639932597053823, -0.9627075040820277, -0.9615319709778315, -0.9597948088362113])",74.80332854349355,-350.15317703752584,-49.8247777440906,0.16497454874300693,-0.013999433920296234,-0.9607753670782797,25.000000241128923,-1.0,"[-353.3234670151275, 78.9718647868267, 50.00029121306173]","[-334.93183595519906, 72.8796667951878, 45.037123818529565]","[-350.9048114863119, 62.635872271824724, 38.71820567967167]",10000000000.0,0.0735170841217041
5,6.839662551879883,-352.94305419921875,78.21261596679688,50.05775833129883,0.5017536282539367,0.027760302647948213,-0.9466711719844004,23.170549239917804,"array('d', [81.70777893066406, 79.71610930694281, 77.69223946553853, 75.64566738374879, 73.58379243706325, 71.51250564030714, 69.43607528037994, 67.35743192867574, 65.27851886319732, 63.20055041358471, 61.12420976392421, 59.04980788730181, 56.97741209769806, 54.906947387661596, 52.83827171001928, 51.571132742720295])","array('d', [-355.2755126953125, -353.76688120231233, -352.3007265364367, -350.8658403888172, -349.452677541335, -348.0531315307, -346.66109733892836, -345.2722888806453, -343.8838332221932, -342.49393154807706, -341.10157789859267, -339.70632306299893, -338.30808044745226, -336.9069730063711, -335.5032204073243, -334.6405636443271])","array('d', [-50.057064056396484, -49.97388035310175, -49.909505001998376, -49.8590735743723, -49.81911681566052, -49.787111317970115, -49.76118973946267, -49.739950303818766, -49.72232898928614, -49.70751186920871, -49.694873915895506, -49.683935753289354, -49.67433288243542, -49.66579372795555, -49.65812396903064, -49.653875544016465])","array('d', [0.6300460696220397, 0.49534885701227216, 0.3734697680149115, 0.2631889981526648, 0.16340282862998587, 0.0893267316372898, 0.03733416315246331, 0.002564795238890396, -0.019073333834478127, -0.031046457530877234, -0.036259674836795715, -0.03709045473211864, -0.03541041768900166, -0.03260200579282609, -0.02957138575837551, -0.026757298756857433])","array('d', [-0.03769734129309647, -0.029007087546830353, -0.02260576122818574, -0.017821959303843504, -0.014205161333616375, -0.01144597295701122, -0.009327013602145249, -0.007692016078262389, -0.006426268284846644, -0.005443885644030657, -0.004679275443989781, -0.004081258722018592, -0.0036089361393427132, -0.0032287430921642698, -0.002912351701162958, -0.0026352053333328746])","array('d', [-0.9095420082423349, -0.9342823668797499, -0.9524676108170762, -0.9653732265144174, -0.9738454734998526, -0.9788082815587498, -0.98128017568219, -0.9820517917400937, -0.9817207914913159, -0.9807333022089902, -0.9794105459269905, -0.977970498447525, -0.9765479581937903, -0.9752139592160811, -0.9739947161285306, -0.9721933474644668])",73.58379243706325,-349.452677541335,-49.81911681566052,0.16340282862998587,-0.014205161333616375,-0.9738454734998526,25.00000024076645,-1.0,"[-352.0668105664944, 76.99587293144994, 50.0161232253819]","[-333.83720038626586, 70.04017202695658, 45.62299932499629]","[-350.0604408575584, 59.5763835705704, 40.3965665309563]",10000000000.0,0.07950448989868164
6,6.879323482513428,-352.1929931640625,77.0259017944336,50.072513580322266,0.42226666212081915,0.021091753616929002,-0.959949656328883,23.196919450263728,"array('d', [80.16983795166016, 78.15484001293657, 76.1103238277785, 74.04513819299379, 71.96624586361787, 69.87923297668367, 67.78816183584846, 65.69581686531205, 63.604030274893, 61.51392737575436, 59.42611702561567, 57.340846238604605, 55.25812608916767, 53.177831358882486, 51.09977470185743, 49.827030321504076])","array('d', [-354.2245788574219, -352.7469964325251, -351.30962912228625, -349.9015820727552, -348.5135265968843, -347.1375129622115, -345.7675529770965, -344.39946381449005, -343.03047328446144, -341.65888274447747, -340.2837847398215, -338.9048249630989, -337.5220063832417, -336.1355350130227, -334.7457065292122, -333.8909526998145])","array('d', [-50.053749084472656, -49.974918839512625, -49.913625356006754, -49.86540417115939, -49.827052482297916, -49.79622750548338, -49.7711861944146, -49.75061341022734, -49.73350617751185, -49.719093966759836, -49.706782789500075, -49.696115500731636, -49.68674341131032, -49.67840593719763, -49.670916003831415, -49.666766443752316])","array('d', [0.600063443183899, 0.4682194522658846, 0.3489220652512346, 0.24097731615634826, 0.14330486549029672, 0.07097039902847053, 0.020557227123072733, -0.012751095424763556, -0.03302895160084598, -0.04373701764239035, -0.047779225351567325, -0.04753241777464779, -0.04486646969162939, -0.0411604724812418, -0.03731569036658311, -0.03376463597747444])","array('d', [-0.03564612939953792, -0.027563527736792465, -0.02157612783042053, -0.01707827792823882, -0.013661293509925565, -0.011042998048599716, -0.009024068799191088, -0.007460430441034825, -0.006245726930733814, -0.0052998843968314665, -0.004561416468681889, -0.003982104561534148, -0.0035232393251298454, -0.0031529298151005774, -0.002844176452305245, -0.0025735178116449505])","array('d', [-0.9258906086299081, -0.9490883516378094, -0.966054377280965, -0.9779500655092305, -0.9855570129696345, -0.9897551750072792, -0.9915360498798006, -0.9916783191249023, -0.9907732863199021, -0.989262873523516, -0.9874647423713045, -0.9855933919679896, -0.9837801082724869, -0.9820924312573875, -0.9805531967053525, -0.9782800411426875])",71.96624586361787,-348.5135265968843,-49.827052482297916,0.14330486549029672,-0.013661293509925565,-0.9855570129696345,25.00000024030231,-1.0,"[-351.4000547516952, 75.9076243924852, 50.03833845650371]","[-333.26806488279067, 68.40784525833136, 46.1673881425815]","[-349.6334596921777, 57.81304013293462, 41.70376214035467]",10000000000.0,0.03531312942504883
7,6.912658929824829,-351.6998596191406,76.23113250732422,50.090152740478516,0.3668006062507629,0.016702594235539374,-0.9685315330836434,23.210360196422606,"array('d', [78.99946594238281, 76.9682744324028, 74.91135044783472, 72.83668491918013, 70.7506832558364, 68.65855635002116, 66.56410902041138, 64.46993837593475, 62.37772826177073, 60.28847784701969, 58.202683829574184, 56.120491113376055, 54.04181690606158, 51.96644954012227, 49.89412220779342, 48.62544809630052])","array('d', [-353.4512939453125, -351.9955536070019, -350.5756964628057, -349.18146805834414, -347.8040023072329, -346.4357019620167, -345.070860890009, -343.70553616900537, -342.3371716064597, -340.964268133577, -339.58610312514884, -338.20249222692087, -336.8135933003536, -335.4197525316849, -334.0213919246144, -333.1605482754141])","array('d', [-50.0539665222168, -49.98447272500695, -49.930282827435924, -49.88754977017463, -49.85349758799681, -49.82608541312658, -49.803788157175994, -49.78545081918077, -49.77018978734646, -49.75732448571116, -49.746329182408665, -49.73679859543214, -49.728423182314934, -49.720971351123886, -49.714276654447275, -49.71056754539357])","array('d', [0.547838807106018, 0.4209646431259868, 0.30616414189556185, 0.20228834369974705, 0.10829763310879405, 0.039307509714626904, -0.00814507414842873, -0.038781355138830846, -0.0566275050279404, -0.06511820144167907, -0.06714063954734707, -0.06505787877415231, -0.060726394406210256, -0.05551163633994501, -0.05030120962378111, -0.04551442075789245])","array('d', [-0.03137920424342156, -0.024340529760080568, -0.019102218697005055, -0.015151814712814455, -0.012141009755946695, -0.009827763846732139, -0.008040101399299478, -0.006653040523736917, -0.00557386406292125, -0.0047324591917763306, -0.004074783232413408, -0.0035583204614458245, -0.003148853283576926, -0.00281813747568473, -0.0025422289565612166, -0.0023003043947059766])","array('d', [-0.9381071766230722, -0.9587386178026169, -0.9736444504211333, -0.9838144633461047, -0.9899307647001786, -0.9928105056898189, -0.9934065422666374, -0.9924755715021785, -0.9905963239695782, -0.9882019146459328, -0.9856025412259867, -0.9830057059956482, -0.9805359790003227, -0.9782545249309662, -0.9761782431425594, -0.9731130598365917])",70.7506832558364,-347.8040023072329,-49.85349758799681,0.10829763310879405,-0.012141009755946695,-0.9899307647001786,25.00000023995082,-1.0,"[-351.09103071580194, 75.39650669019055, 50.05220016547554]","[-333.0058601157134, 67.6501694709974, 46.45763982348163]","[-349.436836993902, 57.008157164703135, 42.36245082892799]",10000000000.0,0.03377532958984375
8,6.945435047149658,-351.4550476074219,75.8329086303711,50.101566314697266,0.33935222029685963,0.014582122676074418,-0.9726022919032233,23.21645435313549,"array('d', [78.21261596679688, 76.17046239349764, 74.10564749118932, 72.02551368679983, 69.93604158604724, 67.84215556449904, 65.7474628626435, 63.65441401899906, 61.56457338373385, 59.47883542531052, 57.397601288403784, 55.320927130460575, 53.2486474174341, 51.180473560114066, 49.116067626632294, 47.852798789925025])","array('d', [-352.94305419921875, -351.5023529621988, -350.0937637326057, -348.7075626158924, -347.335275853016, -345.9696109414372, -344.6051089757378, -343.23804051521887, -341.8660433808866, -340.48779825244753, -339.1027487492162, -337.71086284683344, -336.3124366345725, -334.9079408489872, -333.49790931637983, -332.6291874924634])","array('d', [-50.05775833129883, -49.996216854378105, -49.94813160485861, -49.910151359785836, -49.8798469926583, -49.85542579966508, -49.83554386847502, -49.81918076185119, -49.805554203277616, -49.79406071311643, -49.7842335655399, -49.77571265536701, -49.76822276512246, -49.76155786475986, -49.75556977326163, -49.75225214707759])","array('d', [0.5017536282539367, 0.37926504511234926, 0.26843278188545777, 0.16814759425014839, 0.07740580327647172, 0.011341049047607295, -0.03350702709050343, -0.06178456343758742, -0.0774803749535734, -0.08400912473401764, -0.08424468034953599, -0.08053841880530761, -0.07473491107456666, -0.06818723294934671, -0.061770567488204635, -0.05589232585413601])","array('d', [-0.027760302647948213, -0.021581013754576515, -0.016966570199876765, -0.013477022567327595, -0.010811537465059475, -0.008759955387350592, -0.007172244931280445, -0.005938909044810509, -0.004978415064068954, -0.004228912777148972, -0.0036426063307343163, -0.0031818218090829222, -0.0028161986546924784, -0.0025206581332793145, -0.00227393545600994, -0.0020575423746165286])","array('d', [-0.9466711719844004, -0.9651485032164091, -0.9782947945565392, -0.986972460740472, -0.9917878125007944, -0.9935091415590197, -0.9930594732623785, -0.9911790343674256, -0.9884370126196996, -0.9852595226602072, -0.9819504955056094, -0.9787113330948989, -0.975660637122891, -0.972853865544944, -0.9703025990807069, -0.9665369964307348])",69.93604158604724,-347.335275853016,-49.8798469926583,0.07740580327647172,-0.010811537465059475,-0.9917878125007944,25.000000239695606,-1.0,"[-350.85021279083264, 74.99522287145149, 50.065100014017425]","[-332.7999387175534, 67.0680160274753, 46.696569543275]","[-349.2787338625232, 56.392783688406155, 42.890163748169535]",10000000000.0,0.030272245407104492
9,7.010258913040161,-350.47857666015625,74.22942352294922,50.168643951416016,0.23777656257152555,0.007919142022728858,-0.9873248775813243,23.238959991234342,"array('d', [77.81785583496094, 75.77024475813468, 73.70159101878907, 71.61891224785016, 69.52797446133007, 67.43355674367876, 65.33916603256655, 63.2471774251453, 61.159092495818456, 59.07574963034988, 56.9974979890828, 54.92434490768745, 52.856078992623786, 50.79236881529141, 48.73283671245811, 47.472871722784085])","array('d', [-352.6915283203125, -351.25839810175336, -349.85533220872634, -348.4728825805991, -347.102782744026, -345.73790323851006, -344.37291835226, -343.0042152795142, -341.62953908748034, -340.2476704442961, -338.85814568069645, -337.4610177392525, -336.0566597207458, -334.64561162734555, -333.2284693484999, -332.3549955194603])","array('d', [-50.06130599975586, -50.00429740823099, -49.95970432593259, -49.92444983795464, -49.89629834348864, -49.87359668399472, -49.855103537814166, -49.83987513690088, -49.82718725244936, -49.81648076924794, -49.80732304344283, -49.79938014111158, -49.79239677152949, -49.78618176052898, -49.780597538619546, -49.77750366762722])","array('d', [0.4763332307338714, 0.35626371617429115, 0.24762031691613873, 0.14931569548445686, 0.06036599524292186, -0.004107375442945525, -0.04752983144342235, -0.0745105047210912, -0.08902046936895697, -0.0944652165030319, -0.09371242779625996, -0.08910770596598377, -0.08248939204236296, -0.075203866686269, -0.06811948059020408, -0.06163706051284148])","array('d', [-0.025701340287923827, -0.02000458129454007, -0.015742896739646146, -0.012515480258388197, -0.010047369820242886, -0.008145929759599135, -0.006673289881403679, -0.005528602409666143, -0.004636628863973619, -0.003940201764560042, -0.003395088856750927, -0.0029663951555428517, -0.0026259864496959886, -0.0023506210911425247, -0.0021205973886502492, -0.0019187963412153769])","array('d', [-0.9510003765437265, -0.9683280756242025, -0.9805242415358834, -0.988389191716698, -0.9924916176892313, -0.9935749684329546, -0.9925472393762664, -0.9901408212853361, -0.9869203361671028, -0.9833084066675835, -0.9796056761424063, -0.9760102344402872, -0.9726373834615153, -0.9695393998863833, -0.9667248911154575, -0.9625711618033401])",69.52797446133007,-347.102782744026,-49.89629834348864,0.06036599524292186,-0.010047369820242886,-0.9924916176892313,25.000000239561867,-1.0,"[-349.67192775480265, 73.01095105759228, 50.155011686039835]","[-331.7822794955119, 64.3598756990896, 47.892406925954106]","[-348.4699058066338, 53.62032503630037, 45.40540478246167]",10000000000.0,0.06128835678100586
10,7.0986104011535645,-349.5120849609375,72.62474822998047,50.25632095336914,0.15454193949699396,0.00515292258933181,-0.998700543245997,23.251181976173026,"array('d', [76.23113250732422, 74.16178065882926, 72.07789494875539, 69.98530704439435, 67.88898564492949, 65.79316529416778, 63.700978293857474, 61.6145105423224, 59.53501316384468, 57.46309271770936, 55.39887770460406, 53.3421644872094, 51.29254123384659, 49.249487954658726, 47.212451335361905, 45.96770843617743])","array('d', [-351.6998596191406, -350.2976080219291, -348.91683893586327, -347.54916919796193, -346.18715437137735, -344.8243247222887, -343.4558977876951, -342.0787504270041, -340.69108991522137, -339.29213442053674, -337.8818288897301, -336.4606015674226, -335.02916541202774, -333.5883652976771, -332.1390693442141, -331.24421116540015])","array('d', [-50.090152740478516, -50.05298961338506, -50.02372886885612, -50.00045461472039, -49.981761142505135, -49.966600563001315, -49.95418090860359, -49.94389699147337, -49.93528264683341, -49.92797703259509, -49.921700426068426, -49.91623663359081, -49.91142012410188, -49.90712659652344, -49.90326605647885, -49.901126963617486])","array('d', [0.3668006062507629, 0.2571544900787171, 0.15794257255953958, 0.06817190948546943, -0.013055946044911029, -0.0709035911509408, -0.10830670503663595, -0.12975339683373585, -0.13916482507956973, -0.13992526169184358, -0.13488787409755978, -0.12638095069806296, -0.11622031810448737, -0.10572568481081082, -0.09573680843313478, -0.08662625439393334])","array('d', [-0.016702594235539374, -0.013089295493041168, -0.010365283614628327, -0.008289027925114389, -0.0066925235327813335, -0.005456632197216643, -0.004495171558106239, -0.003744508027750038, -0.003156785734863899, -0.0026954106274865498, -0.002331943211171451, -0.002043899371562028, -0.001813159774665321, -0.0016248060692593874, -0.001466271845267453, -0.0013267380528828353])","array('d', [-0.9685315330836434, -0.9811612691090655, -0.9893976734275672, -0.9938263246957971, -0.9948819652065478, -0.9932142807175482, -0.9896759768112542, -0.9849757501329074, -0.9796643697822801, -0.9741525464638859, -0.9687281894397406, -0.9635755357971884, -0.9587955486074056, -0.9544264407475526, -0.9504635924286389, -0.9446174241286714])",67.88898564492949,-346.18715437137735,-49.981761142505135,-0.013055946044911029,-0.0066925235327813335,-0.9948819652065478,25.00000023897435,-1.0,"[-349.41372229436445, 72.57392673732616, 50.178747435092426]","[-331.55345776056373, 63.8081244340502, 48.136283050447524]","[-348.277423691267, 53.06842976773729, 45.90739946823719]",10000000000.0,0.07982754707336426
11,7.147504091262817,-349.0306396484375,71.82290649414062,50.305458068847656,0.1195873543620109,0.004995335824787543,-1.0035790642115732,23.25811587865968,"array('d', [74.22942352294922, 72.1375026996823, 70.03794725168684, 67.93555489884807, 65.8345800406983, 63.73876486172522, 61.65091098792432, 59.57283336525862, 57.50552564166877, 55.449337510450896, 53.40414019392817, 51.369476152173846, 49.34468777328153, 47.32902135896283, 45.32170455258927, 44.096999100167835])","array('d', [-350.47857666015625, -349.10981124972744, -347.75273619788123, -346.4000317868538, -345.04511167595945, -343.68221696603666, -342.30715381762934, -340.9173582462666, -339.5115905995684, -338.0896059228853, -336.6518560837236, -335.19923586237644, -333.73287934149283, -332.25400688308315, -330.76381943206707, -329.84194820762195])","array('d', [-50.168643951416016, -50.15085409563778, -50.13653766629186, -50.12488352167433, -50.11529101101788, -50.10730919417707, -50.100595471285445, -50.09488710108283, -50.08998128018966, -50.0857208933026, -50.081984100693234, -50.078676593419225, -50.07572574652081, -50.07307614414514, -50.070686102525826, -50.06936095386079])","array('d', [0.23777656257152555, 0.14040869696141398, 0.05230660098041005, -0.0274114789699411, -0.09954338281599781, -0.15010757358280002, -0.1807046295444313, -0.19575998199823175, -0.19919414782000613, -0.19440780311749456, -0.18426496357312738, -0.1710911280772581, -0.15668577691045654, -0.14234239267350232, -0.12886914146997078, -0.11660563178694408])","array('d', [-0.007919142022728858, -0.006339220301700583, -0.0051340903278115375, -0.0042047624215641325, -0.0034813332674619745, -0.002913601967556768, -0.0024648685627150714, -0.0021077883578515546, -0.0018216443048531686, -0.0015905224040804506, -0.0014020567559732094, -0.001246544075286819, -0.0011163065933807008, -0.0010052286886998428, -0.00090841985123135, -0.0008219726496885961])","array('d', [-0.9873248775813243, -0.9948077425940766, -0.9985739465628711, -0.9990365775999589, -0.9965175759138887, -0.9915759433691022, -0.9850147398399323, -0.9775347616102145, -0.9696822583767234, -0.9618601335690071, -0.9543438777784015, -0.9473018296338039, -0.9408173719429829, -0.9349110244788866, -0.9295614046678455, -0.9216734934197065])",65.8345800406983,-345.04511167595945,-50.11529101101788,-0.09954338281599781,-0.0034813332674619745,-0.9965175759138887,25.000000238224146,-1.0,"[-348.4623080406882, 70.96062971444996, 50.27309201910972]","[-330.7002750774139, 61.86556804272014, 48.93516892752737]","[-347.54214743943515, 51.168138118145315, 47.550853807984275]",10000000000.0,0.03412771224975586
12,7.188928127288818,-348.3105163574219,70.62763977050781,50.38346862792969,0.07596816122531887,0.006415630225092106,-1.0108255585047858,23.261510478222196,"array('d', [73.8282241821289, 71.732765420322, 69.63081431195042, 67.5270209323243, 65.42553630045532, 63.33003144104595, 61.24326184791785, 59.16700246629634, 57.102205633357435, 55.049177343841194, 53.00774346684505, 50.97740079249698, 48.95744701430342, 46.947085694541926, 44.94550430923995, 43.72464891309731])","array('d', [-350.2362976074219, -348.87292527812747, -347.5195460473468, -346.1690110964877, -344.8148758354068, -343.451500976999, -342.0747915705973, -340.68228079427314, -339.27282791106535, -337.8462853393746, -336.40319733651694, -334.9445436709174, -333.471534871143, -331.98545911442943, -330.48757711318746, -329.56065136827203])","array('d', [-50.18912887573242, -50.1735305304874, -50.160884041321225, -50.15050725963894, -50.14189456574883, -50.13466613948223, -50.128533327059685, -50.12327474787423, -50.11871955766366, -50.11473545045859, -50.11121985656354, -50.108093350899026, -50.105294623445154, -50.10277657048289, -50.100503195735286, -50.09924250132946])","array('d', [0.21518500149250025, 0.11996700531371407, 0.03381019181290986, -0.04414772360727526, -0.11468696497780982, -0.16403691337252155, -0.1934758874577332, -0.2074272462837409, -0.20981817500548156, -0.20405715076939782, -0.1930134335481728, -0.17901413186788748, -0.1638570628863961, -0.14883171830219682, -0.13474096724990883, -0.12191867994588146])","array('d', [-0.006921015679836222, -0.005580111256375233, -0.004554237196001996, -0.0037604540100602646, -0.0031400641153725758, -0.0026508460889987217, -0.002261897196534289, -0.0019501694707212919, -0.0016981882384850184, -0.0014925296456635428, -0.0013227781676694813, -0.001180795548428436, -0.0010601986605412827, -0.0009559825665733566, -0.0008642477903432613, -0.0007820041125840225])","array('d', [-0.9903506477687021, -0.9969617130672768, -0.9999583055305147, -0.999729860961726, -0.996582411818213, -0.9910605542611101, -0.9839599921468981, -0.9759823110779945, -0.9676742633893597, -0.9594380424172148, -0.9515471969112049, -0.9441672666108272, -0.9373784209540243, -0.9311979069825428, -0.9256012365542116, -0.9173499030918766])",65.42553630045532,-344.8148758354068,-50.14189456574883,-0.11468696497780982,-0.0031400641153725758,-0.996582411818213,25.000000238086127,-1.0,"[-348.2247189441757, 70.55782322660279, 50.29796509627307]","[-330.48485978290284, 61.39912016296905, 49.10819405511038]","[-347.35263668340724, 50.72007079942234, 47.90985890760623]",10000000000.0,0.0312957763671875
13,7.248835802078247,-347.83062744140625,69.83316040039062,50.43645095825195,0.05221070349216458,0.007739147637039363,-1.0149161060664316,23.263875683012404,"array('d', [72.62474822998047, 70.51954790289334, 68.41085507273549, 66.3029600005511, 64.19975979557117, 62.10475103223672, 60.02058003213744, 57.94892393892094, 55.89062886886828, 53.84588481364719, 51.81439508672015, 49.79553191024522, 47.78847050505565, 45.79229707060731, 43.806088688673725, 42.59556662530253])","array('d', [-349.5120849609375, -348.1637592369262, -346.820882740435, -345.4767446247174, -344.12526891890457, -342.76113000225195, -341.3804906633592, -339.9811429473185, -338.56221486247676, -337.12382600088443, -335.6667751441849, -334.1922763425643, -332.7017505787747, -331.19667227114786, -329.67846578215074, -328.7381676835933])","array('d', [-50.25632095336914, -50.244569181599346, -50.23478540158611, -50.2265333105876, -50.21948910356385, -50.213409449817654, -50.2081094650201, -50.20344745502831, -50.199314211738496, -50.19562530325703, -50.19231534207903, -50.18933357909316, -50.18664039748619, -50.18420442329115, -50.18200006293173, -50.180777043198695])","array('d', [0.15454193949699396, 0.06509488870447813, -0.015840157004861147, -0.08907322112998767, -0.15533724080403527, -0.20153913020814865, -0.2279329491186691, -0.2389509088575969, -0.23854963952127808, -0.230167259500308, -0.2166932051217529, -0.2004628776158565, -0.18327202127582984, -0.1664007158747558, -0.1506382018319065, -0.1363030939413731])","array('d', [-0.00515292258933181, -0.004263369192455621, -0.0035751556494450667, -0.003035531165526361, -0.0026069908063536145, -0.0022624840217061355, -0.001982182946311949, -0.0017512791176457457, -0.0015585323939860435, -0.0013953181761990976, -0.001254992430642893, -0.0011324625461586657, -0.0010238942734903688, -0.0009265099405451097, -0.0008384476199490459, -0.0007586591509393155])","array('d', [-0.998700543245997, -1.0030005286782353, -1.0039411257812174, -1.001855871018707, -0.9970127077655535, -0.9899186004275508, -0.9813508357677423, -0.9720165588295037, -0.9624659746378436, -0.9531004437420031, -0.9441886707545706, -0.9358886350476646, -0.9282716314593549, -0.921345806802328, -0.9150780292026666, -0.9058400897318958])",64.19975979557117,-344.12526891890457,-50.21948910356385,-0.15533724080403527,-0.0026069908063536145,-0.9970127077655535,25.000000237674204,-1.0,"[-347.0391143516662, 68.55904413056011, 50.42484235267896]","[-329.405399977559, 59.14326797177329, 49.79613200599649]","[-346.39361690863257, 48.596964037893116, 49.376657528811826]",10000000000.0,0.056099653244018555
14,7.339577674865723,-346.6288146972656,67.84709930419922,50.56529235839844,-0.002292028162628431,0.011951889842748576,-1.0225571831080578,23.277525918639217,"array('d', [71.82290649414062, 69.71205056009813, 67.59939172069924, 65.48903565075958, 63.38474829081497, 61.28993667487196, 59.20719425426087, 57.13814839380955, 55.083587118267886, 53.04363428089073, 51.01792177235941, 49.005748412432474, 47.006216872964224, 45.01834367503829, 43.04114031049154, 41.83667184323429])","array('d', [-349.0306396484375, -347.69118086311937, -346.35455146249353, -345.014281662094, -343.66450184397775, -342.3000635672974, -340.9172738111162, -339.51407319579437, -338.0897474376535, -336.6445745736739, -335.1795049093073, -333.69589197376683, -332.19528178142303, -330.6792590385385, -329.149344650939, -328.2013386563572])","array('d', [-50.305458068847656, -50.293995888719564, -50.28432585731208, -50.27606168994006, -50.26891635022059, -50.26267395220074, -50.25717035321789, -50.25227968987862, -50.247904930154036, -50.243971053119985, -50.24041993691859, -50.23720636415518, -50.23429476136359, -50.23165642187773, -50.22926705029708, -50.2279411650115])","array('d', [0.1195873543620109, 0.03346666927608514, -0.04445855600628007, -0.1149682217532207, -0.17876800889275446, -0.2232312542647853, -0.24791318519154884, -0.25726079079714, -0.25525557049388276, -0.2453587195007468, -0.23047550034884456, -0.21294881183325987, -0.19457482479350766, -0.17662906482269977, -0.15989330445119276, -0.14467745785729844])","array('d', [-0.004995335824787543, -0.004187910035650335, -0.003558632044505467, -0.003061015139951185, -0.0026619220689853684, -0.002337414936027587, -0.0020699299601994437, -0.0018463332170833876, -0.0016566407690940788, -0.001493188834989258, -0.0013500921947887112, -0.0012228887100027403, -0.0011083055068661432, -0.001004104733882794, -0.0009089796856084366, -0.0008224792088549016])","array('d', [-1.0035790642115732, -1.0065613870504262, -1.0063201078384372, -1.003160972835019, -0.9973327085957545, -0.9893209856151794, -0.9798932034025101, -0.9697620404649391, -0.9594811170309715, -0.9494520243078853, -0.9399408951988154, -0.9311012864481669, -0.9229991789961339, -0.915637236535923, -0.9089771185107112, -0.8991628566058619])",63.38474829081497,-343.66450184397775,-50.26891635022059,-0.17876800889275446,-0.0026619220689853684,-0.9973327085957545,25.000000237408184,-1.0,"[-346.0861376707386, 66.96518788627057, 50.52333720485153]","[-328.51335344644673, 57.419525376986506, 50.24480199104951]","[-345.56778595893286, 46.97269780822739, 50.345427165188354]",10000000000.0,0.08269929885864258
15,7.384423732757568,-345.90618896484375,66.66092681884766,50.63965606689453,-0.03594437241554263,0.01361420005559915,-1.0263320644709726,23.280486574612173,"array('d', [69.83316040039062, 67.70897654815424, 65.58617012148198, 63.468524317068685, 61.359572473368765, 59.262563380803044, 57.18000651177697, 55.11344671826561, 53.06356747650442, 51.03036827288977, 49.013343709886676, 47.01164999327227, 45.024248134113854, 43.0500183056765, 41.08784354268903, 39.893592112263754])","array('d', [-347.83062744140625, -346.51247481127206, -345.19207132198005, -343.8633880095966, -342.52093861412635, -341.1599052466727, -339.7768569540056, -338.3700148843252, -336.93897326626774, -335.4843258321215, -334.00732749773505, -332.5096131975005, -330.992981319707, -329.45923885996154, -327.9101007894358, -326.94923331657424])","array('d', [-50.43645095825195, -50.41870621766331, -50.40376859237451, -50.39104440998491, -50.380087391930786, -50.37055819508823, -50.36219616039755, -50.354799511463995, -50.348211331683956, -50.34230935300135, -50.33699823798715, -50.332203512204124, -50.32786660153588, -50.323940615935896, -50.32038664357668, -50.31841468147278])","array('d', [0.05221070349216458, -0.0274982510597911, -0.09962190212211562, -0.1648820859827654, -0.22393194576108866, -0.26526450058582834, -0.28677837536125916, -0.29297288756676687, -0.2878980258237463, -0.2750758127566054, -0.25745404278244927, -0.23739832673079983, -0.21671097294811964, -0.19666188894214415, -0.17802008404275774, -0.1610792477852684])","array('d', [-0.007739147637039363, -0.0064778065242253645, -0.0054888627395503495, -0.004703626589623013, -0.004072543699073491, -0.0035593926284793608, -0.003137289111847782, -0.0027859005048313924, -0.0024895923990153512, -0.002236221630835899, -0.0020163415833425115, -0.0018226721578327274, -0.0016497428955769748, -0.0014936507803809203, -0.0013518928535502526, -0.001223243652130176])","array('d', [-1.0149161060664316, -1.0153751536529418, -1.0128528971069732, -1.0076092262083183, -0.9998606945807812, -0.9900506953372649, -0.978927827609974, -0.9672211757951834, -0.9554946286380954, -0.9441521771038506, -0.9334557138572244, -0.9235502360480816, -0.9144910689839308, -0.906269757095848, -0.89883736714407, -0.8878900748292518])",61.359572473368765,-342.52093861412635,-50.380087391930786,-0.22393194576108866,-0.004072543699073491,-0.9998606945807812,25.00000023671158,-1.0,"[-345.8470926648839, 66.56702537190722, 50.54736495045617]","[-328.28671793306324, 56.996345531472656, 50.35941104671142]","[-345.3543703636232, 46.57313556178018, 50.587302330668706]",10000000000.0,0.04106259346008301
16,7.447402000427246,-345.42327880859375,65.87174987792969,50.687686920166016,-0.0590825267136097,0.014616393484175146,-1.0283672054621835,23.284013577545313,"array('d', [68.64147186279297, 66.51153136504534, 64.38447879235612, 62.263964982810826, 60.15342786432574, 58.05605309337199, 55.97432208123043, 53.90974784326051, 51.86296667930367, 49.833917968956506, 47.82202785809758, 45.826380402638755, 43.84586448383652, 41.8792906859219, 39.92547646125023, 38.73685408026879])","array('d', [-347.1100158691406, -345.80127863179075, -344.48779157181207, -343.16373724298353, -341.82381622075303, -340.4633727424093, -339.0791020505812, -337.66936366464597, -336.2339069888093, -334.7734856539757, -333.28950893225965, -331.7837539345622, -330.25814596072365, -328.7146031823266, -327.1549370908586, -326.1870902966781])","array('d', [-50.51457977294922, -50.490962618553894, -50.47119441195607, -50.45446240214403, -50.44015155520936, -50.427791338450284, -50.41701832124891, -50.40754978095021, -50.39916488424385, -50.39169090607212, -50.38499278029293, -50.378964895493255, -50.373524432453486, -50.368605775286206, -50.364155679294825, -50.36168677559805])","array('d', [0.01942748203873632, -0.05716173920447466, -0.12646253858269535, -0.18916850039608335, -0.2459072045434395, -0.2857943978425461, -0.3058110354180964, -0.3104916790938786, -0.3039280236594821, -0.2896781218220422, -0.27071491458996144, -0.2494178616226089, -0.22759384918435177, -0.20651084694393804, -0.18693196764416634, -0.1691430542631017])","array('d', [-0.010325747542083197, -0.008597096531373314, -0.007240269201831778, -0.00616340337003571, -0.005299744502283859, -0.004600140093635257, -0.004027847360066482, -0.0035548928121515245, -0.0031596308669292923, -0.0028251405149446324, -0.0025381539953750545, -0.002288326112743159, -0.0020677277454136432, -0.0018704908063884725, -0.0016925561532160822, -0.0015314885802893351])","array('d', [-1.0199531753871105, -1.0191873000394547, -1.0155500936721875, -1.0092823316505313, -1.0005869649481347, -0.9898865090367481, -0.9779207850542668, -0.9654293583478739, -0.9529826344839413, -0.9409864733841166, -0.9297008448686351, -0.9192664097957342, -0.9097330075969113, -0.9010864501703343, -0.8932723602275163, -0.8817656800498584])",60.15342786432574,-341.82381622075303,-50.44015155520936,-0.2459072045434395,-0.005299744502283859,-1.0005869649481347,25.000000236343034,-1.0,"[-344.8893673310668, 64.98255790390158, 50.64263802895823]","[-327.37583101482056, 55.326922441324555, 50.85417883671889]","[-344.4930561958725, 45.008784242816866, 51.58672659465513]",10000000000.0,0.05808830261230469
17,7.546684741973877,-344.2098693847656,63.899173736572266,50.802494049072266,-0.11693961918354037,0.017179552465677185,-1.0325192650172375,23.293237011161096,"array('d', [67.84709930419922, 65.71432826645955, 63.58544106335469, 61.464011808252884, 59.35342386506751, 57.25682804787343, 55.17669265749504, 53.11451259586053, 51.07089362151448, 49.04573443654831, 47.038414037073544, 45.04796642711466, 43.073230321978116, 41.11296789234846, 39.16595100212126, 37.98185082206906])","array('d', [-346.6288146972656, -345.32476804367366, -344.01430740262276, -342.6917565935387, -341.351942195662, -339.9903185231564, -338.6036665518565, -337.1904401208998, -335.75049437773794, -334.28469153081556, -332.7945451295244, -331.2819277734147, -329.7488494890886, -328.1973022462536, -326.62916127781006, -325.65578597648545])","array('d', [-50.56529235839844, -50.537979702586945, -50.51516587284759, -50.49590373060678, -50.479473908547064, -50.4653242334372, -50.45302697528676, -50.442248548480165, -50.432727823368104, -50.42426018792603, -50.416685430227844, -50.40987821569407, -50.40374036553551, -50.3981944057124, -50.39317802229062, -50.390395097105696])","array('d', [-0.002292028162628431, -0.07681436651829766, -0.14424497275415965, -0.20525871368870502, -0.2604662330709624, -0.2994079435869242, -0.3184376816181892, -0.3221160352878171, -0.3145644980761549, -0.2993664696282173, -0.27951237244272115, -0.2573911710117267, -0.23481281165481532, -0.213043863720284, -0.19284338767879072, -0.17449192878844516])","array('d', [-0.011951889842748576, -0.00993236274561525, -0.00834542932517645, -0.0070854566676470205, -0.0060753466792052456, -0.005258087564951581, -0.004590888920565079, -0.00404105164702948, -0.003583184977029746, -0.003197372430016317, -0.0028679385849852594, -0.002582599760687249, -0.0023318679747564987, -0.0021086275901217063, -0.001907831500099959, -0.0017262777868165347])","array('d', [-1.0225571831080578, -1.0209791520527698, -1.0166001973778036, -1.0096494487784162, -1.0003215069240698, -0.9890251981536136, -0.9764948558293921, -0.9634777248437384, -0.9505489168713958, -0.9381156406912884, -0.9264365298098804, -0.9156492310864007, -0.9057997926900022, -0.8968700889566816, -0.8888020249341131, -0.8769232853061631])",59.35342386506751,-341.351942195662,-50.479473908547064,-0.2604662330709624,-0.0060753466792052456,-1.0003215069240698,25.00000023612779,-1.0,"[-343.6834329861891, 63.00643471873709, 50.755081942726854]","[-326.2129217373699, 53.29858773584049, 51.48920976643972]","[-343.3744399406671, 43.119505223680946, 52.85616703298025]",10000000000.0,0.09454751014709473
18,7.5803914070129395,-343.7218017578125,63.11283493041992,50.84619903564453,-0.13943576812744146,0.01791317015886299,-1.03371016581985,23.298068064943344,"array('d', [65.87174987792969, 63.73290165298371, 61.6005469324309, 59.47808340318433, 57.368770509365866, 55.27568351186896, 53.20127141063498, 51.14699028640559, 49.11336778564449, 47.10019330035775, 45.106716880638196, 43.13183480225001, 41.17424754763681, 39.23258398013799, 37.3054906350424, 36.1345896337353])","array('d', [-345.42327880859375, -344.12936986832887, -342.824663376685, -341.5038492658483, -340.16208555147284, -338.7951182054119, -337.3999532467861, -335.97529641444163, -334.5212884942507, -333.03908561943155, -331.5304829436321, -329.99760972938464, -328.4427024381884, -326.8679490842955, -325.2753932466413, -324.28621187456605])","array('d', [-50.687686920166016, -50.654262982720844, -50.626313504629024, -50.60270596618251, -50.58257317500158, -50.5652446763641, -50.5501978313118, -50.53702280537295, -50.52539730012825, -50.515067832403744, -50.505835368376104, -50.49754392876781, -50.49007127520537, -50.48332108175238, -50.47721617821868, -50.473829506858245])","array('d', [-0.0590825267136097, -0.12820053925677388, -0.1907411088415939, -0.24733016125981086, -0.29853405685346046, -0.3350897879297169, -0.3515846405525028, -0.35266005546194135, -0.34252640005722335, -0.3248414420946457, -0.3026465136907395, -0.27835832343870864, -0.25379614708357157, -0.23022330649173117, -0.20838824105426887, -0.18855749505395433])","array('d', [-0.014616393484175146, -0.012164462683896243, -0.01022789470277307, -0.008684170838379714, -0.007442943234817275, -0.006436752405919153, -0.005614513129884445, -0.00493686109906868, -0.004372983258618287, -0.003898529271975334, -0.003494203677656915, -0.003144789074984522, -0.002838452944854516, -0.0025662492514173393, -0.002321757027384645, -0.002100813125811558])","array('d', [-1.0283672054621835, -1.0246576234381306, -1.018323276683867, -1.0095662774881444, -0.9985616456081677, -0.9856817729591373, -0.9716471759006933, -0.9572286057237536, -0.9430154335708778, -0.9294191210746708, -0.9166947350694358, -0.9049715726697362, -0.894285180312353, -0.8846065788611772, -0.8758674873374205, -0.8630063921757569])",57.368770509365866,-340.16208555147284,-50.58257317500158,-0.29853405685346046,-0.007442943234817275,-0.9985616456081677,25.000000235603043,-1.0,"[-343.1870574594997, 62.20058439399964, 50.79895810911675]","[-325.7303715426637, 52.48637406682519, 51.74671046092369]","[-342.90593474961, 42.367270703242895, 53.36033236252556]",10000000000.0,0.02986431121826172
19,7.647258758544922,-342.9862976074219,61.93682861328125,50.909637451171875,-0.17267419397830958,0.017936930060386585,-1.034373923144068,23.30374708156509,"array('d', [65.08255004882812, 62.941886349035975, 60.808795238025525, 58.6866130216312, 56.57855678480794, 54.48767780407944, 52.4164239122188, 50.366238918707296, 48.33761882475221, 46.33030635380751, 44.343495575348896, 42.376022659444956, 40.42652772478724, 38.49358149811085, 36.575775970313785, 35.41099951188557])","array('d', [-344.9390563964844, -343.6482153073962, -342.3447575327602, -341.02352398036777, -339.67981114370014, -338.3094875847027, -336.9096529373193, -335.4791193434241, -334.01814938909587, -332.5280246232071, -331.0106599211243, -329.4682930344971, -327.90325549494383, -326.3178170580672, -324.7140910293412, -323.71773272136426])","array('d', [-50.734561920166016, -50.69887898245633, -50.669028115248366, -50.64381088832294, -50.62230669134499, -50.60380178429378, -50.587738458268326, -50.573678497290224, -50.56127671479378, -50.550261280108735, -50.540418561993135, -50.53158105955819, -50.523617504051174, -50.516424517295135, -50.509919398669346, -50.50631077920271])","array('d', [-0.0824309512972832, -0.14932706938864618, -0.20985718555503577, -0.2646271043369296, -0.3141849797009703, -0.34979599875610873, -0.3652675648912445, -0.3652798859603621, -0.35408463243227445, -0.33537364535113423, -0.3122114001401342, -0.2870272072338512, -0.2616446957351716, -0.23732598449699663, -0.2148151034119614, -0.19437276112227264])","array('d', [-0.015600358135998199, -0.012990506768392848, -0.01092521175812034, -0.009276419144921715, -0.007949290836281226, -0.006872729751780661, -0.005992700430697235, -0.005267426797543686, -0.004664104567176791, -0.004156735632981282, -0.0037246669573714453, -0.0033515736324772204, -0.003024733858319448, -0.002734505053509489, -0.0024739424045530723, -0.002238516161915932])","array('d', [-1.0302404602381847, -1.0256489776028253, -1.0185023038815189, -1.0089927449271436, -0.9972881302857225, -0.9837454764832911, -0.9690797958850965, -0.9540730111856033, -0.9393212020152005, -0.9252378712569643, -0.9120765576529342, -0.8999628938079051, -0.888927831563385, -0.8789376729882458, -0.8699197384875719, -0.8566507231644094])",56.57855678480794,-339.67981114370014,-50.62230669134499,-0.3141849797009703,-0.007949290836281226,-0.9972881302857225,25.000000235410333,-1.0,"[-342.4653027131746, 61.03979082030585, 50.86163898632945]","[-325.0193907036579, 51.342015519326516, 52.12390217913681]","[-342.2059281386424, 41.30149987331511, 54.07607444563321]",10000000000.0,0.055877685546875
20,7.6881468296051025,-342.245849609375,60.76157760620117,50.971649169921875,-0.2038221508264542,0.01748723909258834,-1.0345210274073742,23.31181056551342,"array('d', [63.899173736572266, 61.756477589924586, 59.6229604440223, 57.50187944212668, 55.396397840990325, 53.3095387346722, 51.243755638617436, 49.20047820154073, 47.18015591176417, 45.18246026363874, 43.20649895426655, 41.251015151411664, 39.314555587976066, 37.39560117430294, 35.49265978538896, 34.337657538581574])","array('d', [-344.2098693847656, -342.92251313808714, -341.61982953245837, -340.2968843065842, -338.94918187397076, -337.5727753916126, -336.1649039891779, -334.72454022174423, -333.25213169548897, -331.74915060722793, -330.2176933527305, -328.66016147620115, -327.0790293268738, -325.47668881807505, -323.85535693337147, -322.8477339628049])","array('d', [-50.802494049072266, -50.763195870014165, -50.73032118383346, -50.70256107433882, -50.67890532030585, -50.65856755803377, -50.64093126384221, -50.62551066586135, -50.611922272316235, -50.59986359197157, -50.58909664581234, -50.57943476818867, -50.570731739029085, -50.56287260323266, -50.555765723710614, -50.55182344890874])","array('d', [-0.11693961918354037, -0.18055180617132455, -0.23811049833161443, -0.2901917612568533, -0.3373168401083664, -0.37157599598845803, -0.3855587882568784, -0.3840091350989291, -0.37124538914755234, -0.35101394197717095, -0.32641616237491305, -0.29990147490738034, -0.27330062702030633, -0.2478741777109185, -0.22435963457793068, -0.20300901084077105])","array('d', [-0.017179552465677185, -0.014308196141382585, -0.012030315860735963, -0.010208620517180385, -0.008740753595336872, -0.007549508836223235, -0.006575885941437495, -0.005774047156875556, -0.005107835050929786, -0.004548477861393438, -0.0040730369969329645, -0.0036633192365082214, -0.00330509404000684, -0.0029875226510273894, -0.0027027393588153975, -0.0024455402258538933])","array('d', [-1.0325192650172375, -1.0266157259964388, -1.0182573435106803, -1.007623166078726, -0.9948712182516067, -0.9803350804351134, -0.9647216753048568, -0.9488312183984944, -0.9332707101058119, -0.9184570185098274, -0.9046413513756864, -0.8919436526330449, -0.8803877583678416, -0.8699326957652741, -0.8604990371252779, -0.8466222238990504])",55.396397840990325,-338.94918187397076,-50.67890532030585,-0.3373168401083664,-0.008740753595336872,-0.9948712182516067,25.000000235145258,-1.0,"[-342.2198246652113, 60.647722176168664, 50.882733498785726]","[-324.7753145608909, 50.96227909632508, 52.254323658917926]","[-341.9634003890586, 40.94597546227478, 54.314267122717055]",10000000000.0,0.03425717353820801
21,7.72590708732605,-341.9978332519531,60.37013626098633,50.991981506347656,-0.21358878910541537,0.017151821404695455,-1.0344092090937753,23.313976817159116,"array('d', [62.720787048339844, 60.57705233893514, 58.44409470296187, 56.325104643746066, 54.223201429593736, 52.14138813041448, 50.08213182619811, 48.04685221770668, 46.03595272322234, 44.04903162084483, 42.0851070213075, 40.142825504470956, 38.22063696031056, 36.31692938894001, 34.430123889609014, 33.28569244847422])","array('d', [-343.47711181640625, -342.19155516123203, -340.888006861477, -339.5617536844569, -338.20850683090066, -336.8245039120013, -335.40712195692186, -333.9554941581308, -332.47025476902235, -330.95306822294236, -329.4062131832204, -327.83225467110145, -326.2338086054093, -324.61338714293316, -322.9733086347403, -321.95375569156334])","array('d', [-50.86760711669922, -50.82621036084934, -50.79152710259841, -50.762203758398805, -50.73719116596539, -50.71566969431668, -50.696994798967424, -50.68065737061982, -50.666254710275005, -50.653468730851635, -50.642048961003375, -50.63179884412984, -50.6225643776192, -50.61422445183145, -50.60668243609049, -50.60249884248515])","array('d', [-0.15058927237987518, -0.21099927424963874, -0.26566050923689355, -0.3151200442689713, -0.35987288551637775, -0.3928624804430647, -0.40541870426827015, -0.4023550578870325, -0.38806147904975236, -0.366342363698649, -0.34033805538599865, -0.31251917015513825, -0.28472404618911246, -0.25821185772779065, -0.23371366746116043, -0.2114728905693661])","array('d', [-0.018083002418279568, -0.015085925220466078, -0.012701357201954052, -0.010789748889047683, -0.009246406737383254, -0.007991911691266439, -0.006965270472552155, -0.0061188849009119846, -0.005415048634189472, -0.004823645337011834, -0.004320594220125777, -0.0038867594713325932, -0.00350716294240283, -0.0031704077861382, -0.0028682544611517316, -0.0025953044971492615])","array('d', [-1.0340048511836193, -1.0268094640575882, -1.0172547389101896, -1.005508090360246, -0.991718843730695, -0.9761968025727773, -0.9596410356620747, -0.9428717183719851, -0.926507668205211, -0.910969398094835, -0.8965057021987429, -0.8832306083791209, -0.8711605967602428, -0.8602472251536842, -0.8504041830770221, -0.8359292694926637])",54.223201429593736,-338.20850683090066,-50.73719116596539,-0.35987288551637775,-0.009246406737383254,-0.991718843730695,25.000000234923576,-1.0,"[-341.4795602044276, 59.472348161899475, 50.94541964817741]","[-324.0363493579458, 49.833398028655196, 52.62620389786852]","[-341.2260752819684, 39.88702294340038, 54.989029604603644]",10000000000.0,0.03233075141906738
