,current_time,x_pos,y_pos,z_pos,roll,pitch,yaw,vel,x_traj,y_traj,z_traj,roll_traj,pitch_traj,yaw_traj,x_cmd,y_cmd,z_cmd,roll_cmd,pitch_cmd,yaw_cmd,vel_cmd,effector_dmg,effector_x,effector_y,effector_z,cost,time_solution
0,12.65792989730835,-27.566377639770508,-241.65533447265625,45.0590705871582,0.6339239478111266,0.03841041401028619,0.5960333506253103,23.110889490119334,"array('d', [-243.39564514160156, -241.95447381265905, -240.55686022081952, -239.1916878024821, -237.85058214059012, -236.5273173822919, -235.2172522593052, -233.91695948904788, -232.6239520927641, -231.33646584413728, -230.05327997427622, -228.77356824741435, -227.49677687041628, -226.22252754499152, -224.9505447635788, -224.1650369772249])","array('d', [-30.327573776245117, -28.2862092889972, -26.21384201098324, -24.11962318375456, -22.009806799035516, -19.88873781558397, -17.759502098068893, -15.624301417973458, -13.484695205220932, -11.341770961028692, -9.196272235984939, -7.048698220575102, -4.899381957587249, -2.748550751171572, -0.5963706394133329, 0.7364530813714519])","array('d', [-45.0604133605957, -44.98689088783369, -44.94517911761859, -44.9243427082546, -44.917326889953884, -44.91949361053395, -44.927728865065376, -44.93989073652228, -44.95446442725181, -44.970345789355875, -44.98670680668762, -45.00291516985455, -45.018491039257036, -45.03309037916063, -45.046507596045785, -45.054047532089925])","array('d', [0.6312827467918392, 0.49646784946054756, 0.37494054039573527, 0.2811294991717566, 0.2092533615511216, 0.15492578423979597, 0.11460764162117076, 0.08534561783498382, 0.06463934284413382, 0.050370408139195695, 0.040762188430344834, 0.03435541584162564, 0.029992272485967544, 0.026805656129693, 0.024212147693117744, 0.021908059190979823])","array('d', [-0.037268046289682236, -0.02181676122463742, -0.011722734378094983, -0.005057801453781879, -0.0006287505484749885, 0.002313052686942291, 0.00424296896318968, 0.005466161798642873, 0.006180933145437263, 0.006518608825419249, 0.006569450211633456, 0.006400155231893575, 0.006066192018095576, 0.0056207766931889395, 0.005121379308776902, 0.004634015744317016])","array('d', [0.6277542869236804, 0.6029491118150335, 0.5847020330186709, 0.5713707187545657, 0.5615723304238588, 0.5543636420615685, 0.5490558482671416, 0.5451290309514375, 0.5421875061885124, 0.5399331714263279, 0.5381470488497291, 0.5366746428903881, 0.5354131329727162, 0.5342995008203067, 0.5332991631951923, 0.5318378997200192])",-236.5273173822919,-19.88873781558397,-44.91949361053395,0.15492578423979597,0.002313052686942291,0.5543636420615685,25.00000024566738,-1.0,"[-26.62847130089326, -240.99278093596536, 45.00183987664956]","[-17.97702118488734, -226.26898832881471, 55.41156331927171]","[-6.700605250085232, -239.31968131076147, 45.286255602648644]",10000000000.0,0.03227591514587402
1,12.692625999450684,-26.36334991455078,-240.93519592285156,45.05829620361328,0.6343439221382139,0.03925953432917587,0.582557396092687,23.119158792594373,"array('d', [-242.88882446289062, -241.46600770348473, -240.08711036833583, -238.74087699489866, -237.41880327944133, -236.11457026227578, -234.8234753512981, -233.5420524160982, -232.26779214590226, -230.99892011388786, -229.7342139964277, -228.47285180740727, -227.21428751629, -225.95815231920957, -224.70418064106508, -223.92952522388225])","array('d', [-29.543304443359375, -27.4891154832318, -25.404252596193498, -23.29781063166428, -21.176016643081777, -19.04319222332795, -16.90240040325116, -14.755822178455796, -12.604998507382852, -10.451000550941506, -8.294557376123128, -6.13615528383778, -3.9761158018078397, -1.8146559176935335, 0.3480675898897493, 1.6877313893577737])","array('d', [-45.05950927734375, -44.98570091083298, -44.9437756925197, -44.922795107914254, -44.91569497496305, -44.917825905399035, -44.92606276073461, -44.93825362678634, -44.95287516231763, -44.96881615582245, -44.98524291768809, -45.00151873541116, -45.0171605232332, -45.031822058569176, -45.04529653528608, -45.05287078911733])","array('d', [0.632279098033905, 0.4973693853764988, 0.37529803930167677, 0.28057030356418833, 0.208070370036599, 0.15334203187140258, 0.11279439648879155, 0.08343276025296398, 0.06272241669008648, 0.04851620669054466, 0.039013667687125345, 0.03273625821780137, 0.028511227115579626, 0.02546071120302959, 0.022994572215078973, 0.02080635123943903])","array('d', [-0.03739706426858898, -0.021917041496618845, -0.011793726624600362, -0.005102591008648461, -0.0006517761503068345, 0.0023071603429082265, 0.004249927591495167, 0.0054822468841960025, 0.006203024364213383, 0.006544165877503182, 0.006596465589379603, 0.006427105720040995, 0.006091996412790653, 0.005644759878653184, 0.005143240058882645, 0.0046537961707642725])","array('d', [0.6188209811833243, 0.5939635145264803, 0.5756863058065134, 0.5623595276601522, 0.5525975995436312, 0.5454451352080564, 0.5402052719760362, 0.5363523155799738, 0.5334863466833527, 0.5313062186953548, 0.5295908884316272, 0.5281846032600893, 0.5269839341745257, 0.525925745964851, 0.5249756744149702, 0.5235883112134557])",-236.11457026227578,-19.04319222332795,-44.917825905399035,0.15334203187140258,0.0023071603429082265,0.5454451352080564,25.00000024563921,-1.0,"[-25.518183659880258, -240.34367550251355, 45.00018299316432]","[-16.642010066357294, -225.7040935828031, 55.33924405081035]","[-5.573511883725615, -238.8622060296837, 45.12394058902692]",10000000000.0,0.02741408348083496
2,12.773916959762573,-24.74392318725586,-240.0002899169922,45.055885314941406,0.6320970058441161,0.0397258289158344,0.565650657811437,23.134853142490464,"array('d', [-242.1429901123047, -240.74837716519275, -239.398195756775, -238.08103312326216, -236.7881959755018, -235.51322057325314, -234.2513085295669, -232.99893251708417, -231.75354745495073, -230.51336184533358, -229.27714964923578, -228.0440941650239, -226.81366013175506, -225.58549226586078, -224.3593392744373, -223.60145924942125])","array('d', [-28.359960556030273, -26.28655951908126, -24.183001857249778, -22.058266200692948, -19.918533541648486, -17.768091089783216, -15.60996784727291, -13.446313879740696, -11.278642829698992, -9.10800191311692, -6.935099176355005, -4.760402378340842, -2.5842166023971602, -0.40674418123019185, 1.7718712174857394, 3.1218830766168693])","array('d', [-45.05916213989258, -44.98428507577042, -44.941598508156865, -44.92009339606394, -44.91264862964774, -44.9145695296199, -44.92269527450693, -44.934846023728056, -44.949476687789456, -44.96545921113059, -44.98194698123444, -44.9982935525192, -45.01400876582372, -45.02874160306661, -45.042282458748026, -45.04989749688043])","array('d', [0.6333881616592405, 0.49837290766939113, 0.3762060483275729, 0.2800469619785012, 0.20656655873796673, 0.151200592241616, 0.1102786236541886, 0.08074258200621838, 0.06000527823868295, 0.0458756308094623, 0.036516754359474025, 0.030420639112514435, 0.026391676452163695, 0.023535500700884174, 0.02125162810378957, 0.019229270047240628])","array('d', [-0.03789541497826566, -0.02227636585848685, -0.012045371007951205, -0.005271957903793751, -0.0007591516995487523, 0.0022457447197295113, 0.004221897465459586, 0.005477789939881847, 0.006214518178658952, 0.006565728642752699, 0.006623617238440376, 0.006456520372894673, 0.006121324740992726, 0.005672500547793384, 0.005168642346728872, 0.0046767811133595835])","array('d', [0.6051945845272875, 0.5802788360366247, 0.5619558905714953, 0.5486208678528799, 0.5389013996635497, 0.5318229984300118, 0.5266762345314654, 0.5229264393825863, 0.5201671196277728, 0.5180923960662168, 0.5164779988673819, 0.5151661900382588, 0.5140525507420115, 0.5130737107428626, 0.512195587872719, 0.510913982646744])",-235.51322057325314,-17.768091089783216,-44.9145695296199,0.151200592241616,0.0022457447197295113,0.5318229984300118,25.000000245594634,-1.0,"[-24.296600114939498, -239.6501342068465, 44.99765541493281]","[-15.187027588260605, -225.09417792373455, 55.251426675562286]","[-4.33766141392228, -238.369967242784, 44.95362731980983]",10000000000.0,0.07017374038696289
3,12.85443663597107,-23.519989013671875,-239.31932067871094,45.053401947021484,0.613741099834442,0.037828650325536645,0.5528335134175162,23.158754669755695,"array('d', [-241.17381286621094, -239.81729091746305, -238.5058019585688, -237.22774240547494, -235.9741787409729, -234.73846226166174, -233.51567278706725, -232.30220599882176, -231.09547285592316, -229.8936622224893, -228.6955457746531, -227.5003161700497, -226.3074545331821, -225.1166253977039, -223.9275981084415, -223.1921014768517])","array('d', [-26.766162872314453, -24.66772947864893, -22.53986794854777, -20.39139612344461, -18.2284236579906, -16.055183679598894, -13.8746540737978, -11.688939732656026, -9.499515270677035, -7.307394332941245, -5.113255975728723, -2.917542736877428, -0.7205375723874217, 1.4775767545321232, 3.676674003986699, 5.040092159702964])","array('d', [-45.05866241455078, -44.98144354895805, -44.93710811708001, -44.914460338335054, -44.906242475311, -44.90765908519441, -44.91547452130931, -44.9274530533992, -44.942007648650616, -44.95797869918077, -44.97449591409591, -44.990895280071705, -45.00667395837548, -45.02147229457231, -45.035075497097786, -45.04273055799536])","array('d', [0.6342257857322692, 0.49913082127325, 0.376891834001405, 0.2789099041548194, 0.20418959343174634, 0.1480271495246601, 0.1066493233136593, 0.07691592296320117, 0.05617155340558785, 0.042167932442431035, 0.033020687336341344, 0.027183380663280788, 0.023430618041045303, 0.020846568308703368, 0.018817346508630005, 0.01702664077451621])","array('d', [-0.03899616375565522, -0.023055339081613155, -0.012589617774910836, -0.005644743959289172, -0.0010069321499706642, 0.0020885812136985406, 0.004129728483483331, 0.00543141963840349, 0.006199509247511276, 0.006571217206656225, 0.006641478634036015, 0.006480788753246864, 0.006147792673431108, 0.005698441484158084, 0.005192612498513566, 0.004698470205539379])","array('d', [0.5869763056424, 0.5620164871957349, 0.543658971369935, 0.5303340558997782, 0.5206880385485574, 0.5137222689619507, 0.5087113659107011, 0.505109213088496, 0.5025009010292852, 0.5005744866585361, 0.499101578361491, 0.4979219265675575, 0.49692989576821245, 0.49606188111756155, 0.4952842372333651, 0.494150164274495])",-234.73846226166174,-16.055183679598894,-44.90765908519441,0.1480271495246601,0.0020885812136985406,0.5137222689619507,25.000000245531794,-1.0,"[-22.429194381251527, -238.63066538787805, 44.99634749197428]","[-12.980765076752794, -224.054168100476, 54.908608107406565]","[-2.453560960043898, -237.6793535130484, 44.73352599677123]",10000000000.0,0.06936049461364746
4,12.893609762191772,-22.28214454650879,-238.65357971191406,45.052032470703125,0.5693104267120358,0.03221063315868361,0.5389954606678824,23.188778609218886,"array('d', [-240.46383666992188, -239.13492225059704, -237.85138802634475, -236.60150874873287, -235.37618986993706, -234.16865839437338, -232.9739131946984, -231.78829986453698, -230.60920208748286, -229.43479825437814, -228.2638615180535, -227.0955939654755, -225.92949086192002, -224.76523307093004, -223.60260662848776, -222.88301285389298])","array('d', [-25.5553035736084, -23.439339142249842, -21.29452362739338, -19.12954506511779, -16.950449703785452, -14.76142336488029, -12.565401715780325, -10.364453528952888, -8.1600229097503, -5.953097719287446, -3.7443350668302187, -1.5341586173567574, 0.6771650845703697, 2.8894677014069496, 5.102635794380943, 6.475321769963807])","array('d', [-45.05727005004883, -44.97843574392868, -44.93295741320645, -44.90951631438748, -44.9007628697733, -44.901832763373214, -44.90943850372203, -44.921305203302786, -44.9358161763708, -44.95178934578353, -44.96833746280181, -44.98478388001932, -45.00061661611403, -45.015469785226216, -45.02912486522351, -45.03681284287998])","array('d', [0.6340497136116026, 0.4989715045766318, 0.3767476774779705, 0.27755022691566267, 0.20201399070653683, 0.14534013898037365, 0.10368496211618469, 0.07385163205129622, 0.053137470422393425, 0.039254406771548525, 0.030284983489975575, 0.02465598925678241, 0.021121306851675962, 0.018750220902751153, 0.016919623847617072, 0.015309510146333393])","array('d', [-0.03975355997681603, -0.023594596523747905, -0.012967527947635529, -0.005903507018222049, -0.0011780987408045011, 0.001981308766322456, 0.004068475838485868, 0.005402663185920296, 0.006192996313742066, 0.006579183740620865, 0.006658090108875833, 0.006501746577204049, 0.006170060099192136, 0.005720052119004847, 0.005212532659417808, 0.004716494714103836])","array('d', [0.5738831917431692, 0.5489326407397952, 0.5305823937415622, 0.5172905516324701, 0.5077182709594554, 0.5008510350000365, 0.4959528786028559, 0.4924700121477166, 0.4899818495373796, 0.48817235465188746, 0.48681037180384557, 0.4857339996018638, 0.4848368487540872, 0.4840552417334768, 0.4833559243227449, 0.48233671405133544])",-234.16865839437338,-14.76142336488029,-44.901832763373214,0.14534013898037365,0.001981308766322456,0.5008510350000365,25.000000245484085,-1.0,"[-21.41363366220807, -238.09831192625086, 45.000435798080915]","[-11.770334530435644, -223.3277952534045, 54.42585987725766]","[-1.429548885655258, -237.38152355871577, 44.65033569851429]",10000000000.0,0.02707195281982422
5,12.929767847061157,-21.45071029663086,-238.21910095214844,45.054908752441406,0.5266957283020017,0.026580518111586487,0.5294117490437366,23.207350734963345,"array('d', [-239.77137756347656, -238.46843942402523, -237.2106970880148, -235.98639582224718, -234.78636051941294, -233.60375448968674, -232.43354074124915, -231.27204987971857, -230.11666643799714, -228.96558129603184, -227.81758809259375, -226.6719142825217, -225.52808282485927, -224.38580262531565, -223.2448867087791, -222.53825851032977])","array('d', [-24.336894989013672, -22.20481489693105, -20.04476549718245, -17.865217177533506, -15.672095272400817, -13.469503006830163, -11.260311870145607, -9.046539592637034, -6.82958880050826, -4.610412955590837, -2.3896400984172854, -0.1676689145709988, 2.0552558270683536, 4.278984996366961, 6.50342225163068, 7.883564690507678])","array('d', [-45.05508804321289, -44.97679509862587, -44.93165457216275, -44.90845093622877, -44.899888877456966, -44.90113117788324, -44.908902585441886, -44.92093253820096, -44.93560466260544, -44.95173536116762, -44.96843524697373, -44.98502558970507, -45.000992747348874, -45.01596978421921, -45.029737818451096, -45.03749255137815])","array('d', [0.628655910491943, 0.4940909892213093, 0.37233160377892843, 0.272574773361887, 0.19674147835053704, 0.13997568130666563, 0.0983869765295375, 0.06873824799141273, 0.048291640349385635, 0.034728763140415266, 0.02610673279985098, 0.020831838118714262, 0.017642337869391577, 0.015596652855266662, 0.014065433628904521, 0.012726931804439278])","array('d', [-0.03948144614696494, -0.02343157327428525, -0.01285934549911902, -0.005821277267759039, -0.001107032497548707, 0.0020482370829910577, 0.004134103633231881, 0.005467650124031308, 0.0062569498808300456, 0.006641286957285874, 0.006717450363628017, 0.006557587948629652, 0.006221826127861005, 0.005767454850964716, 0.005255567541181244, 0.004755434288883142])","array('d', [0.5615009824421743, 0.5368333684510269, 0.5187052926574399, 0.5056187851841067, 0.4962594433306874, 0.48960718294116407, 0.4849213553958448, 0.48164423365999465, 0.47935211748114354, 0.47772674263613296, 0.47653559913513405, 0.475616220541053, 0.4748623077541421, 0.47421076822314995, 0.47362925658247274, 0.47278235947198394])",-233.60375448968674,-13.469503006830163,-44.90113117788324,0.13997568130666563,0.0020482370829910577,0.48960718294116407,25.000000245438276,-1.0,"[-20.576433779193508, -237.6719024384925, 45.00856051656174]","[-10.765376480333257, -222.65611147839616, 53.855547377700915]","[-0.5862989675249679, -237.18212002968787, 44.615338691960076]",10000000000.0,0.032119035720825195
6,12.968466758728027,-21.45071029663086,-238.21910095214844,45.054908752441406,0.5266957283020017,0.026580518111586487,0.5294117490437366,23.207350734963345,"array('d', [-239.31932067871094, -238.03398837446483, -236.7926312848226, -235.58365962364678, -234.3979960475783, -233.22887416696605, -232.07131825209316, -230.9217170166208, -229.77751199083207, -228.63695017370125, -227.49887989672305, -226.362581110697, -225.22762636908112, -224.09377075912923, -222.9608697947619, -222.25876365878597])","array('d', [-23.519989013671875, -21.37711933108875, -19.207561016914585, -17.019453651835978, -14.818523375067063, -12.608744210860953, -10.392896434752902, -8.172929207912793, -5.950190956322019, -3.7255905584694675, -1.4997182407523617, 0.7270601173822151, 2.9545286644808253, 5.182564030509785, 7.411092970378824, 8.793914240960435])","array('d', [-45.053401947021484, -44.97855432436028, -44.93575988154083, -44.914193749750446, -44.90680442809033, -44.908909147667266, -44.91733198913716, -44.929867276733816, -44.94494171219151, -44.961400777613335, -44.97837505090543, -44.99519971934066, -45.01137094008995, -45.026528661145704, -45.040458705259276, -45.04830586174509])","array('d', [0.613741099834442, 0.48059550923161765, 0.36012038733618923, 0.2612229972211564, 0.18618947149767937, 0.13019251402938528, 0.08935072400583552, 0.06042648516993951, 0.0406772643967055, 0.02777879563600709, 0.019782772824903167, 0.01509135578537787, 0.012440320288447595, 0.010887331738781736, 0.009803966713409967, 0.008870996734455551])","array('d', [-0.037828650325536645, -0.022317753848066665, -0.012090238035046818, -0.005276580298015631, -0.000711052883171438, 0.0023438672148180188, 0.004360773766021734, 0.005646057827902199, 0.006400970342038617, 0.006760381369286171, 0.0068181773212305655, 0.006644555279572372, 0.0062982879104070055, 0.005835680442014957, 0.005317064101500342, 0.00481107868271898])","array('d', [0.5528335134175162, 0.5289387855361023, 0.5114200972692924, 0.49884568747010233, 0.48993943017794794, 0.4836968220558336, 0.47938491739813194, 0.4764500955548677, 0.474471164047264, 0.47313173930423974, 0.47220101897925426, 0.47151825393703456, 0.4709789158667693, 0.4705217148526051, 0.4701160916801349, 0.4695259276401258])",-233.22887416696605,-12.608744210860953,-44.908909147667266,0.13019251402938528,0.0023438672148180188,0.4836968220558336,25.00000024540885,-1.0,"[-20.15651117006511, -237.46182998593403, 45.015042670051294]","[-10.26085999600691, -222.30647221381867, 53.52334559369849]","[-0.16391377981472033, -237.09413368240715, 44.61398279955065]",10000000000.0,0.026473283767700195
7,13.043079137802124,-19.358139038085938,-237.1664581298828,45.08936309814453,0.39403998851776106,0.008811897598206891,0.5051652948048451,23.23762527691675,"array('d', [-238.87387084960938, -237.6064322680949, -236.3806305873706, -235.18521768313556, -234.01136197784527, -232.85247963308476, -231.70374248362526, -230.56166738628028, -229.4238115993436, -228.2885284357378, -227.15476430058223, -226.02188942369713, -224.889559095192, -223.7576038815585, -222.62594790171565, -221.9240393068317])","array('d', [-22.696537017822266, -20.542788954374952, -18.36430786453782, -16.168729611944563, -13.961470391609934, -11.746305353409724, -9.52587759104622, -7.30203447340309, -5.076044269253606, -2.8487497275626605, -0.620684603808809, 1.607834615696989, 3.8366359596399735, 6.0656354037303855, 8.294795153915958, 9.677958513737158])","array('d', [-45.05208206176758, -44.98432753605838, -44.946392595249776, -44.928219631387854, -44.923244889122465, -44.9271008237622, -44.93681863383353, -44.95033099710003, -44.96615857400474, -44.98321169304714, -45.00066634305486, -45.01788984893, -45.03440115624709, -45.04985613317847, -45.06405120185583, -45.0720477537801])","array('d', [0.5869432687759395, 0.45634782678374786, 0.33818017503524883, 0.24140119224066628, 0.16819561672209327, 0.11382916201731275, 0.07446814797618925, 0.0468999345595792, 0.028395529927076873, 0.016638815671619213, 0.00968746045983649, 0.00594903682449617, 0.0041648654736330185, 0.0033984912481114203, 0.00302767343842052, 0.002739552468496529])","array('d', [-0.03443764895200713, -0.020013702635189024, -0.010494332069289715, -0.004150027194250861, 9.933983520843341e-05, 0.0029380546773379156, 0.004805068501825034, 0.00598518851520213, 0.006665606983154703, 0.006971884648769843, 0.006991619456122417, 0.006790646761641167, 0.006424601437463351, 0.005947419215809386, 0.005417536288538091, 0.004901989685160016])","array('d', [0.5437467853215077, 0.521207498055194, 0.5047662907083678, 0.4930900053886931, 0.48496062212548957, 0.4794070725953838, 0.47571423784538225, 0.4733389729524937, 0.4718670002912888, 0.470987116783285, 0.47047283890461694, 0.47016726788438723, 0.4699694153541856, 0.4698212724203516, 0.4696953120050798, 0.46951308701719774])",-232.85247963308476,-11.746305353409724,-44.9271008237622,0.11382916201731275,0.0029380546773379156,0.4794070725953838,25.000000245380875,-1.0,"[-18.045548263347925, -236.44055817043156, 45.076145422806505]","[-7.728388583739985, -220.58540873810185, 51.570023510972874]","[1.9502775422766092, -236.7133064752367, 44.771910787457614]",10000000000.0,0.06937503814697266
8,13.088857889175415,-18.098642349243164,-236.55555725097656,45.13730239868164,0.3091505467891691,-0.0010857699671761294,0.492150501408849,23.246895793652453,"array('d', [-238.21910095214844, -236.97917856750047, -235.77561858266873, -234.59792965535163, -233.43785955476238, -232.2892653264627, -231.1476744524577, -230.0099089276528, -228.87379690262856, -227.7379359753253, -226.60149395854444, -225.4640417663836, -224.3254163137088, -223.1856123268498, -222.04470223251812, -221.33597244453728])","array('d', [-21.45071029663086, -19.280530001948414, -17.089503817611586, -14.884310357011746, -12.669765643208097, -10.449257308173836, -8.22516077345311, -5.999123618089673, -3.7722551871823873, -1.5452654618771535, 0.6814266582312186, 2.9076063483924073, 5.133192863897045, 7.358184639457067, 9.582618638508531, 10.962439477562258])","array('d', [-45.054908752441406, -45.00361557566103, -44.97698706853585, -44.966709805737636, -44.967338354091616, -44.97523431457463, -44.98791224115048, -45.00363054978086, -45.02113302393986, -45.03948523178365, -45.05797265294413, -45.07604053007678, -45.093263223748465, -45.10933527177902, -45.124078624862136, -45.13238242209874])","array('d', [0.5266957283020017, 0.40183359292039034, 0.2888536522764768, 0.19724740227905338, 0.1284492858340008, 0.07794888501994644, 0.042035858507880094, 0.017569556904408645, 0.0018664810378624887, -0.007357318192262089, -0.012018436283091629, -0.01368665942878881, -0.013599763052341129, -0.012674714585025277, -0.011515837054380997, -0.010419961206511615])","array('d', [-0.026580518111586487, -0.01465607110344426, -0.00677860464605775, -0.0015307823583550909, 0.0019751355793574308, 0.004302814352769606, 0.005814355726900675, 0.006744851829495395, 0.007248834460200232, 0.007430040678189767, 0.007361179651948479, 0.0070976440875576184, 0.006687462449486234, 0.006178750887197647, 0.00562523376873877, 0.005089922153700229])","array('d', [0.5294117490437366, 0.5097804077132816, 0.4956880919955896, 0.48598300452024584, 0.47955624238355354, 0.4755081020138065, 0.47316271451834047, 0.47200086622494003, 0.4716246514060755, 0.47173540164748956, 0.4721170922619453, 0.47262200022505585, 0.47315736460214347, 0.47367259672292034, 0.4741468591848686, 0.47483992623760995])",-232.2892653264627,-10.449257308173836,-44.97523431457463,0.07794888501994644,0.004302814352769606,0.4755081020138065,25.00000024534089,-1.0,"[-17.197823481225612, -236.0428947725017, 45.11481218428739]","[-6.729000602655583, -219.9538785315945, 50.73151085316333]","[2.794690842113269, -236.54457471076975, 44.8964357418099]",10000000000.0,0.04144906997680664
9,13.123042583465576,-17.68001937866211,-236.35499572753906,45.159034729003906,0.28186580538749684,-0.004000380635261645,0.48817689816025295,23.247985989570534,"array('d', [-237.58206176757812, -236.3701984187, -235.18814145745048, -234.02627620106765, -232.87704398165513, -231.73484665888932, -230.59566166287522, -229.45670243264368, -228.31614680322565, -227.17290798389882, -226.02643914365402, -224.876568775162, -223.72336582608122, -222.56703383246736, -221.40783319717417, -220.68649211331004])","array('d', [-20.197307586669922, -18.010909986291097, -15.808066394188236, -13.594464588961626, -11.37428719148153, -9.150505017053087, -6.925199779835947, -4.699794868027413, -2.47521700202841, -0.2520200675918886, 1.969514810265576, 4.1892967816711595, 6.407357804908094, 8.623799211769054, 10.83875197847912, 12.211975291856957])","array('d', [-45.069740295410156, -45.040167304175384, -45.02847755965813, -45.02862805531754, -45.03663882326045, -45.04983296286979, -45.0663661280336, -45.08493109300367, -45.10457061842124, -45.12455919839606, -45.14433022601589, -45.163434519679875, -45.18152165940412, -45.19833865663176, -45.21374194331056, -45.22241429740223])","array('d', [0.4499356150627135, 0.33237816401182224, 0.2260077761862716, 0.14101198128300604, 0.07788363836421175, 0.032367452096170146, 0.0008968444043120654, -0.019582436440509485, -0.03169684872190978, -0.03768777247333934, -0.03943611652296533, -0.038479432261516136, -0.03602556965756093, -0.03296388541517905, -0.029873892013771552, -0.027031017760174962])","array('d', [-0.016224361956119364, -0.007578880802178461, -0.0018682267544917008, 0.0019253390850133187, 0.004441316348108296, 0.006086598840477364, 0.007122745182496015, 0.007719409820879613, 0.007987893178517082, 0.008002890834721789, 0.00781719380389746, 0.007472145895396167, 0.007005477079160916, 0.006457365800810984, 0.005875055673508777, 0.005315970381212661])","array('d', [0.5146497050907948, 0.49848987687992896, 0.4872666487727873, 0.4800080020239411, 0.4757154939984851, 0.4735647400705743, 0.47292228351055593, 0.47329562184316165, 0.47430592196914406, 0.4756697619229398, 0.47718425657085733, 0.47871341998644906, 0.4801750811557589, 0.48152818915260925, 0.4827604608032547, 0.4845588446583343])",-231.73484665888932,-9.150505017053087,-45.04983296286979,0.032367452096170146,0.006086598840477364,0.4735647400705743,25.000000245301997,-1.0,"[-16.41305905915473, -235.6782765235278, 45.16144420086922]","[-5.815168922910191, -219.4148726382816, 49.976671996669594]","[3.5746459379887447, -236.36774842454412, 45.03386111078745]",10000000000.0,0.028306007385253906
10,13.16812515258789,-16.42266845703125,-235.7581024169922,45.23664855957031,0.20579832792282082,-0.010925645008683328,0.47768838802841695,23.244842324592177,"array('d', [-237.3734130859375, -236.17080303070367, -234.99568221362077, -233.8387289933389, -232.69261950120844, -231.55194424321576, -230.41283980105865, -229.27266012962124, -228.12970972559881, -226.98301664624356, -225.8321380615429, -224.67699630759893, -223.5177447471406, -222.3546627383242, -221.18807880807418, -220.46171416838482])","array('d', [-19.77802276611328, -17.58642306259847, -15.379845935996512, -13.163674483829864, -10.941893759144861, -8.717342223577058, -6.492006364921537, -4.267235267143307, -2.0438938032902834, 0.17751802927560192, 2.396767425342102, 4.613807550673388, 6.828710747755669, 9.041615474112309, 11.252686805141016, 12.623216905890104])","array('d', [-45.07844924926758, -45.056741296736426, -45.050463465793385, -45.054389401898526, -45.06506827074487, -45.08017153173746, -45.0980878197203, -45.11766817848211, -45.138064563250445, -45.15862793047301, -45.178845903540406, -45.19830806645482, -45.21669164646093, -45.233762942665244, -45.24939103223769, -45.258188734731874])","array('d', [0.422285348176956, 0.30735916566743565, 0.2033696485003335, 0.12071586523947694, 0.05961377448776329, 0.015889212536435954, -0.013978620330883276, -0.0330163799984413, -0.043832018093213014, -0.04865266548961084, -0.04934684291323325, -0.047440576963497474, -0.044130817514093014, -0.04029677247819793, -0.0365088200279244, -0.03303454943694441])","array('d', [-0.01247612480074151, -0.005014963027632099, -8.947901068758415e-05, 0.00317575984578301, 0.005331402370626807, 0.006727983040145484, 0.007590777217309837, 0.008065746505087868, 0.008248493609535546, 0.008203142068685753, 0.007975214856913777, 0.007600916724272695, 0.0071141992482041784, 0.006552317218964793, 0.005960115059891858, 0.005392935303654238])","array('d', [0.5097853700306753, 0.49482296326907943, 0.4846052466466359, 0.4782144500404969, 0.47468580763888657, 0.47321782895304065, 0.47319011613603057, 0.47411859028542824, 0.4756306583026391, 0.4774480869869191, 0.47937260545719285, 0.48127243363182687, 0.48306923696317966, 0.4847254358293208, 0.4862318629547694, 0.48843000939270587])",-231.55194424321576,-8.717342223577058,-45.08017153173746,0.015889212536435954,0.006727983040145484,0.47321782895304065,25.000000245289325,-1.0,"[-15.933711421369553, -235.45676488164307, 45.19292745982608]","[-5.263544552209369, -219.10757308592457, 49.53475502561997]","[4.050513210778869, -236.247973500916, 45.12397260053029]",10000000000.0,0.03180694580078125
11,13.208152770996094,-15.584033966064453,-235.36282348632812,45.29730224609375,0.16149334609508495,-0.014490003697574243,0.4713049689915518,23.239499879576258,"array('d', [-236.75717163085938, -235.58011911079666, -234.42352426846458, -233.27891042324595, -232.13963702298543, -231.00085591051595, -229.85918757715325, -228.7124195603466, -227.559250572997, -226.3990675496282, -225.23175291694255, -224.0575221771215, -222.87679183818966, -221.6900770132965, -220.49791751354567, -219.77871135087105])","array('d', [-18.51683807373047, -16.311284124176176, -14.094940749418102, -11.872410550351452, -9.647162943475603, -7.421682895594701, -5.197695517095909, -2.9763400459709457, -0.7583019306355235, 1.4560787753093227, 3.66671526500813, 5.873695468220159, 8.077216558007906, 10.27753254104853, 12.474915161731152, 13.791230117837358])","array('d', [-45.11782455444336, -45.118084934172714, -45.12691926699829, -45.14137175461443, -45.15946783939035, -45.17985397988677, -45.20157277111366, -45.22392070391068, -45.24635784960303, -45.26845146007766, -45.28984293895062, -45.31023204547519, -45.329374718716366, -45.34709219234248, -45.363289453781604, -45.3721042958191])","array('d', [0.33710780739784224, 0.23028733266600643, 0.1336321645623526, 0.05806541001997413, 0.003151416759042629, -0.03506718272703219, -0.059989540580475995, -0.07456904030610069, -0.08136354312496107, -0.08255999885885634, -0.07999037017615519, -0.07514548006919308, -0.06918828894657134, -0.06296604891472578, -0.057020329242161376, -0.051594132154848996])","array('d', [-0.002008248120546255, 0.0021472303497593647, 0.0048747522386563364, 0.006657562843249277, 0.007800367784513313, 0.008497102608213907, 0.00887189656031187, 0.009004475942187035, 0.008946449415059714, 0.008732242305431003, 0.00838691036860362, 0.007932142104479827, 0.007391170662793217, 0.006792907198227509, 0.006175295696875415, 0.005587638812980325])","array('d', [0.496311740079198, 0.48489690618586934, 0.4777038080214295, 0.4739542821512911, 0.47277051960128347, 0.473409348932577, 0.4752840402632828, 0.47793291100976737, 0.4810007718105987, 0.48422456752122195, 0.48742000182877765, 0.49046829718086504, 0.49330310056296695, 0.49589771189397197, 0.4982527269439452, 0.5018049377134088])",-231.00085591051595,-7.421682895594701,-45.17985397988677,-0.03506718272703219,0.008497102608213907,0.473409348932577,25.000000245254927,-1.0,"[-15.090657952471432, -235.06855224147083, 45.25303670103749]","[-4.3069266551934575, -218.6047394539313, 48.810283923955524]","[4.887075685091432, -236.01167328872884, 45.27914027949461]",10000000000.0,0.029429912567138672
12,13.261348247528076,-14.326359748840332,-234.77166748046875,45.399105072021484,0.10454918444156629,-0.01743992604315294,0.4625345031407217,23.231429453590913,"array('d', [-236.35499572753906, -235.19342732141754, -234.04783078065498, -232.9102323139376, -231.774400691928, -230.63583403296388, -229.49146058685608, -228.33934953292172, -227.1784589782543, -226.0084135859543, -224.82931176951624, -223.64156365603424, -222.4457601201145, -221.24257206885773, -220.0326785178849, -219.30193189347332])","array('d', [-17.68001937866211, -15.46630198141436, -13.244301574485545, -11.018218027358785, -8.791249503774784, -6.56568923985678, -4.343114882417039, -2.1245424208384396, 0.0894519702695233, 2.298628538997419, 4.502994052829673, 6.702724163814226, 8.898098182805809, 11.089446724843736, 13.277112646321319, 14.587052910646557])","array('d', [-45.159034729003906, -45.17189966015581, -45.1893883192117, -45.20984510797193, -45.232144559330834, -45.255496112101376, -45.279321315000104, -45.30317565082151, -45.32669892934644, -45.349585008415914, -45.371565626389845, -45.392405493605935, -45.411907091191466, -45.42992416875479, -45.4463828698213, -45.45533848107216])","array('d', [0.28186580538749684, 0.18030229725749553, 0.08840382776764866, 0.017281181390595878, -0.03369833947934321, -0.06837966540302784, -0.09010092630089021, -0.1017797633258282, -0.10594923600085356, -0.10477503016513794, -0.10006817142031327, -0.09329806444917349, -0.08560618204521353, -0.07781911979857939, -0.07045960538225458, -0.06375449318039972])","array('d', [0.004000380635261645, 0.006254016649715311, 0.007712692199381233, 0.008637494324794655, 0.009193035844676626, 0.009483630217593747, 0.009575291355376306, 0.00950956317932071, 0.009312622542588779, 0.009001683423977867, 0.008589906726869646, 0.00809051105882338, 0.007520435295077528, 0.006903640976145853, 0.006273920086396151, 0.005676878055024781])","array('d', [0.48817689816025295, 0.47897088668485693, 0.47369372650247055, 0.47164071670493574, 0.47197958564850223, 0.47399568024077526, 0.47711887184939367, 0.48089906582396635, 0.4849908135725891, 0.48914020268491515, 0.49317178963911473, 0.496975278700005, 0.5004922520413383, 0.503703262500557, 0.5066154243621065, 0.5110071502416466])",-230.63583403296388,-6.56568923985678,-45.255496112101376,-0.06837966540302784,0.009483630217593747,0.47399568024077526,25.00000024827099,-1.0,"[-13.826399587339539, -234.48874017874655, 45.35370004454467]","[-2.8846093958067485, -217.93954008866405, 47.883760079976604]","[6.140440174031051, -235.62910231147805, 45.51144715222821]",10000000000.0,0.04452013969421387
13,13.314866781234741,-13.493935585021973,-234.37828063964844,45.47301483154297,0.07220117747783644,-0.01750021614134324,0.4576335708287101,23.22063321688061,"array('d', [-235.7581024169922, -234.61650309770346, -233.48476155135484, -232.35554657886732, -231.22315278411563, -230.08353625417473, -228.93404449235095, -227.77313794708203, -226.60013918016972, -225.41500865554454, -224.21815030233077, -223.01024925631143, -221.79214216905314, -220.5647188542216, -219.32885326999406, -218.5812847481297])","array('d', [-16.42266845703125, -14.198712594292541, -11.969720790256691, -9.739445603359547, -7.510780228849818, -5.285795840339502, -3.0658918433060376, -0.8519286561052559, 1.3556607498743423, 3.556771898053814, 5.751540349458476, 7.940264167354818, 10.123338333639198, 12.30120201030859, 14.474299243948979, 15.774711119367215])","array('d', [-45.23664855957031, -45.26402659746395, -45.29144698382075, -45.31875315642103, -45.345802825056545, -45.37245986361563, -45.398587951730605, -45.424045838090784, -45.448684594081826, -45.472347500519774, -45.49487338808415, -45.51610432060749, -45.5358984265389, -45.55414838873257, -45.57080553472038, -45.57986740026155])","array('d', [0.20579832792282082, 0.11147359112530948, 0.026125033468944993, -0.03908262134804065, -0.084753657106718, -0.11461261082026884, -0.13193668926786944, -0.13961012043346885, -0.14014236781338704, -0.13567653046833117, -0.1279987324789091, -0.11855093498142245, -0.10844587848867247, -0.0984818826094345, -0.0891555667729231, -0.0806713001449869])","array('d', [0.010925645008683328, 0.010976376599982303, 0.010960634721534279, 0.010885982862816586, 0.01075633684718196, 0.010572760365355854, 0.010334072303350733, 0.010037535484970229, 0.009679756784523205, 0.0092578885914482, 0.008771184502664687, 0.00822291200383514, 0.007622553455586659, 0.006988129532696377, 0.006348358611789032, 0.005744232824215436])","array('d', [0.47768838802841695, 0.4714376270083738, 0.46876008420407345, 0.4690357500256807, 0.4714839598415858, 0.47541870024223803, 0.48028653214428363, 0.4856498470010022, 0.4911748473648054, 0.4966195041161415, 0.5018204642762334, 0.5066793193783733, 0.5111489081574826, 0.5152201177837261, 0.5189093515608207, 0.5244714259153852])",-230.08353625417473,-5.285795840339502,-45.37245986361563,-0.11461261082026884,0.010572760365355854,0.47541870024223803,25.000000248261056,-1.0,"[-12.98417723849377, -234.1024426763095, 45.42526363501356]","[-1.9474872598848734, -217.5356360400943, 47.35720364296667]","[6.975510128905158, -235.35263535880955, 45.644120785500014]",10000000000.0,0.03572392463684082
14,13.35669207572937,-13.077804565429688,-234.18142700195312,45.51072692871094,0.057323120534419826,-0.017113167792558774,0.45544476906326775,23.217426779519197,"array('d', [-235.36282348632812, -234.23356304865374, -233.11062013263154, -231.98702240278416, -230.85740017188067, -229.71801923977105, -228.56651415664265, -227.4016120589457, -226.22287996704753, -225.03049812585172, -223.82506409511194, -222.60743034378794, -221.37857549741528, -220.1395075747384, -219.3867340344503, -218.62765621193623])","array('d', [-15.584033966064453, -13.353889435504854, -11.120519533017045, -8.887454621704515, -6.657414113649089, -4.43233016734491, -2.2134841488926664, -0.0016301982253695939, 2.2028970698532, 4.400084682617267, 6.5901526714083225, 8.773475939525985, 10.95051806692463, 13.121778096395374, 14.423826797554547, 15.717556366102544])","array('d', [-45.29730224609375, -45.33213852108726, -45.36463765570342, -45.39541628765924, -45.424841098813005, -45.45311553968263, -45.48033281341524, -45.50650874828539, -45.5316031487762, -45.555535256533, -45.57819721510961, -45.59946835093773, -45.6192323019052, -45.63739830476374, -45.647349877582506, -45.656341152945615])","array('d', [0.16149334609508495, 0.07138478261644701, -0.010148819873204378, -0.0713417442172846, -0.11339037535615769, -0.13996718030915384, -0.15432660834283649, -0.15934173502264246, -0.1575131672149047, -0.1509734344444905, -0.14149549749963836, -0.1305062606532003, -0.11910279903383239, -0.1080684779022085, -0.09782947324025054, -0.08851977598574853])","array('d', [0.014490003697574243, 0.013398133943318784, 0.012614971204723617, 0.012018506764061954, 0.011530034388311404, 0.011097220699406269, 0.010683923003150547, 0.010264209142178323, 0.00981907409887098, 0.009334980187030082, 0.008803697854941332, 0.008223101710830748, 0.007598641117519775, 0.0069451900538510134, 0.006298897915584554, 0.00569947873535494])","array('d', [0.4713049689915518, 0.46674186922344424, 0.46556608586066706, 0.46718638077621844, 0.470835590977697, 0.47584236806027136, 0.48166335555290574, 0.48787018369334806, 0.4941388038448892, 0.5002376006805442, 0.5060139721412609, 0.5113801858086349, 0.5162993654768119, 0.5207721210552138, 0.5275051963769686, 0.5336114025792088])",-229.71801923977105,-4.43233016734491,-45.45311553968263,-0.13996718030915384,0.011097220699406269,0.47584236806027136,25.00000024519077,-1.0,"[-11.730903596408002, -233.52173092964435, 45.536395427475355]","[-0.5762046710710589, -216.96064873450848, 46.6779944862701]","[8.219742959712594, -234.9010812895333, 45.79925390161617]",10000000000.0,0.037699222564697266
15,13.411365985870361,-11.413772583007812,-233.39219665527344,45.66213607788086,0.0044583291746674225,-0.013295468874275794,0.4471925059941153,23.20369950550066,"array('d', [-235.16561889648438, -234.0423676920595, -232.9238255106121, -231.80317183386572, -230.67515957538353, -229.5361666166581, -228.3839358747729, -227.21729933858137, -226.03592383857728, -224.84008267659416, -223.63045853706743, -222.4079806205237, -221.1736960537128, -219.92867371242826, -219.17194133709378, -218.40849848848987])","array('d', [-15.164782524108887, -12.931651356331306, -10.696103256322887, -8.461578322173578, -6.230735507943361, -4.005461266535293, -1.7869975349585225, 0.4239384326318272, 2.6270479134177265, 4.822353202727357, 7.010108798146221, 9.190722911302746, 11.364690926601957, 13.532541927951554, 14.83230113362964, 16.123458214196404])","array('d', [-45.32990264892578, -45.36761264146087, -45.40205902904312, -45.43415853681129, -45.46447617809295, -45.4933483580549, -45.52095873102625, -45.54738562654703, -45.57263275414501, -45.59665071690488, -45.6193543980104, -45.64063976313413, -45.66040257309472, -45.67856061871177, -45.68850649061334, -45.69749234970458])","array('d', [0.141336068511009, 0.05314572148469556, -0.026652209987697427, -0.08640541745571349, -0.12712410548806638, -0.15246415187709353, -0.16567511976756993, -0.16962958796987151, -0.16682799005438806, -0.15940114988907603, -0.14911833097990107, -0.13740105016892795, -0.1253399261858675, -0.11371147699265732, -0.10293536647669084, -0.09313977965927218])","array('d', [0.015865596011281128, 0.014329175375258022, 0.01324686291501583, 0.012446796084388532, 0.011818394618167471, 0.011288699246551757, 0.010808066097491253, 0.010341625213153616, 0.0098643815641363, 0.009358719693021595, 0.008813569103676814, 0.008224751464186584, 0.007596147645204086, 0.006941340185673367, 0.00629510768054992, 0.005696049384727384])","array('d', [0.46823199192551174, 0.46443080829468764, 0.46393682109087336, 0.4661776638719653, 0.47039717503524614, 0.47592747229190846, 0.4822270791903526, 0.488869435072423, 0.4955327811932378, 0.5019883072384326, 0.5080865429501707, 0.513742980421282, 0.5189238674058555, 0.5236327127737959, 0.5307199537612559, 0.5371468600674077])",-229.5361666166581,-4.005461266535293,-45.4933483580549,-0.15246415187709353,0.011288699246551757,0.47592747229190846,25.000000248251983,-1.0,"[-10.478637996154013, -232.93852975369205, 45.64628125792053]","[0.7803215540736552, -216.4145712095391, 46.08744322075512]","[9.463897819950908, -234.43024111061024, 45.910974384037644]",10000000000.0,0.05279970169067383
16,13.455121040344238,-10.997897148132324,-233.19435119628906,45.69944381713867,-0.007317485753446993,-0.012111561372876277,0.44546528259781387,23.20032843336082,"array('d', [-234.37828063964844, -233.2758167699371, -232.17254983320132, -231.06217089577683, -229.9399286112515, -228.80267767068574, -227.64861597025205, -226.47700389712014, -225.2879017762163, -224.08193450373344, -222.86009055760482, -221.623558276285, -220.37359862145246, -219.60990950615144, -218.837271595492, -218.05684236191684])","array('d', [-13.493935585021973, -11.250526563067591, -9.00743463019483, -6.7678066472157274, -4.534067628819486, -2.307909094932731, -0.0904000448708273, 2.1179031697430575, 4.316853553734411, 6.506615373628876, 8.687573491512518, 10.86025289370486, 13.025250504177688, 14.325598540214182, 15.616003449419384, 16.896966902394777])","array('d', [-45.47301483154297, -45.51406862087081, -45.5506355235383, -45.58401870340582, -45.61504158528788, -45.64421568738287, -45.67184487068293, -45.698090966626815, -45.72301623744867, -45.74661251375773, -45.76882352430916, -45.78956488651585, -45.80874485881767, -45.81933979208181, -45.82894825149091, -45.83762905331578])","array('d', [0.07220117747783644, -0.009410119974037899, -0.08325507597729177, -0.1368808809904917, -0.17199234285166926, -0.1922084558811978, -0.20077564585362406, -0.20057230342854346, -0.1941011863731645, -0.18348759734615896, -0.17048772056193454, -0.15650484280370205, -0.14260914793656973, -0.1293867009340527, -0.11711834944544172, -0.10597307450835391])","array('d', [0.01750021614134324, 0.015379672360489384, 0.01389958614638815, 0.012825667610150353, 0.01200693345723064, 0.011343938257219261, 0.010769442183084399, 0.010236707414662417, 0.009712583082889591, 0.009173707812185577, 0.008604824567994603, 0.007998569203910975, 0.0073562740466445245, 0.00670574425381318, 0.006081391956024823, 0.0055026711867919055])","array('d', [0.4576335708287101, 0.45642725552533414, 0.4582717038243655, 0.4626271214623967, 0.4687482736210597, 0.4759810360767096, 0.48379513585995665, 0.4917769455608792, 0.49962037122722447, 0.5071144277030822, 0.5141285716088407, 0.5205973563803618, 0.5265055692938163, 0.5354000524840274, 0.5434732514296043, 0.5507926328195367])",-228.80267767068574,-2.307909094932731,-45.64421568738287,-0.1922084558811978,0.011343938257219261,0.4759810360767096,25.000000245153064,-1.0,"[-9.6443810030765, -232.5480818956923, 45.71761071504026]","[1.6762152069546552, -216.0603946657692, 45.7340806166588]","[10.293139214911744, -234.1073534141861, 45.97051363895393]",10000000000.0,0.03972578048706055
17,13.54103684425354,-8.925216674804688,-232.201171875,45.8773193359375,-0.062194705009460616,-0.006216098554432508,0.43781776825455215,23.186902787546696,"array('d', [-234.18142700195312, -233.08323468821095, -231.98305250906543, -230.87467163742377, -229.75342227364797, -228.6162381855695, -227.4613977443053, -226.28824139717355, -225.09690666562932, -223.88809070913914, -222.66284804694524, -221.42242633863162, -220.16813926101523, -219.4015252079401, -218.6256233266966, -217.8416324045548])","array('d', [-13.077804565429688, -10.832286046243961, -8.58766945730568, -6.347045066963416, -4.112802484797439, -1.886606000085647, 0.3305006313803793, 2.5379863703407533, 4.735730155033551, 6.923922597619876, 9.10297482233848, 11.273437476081009, 13.435932119995426, 14.73456740711489, 16.02301867793126, 17.3018025606626])","array('d', [-45.51072692871094, -45.5509396755983, -45.58687114815711, -45.61975518823857, -45.65037067179973, -45.679200336558864, -45.70652944617037, -45.73250789712033, -45.757190423872984, -45.780564263939475, -45.80257049961281, -45.82312335730455, -45.8421304462269, -45.852630302791916, -45.8621526401129, -45.87075561406426])","array('d', [0.057323120534419826, -0.022872344320831364, -0.09543620616595631, -0.1480691635771256, -0.18223873679881983, -0.20156121170365715, -0.2092865734451932, -0.20829807255626948, -0.20110195608663778, -0.18982462080395512, -0.17622094959231255, -0.16169104701673798, -0.14730071774458345, -0.13363129728932738, -0.12095894080737665, -0.10944818559747913])","array('d', [0.017113167792558774, 0.015092137110427686, 0.013677629606479638, 0.012647545874457006, 0.011858614539944938, 0.011216343019053927, 0.01065671590445901, 0.010135120182473964, 0.00961981831365631, 0.0090883914703395, 0.008526202910380403, 0.007926276515899324, 0.007290153029908583, 0.006645598933184304, 0.006026878929896751, 0.005453345952610435])","array('d', [0.45544476906326775, 0.45479467022000347, 0.4571434580877025, 0.46196339681977155, 0.46851576092616437, 0.4761465424511187, 0.4843253903047283, 0.49263923298913787, 0.5007833462306069, 0.50854877146822, 0.5158073766065143, 0.5224962517288066, 0.5286026539801744, 0.5377931230946644, 0.5461339266609473, 0.5536954459953191])",-228.6162381855695,-1.886606000085647,-45.679200336558864,-0.20156121170365715,0.011216343019053927,0.4761465424511187,25.000000248239044,-1.0,"[-7.566724410971472, -231.56523804943927, 45.886643423721935]","[3.880234236279697, -215.1924610934608, 44.93832255086195]","[12.359351910422621, -233.26774318780588, 46.11677097055849]",10000000000.0,0.08354473114013672
18,13.603073596954346,-7.683750629425049,-231.60145568847656,45.97739028930664,-0.09307187795639056,-0.0027701316867025003,0.43385847012070206,23.181466891955736,"array('d', [-233.19435119628906, -232.11578829940626, -231.0300555185204, -229.93138779835482, -228.81558965922636, -227.68007222096665, -226.5235747667578, -225.34586887615794, -224.1474804388902, -222.92944326568255, -221.6930925258434, -220.43989997461946, -219.66973250239644, -218.88770317399872, -218.09528148706926, -217.29380198320587])","array('d', [-10.997897148132324, -8.742719327239765, -6.490970071480766, -4.245493718797398, -2.0084720691277234, 0.21861292550880077, 2.434884644426565, 4.639969549141136, 6.833894004120944, 9.016983087740716, 11.189766089067817, 13.35289261119272, 14.654036771950825, 15.94351385615778, 17.221910775879277, 18.489809803653937])","array('d', [-45.69944381713867, -45.72898491193723, -45.757239648767694, -45.78445777795209, -45.81077168199208, -45.83623445556431, -45.8608424541174, -45.88454880068065, -45.907272193379185, -45.928904084468144, -45.94931656076892, -45.968372781537795, -45.97901543973793, -45.98873391963308, -45.997551988161156, -46.00551943433676])","array('d', [-0.007317485753446993, -0.08136158889961666, -0.14835946652344448, -0.1949719979761696, -0.2236079344855485, -0.2378923151982972, -0.2411030880643194, -0.23614961972967352, -0.2255533697913626, -0.21144365613458388, -0.19556857236023054, -0.17931566379863279, -0.16339578455189552, -0.1481908526238809, -0.13413243093189373, -0.12136805346784843])","array('d', [0.012111561372876277, 0.011531540470878688, 0.011080258478721388, 0.010701001727488531, 0.010356261079778013, 0.010019920704701197, 0.009672590119174035, 0.009299003453663078, 0.008886836735135854, 0.008426570231737214, 0.007912173441915865, 0.007342454901791062, 0.00674482894810427, 0.006153306558431604, 0.00558165159640091, 0.0050504875653364645])","array('d', [0.44546528259781387, 0.44723139142442675, 0.45178239005356424, 0.45860250229691674, 0.4669474820555405, 0.476171421060769, 0.4857543386979372, 0.49529821487544406, 0.5045176835102358, 0.5132259721839975, 0.5213184105201403, 0.5287556676356053, 0.5399745585990327, 0.5501831044745722, 0.559443892964565, 0.5678375205269132])",-227.68007222096665,0.21861292550880077,-45.83623445556431,-0.2378923151982972,0.010019920704701197,0.476171421060769,25.00000024822933,-1.0,"[-6.7373438931117, -231.16946922364502, 45.95029634729405]","[4.754513951340461, -214.8532249902567, 44.63980888099552]","[13.184214667323616, -232.92502389689244, 46.17285490674694]",10000000000.0,0.05347108840942383
19,13.69988751411438,-5.616143703460693,-230.59483337402344,46.133056640625,-0.14265169203281414,0.00197138777002683,0.4283315698292591,23.180318695806804,"array('d', [-232.40040588378906, -231.33379953051062, -230.25642121389012, -229.16278587987546, -228.04892487992902, -226.91248286558087, -225.75244855529417, -224.56884723798083, -223.36245120091547, -222.13452468885714, -220.88661240344672, -219.62037303686134, -218.84125328194241, -218.04912810165996, -217.24560807173978, -216.43215050684384])","array('d', [-9.338996887207031, -7.078032738817789, -4.822198347843258, -2.5742122586140486, -0.33618575403658496, 1.890457079646694, 4.104902040802468, 6.306845648663403, 8.496391098228836, 10.673944478925403, 12.840117368851914, 14.995640442763705, 16.291477081051145, 17.574809621760455, 18.846281495179117, 20.106531205236564])","array('d', [-45.84300994873047, -45.86263375928363, -45.88378840645358, -45.90580848459687, -45.92822279499316, -45.95068253740205, -45.97291420148972, -45.994688373144754, -46.01579953715413, -46.036054241832716, -46.05526638581037, -46.073259218368285, -46.08332572367, -46.09252616576566, -46.10087725388936, -46.10842331184273])","array('d', [-0.0516705028712751, -0.1214938620418581, -0.18467265373940736, -0.22855111050937485, -0.25450437944456783, -0.26618145464416304, -0.26689574534574206, -0.2595892474848075, -0.24680613110713256, -0.23068670146509454, -0.21297962031698472, -0.19506523158337008, -0.1776427789000289, -0.16108046323160996, -0.14579518507948713, -0.13192095077370597])","array('d', [0.007457002997398492, 0.008229323064183034, 0.008686962289439009, 0.008925351079901793, 0.009005008462768296, 0.008963715837094351, 0.008824177466358295, 0.00859913413381302, 0.008295070093865473, 0.007915207722947345, 0.007462215536677215, 0.0069408718527255745, 0.00638340919438338, 0.005826923567872858, 0.005286441202157278, 0.004783370130295097])","array('d', [0.43930716911819945, 0.4427375966644751, 0.4488151947700188, 0.4570563910786522, 0.46673222516605106, 0.4771895408951648, 0.48790369222772706, 0.49847622079242465, 0.5086252898730249, 0.5181704842742969, 0.527015025375228, 0.5351279409637875, 0.5473507080178388, 0.5584646767626855, 0.5685429992131477, 0.5776755408967637])",-226.91248286558087,1.890457079646694,-45.95068253740205,-0.26618145464416304,0.008963715837094351,0.4771895408951648,25.000000248221323,-1.0,"[-4.664508420683621, -230.1725307784076, 46.10121189928977]","[6.922020992581741, -214.01652021034465, 43.9250550390946]","[15.246610613813527, -232.04237773076795, 46.32706842196287]",10000000000.0,0.08599209785461426
20,13.783645629882812,-3.5540308952331543,-229.57833862304688,46.27558517456055,-0.18657968938350689,0.0058786189183591755,0.4258778850224356,23.185469312102807,"array('d', [-231.60145568847656, -230.54536240600893, -229.4750841435559, -228.38543464256526, -227.27283083967592, -226.13531167298947, -224.9722303479915, -223.78393246180434, -222.5714560995281, -221.3362716667506, -220.0800694576357, -219.30299252162777, -218.5104181001445, -217.7041826938046, -216.88598605457955, -216.05736222439367])","array('d', [-7.683750629425049, -5.417794224338274, -3.1585293290553804, -0.9085660390349237, 1.3301190159339968, 3.5562379572547513, 5.76910505812358, 7.968534925719083, 10.154733805675376, 12.328191159447554, 14.48957846816597, 15.791148501326235, 17.078889494454454, 18.35347101776888, 19.615585226947733, 20.865917729596518])","array('d', [-45.97739028930664, -45.98702431491928, -46.00102189793555, -46.017797802085376, -46.036270233640785, -46.05568014622094, -46.07547458051164, -46.09523053836702, -46.11460547482319, -46.1333062177468, -46.1510716147065, -46.161156340217055, -46.17047002930591, -46.17899595344748, -46.18673993794526, -46.193738347443])","array('d', [-0.09307187795639056, -0.158955378747274, -0.21856923430001457, -0.25764805560006204, -0.27929911705384575, -0.2872079189121744, -0.2847238773578017, -0.2748136261229985, -0.2600327515692814, -0.24252271089330601, -0.22402761123585666, -0.2053525727249589, -0.1869383530409502, -0.16948725764601083, -0.153401401957721, -0.13880334103816977])","array('d', [0.0027701316867025003, 0.004901552910014317, 0.006273682919775135, 0.007132809461144004, 0.0076368616735814, 0.007887050632831023, 0.007947651170042208, 0.007858762305681073, 0.007644909391863627, 0.0073212241028379615, 0.006898268784960955, 0.0064148113032210475, 0.005912199284322665, 0.005402444182847897, 0.004902779518943279, 0.004436218652098733])","array('d', [0.43385847012070206, 0.4388533323094318, 0.44637214798057373, 0.45591103988729, 0.46671465043674776, 0.47813950933577465, 0.48967616183766277, 0.5009465585731032, 0.5116927765580931, 0.5217599849052458, 0.5310773247373554, 0.5451777576665318, 0.558058440164418, 0.5697650059750825, 0.5803780495480291, 0.5899937247070878])",-226.13531167298947,3.5562379572547513,-46.05568014622094,-0.2872079189121744,0.007887050632831023,0.47813950933577465,25.000000248218456,-1.0,"[-2.6005525968536776, -229.1626953494612, 46.24020275885531]","[9.039881394228155, -213.16778679973413, 43.29687182517917]","[17.303959677454117, -231.0992089347552, 46.485776079682346]",10000000000.0,0.08233213424682617
21,13.821303129196167,-3.1416015625,-229.37371826171875,46.30272674560547,-0.19450263679027574,0.0064264088869094,0.42594690720108563,23.185392296592195,"array('d', [-230.59483337402344, -229.54909290109669, -228.48502292408716, -227.39785001371976, -226.2844545952718, -225.14333033913692, -223.9742434265053, -222.77789204307453, -221.55559424074963, -220.30902238593572, -219.53334935535466, -218.7390756993731, -217.92828692489627, -217.10296258342484, -216.26492426004526, -215.41581037408037])","array('d', [-5.616143703460693, -3.345373945910193, -1.083148742203683, 1.1680421534779017, 3.4063599654006222, 5.630655405456275, 7.840374444194159, 10.035450326442724, 12.216187495468644, 14.383146538615131, 15.68991968394824, 16.981206822401184, 18.25767673488846, 19.52006891147952, 20.769144485977073, 22.00565566882694])","array('d', [-46.133056640625, -46.13255867669521, -46.13925017020965, -46.15063049812147, -46.165007233878214, -46.18120886999565, -46.198399544411394, -46.215958267115, -46.23340010521372, -46.25032577523534, -46.26011929232148, -46.269293448133126, -46.27779536079326, -46.28559313371658, -46.292681420411775, -46.29908827560302])","array('d', [-0.14265169203281414, -0.20381705373766973, -0.25831389227804735, -0.29197952753710754, -0.30884046544897364, -0.3126412647244476, -0.30678289642198237, -0.2942659487757413, -0.2776625531397716, -0.25911845728620553, -0.23951574132807193, -0.21933054910626956, -0.1995688193246402, -0.18091008892679922, -0.16373643844244398, -0.148154869613284])","array('d', [-0.00197138777002683, 0.0015148588611252909, 0.003800219090821437, 0.005279399743359076, 0.0062065852536950135, 0.006745818906325069, 0.007002546184775046, 0.0070438581643845945, 0.006911926272747315, 0.0066333601363477825, 0.006261722280961791, 0.005847927764477556, 0.005403691738020236, 0.004944030231318797, 0.004488359809369759, 0.0040612361582321715])","array('d', [0.4283315698292591, 0.43522096344125405, 0.44447410889212197, 0.4555648678260113, 0.4677272173565425, 0.4803303198267346, 0.49288544087138714, 0.5050420308213901, 0.5165738750868195, 0.5273597059419791, 0.5437850223312152, 0.5588855264740104, 0.5726642169965654, 0.5851789833364917, 0.596520814189305, 0.6067946170490215])",-225.14333033913692,5.630655405456275,-46.18120886999565,-0.3126412647244476,0.006745818906325069,0.4803303198267346,25.00000024821718,-1.0,"[-1.923998349812845, -228.82759372562066, 46.2836196171062]","[9.717222996201352, -212.8764252329903, 43.11467826504238]","[17.980284894150422, -230.76592023559618, 46.53341730486411]",10000000000.0,0.03245949745178223
