,current_time,x_pos,y_pos,z_pos,roll,pitch,yaw,vel,x_traj,y_traj,z_traj,roll_traj,pitch_traj,yaw_traj,x_cmd,y_cmd,z_cmd,roll_cmd,pitch_cmd,yaw_cmd,vel_cmd,effector_dmg,effector_x,effector_y,effector_z,cost,time_solution
0,2.993955373764038,-338.09619140625,-194.2576141357422,49.96997833251953,0.3416056334972379,0.035025477409362696,0.6270858208325248,15.754933299734443,"array('d', [-195.32850646972656, -193.83662901437256, -192.36906231448106, -190.92311755315055, -189.49635505452773, -188.08661222222432, -186.69199289154008, -185.31084322177344, -183.94172368386563, -182.58338091759364, -181.23472104894896, -179.89478521950846, -178.56272775077676, -177.23779723363972, -175.91932077700878, -174.86980544763458])","array('d', [-339.64508056640625, -337.6402681558499, -335.616900403307, -333.57773003904254, -331.52496249564507, -329.46041026235747, -327.3855839421205, -325.3017531878201, -323.2099916054531, -321.1112119851439, -319.00619495003775, -316.8956126468712, -314.78004839711934, -312.6600128606803, -310.53595705659137, -308.83350445799186])","array('d', [-49.979732513427734, -49.90994927407368, -49.86375330070041, -49.83271275039667, -49.811534996842745, -49.79685636064848, -49.786511110635594, -49.77908575666246, -49.77364466265003, -49.76955958925892, -49.76640300155116, -49.76388098911107, -49.7617911208191, -49.759996183948324, -49.75840809453969, -49.757264222623725])","array('d', [0.34220239520072926, 0.3016767991046841, 0.26601950646317846, 0.23479934051391504, 0.20757517084129876, 0.18390963583630193, 0.16337885753779333, 0.14557953635368046, 0.13013428794780205, 0.11669577446939361, 0.10494999744680997, 0.09461900767549744, 0.0854632178015797, 0.07728345845406479, 0.06992288879860492, 0.06326885189239091])","array('d', [-0.0337924100458621, -0.022234554030131765, -0.014847640806367543, -0.010065241046912376, -0.006929481954396314, -0.0048482161471598275, -0.0034513112338899663, -0.0025047710183284705, -0.0018588823698545483, -0.0014165566652983295, -0.0011137653191953458, -0.0009072893884497702, -0.0007669466216030032, -0.0006706100704411742, -0.0006010223911504693, -0.0005438277076005267])","array('d', [0.6464309255268914, 0.6333554227329892, 0.6219194634594191, 0.6118927459075036, 0.6030777752454971, 0.5953048889239273, 0.5884284447689272, 0.5823237984556106, 0.5768848041385853, 0.5720216516790353, 0.5676589116178196, 0.5637336999728614, 0.5601939033466757, 0.5569964240694589, 0.5541054177460939, 0.5508367063893728])",-188.08661222222432,-329.46041026235747,-49.79685636064848,0.18390963583630193,-0.0048482161471598275,0.5953048889239273,25.000000248654437,-1.0,"[-337.1948217919452, -193.58376649547614, 49.919712001397336]","[-329.11224225891726, -176.25391598304577, 55.78044483177741]","[-317.3220152221883, -191.3326122652668, 49.98187045086963]",10000000000.0,0.020218610763549805
1,3.0310354232788086,-338.09619140625,-194.2576141357422,49.96997833251953,0.3416056334972379,0.035025477409362696,0.6270858208325248,15.754933299734443,"array('d', [-195.14813232421875, -193.66274562942294, -192.20166327689708, -190.76216336378266, -189.34178245697038, -187.9383422559548, -186.54993741790997, -185.17491001432379, -183.8118202625948, -182.45941731578154, -181.11661168889145, -179.78245005821623, -178.4560928433225, -177.1367948512537, -175.82388920897557, -174.77878011961926])","array('d', [-339.3884582519531, -337.3788609669878, -335.35081833434595, -333.3070987895811, -331.2499129095392, -329.18107223152083, -327.1020827551639, -325.01420734273523, -322.91851156812874, -320.81589959420245, -318.7071432785501, -316.5929061903262, -314.473763490195, -312.3502182449485, -310.2227145332711, -308.5175534216463])","array('d', [-49.97859573364258, -49.90799423253385, -49.8612572689284, -49.82985385817296, -49.80842919879496, -49.79358010991609, -49.78311541831136, -49.775605011414136, -49.77010223085844, -49.7659714179378, -49.76277997252253, -49.760230489024735, -49.75811811958558, -49.75630400829193, -49.75469901657161, -49.75354298062208])","array('d', [0.3419924080371854, 0.30098744623685464, 0.2649965567726311, 0.23355913494032057, 0.2062094689347776, 0.18248958654589015, 0.16195830719770515, 0.14419783424247182, 0.12881870829618594, 0.11546364293409238, 0.10381058792019168, 0.0935752597536078, 0.08451331444829734, 0.07642229593250559, 0.06914346573609641, 0.06256360067707868])","array('d', [-0.034188974648714, -0.022495136618029522, -0.015021376963685225, -0.01018275464195274, -0.007010115665739956, -0.0049043556481444825, -0.0034910002833796507, -0.002533310614005406, -0.001879818962427732, -0.0014322984067866237, -0.0011259687916218642, -0.0009171026469283266, -0.000775160960259945, -0.0006777531447763048, -0.000607413709584448, -0.0005496108121916404])","array('d', [0.6431959430363513, 0.6301401713450429, 0.6187407496467401, 0.6087613884124571, 0.6000001514430763, 0.5922840700478299, 0.5854650579524879, 0.5794166994899053, 0.5740316125028097, 0.5692191798838098, 0.5649035090610298, 0.5610215242776032, 0.5575211276876492, 0.5543593861798554, 0.5515007144548727, 0.5482685453586374])",-187.9383422559548,-329.18107223152083,-49.79358010991609,0.18248958654589015,-0.0049043556481444825,0.5922840700478299,25.000000248654356,-1.0,"[-336.8823249407545, -193.37797269267705, 49.917450857921004]","[-328.7300786155735, -176.07656085797484, 55.765700885031706]","[-317.0015260413716, -191.1979368299875, 49.953210607429476]",10000000000.0,0.026186227798461914
2,3.06465482711792,-337.31439208984375,-193.73280334472656,49.965187072753906,0.34209159016609175,0.03486972674727428,0.6172496239331107,15.753925007859896,"array('d', [-194.7896270751953, -193.3172610037663, -191.8691946305965, -190.4426363025636, -189.03507335648794, -187.64429517422388, -186.26837752506677, -184.9056539689959, -183.55468399322675, -182.2142216252351, -180.88318605291298, -179.56063494833245, -178.24574087411872, -176.93777102921672, -175.63607054331814, -174.59982498479764])","array('d', [-338.8733825683594, -336.85426646395285, -334.816927086346, -332.7641607092208, -330.6981867586276, -328.62081436683314, -326.53354025479683, -324.4376138323349, -322.3340848303273, -320.2238404159785, -318.10763518328025, -315.9861158064171, -313.8598413686348, -311.7292999743274, -309.59492202323577, -307.88435957498746])","array('d', [-49.97537612915039, -49.90364108038997, -49.85615611157423, -49.824252417687156, -49.80248878735673, -49.78740712908395, -49.77678087875547, -49.769156774425085, -49.76357278121235, -49.759382865893784, -49.75614732420052, -49.753563830562776, -49.751424122157154, -49.74958701450533, -49.74796187620786, -49.74679136210392])","array('d', [0.34163433313369723, 0.29966344337920386, 0.2629990782311075, 0.2311215906198821, 0.20351601599596075, 0.17968310674625823, 0.15914703105166506, 0.14146094986042274, 0.12621120098489186, 0.11302054522972806, 0.10155077302524801, 0.09150487911527416, 0.08262895818513555, 0.07471393976435044, 0.06759725769907948, 0.06116453366240486])","array('d', [-0.034738704562187084, -0.022855782733871895, -0.01526126015968034, -0.010344435807744724, -0.007120477833372874, -0.004980621234220499, -0.003544364892888213, -0.0025711631502504362, -0.0019071128538671004, -0.0014524063755051624, -0.0011412189131304326, -0.0009291146695516142, -0.000785055443340359, -0.0006862785912407753, -0.0006150208472757824, -0.0005564940356393844])","array('d', [0.636726633706365, 0.6237077671143089, 0.6123791753521258, 0.6024925418326023, 0.5938370173289546, 0.5862329970813742, 0.5795274843639707, 0.573590499123707, 0.5683121658215506, 0.5636002342621861, 0.5593778686189149, 0.555581594930391, 0.5521593341795055, 0.54906847229141, 0.5462739339501121, 0.5431142466916227])",-187.64429517422388,-328.62081436683314,-49.78740712908395,0.17968310674625823,-0.004980621234220499,0.5862329970813742,25.000000248654153,-1.0,"[-336.15961572838756, -192.90876488509377, 49.91327842706126]","[-327.84354073358077, -175.67808550628467, 55.73964820810261]","[-316.260958401862, -190.89804901093007, 49.89187107091458]",10000000000.0,0.02814960479736328
3,3.096557855606079,-336.7903137207031,-193.3870086669922,49.96192932128906,0.34253096580505343,0.03448092937469477,0.6107354919102528,15.755126589542732,"array('d', [-194.6115264892578, -193.14564811723292, -191.7040776253621, -190.28398609090945, -188.8828348369181, -187.4983961430246, -186.1287356253697, -184.77218201740052, -183.42729396375742, -182.0928275208715, -180.76770585920343, -179.45099183876036, -178.1418638196207, -176.83959495207233, -175.54353614694142, -174.511755367191])","array('d', [-338.61492919921875, -336.5911094561477, -334.5491734196101, -332.49193012678444, -330.42160326644824, -328.3400009998427, -326.24861578677775, -324.148690731532, -322.04126806163106, -319.9272268425274, -317.8073134023251, -315.6821663007986, -313.5523368827189, -311.41830604006674, -309.2804975725925, -307.5672380129466])","array('d', [-49.973636627197266, -49.90158545733592, -49.853892526890746, -49.82185039652733, -49.799993648601124, -49.78484880208005, -49.77417935877688, -49.76652554202889, -49.76092097374146, -49.75671667602093, -49.75347091584625, -49.75087995261522, -49.748734534129696, -49.74689279756689, -49.74526367727452, -49.744090313736294])","array('d', [0.34157025814056374, 0.29910546103519103, 0.2620943306458592, 0.22998763429552757, 0.20224574371550572, 0.17834873955276387, 0.15780342436565017, 0.14014838990007347, 0.12495781785627351, 0.11184443379740597, 0.10046188829988939, 0.09050675631687767, 0.08172029646170559, 0.0738900810037326, 0.06685158673310707, 0.06048982260974166])","array('d', [-0.03489217162132256, -0.022956206610680693, -0.015327802180481652, -0.010389018692415482, -0.007150632649375267, -0.0050011780838972175, -0.0035584703674540375, -0.002580900591129791, -0.0019138849821622142, -0.0014571736305171723, -0.0011446487607740766, -0.0009316750049169006, -0.0007870722408481611, -0.0006879703458501118, -0.0006165179366351048, -0.0005578486582318388])","array('d', [0.6335148374226429, 0.6205096488293274, 0.6092122417554234, 0.599368206602403, 0.5907621794525565, 0.5832111902454719, 0.576559746196225, 0.5706760488220823, 0.565448943534468, 0.5607853348129418, 0.5566078898090143, 0.5528529132481572, 0.5494683162459203, 0.5464116275847671, 0.5436480125461692, 0.5405232754694699])",-187.4983961430246,-328.3400009998427,-49.78484880208005,0.17834873955276387,-0.0050011780838972175,0.5832111902454719,25.00000024865403,-1.0,"[-335.9015800012045, -192.74335138042056, 49.911901243835324]","[-327.52711331843847, -175.53914823621528, 55.73287212094498]","[-315.9968674244612, -190.79378053477004, 49.87201697341663]",10000000000.0,0.02589130401611328
4,3.1212809085845947,-336.7903137207031,-193.3870086669922,49.96192932128906,0.34253096580505343,0.03448092937469477,0.6107354919102528,15.755126589542732,"array('d', [-194.2576141357422, -192.80476809846894, -191.37626122912621, -189.96918608711812, -188.58094961203946, -187.20928831205663, -185.85224636460495, -184.50814198912008, -183.17553147126839, -181.85317438859929, -180.54000144299232, -179.23508551440395, -177.93761626000486, -176.64687847767726, -175.36223441668207, -174.33947060275273])","array('d', [-338.09619140625, -336.0630056570126, -334.0119133299861, -331.9457471551867, -329.8667389652373, -327.7766951818277, -325.6771001713148, -323.56918492979776, -321.4539771882181, -319.33234029611447, -317.20500450199285, -315.0725925488059, -312.9356406755465, -310.7946156812625, -308.6499284613631, -306.93122580858676])","array('d', [-49.96997833251953, -49.89765334773103, -49.849781832874704, -49.81762243796829, -49.795688530251944, -49.780493115575275, -49.7697909298302, -49.76211640238389, -49.75649925037265, -49.75228781135598, -49.74903847117321, -49.74644615178088, -49.74430064781119, -49.74245943366038, -49.74083102085727, -49.73965818475189])","array('d', [0.3416056334972379, 0.29813160619782014, 0.26040860774167374, 0.22782774332490507, 0.19979970098712205, 0.17576292867925283, 0.1551892434370479, 0.13758786569170564, 0.12250844907539528, 0.10954344988253784, 0.09833005895123746, 0.08855185251908078, 0.07994028085959587, 0.07227609023410198, 0.06539075803846728, 0.05916801002426992])","array('d', [-0.035025477409362696, -0.02304282697195325, -0.01538457445890498, -0.010426389738197185, -0.007175205393439577, -0.00501720322736072, -0.0035687355138328933, -0.002587269088249296, -0.0019176273006356786, -0.0014591734264879916, -0.0011455316071360272, -0.0009318882587797398, -0.0007869332509623732, -0.000687693702987994, -0.0006162287975441016, -0.0005575872270995374])","array('d', [0.6270858208325248, 0.6141013297897331, 0.6028606121996634, 0.5930968833926998, 0.5845856162936685, 0.577137006607731, 0.5705904844945808, 0.5648105431507043, 0.5596834094136519, 0.555114246237472, 0.5510246844367342, 0.5473505514458331, 0.5440397106129738, 0.5410499539712252, 0.5383469099780516, 0.5352906921610915])",-187.20928831205663,-327.7766951818277,-49.780493115575275,0.17576292867925283,-0.00501720322736072,0.577137006607731,25.00000024628904,-1.0,"[-335.5622044680607, -192.52731475577946, 49.91021817550932]","[-327.11251305733146, -175.3572877428549, 55.72338318597389]","[-315.64992757449517, -190.65719737243924, 49.84784922085868]",10000000000.0,0.022492408752441406
5,3.157918930053711,-335.9880676269531,-192.867431640625,49.95726013183594,0.33932548761367776,0.033021640032529734,0.6009614626553397,15.771206509666563,"array('d', [-193.90692138671875, -192.46741369174143, -191.05229555615003, -189.65857471478648, -188.28359983383888, -186.92506906191304, -185.5810033425534, -184.2497091181635, -182.92973943135848, -181.61985677304403, -180.3189989693928, -179.02624865501215, -177.74080661432936, -176.461969182484, -175.18910986964144, -174.1756796180919])","array('d', [-337.5754699707031, -335.5328133498927, -333.47245832107234, -331.39725935920524, -329.30945604045195, -327.21085321897436, -325.10292752800416, -322.9868982525734, -320.86377900280536, -318.7344177469535, -316.5995289436212, -314.4597197665118, -312.3155115595756, -310.1673572086443, -308.01565485863523, -306.2914321470562])","array('d', [-49.96681213378906, -49.89464021751064, -49.846871892462154, -49.81478388564079, -49.792900957121844, -49.77774329984184, -49.76707019575711, -49.75941895902083, -49.75382114194067, -49.74962624991327, -49.7463914094382, -49.74381200846499, -49.74167813173827, -49.73984743408301, -49.73822854452833, -49.737062604375545])","array('d', [0.3418472111225126, 0.2973193751022434, 0.2588490447134267, 0.2257659630612633, 0.19742980318660214, 0.17323628527772741, 0.15262131047053393, 0.1350639239692336, 0.12008855366829013, 0.10726678444962304, 0.09621883496328201, 0.0866148566102969, 0.07817614944479753, 0.07067637474477442, 0.06394283366092278, 0.05785787375035627])","array('d', [-0.03495176509022703, -0.022993622319648282, -0.015350951638203528, -0.010402730990354953, -0.007157971981547347, -0.005004160245819239, -0.0035584666716365963, -0.0025788740151905967, -0.0019105326950630112, -0.0014530148077032058, -0.0011400786777208737, -0.0009269970763636267, -0.0007825147503993539, -0.0006836920510467816, -0.0006126055368793761, -0.0005543087649804831])","array('d', [0.6205369393017626, 0.6075651421892017, 0.5963749739923205, 0.5866868140357834, 0.578266642509913, 0.5709175718215519, 0.5644737606310327, 0.5587958401076514, 0.5537672974101688, 0.5492914600191834, 0.5452888513956928, 0.5416947699023347, 0.5384569951037835, 0.5355335586562594, 0.5328905376231835, 0.5299021622334369])",-186.92506906191304,-327.21085321897436,-49.77774329984184,0.17323628527772741,-0.005004160245819239,0.5709175718215519,25.00000024628805,-1.0,"[-334.79833808853016, -192.04881822834227, 49.907819262493824]","[-326.18166288972526, -174.93834232429816, 55.651034638520294]","[-314.86997110553494, -190.3608240697268, 49.80358341671414]",10000000000.0,0.03473830223083496
6,3.210594654083252,-335.4566955566406,-192.52976989746094,49.954620361328125,0.33182176947593667,0.030854314565658465,0.594625608125005,15.796150204407185,"array('d', [-193.73280334472656, -192.30001807825406, -190.8916575343661, -189.50468496293732, -188.1364184553899, -186.7845359107116, -185.4470458273651, -184.12224810477213, -182.80869364110706, -181.5051459629723, -180.2105461168853, -178.92398133385808, -177.64465772701888, -176.3718771992755, -175.10501871528777, -174.0963434135859])","array('d', [-337.31439208984375, -335.2670084710628, -333.20202567524643, -331.1223091216451, -329.03010259970597, -326.927210595356, -324.8151062909892, -322.69500350507934, -320.5679091409566, -318.4346637931874, -316.29597430735953, -314.1524403222637, -312.0045759549915, -309.8528273295785, -307.69758638770503, -305.97057767628274])","array('d', [-49.965187072753906, -49.89318491031349, -49.84552982446436, -49.8135189134245, -49.791689732523096, -49.77657056895086, -49.76592586818438, -49.7582962684167, -49.75271548177812, -49.748534429402596, -49.745311172562616, -49.742741719071006, -49.74061656441215, -49.73879363331155, -49.73718172889405, -49.73602083901276])","array('d', [0.34209159016609175, 0.2970190930986421, 0.2581601431550951, 0.22481334357258048, 0.19631250603696287, 0.1720316938591116, 0.15138859584571548, 0.1338469431905797, 0.11891834789706579, 0.10616377788163335, 0.09519480597811353, 0.08567473332702912, 0.07731966944200355, 0.06989964065944548, 0.06323979110854928, 0.05722173448489861])","array('d', [-0.03486972674727428, -0.022939335728914625, -0.015314334945331885, -0.010377476265584804, -0.007140103694890736, -0.004991151911686569, -0.0035486980939444988, -0.002571296386146029, -0.0019044608173718544, -0.0014479973582637096, -0.0011358166100948804, -0.0009232918650660656, -0.0007792352039802947, -0.0006807526773728283, -0.0006099520308541956, -0.000551907773224571])","array('d', [0.6172496239331107, 0.6042791826124294, 0.5931101074552749, 0.583456190284797, 0.5750785435532807, 0.5677766452526769, 0.5613819443535032, 0.5557530807937248, 0.5507721225327912, 0.5463414389994932, 0.5423809673718012, 0.538825715448532, 0.5356234004046271, 0.532732157720673, 0.5301182762745466, 0.5271628377815366])",-186.7845359107116,-326.927210595356,-49.77657056895086,0.1720316938591116,-0.004991151911686569,0.5677766452526769,25.000000246287488,-1.0,"[-334.2708789054444, -191.72423008306887, 49.90821744935174]","[-325.5414188225836, -174.6299951306019, 55.5281514393196]","[-314.33190489286335, -190.16755321333193, 49.78959009650913]",10000000000.0,0.048655033111572266
7,3.2506747245788574,-334.6441955566406,-192.0235137939453,49.951438903808594,0.31129276752471907,0.02563995309174053,0.5852204720166067,15.86400834778024,"array('d', [-193.3870086669922, -191.96758071629625, -190.57264693871576, -189.19908013492335, -187.84413706961521, -186.50545538914417, -185.1810190470165, -183.86911518584665, -182.56829069377235, -181.27731139318854, -179.99512494764411, -178.72082791850806, -177.45363718424963, -176.19286586960934, -174.9379039190682, -173.93867178535285])","array('d', [-336.7903137207031, -334.7336187212753, -332.659529799703, -330.57092930775536, -328.47006703290174, -326.35874550952377, -324.2384304320168, -322.11032444801094, -319.9754210118749, -317.83454605446406, -315.6883913468279, -313.5375416440193, -311.38249680794013, -309.2236896353041, -307.06149984583215, -305.32905119608915])","array('d', [-49.96192932128906, -49.890730540007326, -49.843609017085065, -49.81195869536891, -49.79037792011932, -49.775433521803095, -49.76491465542188, -49.75737798736343, -49.751867754098626, -49.74774187151722, -49.744563101586124, -49.74203063659851, -49.73993713192889, -49.73814195881715, -49.736554850841245, -49.735411881819246])","array('d', [0.34253096580505343, 0.29638527821789096, 0.25676158553374717, 0.22289673855591638, 0.19407337191163854, 0.169622741231458, 0.14892655584824668, 0.1314182991554222, 0.11658426999233178, 0.10396446527777568, 0.0931533796231021, 0.08380078296380968, 0.07561253334338115, 0.06835148046871276, 0.06183851374683871, 0.055953806181595324])","array('d', [-0.03448092937469477, -0.022682944272337933, -0.015142387593292152, -0.010260018909689689, -0.007058235095232019, -0.0049328131770063855, -0.0035061057135375344, -0.0025393651990974243, -0.0018798274220099105, -0.0014284106672923012, -0.0011197549399474844, -0.000909721162026082, -0.0007674560202193919, -0.0006703032803051065, -0.0006005468500503427, -0.0005433974201786883])","array('d', [0.6107354919102528, 0.5977695545711128, 0.5866437885411572, 0.5770589805424111, 0.5687666511403505, 0.5615591226023857, 0.5552625101138532, 0.5497315340818794, 0.5448454690892726, 0.5405047996130902, 0.5366283107974333, 0.5331504418045387, 0.5300187915497692, 0.5271917054227498, 0.5246358954038257, 0.5217460462464119])",-186.50545538914417,-326.35874550952377,-49.775433521803095,0.169622741231458,-0.0049328131770063855,0.5615591226023857,25.00000024865272,-1.0,"[-333.7528588841771, -191.4104398751399, 49.910352658865314]","[-324.91497285064213, -174.3100178224708, 55.33873511396517]","[-313.80388407262564, -189.987566438105, 49.79272974329855]",10000000000.0,0.034820556640625
8,3.277631998062134,-334.37164306640625,-191.85617065429688,49.95124816894531,0.30225774645805337,0.023494537919759688,0.582134918370519,15.893515618680121,"array('d', [-192.867431640625, -191.4679632853646, -190.09280336936433, -188.73872041675392, -187.40290941363673, -186.08297464739042, -184.77688677400468, -183.482934069191, -182.19967482580873, -180.9258932999781, -179.66056003018238, -178.40279682820554, -177.1518465810186, -175.90704796581696, -174.66781518268158, -173.6809651773427])","array('d', [-335.9880676269531, -333.91763612163186, -331.83033898415715, -329.72903374488004, -327.6159451748686, -325.49284835016255, -323.36117927061616, -321.22210952641115, -319.0766010907196, -316.92544881123877, -314.76931443657355, -312.60875426515184, -310.44424162717536, -308.2761849371043, -306.10494178068944, -304.3654037832175])","array('d', [-49.95726013183594, -49.88907519772477, -49.843951822361646, -49.81364768159368, -49.792989406943335, -49.77868874557426, -49.7686279804766, -49.761424403764124, -49.756162252132064, -49.75222619190867, -49.74919710053129, -49.74678655329895, -49.744795684177255, -49.74308958542531, -49.741581667381915, -49.74049579786469])","array('d', [0.33932548761367776, 0.2920730726294195, 0.25173449738866094, 0.217462981405647, 0.18847258659165217, 0.16403774657046713, 0.1434928382858067, 0.12623191633975459, 0.11170860956113735, 0.09943615287963806, 0.08898753814036738, 0.07999578764534838, 0.07215437206114479, 0.06521780612815922, 0.0590024616806794, 0.05338763992021933])","array('d', [-0.033021640032529734, -0.02172186676411127, -0.01449935831477071, -0.00982258788015174, -0.006755393196410782, -0.004719168450356322, -0.0033522685158491176, -0.0024260521126474883, -0.00179421267023016, -0.0013618494817815897, -0.0010663536567067317, -0.0008654361168484806, -0.0007295265761940834, -0.0006368977517298114, -0.0005705436632078339, -0.0005162494116142835])","array('d', [0.6009614626553397, 0.5881592343673412, 0.5772313990893566, 0.5678639425324258, 0.5597975845625194, 0.5528167016243545, 0.5467416098627027, 0.5414229100038868, 0.5367371035716713, 0.5325829926166044, 0.5288785593957912, 0.5255581359504203, 0.5225697435729764, 0.519872525095049, 0.5174342188814287, 0.514677198563411])",-186.08297464739042,-325.49284835016255,-49.77868874557426,0.16403774657046713,-0.004719168450356322,0.5528167016243545,25.000000248651922,-1.0,"[-333.4618481733188, -191.23569656885599, 49.912423695104785]","[-324.5641815941958, -174.12543638306772, 55.21058618991251]","[-313.5075663835532, -189.8887970034514, 49.80062112204721]",10000000000.0,0.02116847038269043
9,3.3103981018066406,-334.09814453125,-191.68943786621094,49.95166015625,0.2923433780670164,0.021245827898383054,0.5790816704418996,15.92566619796174,"array('d', [-192.69821166992188, -191.30512451408487, -189.93612638347352, -188.58797011965407, -187.25784764014662, -185.94336739477248, -184.6425086728523, -183.35357121803406, -182.07512652418913, -180.80597297413428, -179.54509554216554, -178.29163031150276, -177.04483392116185, -175.80405802992675, -174.5687288921158, -173.58490346805908])","array('d', [-335.7227783203125, -333.64798416670914, -331.5566126544063, -329.4514874173145, -327.3348075194434, -325.20832636174083, -323.07346062982526, -320.9313642763593, -318.78298302849834, -316.6290967569448, -314.47035344455867, -312.30729679961104, -310.1403887044806, -307.9700272274505, -305.7965606562843, -304.05530694423743])","array('d', [-49.95586395263672, -49.88960370884165, -49.845755908751975, -49.81631043340723, -49.796239665318254, -49.78234792829223, -49.77257705689012, -49.765583164255936, -49.760476146117874, -49.756657866084, -49.75372087827427, -49.75138476365495, -49.749456154588074, -49.747803862465354, -49.746343687421216, -49.745292227747846])","array('d', [0.33617249131202687, 0.2888377605121689, 0.24850447642630602, 0.21430402005996885, 0.18543286828234964, 0.16115114916928674, 0.14078155794561298, 0.12370863355251611, 0.10937832285019056, 0.09729776178879783, 0.08703523090388932, 0.07822027322787686, 0.07054398687040879, 0.06375951997717422, 0.057682803912016134, 0.05219356408398389])","array('d', [-0.03208966180682177, -0.021108201644806417, -0.014089003503360443, -0.009543765256317907, -0.006562756688053752, -0.0045837063400737295, -0.003255173751839616, -0.0023549650617706815, -0.0017408962056046288, -0.001320738075660526, -0.0010336420311533917, -0.0008385051918708128, -0.0007065829266945913, -0.0006167494564372958, -0.0005524630594997194, -0.0004998894033628348])","array('d', [0.5977990190174918, 0.5851353759573942, 0.5743441244546458, 0.5651090559588642, 0.5571693483988951, 0.5503083158524793, 0.5443455875612612, 0.5391313827080185, 0.5345420732902012, 0.5304765388274929, 0.5268530053770754, 0.5236061770635833, 0.5206845394074352, 0.5180477570908888, 0.51566411487398, 0.5129688880975898])",-185.94336739477248,-325.20832636174083,-49.78234792829223,0.16115114916928674,-0.0045837063400737295,0.5503083158524793,25.000000248651634,-1.0,"[-332.89231044810913, -190.8978589693667, 49.919114244401754]","[-323.8800198402754, -173.75461668595239, 54.90788784240239]","[-312.92837195724917, -189.70068359798987, 49.830057726788915]",10000000000.0,0.02969193458557129
10,3.3430819511413574,-333.5482177734375,-191.35751342773438,49.954307556152344,0.2708528041839597,0.016560886055231046,0.5729791084912158,16.00309013412229,"array('d', [-192.52976989746094, -191.1430406371901, -189.7800909800524, -188.43766811618673, -187.11297034996483, -185.8036186832854, -184.5076083178079, -183.22325672922636, -181.94915399280544, -180.68411724619568, -179.42714989624554, -178.1774057701919, -176.93415830053172, -175.69677481658888, -174.46469602752106, -173.48335382526076])","array('d', [-335.4566955566406, -333.3775651286486, -331.28221116371964, -329.1734090030442, -327.05332228395343, -324.9236756989666, -322.7858612808051, -320.6410111587718, -318.4900514563049, -316.3337443264211, -314.17272171603327, -312.0075128370084, -309.8385665018637, -307.6662690344152, -305.4909582042244, -303.74830028985])","array('d', [-49.954620361328125, -49.89091131877406, -49.8487541113308, -49.82044638654246, -49.80115371102678, -49.787803135167856, -49.77841546296355, -49.771698307502085, -49.76679562094707, -49.76313210641127, -49.76031583707748, -49.758077042839155, -49.75622967614286, -49.754647503014034, -49.75324950705025, -49.75224285594653])","array('d', [0.33182176947593667, 0.2845590930858547, 0.24436369903170135, 0.21034807208030787, 0.18169366155063962, 0.15764853944732263, 0.13752571505836197, 0.12070199060313645, 0.10661721697148584, 0.09477383882858104, 0.08473666298550851, 0.07613282449043278, 0.06865195473846146, 0.06204657452898554, 0.05613274483446917, 0.05079101250342441])","array('d', [-0.030854314565658465, -0.020294828804803437, -0.013545197134604874, -0.009174398195570125, -0.006307722438966462, -0.004404539411882796, -0.0031269295176473122, -0.0022612428107920564, -0.0016707594046325382, -0.0012667922406544218, -0.0009908273319931304, -0.0008033360115821273, -0.0006766704993839619, -0.0005905054803165099, -0.000528918728204728, -0.00047858560950295485])","array('d', [0.594625608125005, 0.5821486688310772, 0.5715348835537511, 0.5624672767156117, 0.5546845538316633, 0.5479697918335877, 0.5421425843269548, 0.537053291192992, 0.5325785777771915, 0.5286177449816639, 0.5250895424183017, 0.5219292733242076, 0.519086071190655, 0.5165202713005792, 0.5142008262349604, 0.5115781700436806])",-185.8036186832854,-324.9236756989666,-49.787803135167856,0.15764853944732263,-0.004404539411882796,0.5479697918335877,25.000000248651336,-1.0,"[-332.35738790553273, -190.584999214455, 49.928246312691286]","[-323.239352899857, -173.40461572147336, 54.58612787723931]","[-312.3854600018746, -189.52736013837225, 49.8691244400471]",10000000000.0,0.027816057205200195
11,3.367943525314331,-333.2716369628906,-191.19216918945312,49.956851959228516,0.25961309671401955,0.014190365560352722,0.5699578086521961,16.04792227421958,"array('d', [-192.19151306152344, -190.81726894239426, -189.46589342723627, -188.13415826073987, -186.8193064309578, -185.51901164451223, -184.23132455692323, -182.95461827473153, -181.68753725264017, -180.42895087299212, -179.17791207630546, -177.93362114242112, -176.69539466313736, -175.46263975118904, -174.23483355058778, -173.22690262770388])","array('d', [-334.9158020019531, -332.8281994851679, -330.72527532315564, -328.6096680749654, -326.48344241676546, -324.34824481226934, -322.2054019692338, -320.05598970812855, -317.9008847413499, -315.74080543646727, -313.57634474128537, -311.4079970518381, -309.2361800808097, -307.06125238176304, -304.8835269461991, -303.0862709537194])","array('d', [-49.95212173461914, -49.8951360069988, -49.85743437372027, -49.832125262236936, -49.814883141239626, -49.80295840084832, -49.79457995155824, -49.78859116756183, -49.78422581415182, -49.7809688541181, -49.77846932723887, -49.77648558966106, -49.77485093851496, -49.77345223914221, -49.77221689231665, -49.77130048724618])","array('d', [0.31929624080657937, 0.2726809831583958, 0.23319198041279549, 0.19991405700962592, 0.17200732044663486, 0.14870334073525082, 0.1293024749901017, 0.11317202078684663, 0.09974494353049361, 0.0885190030755133, 0.07905617801965613, 0.07098234275996032, 0.0639871909805132, 0.05782442231366089, 0.052312220803385864, 0.047334059089292294])","array('d', [-0.027599029242992325, -0.01815127918583501, -0.012111964447201314, -0.00820092728486292, -0.0056356760376571275, -0.003932564803325824, -0.0027892797485488435, -0.002014674069231805, -0.0014864227241827453, -0.0011251724030604576, -0.0008785633488032101, -0.0007112185109754589, -0.000598384777471282, -0.000521851494157893, -0.0004673354285144998, -0.0004228630265196639])","array('d', [0.5883225957539416, 0.5763707939935397, 0.5662407200292588, 0.5576183884976127, 0.550244955439297, 0.5439056492329738, 0.5384220692933945, 0.533646525499098, 0.529457622195404, 0.5257566025134915, 0.5224641560805684, 0.5195175068112505, 0.5168676663226071, 0.5144767798654877, 0.5123155161002384, 0.5099435690972676])",-185.51901164451223,-324.34824481226934,-49.80295840084832,0.14870334073525082,-0.003932564803325824,0.5439056492329738,25.000000246280536,-1.0,"[-332.09164929517976, -190.43077786555682, 49.933752602961846]","[-322.9219591014954, -173.23265012686696, 54.42164565377704]","[-312.11618968801156, -189.4411997344281, 49.89193628099764]",10000000000.0,0.023160219192504883
12,3.4023244380950928,-332.7149963378906,-190.86236572265625,49.96466827392578,0.23707793653011308,0.009331970475613988,0.5637878934529165,16.14824782959244,"array('d', [-191.85617065429688, -190.4940237603453, -189.1534861249734, -187.8313995760308, -186.52509069737528, -185.23231897608443, -183.9512186092918, -182.68024220360635, -181.41810891334626, -180.16375771656152, -178.91630597291734, -177.67501327162603, -176.4392505670266, -175.2084746204629, -173.98220779354628, -172.97526498720978])","array('d', [-334.37164306640625, -332.2759086794, -330.16596357396895, -328.0442699324789, -325.91276455314727, -323.77299362960997, -321.6262012508143, -319.47339307901626, -317.31538514955855, -315.152842757501, -312.9863120999004, -310.81624620537264, -308.64302607741195, -306.4669776333331, -304.2883848121548, -302.49076600426133])","array('d', [-49.95124816894531, -49.90273970736671, -49.870654494726764, -49.8491236236251, -49.834463419813915, -49.824332139982765, -49.81722126878843, -49.81214553289998, -49.80845210592863, -49.80570208299945, -49.803596295844535, -49.80192868686084, -49.80055704854099, -49.79938484353917, -49.798350135420236, -49.79758273245349])","array('d', [0.30225774645805337, 0.25688976161872407, 0.21861946847825434, 0.18651641324168358, 0.15972992736061642, 0.13748426918433024, 0.11907524381251416, 0.10386783504245951, 0.09129451557430247, 0.08085402039650777, 0.0721104623780115, 0.06469273648110631, 0.05829420252616682, 0.052672661313153554, 0.04765065105050697, 0.043116095968191534])","array('d', [-0.023494537919759688, -0.015448987644716248, -0.010305715423092025, -0.006974769062500364, -0.004789911216021508, -0.0033393339854731587, -0.00236561439235187, -0.001705981138315305, -0.0012562636920465304, -0.0009488828071750954, -0.0007392442901964813, -0.0005972123586893534, -0.0005016918138163896, -0.0004371489149311844, -0.000391381088531248, -0.0003541367108979173])","array('d', [0.582134918370519, 0.570883364883973, 0.5613860429163531, 0.5533369656795265, 0.5464835301999973, 0.5406160739286969, 0.5355605619455645, 0.531173164386348, 0.5273359823856778, 0.5239534736666764, 0.520949304241753, 0.5182634583696513, 0.5158495023665333, 0.5136719355167717, 0.511703583253285, 0.5095431318410149])",-185.23231897608443,-323.77299362960997,-49.824332139982765,0.13748426918433024,-0.0033393339854731587,0.5406160739286969,25.000000246278773,-1.0,"[-331.5228166089769, -190.1040545527068, 49.9485056736414]","[-322.2418790135573, -172.87425763605677, 54.071404600479724]","[-311.5406331366303, -189.26005073801468, 49.94961844622816]",10000000000.0,0.02130913734436035
13,3.4290008544921875,-332.7149963378906,-190.86236572265625,49.96466827392578,0.23707793653011308,0.009331970475613988,0.5637878934529165,16.14824782959244,"array('d', [-191.68943786621094, -190.33321778992237, -188.99786806137183, -187.68028077246356, -186.3778366952081, -185.0883485275472, -183.8100009357609, -182.5412936527546, -181.28098946211728, -180.02806750503154, -178.78168195650616, -177.5411260400233, -176.30580135924325, -175.0751925531039, -173.84884730931466, -172.8416509043964])","array('d', [-334.09814453125, -331.9984651020799, -329.88518694181533, -327.76067546125995, -325.6267964954684, -323.48504037114253, -321.33660517348966, -319.18245761623666, -317.0233801817653, -314.8600089351291, -312.6928644186356, -310.522377027716, -308.34890772453446, -306.17276463129735, -303.9942158525868, -302.19677041106866])","array('d', [-49.95166015625, -49.907796044934976, -49.87878709511965, -49.85932490887392, -49.84607758640535, -49.83692693458668, -49.83050837468549, -49.82593058327382, -49.82260293002545, -49.82012827674199, -49.81823588025656, -49.816739223440145, -49.81550955619488, -49.81445946301213, -49.81353286660804, -49.81284571045264])","array('d', [0.2923433780670164, 0.2477831824982652, 0.21027978319053275, 0.17889881798516014, 0.1527874048198646, 0.13116890957270416, 0.11333930389506455, 0.0986645914044146, 0.08657894142939611, 0.07658330335955812, 0.06824437637583403, 0.06119388014710127, 0.055128116737326115, 0.04980783884964292, 0.045058451221873574, 0.040770576355844655])","array('d', [-0.021245827898383054, -0.013968735887320881, -0.009316572959184135, -0.006303601446304718, -0.004327276786786253, -0.003015150352346676, -0.002134396061576108, -0.0015377916819331286, -0.0011311158576211735, -0.0008532425592118452, -0.0006638344650509967, -0.0005356297579931802, -0.0004495402126023097, -0.0003915025321622076, -0.0003504592783860111, -0.00031710911450691116])","array('d', [0.5790816704418996, 0.5682327659168522, 0.559096865862461, 0.5513733320007276, 0.5448137226705558, 0.5392117574057684, 0.5343962560555563, 0.5302258712923584, 0.5265849091082498, 0.5233798114431536, 0.5205360422466511, 0.5179952186964822, 0.5157123892756019, 0.5136533957453149, 0.5117922764512329, 0.5097494753680784])",-185.0883485275472,-323.48504037114253,-49.83692693458668,0.13116890957270416,-0.003015150352346676,0.5392117574057684,25.00000024627789,-1.0,"[-331.447196102245, -190.060813088439, 49.95067052138171]","[-322.15158418378655, -172.82746320651418, 54.02537921140781]","[-311.46421572755656, -189.23592538948103, 49.95812900138543]",10000000000.0,0.02491617202758789
14,3.4594099521636963,-331.8623046875,-190.3636016845703,49.98650360107422,0.20457656681537612,0.0023282442707567266,0.5552571574833729,16.328690017928214,"array('d', [-191.35751342773438, -190.01312081020504, -188.6879877255821, -187.37912621767435, -186.08404031532825, -184.80066127755038, -183.52728492677883, -182.2625139744819, -181.00520596503767, -179.75442684144008, -178.5094100197724, -177.26952087687184, -176.03422659630996, -174.80307135505657, -173.57565686488036, -172.59925585653966])","array('d', [-333.5482177734375, -331.4407618256621, -329.32098164951594, -327.1910466312319, -325.05267653363256, -322.90724558884995, -320.7558558001434, -318.59939233601676, -316.43856735718634, -314.27395564532605, -312.1060239498167, -309.93515520420664, -307.7616683335235, -305.5858341162754, -303.4078874030792, -301.6682567523347])","array('d', [-49.954307556152344, -49.92011922962202, -49.897517543234564, -49.88236236399162, -49.87205496814762, -49.86494312405542, -49.85996230885073, -49.85641708453287, -49.85384652815567, -49.85194062896003, -49.850487961409826, -49.849342803322784, -49.84840451287899, -49.84760473366614, -49.84689962790774, -49.846393449575245])","array('d', [0.2708528041839597, 0.22811596372234633, 0.19232594292959773, 0.1625443102539481, 0.13791692527879879, 0.11766813779487542, 0.10109672550795076, 0.08757296613882276, 0.07653644701883809, 0.06749437292195105, 0.06002024569028794, 0.05375286409953716, 0.04839563750809907, 0.04371623052239723, 0.03954656591751167, 0.03578321583695888])","array('d', [-0.016560886055231046, -0.010885343777164436, -0.007256792913292285, -0.004906632779876647, -0.0033650250838325414, -0.002341531960791171, -0.0016545825624723564, -0.0011893587005812891, -0.0008723746766456526, -0.0006559551245622214, -0.0005086365378701376, -0.0004091495952244774, -0.0003425930651623037, -0.00029797463312032386, -0.00026663281693127343, -0.00024125970496761235])","array('d', [0.5729791084912158, 0.5629943084923961, 0.5546328432594206, 0.5476058107991123, 0.5416739452275751, 0.5366384502235867, 0.532334472430865, 0.5286261619551587, 0.5254026930169765, 0.5225748683890311, 0.5200720805875148, 0.5178394917842404, 0.515835346891905, 0.5140283646728402, 0.5123951689054921, 0.5105436616102785])",-184.80066127755038,-322.90724558884995,-49.86494312405542,0.11766813779487542,-0.002341531960791171,0.5366384502235867,25.00000024627609,-1.0,"[-330.6573620451191, -189.61226445108423, 49.98016551239298]","[-321.22249436038237, -172.34886563440315, 53.57993398657638]","[-310.6678966496234, -188.96772148592356, 50.05656949359128]",10000000000.0,0.027765989303588867
15,3.493089199066162,-331.2881164550781,-190.0315399169922,50.00608444213867,0.18523874878883342,-0.0020411245059222963,0.5502754012730458,16.45706160592596,"array('d', [-191.19216918945312, -189.85363408607063, -188.53351202710766, -187.2288819875462, -185.9373145292964, -184.65680401631383, -183.38570499573953, -182.12267432256607, -180.86661918436099, -179.6166508635183, -178.37204406344162, -177.13220167766497, -175.89662493236327, -174.66488887288912, -173.43662319753307, -172.45831727414208])","array('d', [-333.2716369628906, -331.1603800686053, -329.03744232211665, -326.9048976703863, -324.76439343801064, -322.6172456233577, -320.46450770510637, -318.3070235009467, -316.1454694223209, -313.98038904445235, -311.8122216909891, -309.6413260727489, -307.4679996396497, -305.29249407334225, -303.11502720025084, -301.3741141789777])","array('d', [-49.956851959228516, -49.92755912445374, -49.90819801523885, -49.895219973927055, -49.886397473498874, -49.880314213570216, -49.87605762104247, -49.873031474155184, -49.870840563317245, -49.86921903354595, -49.86798553423422, -49.86701503792811, -49.86622116996677, -49.86554525193901, -49.864949659269264, -49.86452171033313])","array('d', [0.25961309671401955, 0.2178519880096539, 0.182973729388996, 0.15403908549850626, 0.1301943125513308, 0.11066514331146338, 0.0947525538630735, 0.08182967906040373, 0.07133946934942204, 0.06279284829897783, 0.05576724671680739, 0.04990546496856024, 0.04491485966600763, 0.04056687349772207, 0.036696935849657296, 0.033204763690540075])","array('d', [-0.014190365560352722, -0.00932561527077139, -0.00621531900102163, -0.004200769050667876, -0.0028792912698573842, -0.0020019572628959662, -0.0014131410474860367, -0.0010144283672583038, -0.000742831295552699, -0.0005574845541907199, -0.000431417967736643, -0.00034639740133116277, -0.0002896437359170191, -0.00025172327539955155, -0.0002251934283858592, -0.00020376379069341537])","array('d', [0.5699578086521961, 0.5604208235656265, 0.5524606556624219, 0.5457944251857383, 0.5401876074483003, 0.5354452974297201, 0.5314059470908388, 0.5279365870219962, 0.5249289449939433, 0.5222961099387706, 0.5199695301981773, 0.5178962180752107, 0.5160360814156097, 0.5143593308578858, 0.5128439269727614, 0.5111277121752177])",-184.65680401631383,-322.6172456233577,-49.880314213570216,0.11066514331146338,-0.0020019572628959662,0.5354452974297201,25.000000246275185,-1.0,"[-330.34229854406004, -189.434479182036, 49.9937294900563]","[-320.85682692162635, -172.1635660217529, 53.42030018244919]","[-310.35097880259815, -188.85492488287784, 50.099804034422895]",10000000000.0,0.03168296813964844
16,3.5280654430389404,-330.70916748046875,-189.69927978515625,50.02968215942383,0.16849653422832472,-0.005934237502515438,0.5455266992237907,16.58978387216466,"array('d', [-190.86236572265625, -189.5358672175184, -188.22607793097706, -186.93021299760866, -185.64597648052717, -184.37148898946356, -183.10522261690835, -181.84594276445287, -180.59265631453005, -179.34456573951422, -178.10102888390958, -176.8615242572051, -175.62562174029483, -174.39295865191013, -173.1632211552392, -172.18182053257001])","array('d', [-332.7149963378906, -330.5960375795916, -328.4666571188858, -326.3287511097965, -324.18382921663533, -322.0330952329645, -319.8775082278746, -317.71783098902796, -315.5546694848264, -313.3885055231548, -311.219723942137, -309.04863518075064, -306.8754937807344, -304.70051318355524, -302.5238770628766, -300.7812565513812])","array('d', [-49.96466827392578, -49.94540792347251, -49.932685232780585, -49.924164476017545, -49.91837937186206, -49.91439752100497, -49.91161805198876, -49.909648309951436, -49.908227946713055, -49.907181757060314, -49.90639015999933, -49.90577065533137, -49.90526620439834, -49.90483803699701, -49.90446130522041, -49.90419029813077])","array('d', [0.23707793653011308, 0.19724793769472815, 0.16417995618089087, 0.13693176730090553, 0.11464917733215155, 0.09655960426484425, 0.08196750477820279, 0.07025096711608754, 0.06085904784573304, 0.05330961266517104, 0.047187563875257174, 0.04214341359689444, 0.03789220463116705, 0.034212800917842234, 0.030947575941042207, 0.028002527244436946])","array('d', [-0.009331970475613988, -0.00612988593643811, -0.004082467260735135, -0.0027562753054375345, -0.0018863247579957916, -0.0013087916892369456, -0.0009212489583306493, -0.0006589209766603457, -0.00048034860814230807, -0.00035863357970661216, -0.0002760221958228234, -0.00022050763198350022, -0.0001836676765034498, -0.00015927319042018982, -0.00014239380809223504, -0.00012884358857705945])","array('d', [0.5637878934529165, 0.5551423520996036, 0.5479834274389701, 0.5420393145472925, 0.5370842962268652, 0.5329307782772896, 0.5294234946997932, 0.5264350108670816, 0.5238620092855019, 0.5216220521935527, 0.5196506390356336, 0.5178984493216439, 0.5163287030048558, 0.5149145937880845, 0.5136367633724255, 0.5121917754367326])",-184.37148898946356,-322.0330952329645,-49.91439752100497,0.09655960426484425,-0.0013087916892369456,0.5329307782772896,25.00000024627329,-1.0,"[-330.0095483069569, -189.2471585577688, 50.009146126771626]","[-320.47512407854487, -171.97043459301446, 53.26637864508409]","[-310.0167059555665, -188.73033180634607, 50.14751093972743]",10000000000.0,0.03354191780090332
17,3.558439254760742,-330.4179382324219,-189.53298950195312,50.04294204711914,0.1610035002231596,-0.007584867998957742,0.5433097640660146,16.65650549498535,"array('d', [-190.52969360351562, -189.2144429093037, -187.9142280764828, -186.62640516988998, -185.3488123631047, -184.07969548986458, -182.81764250315624, -181.56152538862122, -180.31044865024776, -179.0637038507291, -177.82072990163022, -176.5810789171972, -175.3443875128135, -174.11035347180604, -172.87871773791613, -171.8953721841551])","array('d', [-332.1476745605469, -330.0216475101967, -327.8863771162759, -325.74360327424085, -323.5947108590784, -321.44080003824814, -319.282741701257, -317.1212224128785, -314.9567815605079, -312.7898423699502, -310.6207378657347, -308.4497324805805, -306.27703978175293, -304.10283662710367, -301.9272739593215, -300.185754696507])","array('d', [-49.978240966796875, -49.96867507463863, -49.96236078297966, -49.958136497226484, -49.95527293315503, -49.95330628030948, -49.951937591252985, -49.950971465957835, -49.950278302735256, -49.94977084299543, -49.94938949189948, -49.94909309975077, -49.94885319055388, -49.9486503960985, -49.948472310292956, -49.94834425977388])","array('d', [0.21507616341114028, 0.17716119399999622, 0.14588192000242625, 0.12029483944486774, 0.09954661436324551, 0.08286738388508051, 0.06956592768555044, 0.059025978510958116, 0.05070326240695007, 0.044123036556894375, 0.03887801906449794, 0.0346266798100419, 0.031091901193510955, 0.02806003431885134, 0.025380379712848452, 0.022965119327510216])","array('d', [-0.00463591516017903, -0.003043384560549041, -0.0020250422841326765, -0.001365392231229865, -0.0009326780563101024, -0.0006454361394571217, -0.0004527298755289966, -0.0003223454446566071, -0.00023366450974719293, -0.00017331011237894223, -0.00013245235119335445, -0.00010511736762393209, -8.71103801055198e-05, -7.53218379974846e-05, -6.728094048635337e-05, -6.08786495827945e-05])","array('d', [0.5580355683949331, 0.5502515883941768, 0.5438677544721402, 0.538622544311747, 0.5342985144696581, 0.5307150151232435, 0.5277228033710908, 0.5251997882509136, 0.5230474575213994, 0.5211877219647242, 0.5195600216168664, 0.5181186009232752, 0.5168298949421868, 0.5156699877709138, 0.5146221143013346, 0.5134371771014382])",-184.07969548986458,-321.44080003824814,-49.95330628030948,0.08286738388508051,-0.0006454361394571217,0.5307150151232435,25.000000246271494,-1.0,"[-329.4932892909198, -188.95815687578843, 50.035223394580704]","[-319.8850418230335, -171.68037365755995, 53.06173750486642]","[-309.49863710908187, -188.5339916375955, 50.21952743152094]",10000000000.0,0.02504587173461914
18,3.5894246101379395,-329.8319396972656,-189.19984436035156,50.07225036621094,0.14691270887851696,-0.010225181467831234,0.5390108386662344,16.79043016205727,"array('d', [-190.3636016845703, -189.05381258876108, -187.75825704266776, -186.47435962306764, -185.20002282227523, -183.93355230039072, -182.67359134390384, -181.41906288215276, -180.16911812749925, -178.92309130943102, -177.68046019267734, -176.44081218643865, -175.20381591632733, -173.96919817171374, -172.73672617442767, -171.75250556835962])","array('d', [-331.8623046875, -329.73289147965676, -327.59478326614754, -325.4496514980549, -323.2988248544862, -321.14335604201983, -318.9840751244009, -316.8216331129847, -314.6565381683422, -312.48918592326095, -310.3198849126991, -308.14887776228846, -305.9763585707337, -303.80248677857486, -301.6273977189141, -299.88637065127796])","array('d', [-49.98650360107422, -49.98170092346942, -49.97853369865998, -49.97641769169078, -49.974986073829164, -49.97400552509625, -49.973325637705535, -49.97284807908034, -49.97250760613425, -49.97226026858644, -49.972076027028855, -49.971934119085915, -49.97182016147007, -49.97172436379518, -49.971640459258346, -49.97158016532278])","array('d', [0.20457656681537612, 0.16756638569932397, 0.1371343663082074, 0.11233586205514247, 0.09231746683498715, 0.07631020821917396, 0.06362458462719182, 0.05364673920081085, 0.04583535178568571, 0.03971902505178661, 0.03489406551668426, 0.03102263381165847, 0.027831276450526177, 0.025109866361224663, 0.02271098153651126, 0.020549747755225285])","array('d', [-0.0023282442707567266, -0.001527262217361241, -0.0010150628167369326, -0.0006832777867961145, -0.00046564706976414175, -0.0003212015682009644, -0.0002243244491456904, -0.00015881527308791033, -0.00011430559199364009, -8.406885351543011e-05, -6.366477173990209e-05, -5.00880676573093e-05, -4.122586275028538e-05, -3.5507666149516656e-05, -3.1679815909305904e-05, -2.8665416972466803e-05])","array('d', [0.5552571574833729, 0.547881929945887, 0.541866732082389, 0.5369545693849922, 0.5329316823197752, 0.5296205502003882, 0.5268746758111909, 0.5245744296803921, 0.5226235327592257, 0.5209459315599052, 0.5194829217680839, 0.5181904345326822, 0.517036431855382, 0.5159983746705169, 0.5150607359545398, 0.5140004675048593])",-183.93355230039072,-321.14335604201983,-49.97400552509625,0.07631020821917396,-0.0003212015682009644,0.5296205502003882,25.000000246270606,-1.0,"[-328.9152985020554, -188.63587393344258, 50.06648988985163]","[-319.2304795754422, -171.3618639453112, 52.86163949025807]","[-308.9193172058287, -188.30543827380222, 50.29352353447138]",10000000000.0,0.025104284286499023
19,3.617982864379883,-329.8319396972656,-189.19984436035156,50.07225036621094,0.14691270887851696,-0.010225181467831234,0.5390108386662344,16.79043016205727,"array('d', [-190.0315399169922, -188.73156090495354, -187.44433096506646, -186.1674054602123, -184.89880752559034, -183.6369541688453, -182.38059126494758, -181.12873597724885, -179.8806257764417, -178.63567358101275, -177.39342872791886, -176.15354357792782, -174.91574561281902, -173.67981491738712, -172.44556697107873, -171.45950997279502])","array('d', [-331.2881164550781, -329.1526976355449, -327.0095652760522, -324.8602751392484, -322.7060580137558, -320.54788255986097, -318.3865058626485, -316.22251501510243, -314.05636182677, -311.8883920042258, -309.7188696815364, -307.54799788152087, -305.37593529642396, -303.20280964974563, -301.028727814789, -299.2886476954782])","array('d', [-50.00608444213867, -50.01029849604782, -50.01308454608138, -50.014952558019026, -50.0162227383004, -50.017098743788104, -50.01771183695722, -50.01814779976336, -50.018463506147874, -50.01869722177347, -50.018875052770326, -50.01901499901931, -50.01912949641085, -50.019226993625324, -50.01931290834532, -50.01937473558656])","array('d', [0.18523874878883342, 0.1499075648828714, 0.12104520713501976, 0.0977055208035568, 0.07903545588076191, 0.06426808980237575, 0.052717456277255055, 0.04377447347724603, 0.0369035650639524, 0.03163976550054719, 0.027586224562660473, 0.024412096137338937, 0.021850830375498915, 0.01969889967398413, 0.017814988219130214, 0.016119669402086718])","array('d', [0.0020411245059222963, 0.0013417866024795918, 0.0008945152590323611, 0.0006047286385213595, 0.00041458755373453653, 0.00028832318544007735, 0.00020356528074447414, 0.00014616255440372356, 0.00010705494434155436, 8.036283237280791e-05, 6.220487511261634e-05, 4.995645182355963e-05, 4.177789642134725e-05, 3.63110745073782e-05, 3.24845417571204e-05, 2.9392826536073148e-05])","array('d', [0.5502754012730458, 0.5436487637110828, 0.5383091485133676, 0.534007594768487, 0.5305369383093363, 0.5277253078770228, 0.5254311979783862, 0.5235394772275724, 0.5219579612300888, 0.5206143360785962, 0.5194533086684501, 0.5184339104280378, 0.5175269081489434, 0.5167122894694329, 0.515976797270381, 0.5151451830025173])",-183.6369541688453,-320.54788255986097,-50.017098743788104,0.06426808980237575,0.00028832318544007735,0.5277253078770228,25.00000024626899,-1.0,"[-328.5820575882524, -188.45071274370414, 50.08544721710655]","[-318.85533384429476, -171.1804558807859, 52.75547963218248]","[-308.5855302204998, -188.17022582905432, 50.33084550852525]",10000000000.0,0.022213220596313477
20,3.64363169670105,-329.236083984375,-188.86184692382812,50.1063346862793,0.13434605300426464,-0.012259266339242578,0.5349375764515738,16.92765691316212,"array('d', [-189.69927978515625, -188.40876659859734, -187.12970621131325, -185.85976621209312, -184.59707239812786, -183.34013677416635, -182.0877932891182, -180.83914057579273, -179.59349117167133, -178.35032686965428, -177.10925995166383, -175.87000011588307, -174.63232694383183, -173.39606778218953, -172.1610809444039, -171.1741001755803])","array('d', [-330.70916748046875, -328.56804514369685, -326.42003990108645, -324.26662042653396, -322.1089396873828, -319.94789743844393, -317.78418975536346, -315.6183495584941, -313.4507803965351, -311.2817848581068, -309.1115884675188, -306.9403596165629, -304.76822589613073, -302.5952870709312, -300.4216248600809, -298.68206990777594])","array('d', [-50.02968215942383, -50.04192677574861, -50.050008384662064, -50.05541358918705, -50.05907597857768, -50.061589450956596, -50.06333689596767, -50.06456864152113, -50.06545076313776, -50.06609510812801, -50.06657808951186, -50.066952489351586, -50.06725484723486, -50.06751002260767, -50.06773393610533, -50.06789491512909])","array('d', [0.16849653422832472, 0.1345451215422086, 0.10698937924318157, 0.08487774936578463, 0.06735396036889228, 0.05364983539745629, 0.04307988516162924, 0.03503697564595053, 0.028988672867953424, 0.024474068732378652, 0.02110101482594532, 0.01854375835556603, 0.016541004979815206, 0.014894441525953641, 0.013467748327684314, 0.012186123726967564])","array('d', [0.005934237502515438, 0.003895506427621201, 0.002591545033384787, 0.0017467154815192928, 0.001192443449012629, 0.0008244732599653645, 0.0005776011706166406, 0.00041058152383244355, 0.00029701037067043364, 0.0002197544058494998, 0.00016750236828257665, 0.00013259974754754807, 0.00010966908751034195, 9.47205821930772e-05, 8.45793953671492e-05, 7.65302297231129e-05])","array('d', [0.5455266992237907, 0.5395458786005308, 0.534792642700088, 0.5310237668751476, 0.5280368908001899, 0.5256643596566749, 0.5237684912459701, 0.5222376867458779, 0.5209830520297388, 0.5199353400311868, 0.519042105817735, 0.5182650103773009, 0.5175772321804643, 0.5169609568454132, 0.5164049203366073, 0.5157762633134904])",-183.34013677416635,-319.94789743844393,-50.061589450956596,0.05364983539745629,0.0008244732599653645,0.5256643596566749,25.00000024626738,-1.0,"[-327.9480898198365, -188.09853424148235, 50.124576676203866]","[-318.14613674765, -170.83888981969636, 52.57944742721417]","[-307.9508799121604, -187.90631898586122, 50.39779674107136]",10000000000.0,0.019703388214111328
21,3.6697638034820557,-328.9366149902344,-188.6925506591797,50.12444305419922,0.12862585484981515,-0.01317853294312964,0.5330172340061998,16.996063401634405,"array('d', [-189.53298950195312, -188.2469220444982, -186.97172405024895, -185.70511329640726, -184.44526123498738, -183.19072214950603, -181.94036930225965, -180.69333781507484, -179.44897395381042, -178.20679054212718, -176.9664282843891, -175.72762281349566, -174.49017730525236, -173.25394052583022, -172.018790208078, -171.0315289430983])","array('d', [-330.4179382324219, -328.2741646656295, -326.12387362768015, -323.9684983601187, -321.8091589248982, -319.64672535134497, -317.4818670765568, -315.3150931726364, -313.14678581212235, -310.97722839279277, -308.80662918691183, -306.6351410622357, -304.46287763155664, -302.2899260679154, -300.11635674373576, -298.3769637080688])","array('d', [-50.04294204711914, -50.058589647901606, -50.0689116536015, -50.07580973620492, -50.0804782376851, -50.0836769951055, -50.08589593107613, -50.08745539741563, -50.08856797241579, -50.08937686845824, -50.08997997212315, -50.09044493862132, -50.09081863435913, -50.091132959240134, -50.09140833439497, -50.09160623698736])","array('d', [0.1610035002231596, 0.12765307301009132, 0.10067039270469273, 0.07910057231785847, 0.06208510632239948, 0.048854573582086384, 0.038723115122857914, 0.031083975849949173, 0.025405716650994118, 0.02122890685831051, 0.018163229470666075, 0.015884997540600177, 0.014135109061132618, 0.012717474445801341, 0.01149794627287461, 0.010403772960269838])","array('d', [0.007584867998957742, 0.004976805486847788, 0.0033086515462755093, 0.002227851649161436, 0.001518780466825444, 0.0010480784138349661, 0.0007323377684148018, 0.0005187976486905881, 0.0003736831714176738, 0.00027507858874101736, 0.00020851476077617231, 0.00016419773314934227, 0.00013524189736254435, 0.00011653015682190581, 0.000103979343163544, 9.408404142479639e-05])","array('d', [0.5433097640660146, 0.5376172712972855, 0.5331266715227292, 0.5295970137806959, 0.5268278696515754, 0.524653309662605, 0.5229372439420277, 0.5215695690217969, 0.5204628034284332, 0.519549032744892, 0.5187770622598588, 0.5181097171016562, 0.5175212510956759, 0.5169948357402149, 0.5165201051238759, 0.5159834032525559])",-183.19072214950603,-319.64672535134497,-50.0836769951055,0.048854573582086384,0.0010480784138349661,0.524653309662605,25.000000246266605,-1.0,"[-327.7281583868525, -187.9766182732276, 50.13881106895288]","[-317.90180722163336, -170.72141907905888, 52.52647175409138]","[-307.7308182555124, -187.8128654795164, 50.42089739270335]",10000000000.0,0.01992630958557129
