,current_time,x_pos,y_pos,z_pos,roll,pitch,yaw,vel,x_traj,y_traj,z_traj,roll_traj,pitch_traj,yaw_traj,x_cmd,y_cmd,z_cmd,roll_cmd,pitch_cmd,yaw_cmd,vel_cmd,effector_dmg,effector_x,effector_y,effector_z,cost,time_solution
0,10.538636922836304,-345.6932678222656,64.08451080322266,50.06365203857422,0.634095847606659,0.03265305235981936,-1.0926782329890392,23.15759283436534,"array('d', [67.05494689941406, 64.856839240828, 62.63342742826755, 60.392329481951556, 58.139378279355746, 55.87917159502118, 53.61508377758702, 51.34943276645023, 49.083748090341274, 46.81898143891326, 44.55566443684919, 42.294034181541996, 40.03413463125399, 37.77589675253923, 35.519198320250595, 34.12206524270326])","array('d', [-347.048095703125, -345.8598003693386, -344.7186420667636, -343.6120163140927, -342.5293197166916, -341.4615773907897, -340.40190317872106, -339.34544746950775, -338.2889751980264, -337.2304739298492, -336.1688319680217, -335.10356919776814, -334.0346160453894, -332.96213923717687, -331.8864133754618, -331.2175178853719])","array('d', [-50.0665168762207, -49.98950710946159, -49.92619494986437, -49.87364127655027, -49.829657893819885, -49.79257388083039, -49.76108522130415, -49.7341566759209, -49.71095659079089, -49.69081229710791, -49.67317862758706, -49.65761508237995, -49.643768916219685, -49.63136242833547, -49.62018332514261, -49.613921621103735])","array('d', [0.6317390203475952, 0.49688070230077597, 0.37485583904690073, 0.2644431671026602, 0.16453764320466, 0.08765770483293796, 0.03382479178674755, -0.0020461438534920516, -0.024229772438397128, -0.036346320107548846, -0.04143033124600512, -0.041965304487443615, -0.039905942476120046, -0.03669533368035788, -0.03327845694514556, -0.030111595782606655])","array('d', [-0.033946413546800586, -0.02777420949831437, -0.02296127181113012, -0.019148395501959004, -0.01609114067574047, -0.013618415105863445, -0.01160674139740211, -0.00996391929628853, -0.008618854812196923, -0.007515166923874962, -0.00660703548183193, -0.005856403345982732, -0.00523101897472933, -0.004703020205227292, -0.00424788478999771, -0.0038436457533564746])","array('d', [-1.0621639927241469, -1.0869931065682235, -1.105248057159862, -1.1182111550375329, -1.126732491471811, -1.131683892910265, -1.1340532114218758, -1.1346650845356603, -1.1341422381700335, -1.1329493876600425, -1.1314209702333338, -1.1297836234672995, -1.1281770863540628, -1.12667448507484, -1.1253021572263613, -1.123295891928329])",58.139378279355746,-342.5293197166916,-49.829657893819885,0.16453764320466,-0.01609114067574047,-1.126732491471811,25.000000231971285,-1.0,"[-345.228283659695, 63.28285809855255, 50.014995200056646]","[-328.33403988434014, 54.995530398014644, 43.23969248779498]","[-346.03415757731045, 47.1637201104478, 38.20296922017727]",10000000000.0,0.021656513214111328
1,10.566004753112793,-345.6932678222656,64.08451080322266,50.06365203857422,0.634095847606659,0.03265305235981936,-1.0926782329890392,23.15759283436534,"array('d', [66.20987701416016, 64.00099302859971, 61.76721398000791, 59.51604491972141, 57.25322330115047, 54.9832666091633, 52.709490165315025, 50.43417089176572, 48.15881105700147, 45.8843455822406, 43.61129706059623, 41.339898969704386, 39.07019514808595, 36.802118438461534, 34.53554938264823, 33.13200809950118])","array('d', [-346.6507568359375, -345.482534492567, -344.3617628818595, -343.27575043487224, -342.2138292379474, -341.16697318830523, -340.128252881447, -339.092787507363, -338.0573211001486, -337.0198278148627, -335.9791879893988, -334.93491737845375, -333.8869448157798, -332.83543695025907, -331.78066906035747, -331.1246256894189])","array('d', [-50.065670013427734, -49.98989345797986, -49.927338348888526, -49.87521000358665, -49.83142279798871, -49.7943793098546, -49.76282839278548, -49.7357727944608, -49.71240799169076, -49.692080476326666, -49.674258365386464, -49.65851009085815, -49.644488592409274, -49.631919403489, -49.620591583120685, -49.61424510533628])","array('d', [0.6324705481529236, 0.4975426160907742, 0.37545476346477724, 0.2649850963724344, 0.16502800106869664, 0.08800278863172618, 0.03406511288014443, -0.0018798569003348551, -0.024114225863594553, -0.036264220576799, -0.04136932186289967, -0.041917049487096424, -0.039865276314107564, -0.03665944547330388, -0.033246100201241094, -0.0300823181873236])","array('d', [-0.033338431268930414, -0.027391397010249816, -0.022735626341111675, -0.01903188179125837, -0.016049439745941703, -0.013626855814035619, -0.011647570256570565, -0.010024410659494604, -0.008689966102825976, -0.007590566249063714, -0.006682393773307436, -0.005928879496321505, -0.0052988877018885425, -0.0047654054139389486, -0.004304569630381831, -0.0038949363225659773])","array('d', [-1.0712615688655038, -1.0961290906740937, -1.1144141912115644, -1.1274021429148704, -1.135944699003816, -1.140912723235512, -1.1432935401336002, -1.1439133697645845, -1.1433960374651766, -1.1422070573532694, -1.1406814450405875, -1.1390462415854352, -1.1374414495429717, -1.1359403508991357, -1.1345693624984416, -1.1325654334023525])",57.25322330115047,-342.2138292379474,-49.83142279798871,0.16502800106869664,-0.016049439745941703,-1.135944699003816,25.000000230869027,-1.0,"[-345.03278965466393, 62.822626412805526, 50.014721141324905]","[-328.1866057154131, 54.475337185311815, 43.19351529210027]","[-345.92821237700025, 46.708779597033036, 38.20192473462498]",10000000000.0,0.02149224281311035
2,10.595952033996582,-345.32568359375,63.23261260986328,50.06364059448242,0.6341055035591127,0.03248676657676696,-1.1012098034236097,23.15905714677907,"array('d', [65.3619384765625, 63.14287009320551, 60.899308674713005, 58.63864864853658, 56.36653439790937, 54.08740523148628, 51.80451875934925, 49.52011174300612, 47.23565973283465, 44.952081162049616, 42.66988967296255, 40.38931506436412, 38.11040090817789, 35.8330817306485, 33.55724063324479, 32.14766449980492])","array('d', [-346.2616882324219, -345.11285918330157, -344.01176486860766, -342.9456337263536, -341.9037384844985, -340.8770059112651, -339.85846697789253, -338.8432123928062, -337.8279672069275, -336.81069350334224, -335.7902645686834, -334.7661926353379, -333.7384053421765, -332.7070695230562, -331.67246131632135, -331.028780617401])","array('d', [-50.06464767456055, -49.989936399256365, -49.92801158069685, -49.876211175156875, -49.83254402681724, -49.79548056851782, -49.76381853784714, -49.736595814020305, -49.71303292899012, -49.69249400437702, -49.6744592969835, -49.65850530633776, -49.64429000251499, -49.631541662477886, -49.62005034170821, -49.613610793344264])","array('d', [0.6330437660217284, 0.49806128511365544, 0.37592407464582367, 0.2654097467254275, 0.16541224058010842, 0.08826270147793963, 0.03423619510242368, -0.0017706827320504515, -0.0240465851386613, -0.036223041020927244, -0.041343899955207805, -0.04190024029876901, -0.03985273677179588, -0.036648907970628634, -0.03323666898881338, -0.030073784472628363])","array('d', [-0.03280749917030331, -0.027066278070010986, -0.022553960255100484, -0.018949482008059446, -0.016034650531076867, -0.01365687515818134, -0.011705975266170086, -0.01009943662625354, -0.008773274747844013, -0.007676349379066014, -0.0067667165498114575, -0.006009199701487536, -0.005373706058265993, -0.0048340133980323075, -0.00436686858811845, -0.003951306755680632])","array('d', [-1.0800120075556894, -1.1049096494261637, -1.1232183876564998, -1.1362258211873797, -1.1447850081515265, -1.149765847058696, -1.1521551261502976, -1.1527804363598628, -1.1522665602363034, -1.151079708428765, -1.1495553996270709, -1.1479210233586645, -1.1463168067033365, -1.1448161608386298, -1.1434455643397747, -1.141442583701061])",56.36653439790937,-341.9037384844985,-49.83254402681724,0.16541224058010842,-0.016034650531076867,-1.1447850081515265,25.00000022966472,-1.0,"[-344.8174683633632, 62.30553513948904, 50.01480537600335]","[-328.0266063883741, 53.88712055955694, 43.144779895901316]","[-345.8152349451912, 46.19426535749093, 38.2066959651001]",10000000000.0,0.025168180465698242
3,10.622817993164062,-344.9670715332031,62.38071823120117,50.06414031982422,0.633450984954834,0.03238260373473171,-1.1099006374690195,23.160473057989524,"array('d', [64.9368667602539, 62.71292275507745, 60.46467523085879, 58.19946658637931, 55.92289699842994, 53.63936837515669, 51.352110561235534, 49.063340973230396, 46.77452231784222, 44.48656514726889, 42.199978885769845, 39.91499167757931, 37.63164709739577, 35.349880617304535, 33.06957670227922, 31.657089518327776])","array('d', [-346.0702209472656, -344.93084866250064, -343.8393540470075, -342.78292625386354, -341.7508088594798, -340.73390551838753, -339.7252278619338, -338.7198526568312, -337.71449557152874, -336.7071126180423, -335.69657342021935, -334.68238824707987, -333.6644839033276, -332.64302706754336, -331.61829406571536, -330.98067153119075])","array('d', [-50.064266204833984, -49.989712553230476, -49.92779544019997, -49.87590406792956, -49.83208349361466, -49.794829808018875, -49.762958837294256, -49.73552104661803, -49.71174553206847, -49.691002042466124, -49.672774326664005, -49.65664083314695, -49.64226037179425, -49.62936126477852, -49.617733043915045, -49.61121604176121])","array('d', [0.6333981156349182, 0.49838191393154485, 0.37621419162338, 0.2656722554448012, 0.16564976828974465, 0.08843699336464661, 0.03436437903799611, -0.0016756496307780558, -0.023974875720687988, -0.036167331810526296, -0.0412989171524018, -0.041862376913128406, -0.03981970076964186, -0.03661938669845952, -0.03321000453180291, -0.030049657471999152])","array('d', [-0.03270768374204632, -0.02703873050379425, -0.022574537782099523, -0.019001174117155583, -0.016105399962230257, -0.01373814878551954, -0.011791791406654168, -0.010185677184173353, -0.008857184332273978, -0.007756165663259149, -0.006841396744941121, -0.006078219200903354, -0.005436911736651612, -0.004891518000743047, -0.004418975286625077, -0.0039984548504448224])","array('d', [-1.084260149798121, -1.1091764217239084, -1.1274997777135112, -1.1405192573591456, -1.1490887266161673, -1.154077763114134, -1.1564729861612952, -1.157102666759219, -1.1565920551381579, -1.1554077003170486, -1.1538853665440534, -1.1522526161993696, -1.1506497913331717, -1.1491503734872275, -1.1477808797626625, -1.1457796962166447])",55.92289699842994,-341.7508088594798,-49.83208349361466,0.16564976828974465,-0.016105399962230257,-1.1490887266161673,25.000000229019374,-1.0,"[-344.49442212552384, 61.52011061048655, 50.015171996329435]","[-327.78991672462877, 52.991130951855396, 43.071397425238885]","[-345.6502423885092, 45.41094117643222, 38.21861573339396]",10000000000.0,0.02486705780029297
4,10.649887084960938,-344.79058837890625,61.95345687866211,50.0643424987793,0.6318237781524655,0.0322760269045829,-1.1141294678065436,23.163331281348725,"array('d', [64.51105499267578, 62.28226923386704, 60.02936619750661, 57.759637185747934, 55.47863867463622, 53.19073542437515, 50.899129597124144, 48.60601930718426, 46.31285446507687, 44.02053780353142, 41.72957460523509, 39.440191447804395, 37.152432002860415, 34.86623278330719, 32.58147970895542, 31.166086967753532])","array('d', [-345.8807373046875, -344.75086673334584, -343.66902198402903, -342.62235217547925, -341.6000712141363, -340.59305927975913, -339.59430845022246, -338.5988813682388, -337.6034841265132, -336.6060664588514, -335.60549411064045, -334.6012751709666, -333.59333539992485, -332.58184112170943, -331.5670686653473, -330.9355588458773])","array('d', [-50.06394577026367, -49.98937569552361, -49.92732050134578, -49.875214682269494, -49.83113516376912, -49.793600425554814, -49.76144185009441, -49.73372047650627, -49.70967233426071, -49.68867145928358, -49.67020398258387, -49.65384938070467, -49.63926654273112, -49.62618321539442, -49.61438791150423, -49.60777651201548])","array('d', [0.6338146328926086, 0.4987587943654633, 0.37655520717255836, 0.26598081910050275, 0.16592896823386216, 0.08865031355046932, 0.034528964896360134, -0.0015468544284723486, -0.02387203719561486, -0.036083078703791426, -0.041227883626199946, -0.04180082565882, -0.039765181340524654, -0.03657041145301584, -0.03316573548952314, -0.03000960118244699])","array('d', [-0.03268399089574817, -0.0270745728788839, -0.022648556817921318, -0.019098362931502622, -0.016215188293897776, -0.01385314091601208, -0.01190690002482166, -0.01029750349090388, -0.008963561096104758, -0.007855816596922248, -0.006933682574956918, -0.0061629498415198165, -0.005514209119192899, -0.0049617172827171015, -0.004482554340335681, -0.004055983562401176])","array('d', [-1.0885163982722423, -1.11345457906198, -1.1317951227546692, -1.144828764754325, -1.153410321696154, -1.158409165375627, -1.1608118175400697, -1.1614472448181719, -1.1609411702570978, -1.1597604834197586, -1.1582411966029142, -1.1566110489576418, -1.1550105028914255, -1.1535131167603698, -1.1521454531766224, -1.1501471303461872])",55.47863867463622,-341.6000712141363,-49.83113516376912,0.16592896823386216,-0.016215188293897776,-1.153410321696154,25.000000228329725,-1.0,"[-344.1294944074705, 60.60786717320425, 50.0159368638071]","[-327.52524072372273, 51.93825539558157, 43.00618713710103]","[-345.46643679649424, 44.47947554567176, 38.264870165103886]",10000000000.0,0.025665998458862305
5,10.69430160522461,-344.2724914550781,60.666194915771484,50.065765380859375,0.6133618950843811,0.031184507533907842,-1.1273633678767343,23.18115413460567,"array('d', [64.08451080322266, 61.851033342113816, 59.59362780836222, 57.319533724897255, 55.03426375004541, 52.74214563645756, 50.4463539755245, 48.14906765186172, 45.851723799151685, 43.55521728795871, 41.2600491626562, 38.96644429808023, 36.67444630308269, 34.38399256246252, 32.094970283949976, 30.676786028439334])","array('d', [-345.6932678222656, -344.5727001105827, -343.50028919761303, -342.46314764316355, -341.45046216658574, -340.45309138206466, -339.46400941162335, -338.478266006933, -337.4925586338017, -336.50483149797816, -335.513947068789, -334.519411745055, -333.52115064608023, -332.5193300812776, -331.51422667525696, -330.8886488574531])","array('d', [-50.06365203857422, -49.989082891297485, -49.92690536674848, -49.87459911740791, -49.83027295363675, -49.79246785260411, -49.76003091203011, -49.7320339256007, -49.70772003898959, -49.68646774762826, -49.66776571923277, -49.65119459136407, -49.63641344246539, -49.62314953157813, -49.61119041920076, -49.604486447651695])","array('d', [0.634095847606659, 0.4990132479840819, 0.3767854463482986, 0.2661891481395304, 0.16611747214024875, 0.08878448004999272, 0.03462387852471111, -0.001479784218030694, -0.02382417313301311, -0.03604800882023443, -0.041201020643086894, -0.04177906602481165, -0.03974659027523725, -0.03655392206735044, -0.033150857840598784, -0.029996139327779316])","array('d', [-0.03265305235981936, -0.027103764346669036, -0.022716610928580325, -0.019190289551053535, -0.016320387285400997, -0.013964159666540419, -0.01201858093706208, -0.010406373467264116, -0.009067380832278968, -0.007953243810761393, -0.007024020186670779, -0.006245959041151385, -0.00558997228272235, -0.005030538774029057, -0.004544889334845029, -0.004112386602941046])","array('d', [-1.0926782329890392, -1.1176312120264777, -1.135983363416553, -1.149026568978258, -1.157616287897539, -1.162621554036199, -1.1650287067144818, -1.1656673042928936, -1.1651634788867404, -1.1639844164826512, -1.1624663439103817, -1.1608371502120611, -1.1592373961059397, -1.157740698568081, -1.1563736506257427, -1.1543764136102623])",55.03426375004541,-341.45046216658574,-49.83027295363675,0.16611747214024875,-0.016320387285400997,-1.157616287897539,25.000000227607682,-1.0,"[-344.0169623075101, 60.31840872241868, 50.016512087800955]","[-327.4454276146632, 51.58442560195054, 43.009246089200026]","[-345.41257660623404, 44.1545051265096, 38.321193311839586]",10000000000.0,0.04316401481628418
6,10.745468616485596,-343.93634033203125,59.803375244140625,50.067291259765625,0.5865639448165895,0.028904894366860324,-1.1365210255000255,23.195176487604467,"array('d', [62.807098388671875, 60.55933567346128, 58.28828722092491, 56.001017585838, 53.70289499310005, 51.398127120598666, 49.08979926264572, 46.780028010990925, 44.47020889398098, 42.16121076374142, 39.85352007228266, 37.54735508221982, 35.24275796577465, 32.939667652323706, 30.637974267994824, 29.21149554555598])","array('d', [-345.14544677734375, -344.0538019721743, -343.01060603202814, -342.00287933826235, -341.0197391408383, -340.05198837972847, -339.0925547991908, -338.13645553186166, -337.18036722363433, -336.22222190648665, -335.2608761352867, -334.2958347320459, -333.327024017883, -332.35461305457926, -331.3788818624797, -330.7713126360249])","array('d', [-50.063899993896484, -49.989536629642, -49.927143888261256, -49.874348376752366, -49.82936352743587, -49.79080493681565, -49.757572559167926, -49.72877503108646, -49.70368049889517, -49.681683718354826, -49.662283205075965, -49.64506477707283, -49.62968932340384, -49.61588349785238, -49.60343253395838, -49.5964504269621])","array('d', [0.6339271664619446, 0.498860618958366, 0.376647341881327, 0.26606418603606374, 0.1660044016911914, 0.0885842311630721, 0.03436998583484764, -0.0017617262630041015, -0.024115062944586162, -0.036334239872143514, -0.041473611382868945, -0.04203281603097077, -0.03997924615408162, -0.036765360499483236, -0.03334229317214219, -0.03016935719454915])","array('d', [-0.03246723115444178, -0.027121484832595525, -0.022868870691020195, -0.019428098049017014, -0.016608767418456873, -0.01427821321907872, -0.012340795854054815, -0.0107246981721823, -0.009373801740749404, -0.008242719273878726, -0.007293679477736433, -0.006494503950193265, -0.0058172348988981834, -0.0052371586325586925, -0.0047320795384913975, -0.00428176331866908])","array('d', [-1.1055924137446544, -1.130536515731663, -1.1488817041532657, -1.1619191730309932, -1.1705039960609585, -1.175502988572882, -1.1779011789401554, -1.1785292504809906, -1.178014180803713, -1.1768237863620807, -1.1752947376418625, -1.1736552054026732, -1.172045898956275, -1.1705404824664931, -1.169165527020527, -1.1671573303700113])",53.70289499310005,-341.0197391408383,-49.82936352743587,0.1660044016911914,-0.016608767418456873,-1.1705039960609585,25.0000002250485,-1.0,"[-343.3054743410128, 58.443180858845636, 50.02393995542177]","[-326.9528987776381, 49.12279717152158, 43.26200825174542]","[-345.0888239149046, 41.82409816146158, 39.04096428419268]",10000000000.0,0.04397845268249512
7,10.77864956855774,-343.6092224121094,58.93943405151367,50.07054901123047,0.5492115616798401,0.025466322898864698,-1.1455010612818857,23.211145032597315,"array('d', [61.95345687866211, 59.69651022235351, 57.416797873261636, 55.12124394928775, 52.8151068315581, 50.50250626877914, 48.18646289257619, 45.869048265523595, 43.55162745894961, 41.23504954624465, 38.919788903578905, 36.606057066850695, 34.29389297262986, 31.983234380281967, 29.67397127995499, 28.2425310200413])","array('d', [-344.79058837890625, -343.7180378890511, -342.6939132828552, -341.70521395533575, -340.74103892987097, -339.79217488706337, -338.8515353038456, -337.9141287120398, -336.97662867087877, -336.03696833883424, -335.09400840256546, -334.14725974806555, -333.1966557939544, -332.2423730303282, -331.28469873467486, -330.6881660109523])","array('d', [-50.0643424987793, -49.99027187351012, -49.92786834915655, -49.87486013557665, -49.82953333771495, -49.79055576359058, -49.75686473258859, -49.727595292643805, -49.70203385934265, -49.679587402839964, -49.65976216643977, -49.64214838876148, -49.62640895439531, -49.612270740786144, -49.599517912781856, -49.59236494671043])","array('d', [0.6318237781524655, 0.4969573943389295, 0.3749252328746071, 0.26450595722682274, 0.164594457809636, 0.08725953740860251, 0.03313181392745606, -0.002911741469698449, -0.02517638925916319, -0.03730800588556483, -0.04236263621977358, -0.04284135303294357, -0.04071259686762352, -0.03742945035289797, -0.0339432534533252, -0.030713128592934846])","array('d', [-0.0322760269045829, -0.027075960306962948, -0.022921387048549128, -0.01954471149858502, -0.016765094686935895, -0.014456742628672614, -0.012529059626606984, -0.01091397253268237, -0.009558149663885537, -0.008418273073316234, -0.007458100381248858, -0.006646576481883963, -0.0059565651505857796, -0.00536395213764897, -0.004846978835104032, -0.00438572851086695])","array('d', [-1.1141294678065436, -1.1389630300013678, -1.157221472975433, -1.170187450035692, -1.1787112448156472, -1.1836557173896498, -1.1860034545420919, -1.1865846821470778, -1.1860262452291621, -1.1847959126888978, -1.1832302869907847, -1.1815574156547344, -1.1799178301211712, -1.1783849773737547, -1.176985191226901, -1.174941153529028])",52.8151068315581,-340.74103892987097,-49.82953333771495,0.164594457809636,-0.016765094686935895,-1.1787112448156472,25.000000223022433,-1.0,"[-343.3054743410128, 58.443180858845636, 50.02393995542177]","[-326.9528987776381, 49.12279717152158, 43.26200825174542]","[-345.0888239149046, 41.82409816146158, 39.04096428419268]",10000000000.0,0.02970433235168457
8,10.80518388748169,-343.4489440917969,58.507293701171875,50.073604583740234,0.5272697806358336,0.023600487038493132,-1.1499120434138437,23.217372490563772,"array('d', [61.096221923828125, 58.830200524921345, 56.54228716920488, 54.23917420905565, 51.92595686392221, 49.60663521109513, 47.28414515906739, 44.9604996798103, 42.6370228643581, 40.31453467130512, 37.993488470224456, 35.67408030441484, 33.35633729396726, 31.040187756160595, 28.72551372038734, 27.29056115938502])","array('d', [-344.4432678222656, -343.3899400577157, -342.3842224731981, -341.4132368460171, -340.4661630978053, -339.5338446045497, -338.6092375420365, -337.6873871653013, -336.765002034915, -335.8400498731294, -334.91142539257635, -333.97867240263406, -333.04175555154484, -332.1008804273824, -331.15636103504795, -330.5677171314099])","array('d', [-50.06527328491211, -49.992328633957044, -49.930631558484784, -49.87803503843603, -49.832914118666444, -49.79400081925071, -49.76027910968817, -49.73091793772424, -49.70522822171591, -49.68263444570436, -49.662655139757184, -49.64488890155525, -49.62900400613594, -49.614730458098286, -49.60185380253825, -49.59463008964285])","array('d', [0.6222146153450012, 0.48826266348828207, 0.3670579143499123, 0.2573873124032476, 0.15815324103259099, 0.08141360104364659, 0.0278138212567805, -0.007750048751665754, -0.0295743070243219, -0.04130069315310363, -0.0459831522869203, -0.0461212810689348, -0.04368203430599473, -0.040116783747248634, -0.03637491214406131, -0.032913384563412314])","array('d', [-0.03172491490840908, -0.026722598400597392, -0.02270709300652434, -0.0194279489129642, -0.01671599842362547, -0.014453645249430217, -0.012556197576581767, -0.010959911557223962, -0.009614665738350068, -0.008479538167801663, -0.007520082871581156, -0.006706598184781492, -0.006012974884441765, -0.0054158863682773105, -0.004894186814300328, -0.004428444060700176])","array('d', [-1.1228982647273207, -1.147230403991873, -1.1650944200945894, -1.1777347787998864, -1.185980271637031, -1.1906800654580934, -1.192808162388417, -1.193190227175514, -1.1924506634841057, -1.1910556546858602, -1.1893405189497612, -1.187532106088512, -1.1857697790735238, -1.1841258506706147, -1.182625576158601, -1.1804353252538082])",51.92595686392221,-340.4661630978053,-49.832914118666444,0.15815324103259099,-0.01671599842362547,-1.185980271637031,25.000000220656606,-1.0,"[-342.8553829737276, 57.19247420007366, 50.03747391578809]","[-326.64972831825804, 47.28044324526456, 43.782204174317066]","[-344.8946530730677, 40.001624366195095, 40.021683410242616]",10000000000.0,0.023743152618408203
9,10.832392930984497,-343.1334533691406,57.640220642089844,50.08287048339844,0.47793725132942194,0.019867960363626463,-1.15855877002212,23.22893569260951,"array('d', [60.666194915771484, 58.39570864447562, 56.10394743015008, 53.79744225259752, 51.481180223242, 49.159085939287536, 46.83404322502423, 44.50802919255808, 42.18234226863294, 39.85778315672164, 37.53479013063521, 35.2135469049468, 32.89407015510524, 30.576279072233334, 28.260047519557613, 26.824102546195423])","array('d', [-344.2724914550781, -343.2287351606432, -342.231759002789, -341.26882053431444, -340.32919209262695, -339.40378382785207, -338.4856032436834, -337.56973796769927, -336.6529344164631, -335.7331955890153, -334.80944938027164, -333.88127063793695, -332.9486527482988, -332.01182764495206, -331.071133299385, -330.4846633649231])","array('d', [-50.065765380859375, -49.993998450840266, -49.93318620756105, -49.88125985035599, -49.8366502053056, -49.79812986569713, -49.764712759066505, -49.73559018838797, -49.71008986141099, -49.68764890420872, -49.6677953517036, -49.6501348986972, -49.634341040111394, -49.620147509997786, -49.607342374580604, -49.60015826436032])","array('d', [0.6133618950843811, 0.48025239022061283, 0.3598099187135313, 0.2508290541540373, 0.1522190830520723, 0.07604789623421146, 0.02294769229374059, -0.012166431803813176, -0.03358126158340213, -0.04493362744010747, -0.04927458870011074, -0.04910158319593003, -0.04637955876878081, -0.04255783871460113, -0.03858369807769323, -0.03491197690555042])","array('d', [-0.031184507533907842, -0.026318161690350395, -0.02240179546992382, -0.0191957780307225, -0.0165381764436225, -0.014316384734019808, -0.012449247968170646, -0.010875589519036118, -0.009547187574797736, -0.008424547976159812, -0.007474313286656635, -0.0066676241205157125, -0.005979034053950688, -0.005385748383722294, -0.004867057739200355, -0.004403896656231409])","array('d', [-1.1273633678767343, -1.1512386228016727, -1.1687419103858394, -1.181083685378191, -1.1890734932172962, -1.1935485961000611, -1.1954755148097165, -1.1956755737453861, -1.1947708001825394, -1.1932258081994385, -1.1913746478659455, -1.1894430059951209, -1.1875691332716227, -1.185824281619449, -1.1842327113827769, -1.1819094820765372])",51.481180223242,-340.32919209262695,-49.8366502053056,0.1522190830520723,-0.0165381764436225,-1.1890734932172962,25.000000219332637,-1.0,"[-342.6844991875124, 56.705272781501996, 50.044930754228076]","[-326.5353092184553, 46.545880891033484, 44.04572916075013]","[-344.82068574067097, 39.26552568553408, 40.490249794678284]",10000000000.0,0.02438950538635254
10,10.858242273330688,-343.1334533691406,57.640220642089844,50.08287048339844,0.47793725132942194,0.019867960363626463,-1.15855877002212,23.22893569260951,"array('d', [59.803375244140625, 57.52401330625716, 55.22499488261, 52.91243659282796, 50.591054878395745, 48.264590945036225, 45.93580439940567, 43.60658693991307, 41.27817462957366, 38.95131943885657, 36.62641930910794, 34.303623082674605, 31.982916373146054, 29.66419020210169, 27.347292649363546, 25.911028609199416])","array('d', [-343.93634033203125, -342.91174795955493, -341.93136367505804, -340.982867828537, -340.0558250783863, -339.14135970666075, -338.232645028321, -337.32490494096953, -336.4150061653952, -335.5010622890052, -334.5821039230769, -333.6578009774159, -332.7282341191772, -331.79371480842417, -330.8546530770979, -330.2686653459438])","array('d', [-50.067291259765625, -50.00065384075464, -49.943991719696406, -49.8954648490144, -49.8536695502959, -49.8175013540909, -49.78606763168379, -49.758632060297295, -49.73457920122493, -49.71339126988527, -49.69463223742401, -49.67793643512391, -49.66300003112988, -49.64957444386053, -49.63746115020436, -49.63066457911386])","array('d', [0.5865639448165895, 0.45600459989866415, 0.33786960874252314, 0.2309766389381342, 0.13425587335832595, 0.05981400425980508, 0.008233416931209313, -0.02551388485860462, -0.045686021196619686, -0.055904764027303114, -0.05921206224476964, -0.05809837056736495, -0.05452211892494468, -0.049926051889518944, -0.04525079327369294, -0.04094461465471436])","array('d', [-0.028904894366860324, -0.024485129121304707, -0.02090814464593622, -0.017964903006372726, -0.015513791244522351, -0.01345610631960977, -0.011720490735039474, -0.010252891246458258, -0.009010420874888321, -0.007957689454541039, -0.007064576658770278, -0.0063048386666255864, -0.005655193168694679, -0.005094678904545441, -0.004604176679362834, -0.004166032015472308])","array('d', [-1.1365210255000255, -1.1590414188266354, -1.1754675281220006, -1.1869132710737844, -1.1941330068008063, -1.197929847387376, -1.199248848964121, -1.1988987190198588, -1.1974945280278724, -1.195496230058491, -1.1932340522617788, -1.1909301439363782, -1.1887193633808184, -1.1866697299731221, -1.1848024795837655, -1.1820775410752542])",50.591054878395745,-340.0558250783863,-49.8536695502959,0.13425587335832595,-0.015513791244522351,-1.1941330068008063,25.000000216321904,-1.0,"[-342.53258132402215, 56.26615195872972, 50.05307050346335]","[-326.43385069500124, 45.879670435780966, 44.31269824134752]","[-344.75476647313616, 38.59693426584275, 40.95028855043235]",10000000000.0,0.023001432418823242
11,10.886006355285645,-342.8241271972656,56.76988220214844,50.096858978271484,0.423765391111374,0.015759631991386355,-1.167096062502589,23.237457383622193,"array('d', [58.93943405151367, 56.65172892934961, 54.34635087015088, 52.02892933940706, 49.703866928181256, 47.3746968854935, 45.04404049305043, 42.7136941357554, 40.384822473542506, 38.058119154902506, 35.73393127254913, 33.41236150408234, 31.093352707585073, 28.776756060344592, 26.462382566991593, 25.02795289197666])","array('d', [-343.6092224121094, -342.60288647405457, -341.63717890338353, -340.70035331011934, -339.7823779031274, -338.8746767653253, -337.9706567422745, -337.065734998741, -336.1569494594878, -335.242570938137, -334.32177560362527, -333.3943675137414, -332.4605499845708, -331.5207458173914, -330.57546564696605, -329.98493311874256])","array('d', [-50.07054901123047, -50.01174159654165, -49.96157722462445, -49.9185019287801, -49.881321575870885, -49.84908984639761, -49.82103671460817, -49.79652303522101, -49.775011676839284, -49.756048645333756, -49.739250159769796, -49.724293342559335, -49.710909192117214, -49.69887708833765, -49.68802040725482, -49.68192872811193])","array('d', [0.5492115616798401, 0.42220676292680903, 0.3072880584372936, 0.20330530542330028, 0.10921781318880373, 0.037164242474627955, -0.012307839860539141, -0.044152656831417794, -0.06259169602182027, -0.07122776090482265, -0.07309126145535026, -0.07066349893565436, -0.06589402990308516, -0.06021643530649415, -0.05456199011925294, -0.04936973473012123])","array('d', [-0.025466322898864698, -0.021647679441164382, -0.018538396529565224, -0.015966459701675897, -0.013814818372191522, -0.012001532162184443, -0.010467044617222143, -0.009165919759895521, -0.008061798999490437, -0.0071244096634904075, -0.006327769737241052, -0.00564907752247808, -0.00506798782875759, -0.004566104861719195, -0.004126599280415361, -0.0037339020761568784])","array('d', [-1.1455010612818857, -1.1661981668129626, -1.1811572057395023, -1.1913720830165346, -1.1975273271225908, -1.200382029975764, -1.2008536427319296, -1.1997350680912449, -1.1976326408351174, -1.1950003222057624, -1.192163244201356, -1.189338705901273, -1.186656839074354, -1.1841811262769928, -1.1819285487630067, -1.1786420276627458])",49.703866928181256,-339.7823779031274,-49.881321575870885,0.10921781318880373,-0.013814818372191522,-1.1975273271225908,25.00000021285398,-1.0,"[-342.23496461227717, 55.39063288777075, 50.073220508811445]","[-326.2369056423019, 44.55580419801019, 44.90905586612856]","[-344.6268965006711, 37.27507325677209, 41.942712462138346]",10000000000.0,0.026157140731811523
12,10.921082735061646,-342.5199890136719,55.89689636230469,50.116756439208984,0.36754417419433594,0.012077868916094253,-1.1751071651789806,23.244011789530123,"array('d', [58.507293701171875, 56.21561677837605, 53.90734650769845, 51.58785787729132, 49.26138980365841, 46.931368026243696, 44.60034311349766, 42.27006253378609, 39.94165354521703, 37.61577830297102, 35.292755546741034, 32.9726614973183, 30.65541400342359, 28.340840610993236, 26.028730145781118, 24.595895564401633])","array('d', [-343.4489440917969, -342.45143208626325, -341.4924712223721, -340.5606368828166, -339.6461269899785, -338.74053806699374, -337.8374117801054, -336.93227803055197, -336.0222755528571, -335.1057682102369, -334.1820184838696, -333.25090997884166, -332.3127186636938, -331.36793319602106, -330.4171236250675, -329.82276859598426])","array('d', [-50.073604583740234, -50.01906053663867, -49.97245881795873, -49.93239093293831, -49.89777004071125, -49.86773143834296, -49.841568934291246, -49.818694463177835, -49.7986124568497, -49.78090310309938, -49.76521087134934, -49.751236214985994, -49.73872926867694, -49.72748488321854, -49.71733863193875, -49.71164559050396])","array('d', [0.5272697806358336, 0.40235301662397005, 0.2893236442701089, 0.18705042982409478, 0.09450979221793657, 0.023840535094555068, -0.024402494184472066, -0.055133686678173956, -0.07255526320894794, -0.08026037265841549, -0.08127360480480056, -0.07807146383015645, -0.07259861217964825, -0.0662833963798809, -0.06005164794018522, -0.054336982988471096])","array('d', [-0.023600487038493132, -0.020096685574710515, -0.0172346063809662, -0.014860683125097016, -0.012870126790033916, -0.011189374306204418, -0.009764777704439336, -0.008555233130227758, -0.007527686830725255, -0.006654481819203891, -0.005911776046778942, -0.005278570528225394, -0.00473607819702752, -0.0042672810480985845, -0.0038565934725909748, -0.0034895906962488284])","array('d', [-1.1499120434138437, -1.16957026580104, -1.1836845247488939, -1.1931852406769476, -1.1987194126205263, -1.2010219243560998, -1.2009951064157038, -1.1994235854480273, -1.1969091293989587, -1.1939024865645917, -1.1907259464052176, -1.1875940163145742, -1.1846340583068016, -1.1819068728401472, -1.1794269169200835, -1.1758090020488523])",49.26138980365841,-339.6461269899785,-49.89777004071125,0.09450979221793657,-0.012870126790033916,-1.1987194126205263,25.000000210902304,-1.0,"[-342.1108775386212, 55.020425208091524, 50.08339702642975]","[-326.1539137301898, 44.00517290370645, 45.18038543281206]","[-344.57133752247273, 36.726124452392966, 42.38504028437678]",10000000000.0,0.0331270694732666
13,10.948133707046509,-342.36956787109375,55.459617614746094,50.129032135009766,0.33972153067588806,0.010540089569985775,-1.1789516647669933,23.246799718025223,"array('d', [58.07420349121094, 55.77869232038438, 53.46770718195458, 51.14636779364423, 48.81874872715556, 46.4881682218189, 44.15710670118205, 41.827262933109175, 39.49972634694735, 37.17512654795447, 34.85375234080686, 32.53565152999981, 30.22071477102131, 27.908743704856885, 25.599502719714934, 24.16867462088862])","array('d', [-343.2903747558594, -342.3014877840819, -341.34891831182364, -340.4215783933622, -339.50990874909144, -338.60568951958885, -337.70260626461413, -336.7963102818393, -335.88404979599363, -334.96429024820685, -334.0363885741686, -333.100315493484, -332.15642651499115, -331.2052823372819, -330.2475179386372, -329.6484275659756])","array('d', [-50.077667236328125, -50.02724187706212, -49.98408951096191, -49.946938823226986, -49.91480445515892, -49.88689915252107, -49.86257751213426, -49.84130029082556, -49.82261179333266, -49.80612511566088, -49.79151201454586, -49.77849554572786, -49.76684443014925, -49.75636857682218, -49.746915449958585, -49.741611383425195])","array('d', [0.5034121274948119, 0.3807657174026199, 0.2697906464140168, 0.1693762408809648, 0.07851752330008153, 0.009336287487390764, -0.03757940399311119, -0.06710364160800478, -0.08341968572916258, -0.0901115329834856, -0.09019833129444381, -0.08615192066953437, -0.07991195745953308, -0.07290125445730027, -0.06603978483471946, -0.05975527380556352])","array('d', [-0.021800015121698345, -0.018596466614434932, -0.01597094923576531, -0.013787131012440274, -0.011951693538880419, -0.0103989176324335, -0.009080693486277025, -0.007959985476361103, -0.007006852392598149, -0.006196110417388765, -0.0055059504554316515, -0.004917095028288374, -0.004412253012799657, -0.003975736205805418, -0.0035931654557660587, -0.003251231148298975])","array('d', [-1.1542612751338146, -1.172814517050788, -1.1860232766308383, -1.194754209953144, -1.1996161805457042, -1.2013189873282892, -1.2007493596313357, -1.1986837603141038, -1.1957194669746969, -1.1923039951784502, -1.1887566711048603, -1.1852890141796932, -1.182025378357596, -1.1790236306530941, -1.1762954593815769, -1.1723157868878866])",48.81874872715556,-339.50990874909144,-49.91480445515892,0.07851752330008153,-0.011951693538880419,-1.1996161805457042,25.00000020877536,-1.0,"[-341.80378534493025, 54.094663554402985, 50.11251260063196]","[-325.9457645893374, 42.6670684618041, 45.877746005553185]","[-344.4274318999737, 35.40028695365517, 43.50669983734378]",10000000000.0,0.02550482749938965
14,10.981031656265259,-342.0716857910156,54.58628845214844,50.159568786621094,0.28569918870925903,0.007962558418512285,-1.1864628036830087,23.24955545194894,"array('d', [57.640220642089844, 55.3409833909648, 53.02741934255774, 50.70439579581721, 48.37582438870394, 46.04491707057893, 43.714085470702294, 41.38498037826919, 39.058653319010844, 36.735700573123545, 34.41637967992805, 32.100708308051594, 29.78854796935858, 27.479672351891043, 25.17381936127463, 23.74535046471159])","array('d', [-343.1334533691406, -342.1530316119894, -341.2065734961116, -340.28333492409206, -339.374007266836, -338.4705617068268, -337.56683385325124, -336.6586029121528, -335.7432336600312, -334.81930034781834, -333.8862614180842, -332.9441813228757, -331.9935011527074, -331.0348590660659, -330.0689597861454, -329.4643778240077])","array('d', [-50.08287048339844, -50.03687240426474, -49.99743977513902, -49.96344248266211, -49.93400052134178, -49.9084077331692, -49.886082901898064, -49.86653874024116, -49.84936227963135, -49.834202086085405, -49.82075946613418, -49.80878203895673, -49.79805877376018, -49.788416005896636, -49.77971417136049, -49.774831731384545])","array('d', [0.47793725132942194, 0.3577150941429469, 0.24893357809326794, 0.15050398332817227, 0.06144119696342535, -0.00617185454425272, -0.05168128286308044, -0.07992162911621775, -0.0950582553728575, -0.10066699725916432, -0.09976226704563014, -0.0948116019882336, -0.08774970664236784, -0.07999368699188665, -0.0724573423056805, -0.06556212046346292])","array('d', [-0.019867960363626463, -0.016980756306035984, -0.014606273448397083, -0.012625447232651583, -0.01095651004444115, -0.009541681820872996, -0.008338493102092998, -0.007314085227374267, -0.00644174410412638, -0.005698877759522349, -0.005065830628970598, -0.004525167182026257, -0.004061211038584147, -0.003659720093344535, -0.003307635158552693, -0.0029928726282369804])","array('d', [-1.15855877002212, -1.1759582624301423, -1.1882139852391105, -1.1961300179025829, -1.2002773440688408, -1.2013402731628975, -1.2001897729716895, -1.1975945341376735, -1.1941475834990694, -1.1902932841471578, -1.1863479433415725, -1.1825199421206125, -1.1789304234132552, -1.175634098923365, -1.1726396698483672, -1.1682719607605185])",48.37582438870394,-339.374007266836,-49.93400052134178,0.06144119696342535,-0.01095651004444115,-1.2002773440688408,25.00000020643479,-1.0,"[-341.7967588223502, 54.07338536775953, 50.11322229338699]","[-325.9409813393802, 42.63691447042968, 45.89404538016467]","[-344.4240779658678, 35.370641063736855, 43.5326030507584]",10000000000.0,0.031168222427368164
15,11.017293453216553,-341.7767028808594,53.7138786315918,50.19676208496094,0.23478466272354123,0.005900547839701122,-1.1932787140223644,23.248259663853627,"array('d', [56.76988220214844, 54.4633868808475, 52.144875162397874, 49.818734556289606, 47.488565016204106, 45.15737550460014, 42.8274480379436, 40.5003423468824, 38.17703605175742, 35.85805833045322, 33.54360198336874, 31.233620998588744, 28.927914467310753, 26.626195687660378, 24.328145035098586, 22.905098238934343])","array('d', [-342.8241271972656, -341.86047836896915, -340.9258911401917, -340.01030137127174, -339.10490432607463, -338.20205979768104, -337.2959093854774, -336.3824978266963, -335.4594362395014, -334.5255314289003, -333.5804600709816, -332.62448862960485, -331.65824269624966, -330.6825272679975, -329.69819706237274, -329.0812418215754])","array('d', [-50.096858978271484, -50.060290928341566, -50.028804290819885, -50.00155468275509, -49.97787825224304, -49.9572374388864, -49.93918609711164, -49.92334742943594, -49.90940011723933, -49.897069316641996, -49.88612044077669, -49.87635455074468, -49.86760471798501, -49.85973302844995, -49.85262806313514, -49.84864171379759])","array('d', [0.423765391111374, 0.3086983635777737, 0.20458140215556186, 0.11037247133807274, 0.025128699945457834, -0.039224404965613226, -0.08178398396298689, -0.10731243605567993, -0.11994533795029767, -0.12324695846387994, -0.12022555383640687, -0.11334201006452509, -0.10452197544150434, -0.09517119424357635, -0.08619066315399121, -0.0779885441660494])","array('d', [-0.015759631991386355, -0.013533001666195263, -0.011687760003438116, -0.010138209707978116, -0.008825123946541768, -0.007706377990091831, -0.006750762923282705, -0.005933883426142245, -0.005235671924782711, -0.004638962930644151, -0.004128678369346394, -0.0036913490717175594, -0.0033148128148870705, -0.002988001107278807, -0.0027007704305221482, -0.0024437586654036765])","array('d', [-1.167096062502589, -1.1821219339630011, -1.1923931433417458, -1.1985972703531653, -1.2012334775752114, -1.2009357550464923, -1.1985443262740283, -1.1948145241571286, -1.1903321878654198, -1.1855359977192044, -1.180736328728472, -1.1761350511836437, -1.171846464928718, -1.1679184750973133, -1.1643533092063814, -1.1591539415776604])",47.488565016204106,-339.10490432607463,-49.97787825224304,0.025128699945457834,-0.008825123946541768,-1.2012334775752114,25.000000200856036,-1.0,"[-341.38698942727575, 52.820712842160894, 50.16445556244025]","[-325.65993364289665, 40.92098023320683, 46.839387113457164]","[-344.2229982071245, 33.701309486211244, 45.02583030726526]",10000000000.0,0.03229165077209473
16,11.048007726669312,-341.62982177734375,53.277198791503906,50.21712875366211,0.2107549756765365,0.0052537103183566925,-1.1963853081080575,23.247992764142133,"array('d', [55.89689636230469, 53.58380055393185, 51.26092121697398, 48.93222169212808, 46.60102478019427, 44.27016019369205, 41.94179871736403, 39.61742103556806, 37.29793742378728, 34.98381249719421, 32.67517398361432, 30.371909931169775, 28.073753573015654, 25.780353755155115, 23.4913290165086, 22.074532482783653])","array('d', [-342.5199890136719, -341.57198571188087, -340.6480808541244, -339.7388520639123, -338.83598093829164, -337.9322082687717, -337.02197614504644, -336.1015967672249, -335.1689357351138, -334.223043744876, -333.2638281004297, -332.29176935333834, -331.30768860785025, -330.31256735528154, -329.3074185961655, -328.6765825798337])","array('d', [-50.116756439208984, -50.088645377423106, -50.06429024253786, -50.043093514322855, -50.02458104329304, -50.00836537649517, -49.99412213669616, -49.9815751531797, -49.97048722261511, -49.96065417117893, -49.951900748963524, -49.94407753393314, -49.937058414076866, -49.93073843820612, -49.92503194165898, -49.9218302457966])","array('d', [0.36754417419433594, 0.25782729821955575, 0.15855135455781832, 0.06872275814504615, -0.012557522523728897, -0.07363719259881216, -0.11319542261052565, -0.13593665571619606, -0.1459776020386894, -0.14687908702609576, -0.1416488096173077, -0.13274448077475015, -0.12208454413754469, -0.11106409913622617, -0.10057133503940434, -0.09100071536264315])","array('d', [-0.012077868916094253, -0.010438799698372173, -0.009068477476237402, -0.007908460472804553, -0.006918172166889682, -0.006068624671002954, -0.005338213694838801, -0.004709896930186559, -0.004169491689231041, -0.0037047230308887027, -0.0033047021990109554, -0.0029596364212485693, -0.0026606544521810284, -0.002399685121375028, -0.002169358421212749, -0.001962917151883084])","array('d', [-1.1751071651789806, -1.1877676031772026, -1.1960302736275137, -1.200481968677256, -1.2015582061060677, -1.1998454593088357, -1.1961555560851305, -1.1912343691242129, -1.1856628847084252, -1.1798753132662492, -1.1741765290980841, -1.1687618314684032, -1.1637383507785912, -1.1591467489854, -1.1549823279474563, -1.1489099621390508])",46.60102478019427,-338.83598093829164,-50.02458104329304,-0.012557522523728897,-0.006918172166889682,-1.2015582061060677,25.00000019400557,-1.0,"[-341.22379147065993, 52.319529092797964, 50.18791131456035]","[-325.5436568483678, 40.26695530349227, 47.20985099278445]","[-344.13498403228556, 33.07141736712777, 45.60150173131843]",10000000000.0,0.023871421813964844
17,11.07391905784607,-341.3367614746094,52.40311813354492,50.2612419128418,0.16616995632648468,0.004570951685309348,-1.2023245533320566,23.24584029469732,"array('d', [55.459617614746094, 53.143407480357325, 50.81847017459668, 48.48858191165897, 46.15694258414221, 43.826302808890674, 41.49878565361686, 39.17583759593917, 36.85833852447464, 34.546722649124796, 32.24108607487202, 29.941284163334142, 27.647017112048047, 25.35790120770888, 23.073523615447183, 21.6599434085508])","array('d', [-342.36956787109375, -341.4290924477794, -340.51030014673637, -339.60406438619276, -338.7022946667392, -337.7979123374559, -336.8855018021567, -335.9615045934395, -335.0239119325841, -334.0718963760968, -333.1054811642434, -332.1252547138336, -331.13213663250235, -330.1271972152952, -329.1115289473001, -328.47368966498556])","array('d', [-50.129032135009766, -50.10445067996784, -50.08306547794413, -50.064381678571934, -50.0480049245157, -50.033611511326036, -50.02092916869566, -50.009725019015804, -49.999798168859186, -49.99097499582907, -49.983105898139954, -49.97606282012103, -49.969737199987144, -49.964038175114375, -49.95889097793298, -49.956003040588755])","array('d', [0.33972153067588806, 0.23265232701644067, 0.13577209655270012, 0.048111231278043204, -0.03120760504058378, -0.09071084293995693, -0.12880790446297835, -0.1501809202218871, -0.15894194295989397, -0.1586534835757549, -0.1523253006595562, -0.14241503894895374, -0.1308384697349501, -0.11898589678663632, -0.10773937325102137, -0.09748662513768414])","array('d', [-0.010540089569985775, -0.009148605481380039, -0.007979272411137014, -0.00698450147826323, -0.006131230026911293, -0.005395832212550228, -0.0047606810949241225, -0.004211824725195106, -0.003737587513450017, -0.0033278016138885906, -0.002973399067865205, -0.002666195557815636, -0.0023987671788962155, -0.002164366930460064, -0.0019568554537466457, -0.0017706364982403063])","array('d', [-1.1789516647669933, -1.1904726020905319, -1.1977571203291124, -1.2013485250230236, -1.2016543931632255, -1.1992391246719973, -1.1949016350780186, -1.1893847436052971, -1.1832680137335434, -1.1769839775530775, -1.170835023496134, -1.1650132537435178, -1.159622208773469, -1.1546988831948817, -1.1502350603339306, -1.143726647127833])",46.15694258414221,-338.7022946667392,-50.0480049245157,-0.03120760504058378,-0.006131230026911293,-1.2016543931632255,25.000000189907183,-1.0,"[-341.0812427272452, 51.88113327618879, 50.20924822443706]","[-325.43969404688687, 39.7107436635606, 47.52157794019223]","[-344.0539009177551, 32.53764276233731, 46.08703061459009]",10000000000.0,0.021634340286254883
18,11.102587223052979,-341.1903991699219,51.96580505371094,50.28446578979492,0.14558061957359314,0.004527803510427436,-1.204973860583033,23.244976998537425,"array('d', [54.58628845214844, 52.2640536878969, 49.93506854482318, 47.602781715545554, 45.27017683613545, 42.93986605984163, 40.613891799728236, 38.293642298664345, 35.97994333376978, 33.67317260186293, 31.37336569033231, 29.08031430801736, 26.79365367386345, 24.512935661680885, 22.237685149290243, 20.830427866744884])","array('d', [-342.0716857910156, -341.1460352285309, -340.23744232019, -339.337317815471, -338.4379917157133, -337.5327218881845, -336.6163572299592, -335.68558487833326, -334.738639767819, -333.77493379390415, -332.79471928846067, -331.7987982845156, -330.78828545129454, -329.7644266972057, -328.7284713745029, -328.0771167497956])","array('d', [-50.159568786621094, -50.14089282171074, -50.12445442642616, -50.10993281229304, -50.09707055749793, -50.08565445341013, -50.075503209588504, -50.06645989035364, -50.05838743630497, -50.05116594343848, -50.04469083153383, -50.038871420483275, -50.03362967591766, -50.02889902492962, -50.024623215001604, -50.0222239842682])","array('d', [0.28569918870925903, 0.18377088616925105, 0.09154233582035781, 0.008090485144373017, -0.06741987709702633, -0.12394878805946051, -0.15925731421593237, -0.17799634758393934, -0.1842780511502518, -0.18167495569530023, -0.17320551319842079, -0.1613302831412493, -0.14796166384871065, -0.13448161537360023, -0.1217606970467108, -0.11017364470714706])","array('d', [-0.007962558418512285, -0.006994502033498959, -0.006170062506628621, -0.005459153650550804, -0.004841007571473601, -0.00430091726711862, -0.003827989505585937, -0.003413594598174016, -0.0030504380322367982, -0.0027320752089110534, -0.0024526809441080665, -0.0022069513446825693, -0.0019900654565972687, -0.001797667173720616, -0.0016258487258882697, -0.0014711291984070448])","array('d', [-1.1864628036830087, -1.1958201694924973, -1.2012293779396437, -1.2031595544644202, -1.2019698764705253, -1.1981840327530935, -1.1925777029882167, -1.1858908340479655, -1.178702089386989, -1.171441750758752, -1.1644078072183208, -1.157786225900415, -1.151673463511828, -1.1460992054452097, -1.1410482037725265, -1.1336849403526976])",45.27017683613545,-338.4379917157133,-50.09707055749793,-0.06741987709702633,-0.004841007571473601,-1.2019698764705253,25.000000179657228,-1.0,"[-340.87526569203243, 51.246525146022684, 50.24185819097235]","[-325.2874070615843, 38.92839079092414, 47.943548088548134]","[-343.9329318751007, 31.793103798304042, 46.74685098339102]",10000000000.0,0.024166584014892578
19,11.165616989135742,-340.8975524902344,51.090782165527344,50.332618713378906,0.10757627338171007,0.004928670823574015,-1.2099963863703866,23.24572309128764,"array('d', [54.15026092529297, 51.82523875051719, 49.49437923146884, 47.1609904487055, 44.82796304285496, 42.49785027987882, 40.17266196563028, 37.85376258426443, 35.541954440389105, 33.237589372423535, 30.940674330121112, 28.65097032458821, 26.368080910666567, 24.091526394312634, 21.820801028214337, 20.416676206538398])","array('d', [-341.9239501953125, -341.00526923439645, -340.1014562906658, -339.2041640611505, -338.305914825472, -337.40012181813097, -336.4817555205929, -335.5476184335557, -334.59606238384106, -333.62661538359527, -332.63964150141214, -331.6360471268609, -330.6170421705677, -329.5839581405328, -328.53812067880875, -327.8801901151865])","array('d', [-50.17753982543945, -50.16144880448696, -50.147166841489216, -50.13444972114645, -50.12310112637996, -50.11295773319783, -50.103879684573286, -50.095744830848375, -50.088445445789574, -50.081886333743356, -50.07598360214637, -50.070663695874046, -50.06586249666008, -50.061524411631176, -50.0576014385388, -50.055400029257676])","array('d', [0.2598470151424407, 0.1603788700700402, 0.07037636245260973, -0.011061281287693268, -0.08474911365004989, -0.13989587189993086, -0.17389314124535427, -0.1913824945031424, -0.19648050080914972, -0.19276772491271227, -0.18326903635468472, -0.17044784827138967, -0.15621580927976628, -0.14195134236141319, -0.12851970106442698, -0.11628944500477477])","array('d', [-0.0068325526081025115, -0.006053351864012224, -0.005383455991534675, -0.004800017139494619, -0.004287440680014595, -0.003834846318623525, -0.003434290610542231, -0.0030795220928224, -0.0027652371373768554, -0.0024867049744354813, -0.0022396067635362385, -0.00201998517542915, -0.0018242419308332719, -0.0016491487308182163, -0.0014918550158012811, -0.0013498866648727046])","array('d', [-1.1899856766078134, -1.1983272390233717, -1.2028481282275625, -1.2039862000271129, -1.2020799288775827, -1.1976343435021113, -1.1914147629013563, -1.1841611801501661, -1.1764526995279054, -1.16871899199322, -1.1612561288504744, -1.154247159785182, -1.1477850832757899, -1.1418959855955988, -1.1365611503117765, -1.128784823940136])",44.82796304285496,-338.305914825472,-50.12310112637996,-0.08474911365004989,-0.004287440680014595,-1.2020799288775827,25.00000017339002,-1.0,"[-340.36802474860934, 49.68737712251557, 50.32522573707507]","[-324.89753144511934, 37.09374090647265, 48.888505929791066]","[-343.6095986852763, 30.06419774214633, 48.2221257824907]",10000000000.0,0.05788064002990723
20,11.194857120513916,-340.45703125,49.78187942504883,50.40766525268555,0.05774895846843719,0.006299341563135342,-1.2168199261042734,23.24024991944019,"array('d', [53.277198791503906, 50.94720273315181, 48.61304874545082, 46.27780561725739, 43.944206202936776, 41.61470568877468, 39.291263406516144, 36.9752066017958, 34.66729755173249, 32.3678410497973, 30.07678998294618, 27.79384626937129, 25.518551890456116, 23.250365443586897, 20.988721152588326, 19.590868780525792])","array('d', [-341.62982177734375, -340.72376495656005, -339.8284484807072, -338.93596149137693, -338.0391780854753, -337.1317982177074, -336.2090154023744, -335.26784815994984, -334.3068715245786, -333.3258375053347, -332.325326655828, -331.3064477367421, -330.27059516585683, -329.21926594330967, -328.1539328410024, -327.48306369345556])","array('d', [-50.21712875366211, -50.20462972523727, -50.19330635554043, -50.18302918435233, -50.17369431381746, -50.165214323404356, -50.157512573593074, -50.150519981326426, -50.14417345779389, -50.13841524647557, -50.13319261847478, -50.128457617858906, -50.12416671088931, -50.12028029200729, -50.11676205408419, -50.114787452121845])","array('d', [0.2107549756765365, 0.11595855181011111, 0.03018319272680005, -0.047429568511389165, -0.11765650392713667, -0.17025407426016387, -0.2018039298799854, -0.21694001584281236, -0.21979524555438776, -0.21397143647082045, -0.20250982969625805, -0.1878819497849072, -0.17199960292872743, -0.1562353176860118, -0.1414446151412668, -0.1279843919452903])","array('d', [-0.0052537103183566925, -0.004753892055487968, -0.004312202924054367, -0.003916163890003834, -0.003557729280230579, -0.0032317146203405317, -0.002934650581046728, -0.0026639463950367493, -0.0024173909022523507, -0.0021929267153894634, -0.001988587490198786, -0.0018025192388765343, -0.0016330353372528432, -0.0014786760334597694, -0.0013382576997906987, -0.001210906053584438])","array('d', [-1.1963853081080575, -1.2028261951896075, -1.2056721651110232, -1.2053082067007488, -1.202037348141239, -1.1963302734557701, -1.1889337766169958, -1.1805904821979023, -1.1718819021402853, -1.1632373732981056, -1.1549496344119083, -1.147196193271912, -1.1400633244709768, -1.1335700686355024, -1.1276909136900968, -1.1191227497767682])",43.944206202936776,-338.0391780854753,-50.17369431381746,-0.11765650392713667,-0.003557729280230579,-1.202037348141239,25.00000015812348,-1.0,"[-340.1734038881107, 49.093213102397876, 50.35821543430331]","[-324.7435899307586, 36.42132634166514, 49.19885045093149]","[-343.47810042711154, 29.43716624254459, 48.7093362306113]",10000000000.0,0.024968385696411133
21,11.22862195968628,-340.3096923828125,49.346046447753906,50.43293762207031,0.042343985289335244,0.006984430830925662,-1.2186371525141857,23.238181445758364,"array('d', [51.96580505371094, 49.62922700682585, 47.2906334941076, 44.95282131267286, 42.61834451858021, 40.289550489354525, 37.968351482571, 35.65603944121641, 33.35333171154314, 31.060474341118564, 28.777349002607053, 26.503577718752148, 24.23861814702287, 21.981843834044085, 19.732605994774545, 18.34331834941561])","array('d', [-341.1903991699219, -340.30142544101085, -339.4177536759785, -338.53201041598743, -337.6375122516065, -336.72832388960046, -335.79991843827804, -334.8495948172014, -333.87622747360564, -332.8798739656661, -331.8614122694124, -330.8222296408558, -329.7639740529244, -328.68836923909123, -327.59708878368986, -326.9089923650372])","array('d', [-50.28446578979492, -50.27354020786415, -50.263365874132084, -50.25390239596873, -50.24511795310207, -50.236984048389694, -50.229472450382715, -50.22255385160245, -50.216197723613526, -50.210372770217774, -50.205047507633935, -50.20019069779699, -50.19577150908911, -50.19175937584829, -50.188123584666386, -50.18608272588319])","array('d', [0.14558061957359314, 0.05698635036867855, -0.023177066600362117, -0.09571193218088755, -0.16134419741280456, -0.2107228334580577, -0.23911798038013488, -0.2511744327397452, -0.25106393903107377, -0.24242963361614256, -0.22834372688366825, -0.21129449894961, -0.1931975139052555, -0.17541934859346062, -0.15880340863143816, -0.14369127924928812])","array('d', [-0.004527803510427436, -0.0042178602837929175, -0.003926489771799158, -0.0036489408758960127, -0.0033830632251884655, -0.0031283216083345007, -0.002885024505053172, -0.002653720182853266, -0.0024348390390358295, -0.0022285688694956896, -0.0020348755880345774, -0.001853598765145854, -0.0016845737015612626, -0.0015277503847775677, -0.0013832934220311937, -0.0012516560638837129])","array('d', [-1.204973860583033, -1.2089352236134, -1.2095727364141837, -1.2072125244400898, -1.2021174256171288, -1.1947137790367308, -1.1857255783521268, -1.175904272818383, -1.1658379008217872, -1.1559570904494152, -1.1465507699917292, -1.1377890314233183, -1.1297488352717437, -1.1224393726292408, -1.1158256267168611, -1.1061896890901397])",42.61834451858021,-337.6375122516065,-50.24511795310207,-0.16134419741280456,-0.0033830632251884655,-1.2021174256171288,25.000000122619586,-1.0,"[-339.9370959526147, 48.374904654884304, 50.39821630283287]","[-324.5535684733858, 35.62143930728458, 49.56382794997703]","[-343.31323207557944, 28.69356714271485, 49.28167762849849]",10000000000.0,0.026769399642944336
