,current_time,x_pos,y_pos,z_pos,roll,pitch,yaw,vel,x_traj,y_traj,z_traj,roll_traj,pitch_traj,yaw_traj,x_cmd,y_cmd,z_cmd,roll_cmd,pitch_cmd,yaw_cmd,vel_cmd,effector_dmg,effector_x,effector_y,effector_z,cost,time_solution
0,21.228337049484253,-190.17645263671875,-70.84027099609375,49.99406814575195,0.3515973985195159,0.022925598546862498,-0.15790502627822375,15.792294087589475,"array('d', [-70.47012329101562, -70.83208985445191, -71.21835274236588, -71.61898773847092, -72.0256407561814, -72.43210654974538, -72.83407772885715, -73.2287412186307, -73.61445058999514, -73.9904441368373, -74.35660047757621, -74.7132308686677, -75.06090875691646, -75.40033650134198, -75.73224847481171, -75.9916703180805])","array('d', [-192.0247039794922, -189.55144700485312, -187.08166446832277, -184.61407380598547, -182.14741947798407, -179.68071065364236, -177.213253722767, -174.74461151399754, -172.2745513489397, -169.80299182592992, -167.32995470667072, -164.855525163592, -162.37982129757236, -159.90297240535918, -157.42510484105796, -155.44200494683014])","array('d', [-49.9831657409668, -49.939773622862035, -49.90922090344701, -49.88744540531967, -49.8717408208397, -49.86027856099558, -49.851806434199794, -49.84545595521726, -49.8406174043278, -49.836857913722824, -49.83386736005863, -49.83142252518611, -49.82936343927605, -49.82757793835587, -49.82599177000682, -49.82484825484224])","array('d', [0.3521290719509125, 0.2438791358488662, 0.1459305347837111, 0.05856880225512353, -0.004759284522593523, -0.048677985781293384, -0.07713432642811455, -0.09355835290548233, -0.10092781716243668, -0.10179459776362922, -0.09829935998058853, -0.09218477515041268, -0.08480955830786345, -0.07716231731703542, -0.06987350685664952, -0.06322416925787833])","array('d', [-0.02047580294311031, -0.014342013014134921, -0.010170379730701045, -0.007298159263341153, -0.00529894382837636, -0.00389432862130127, -0.002899973820987413, -0.0021922216021071964, -0.0016870488178308547, -0.0013265584836139464, -0.0010701622024424811, -0.0008887325984798053, -0.000760672597355852, -0.0006692533036620447, -0.0006008230043431699, -0.0005436474877272871])","array('d', [-0.1389188011500497, -0.15094558509533806, -0.15866515421726235, -0.16266517952077844, -0.1637007892978149, -0.1626375459983759, -0.1601563282870082, -0.15679369153702277, -0.15296334695977185, -0.14897196867679444, -0.1450341256169917, -0.14128749309196664, -0.13780818716834306, -0.1346258368367792, -0.1317381709680014, -0.12847183927402914])",-72.43210654974538,-179.68071065364236,-49.86027856099558,-0.048677985781293384,-0.00389432862130127,-0.1626375459983759,25.000000244592567,-1.0,"[-188.69550357660026, -71.07608347793722, 49.959682760179106]","[-170.0228935939998, -64.21421143321147, 52.02083498151097]","[-173.16706001857946, -82.78191573616807, 45.286254488821584]",10000000000.0,0.022771596908569336
1,21.261459589004517,-189.56248474121094,-70.97142791748047,49.9974250793457,0.35090911388397206,0.023752180859446366,-0.16405086120101403,15.790392595738808,"array('d', [-70.52922821044922, -70.89894119960623, -71.29294425202397, -71.70131190135683, -72.11567327651511, -72.52980789441376, -72.93939839554704, -73.34162588069303, -73.7348414185141, -74.11828337358612, -74.49183229929585, -74.85580261016587, -75.21077159126477, -75.55744569274677, -75.89656332420056, -76.16171657877197])","array('d', [-191.71633911132812, -189.2442414319677, -186.77568869232317, -184.3093695600707, -181.84400037736816, -179.37856857603103, -176.91236562012324, -174.44494494622873, -171.97606882912444, -169.50565406730183, -167.0337228978695, -164.5603624286364, -162.08569350827153, -159.60984850926914, -157.13295685511213, -155.1506152510505])","array('d', [-49.98487854003906, -49.940748196494894, -49.90965263967856, -49.88747339178774, -49.87146501007173, -49.8597713601185, -49.851120641880584, -49.84463027245862, -49.839680308629575, -49.835830416014566, -49.83276499305745, -49.83025680117925, -49.82814294188087, -49.8263091628128, -49.82467979152263, -49.82350507861086])","array('d', [0.3521706461906432, 0.24391675377604805, 0.14596457287840886, 0.05833470044649612, -0.005180544579800118, -0.04922112782891894, -0.0777471551268342, -0.09420024138255553, -0.10156845699230532, -0.10241270937179316, -0.09888131387288866, -0.0927231673932269, -0.08530179552845027, -0.07760924652424958, -0.07027810091486392, -0.06359026113401312])","array('d', [-0.02081779390573492, -0.01459222654092759, -0.0103555549893359, -0.007436773339751082, -0.0054039334633708535, -0.003974861093674857, -0.0029626138368841538, -0.002241713646529513, -0.0017268489775578817, -0.0013591994457114974, -0.0010975051007461748, -0.000912140965125055, -0.0007811321484168265, -0.0006874539635343997, -0.0006172148784161542, -0.0005584794700687642])","array('d', [-0.14205150207015482, -0.15407998710446855, -0.16180101701482424, -0.16579700106890616, -0.16681968025237517, -0.16573745730314549, -0.16323344264778777, -0.15984599581395864, -0.15599024697615615, -0.15197392233054907, -0.1480123072792708, -0.14424350613391326, -0.14074383428403842, -0.13754295025527485, -0.1346385002031386, -0.13135319860127442])",-72.52980789441376,-179.37856857603103,-49.8597713601185,-0.04922112782891894,-0.003974861093674857,-0.16573745730314549,25.0000002445706,-1.0,"[-188.69550357660026, -71.07608347793722, 49.959682760179106]","[-170.0228935939998, -64.21421143321147, 52.02083498151097]","[-173.16706001857946, -82.78191573616807, 45.286254488821584]",10000000000.0,0.03141522407531738
2,21.292505264282227,-189.2561492919922,-71.038330078125,49.99882125854492,0.35057339072227467,0.02423493377864347,-0.16709570487472022,15.78909595343663,"array('d', [-70.65055847167969, -71.03586207209254, -71.44542973172904, -71.86933528621756, -72.29917586035957, -72.72870173810908, -73.15357661971946, -73.570970798075, -73.97923106623567, -74.37759657145594, -74.76595230449227, -75.1446194990063, -75.51418356322846, -75.87535952747777, -76.22889423106601, -76.50551215230685])","array('d', [-191.09996032714844, -188.63028007908514, -186.1642802499703, -183.70059383889645, -181.23788152212717, -178.77508744116997, -176.31147332515167, -173.84657395424563, -171.3801416701778, -168.91208986168385, -166.44244192347497, -163.97128904445051, -161.49875777197593, -159.02498681867132, -156.5501119169622, -154.5693378206853])","array('d', [-49.98891067504883, -49.94285488253557, -49.91035283881485, -49.88713378583138, -49.87034733194257, -49.85806406328247, -49.848960398688604, -49.8421167740859, -49.836886585396485, -49.832810125712996, -49.829557640450496, -49.82689154040155, -49.82464140865993, -49.82268764539883, -49.820950953420656, -49.819698750115116])","array('d', [0.35211092233657826, 0.24386271338560628, 0.145915675075544, 0.05776178513876223, -0.006117272642966413, -0.050392376609152884, -0.07904951561578746, -0.09555328243856463, -0.10291228863545901, -0.1037054321993628, -0.10009627109180431, -0.09384609719560709, -0.08632800098403762, -0.07854085692057043, -0.07112144735984954, -0.06435335262289699])","array('d', [-0.021712426096200853, -0.01524229135391027, -0.010833642132569436, -0.007792604890530401, -0.005672036830501184, -0.004179516664404858, -0.00312108807368982, -0.002366408088555975, -0.001826748521775658, -0.0014408580799594533, -0.0011657206869061074, -0.0009704177810373985, -0.0008319969746019667, -0.0007326707392986388, -0.000657929772246143, -0.0005953198327772009])","array('d', [-0.14836458762618526, -0.16039062895830689, -0.16810956036458338, -0.17209306830719856, -0.1730859835103661, -0.17196228390958546, -0.16940948751531149, -0.1659695290057176, -0.1620603523780954, -0.15799176646327726, -0.15398046840485433, -0.15016539945949797, -0.14662325337577614, -0.1433837288844322, -0.14044428964994338, -0.13711944346244923])",-72.72870173810908,-178.77508744116997,-49.85806406328247,-0.050392376609152884,-0.004179516664404858,-0.17196228390958546,25.00000024452563,-1.0,"[-187.77747568692268, -71.28773563406817, 49.96247241626058]","[-169.04051990202532, -64.5763191176957, 51.93310080805962]","[-172.36592731460095, -83.12590380098608, 45.235745089731246]",10000000000.0,0.029479265213012695
3,21.321258783340454,-188.643798828125,-71.17514038085938,50.00107955932617,0.3494096398353575,0.025233425199985407,-0.17311780055495724,15.788910276809963,"array('d', [-70.71277618408203, -71.10591770361627, -71.52330274682441, -71.95500588850358, -72.39260916731126, -72.82984896156282, -73.2623800621667, -73.6873678239593, -74.10315730226097, -74.50898838522988, -74.9047485900399, -75.29076283165917, -75.66762082047882, -76.03604209078938, -76.39677788812217, -76.67912071203217])","array('d', [-190.79197692871094, -188.32355095274113, -185.85887188387935, -183.39654495860245, -180.93520292076036, -178.47376818862583, -176.01148760896967, -173.54788666900305, -171.0827128154877, -168.61587782673678, -166.14740578198953, -163.67739001868097, -161.20596003750592, -158.7332578172073, -156.25942233033297, -154.2794562920601])","array('d', [-49.99076461791992, -49.94372545175737, -49.91050429441268, -49.886753163873664, -49.869568344117546, -49.85698311872654, -49.847647500261395, -49.84062303323841, -49.83524947174917, -49.831057180789, -49.82770914181895, -49.824962445937196, -49.82264280751328, -49.82062787264215, -49.818836476896166, -49.81754477726286])","array('d', [0.35200342535972595, 0.2437654458515491, 0.14582766322999177, 0.057418641568823446, -0.006636453177804303, -0.051023688650857706, -0.07974183273297501, -0.09626687127573938, -0.10361762586940934, -0.10438194563941809, -0.10073097189683938, -0.09443215796932385, -0.08686334186923753, -0.079026778404681, -0.07156132179016216, -0.06475136750436736])","array('d', [-0.0221691075712441, -0.015574525171341398, -0.01107821265166613, -0.007974756928821176, -0.00580933328896573, -0.004284330513652557, -0.0032022334424976536, -0.0024302262718435175, -0.0018778411263064582, -0.0014825868312178195, -0.0012005500628950074, -0.001000150136524424, -0.000857933312157133, -0.0007557198682060219, -0.0006786819835707998, -0.000614097019036798])","array('d', [-0.15154246886702982, -0.16356411198992155, -0.17127926638724245, -0.17525415334999217, -0.17623007754461478, -0.17508374501113935, -0.1725048453679383, -0.16903708142262816, -0.16509978982016582, -0.16100380811271892, -0.15696652714978654, -0.15312729482026247, -0.14956298283300112, -0.14630329972995104, -0.14334560872425628, -0.14000013507929265])",-72.82984896156282,-178.47376818862583,-49.85698311872654,-0.051023688650857706,-0.004284330513652557,-0.17508374501113935,25.000000248005666,-1.0,"[-187.51594385928692, -71.34968748709302, 49.962871157741446]","[-168.76126380570696, -64.68006772178622, 51.90661709640702]","[-172.13743766702424, -83.22475236460815, 45.22110129308696]",10000000000.0,0.02477431297302246
4,21.347764492034912,-188.643798828125,-71.17514038085938,50.00107955932617,0.3494096398353575,0.025233425199985407,-0.17311780055495724,15.788910276809963,"array('d', [-70.84027099609375, -71.24908376554411, -71.68208021725766, -72.12934449602267, -72.58245063025943, -73.03511143328377, -73.48296271438755, -73.92315883783387, -74.35404029528902, -74.77484740111376, -75.18547171671827, -75.58624457134839, -75.97776340033963, -76.36075593924096, -76.73598151147006, -77.02984983217618])","array('d', [-190.17645263671875, -187.7106056272342, -185.24863789478488, -182.78909884087568, -180.33056835007062, -177.87192556411873, -175.41238694102321, -172.95145889413456, -170.48887869953018, -168.02455462520453, -165.55851190761408, -163.09084803291393, -160.62169830927542, -158.15121118444196, -155.67953207411935, -153.70124405773166])","array('d', [-49.99406814575195, -49.94539387522722, -49.91096683341537, -49.88631652972984, -49.86845371832378, -49.8553512399258, -49.84561591687266, -49.838278127670115, -49.83265494535818, -49.828260114602735, -49.82474438406293, -49.821855841043266, -49.81941362396017, -49.81729067950035, -49.815402643281594, -49.81404115986979])","array('d', [0.3515973985195159, 0.24339805776801596, 0.14549523720585977, 0.05690917169899711, -0.007513401067060059, -0.052139069010309694, -0.08099236676990704, -0.09757213912227201, -0.10491765086884534, -0.10563466922788986, -0.10190952820673821, -0.09552204436830578, -0.08785960335472585, -0.07993128094580033, -0.07238013833517606, -0.06549226341823801])","array('d', [-0.022925598546862498, -0.01612972220500057, -0.011490202806041487, -0.0082838562478247, -0.006043884526906696, -0.004464494541843225, -0.0033425010058487966, -0.0025411077213753725, -0.0019670188847928836, -0.0015557089894577172, -0.0012617796788190697, -0.0010525456731961824, -0.0009037111439099627, -0.0007964342064912789, -0.0007153475866358675, -0.0006472736243521753])","array('d', [-0.15790502627822375, -0.16991005946469373, -0.17761094907382474, -0.18156909025655274, -0.18251767070403335, -0.1813321275312069, -0.17870655512851802, -0.17518822923402472, -0.17119930190396218, -0.16705269845761342, -0.16296722906700883, -0.1590830876238558, -0.15547753405252723, -0.15218032728252656, -0.14918865816722407, -0.1458047838245266])",-73.03511143328377,-177.87192556411873,-49.8553512399258,-0.052139069010309694,-0.004464494541843225,-0.1813321275312069,25.00000024445587,-1.0,"[-187.1666904583793, -71.43343969393369, 49.9632334380912]","[-168.38851673998525, -64.8191366111063, 51.86880068442906]","[-171.8325075809761, -83.35950752951078, 45.205950446343806]",10000000000.0,0.022996187210083008
5,21.379027843475342,-187.72561645507812,-71.38777923583984,50.002357482910156,0.33815309405326843,0.02610596269369114,-0.1822282512995861,15.803666466380287,"array('d', [-70.97142791748047, -71.395345903363, -71.84336197038077, -72.30557660391776, -72.77357167465563, -73.2410412894546, -73.70360334769634, -74.15840189104698, -74.60377319842623, -75.03895811910617, -75.46385219212894, -75.87879297748145, -76.28438538366868, -76.68136506579798, -77.07049914141106, -77.37543025610547])","array('d', [-189.56248474121094, -187.0992257861072, -184.63996576791646, -182.18320248540957, -179.72746819292772, -177.27160110907633, -174.81478842817583, -172.35651821067898, -169.89651798478062, -167.43469271545382, -164.9710688539373, -162.50574799495288, -160.03887115646953, -157.57059312984046, -155.10106564105524, -153.12445285965083])","array('d', [-49.9974250793457, -49.94696555214376, -49.911224061280265, -49.8855951217367, -49.866995444306994, -49.85333154708529, -49.84316294938091, -49.835485950369, -49.829592854422614, -49.824979274886324, -49.82128262578652, -49.81824118491334, -49.815666928935066, -49.8134276883453, -49.811435617463516, -49.80999901460574])","array('d', [0.35090911388397206, 0.24277527201260132, 0.14493171727513182, 0.056399224443082915, -0.008374338356193672, -0.05322732510583727, -0.08220892367526067, -0.09883988196142979, -0.10617907713161495, -0.10684947930409587, -0.10305201343628827, -0.09657836940584716, -0.08882509965147611, -0.08080782562401968, -0.07317364218019255, -0.06621025545357409])","array('d', [-0.023752180859446366, -0.0167353204360936, -0.011938887733545244, -0.008619998003826514, -0.006298609806144612, -0.004659900453437654, -0.0034944426809053256, -0.0026610686384502583, -0.0020633830945566453, -0.0016346349942610256, -0.0013278039001651018, -0.0011089994738782286, -0.0009530079055227153, -0.000840265557490722, -0.0007548167603419054, -0.0006829868127790217])","array('d', [-0.16405086120101403, -0.1760277467632527, -0.1837044596141748, -0.18764132662437646, -0.1885628743195332, -0.1873389690057407, -0.18466792317106498, -0.18110043942907103, -0.17706137244148523, -0.17286565171502496, -0.16873344877335755, -0.16480576719223464, -0.16116023620313374, -0.15782665932321327, -0.154802058154639, -0.1513809662384161])",-73.2410412894546,-177.27160110907633,-49.85333154708529,-0.05322732510583727,-0.004659900453437654,-0.1873389690057407,25.000000244409545,-1.0,"[-186.55623476527686, -71.58316183751852, 49.963146870117185]","[-167.7371381240595, -65.06127427829978, 51.78154844112104]","[-171.30038970763974, -83.61848191400172, 45.22919902144273]",10000000000.0,0.022256851196289062
6,21.4127254486084,-187.41957092285156,-71.46060180664062,50.002559661865234,0.3294116854667663,0.02603972330689418,-0.18539135058852643,15.812693705906494,"array('d', [-71.038330078125, -71.46972528335336, -71.92517674593451, -72.39479293899825, -72.87015960547548, -73.34496165200953, -73.81480816096071, -74.27683808412452, -74.72938561179815, -75.17169183787524, -75.60365423902932, -76.02561342175119, -76.43817795334418, -76.84208736874642, -77.23811260523091, -77.54852524775535])","array('d', [-189.2561492919922, -186.79421054004422, -184.33632797283025, -181.88097477380595, -179.42666004697566, -176.9722018549161, -174.51677291316958, -172.05985219198058, -169.60116239513926, -167.14060686531909, -164.67821267902445, -162.21408349677603, -159.7483631993898, -157.2812097559928, -154.81277805260677, -152.83701882900792])","array('d', [-49.99882125854492, -49.94732107517861, -49.91081673210949, -49.884622306699164, -49.8655987260835, -49.85161332890548, -49.84119779277883, -49.833328422078345, -49.82728302757636, -49.8225466351583, -49.81874888438294, -49.81562234000005, -49.81297481127084, -49.81067115521583, -49.80862150891954, -49.807143341030056])","array('d', [0.35057339072227467, 0.2424714971031552, 0.14465685033384632, 0.05615050366093794, -0.008796685817602443, -0.05376222055015949, -0.08280744917327812, -0.09946392782332555, -0.10680021683850278, -0.10744778379234643, -0.10361476309021844, -0.09709871224130295, -0.08930071417520875, -0.08123962562183068, -0.07356453544199364, -0.06656395033533472])","array('d', [-0.02423493377864347, -0.01708744957627504, -0.012198646674090253, -0.008813753717310774, -0.0064447802751712024, -0.004771510499017511, -0.003580806239096974, -0.0027289121377449856, -0.0021176060095281796, -0.0016788298457636281, -0.0013646136778338127, -0.0011403634031314576, -0.000980329640460629, -0.0008645272630268048, -0.000776655815774207, -0.0007027476090784708])","array('d', [-0.16709570487472022, -0.17905886505481766, -0.18672378731750838, -0.19065027861877135, -0.1915585930599695, -0.19031584700572685, -0.1876224362165186, -0.18403075677168396, -0.1799669996781032, -0.17574708590925112, -0.17159186070533392, -0.1676427285429864, -0.16397750175271003, -0.16062600636706198, -0.1575851807710771, -0.15414575339106304])",-73.34496165200953,-176.9722018549161,-49.85161332890548,-0.05376222055015949,-0.004771510499017511,-0.19031584700572685,25.000000244386147,-1.0,"[-185.97343393729602, -71.72998205293061, 49.963475456151464]","[-167.11471701160394, -65.28812797192843, 51.65205826895351]","[-170.7944571224478, -83.91553385147657, 45.368805694432666]",10000000000.0,0.027431011199951172
7,21.43887948989868,-187.11341857910156,-71.53437805175781,50.002742767333984,0.3176245987415313,0.025726707652211047,-0.18860773642989584,15.826632942076293,"array('d', [-71.17514038085938, -71.62128549795001, -72.09135769965609, -72.57548741435231, -73.06527274478114, -73.55438445589395, -74.0384175814507, -74.51450389730887, -74.98097600896936, -75.43707776551395, -75.88271250731559, -76.31822868112845, -76.74424371067839, -77.16150625213272, -77.570796095169, -77.89174839482575])","array('d', [-188.643798828125, -186.184536541415, -183.7294323596297, -181.27691239632293, -178.8254413530754, -176.373798527906, -173.92112898616406, -171.46689463247728, -169.01080945295746, -166.55277430301106, -164.0928181090963, -161.63104912673475, -159.16761731521666, -156.70268726705993, -154.23642039393476, -152.26234618478608])","array('d', [-50.00107955932617, -49.94742700478114, -49.9093450632063, -49.88198165940106, -49.86208238200867, -49.84743349251806, -49.83650900782361, -49.82824379123168, -49.82188559162672, -49.81689745815819, -49.81289288005086, -49.809592544874256, -49.806795592266816, -49.804360691520124, -49.80219378475612, -49.80063097206068])","array('d', [0.3494096398353575, 0.2414184914339628, 0.1437040508311027, 0.05528836395444997, -0.009961243340372277, -0.05511397324479996, -0.08425407751635995, -0.10093376722517748, -0.10824024693172793, -0.10882138494502841, -0.10489921699883309, -0.09828257697942859, -0.09038120756994344, -0.08222009859244869, -0.0744520612251977, -0.06736701694787799])","array('d', [-0.025233425199985407, -0.017815754070766566, -0.012735754672996764, -0.009214163795517434, -0.006746594105688155, -0.005001694331416555, -0.0037586580382003017, -0.0028683790610912934, -0.002228854683395821, -0.0017693206773524237, -0.0014398395626323969, -0.001204357633259661, -0.0010360132203276647, -0.000913944024696121, -0.0008211299123225519, -0.0007429892467208743])","array('d', [-0.17311780055495724, -0.18503340394138962, -0.19265746569919057, -0.19654799541893178, -0.19741641552032274, -0.1961241764353459, -0.1933755610143615, -0.18972616408413495, -0.18560470406130325, -0.1813289619572878, -0.17712102268040122, -0.1731229981414923, -0.1694129856817425, -0.16602078785542626, -0.16294311941235834, -0.15946205769993005])",-73.55438445589395,-176.373798527906,-49.84743349251806,-0.05511397324479996,-0.005001694331416555,-0.1961241764353459,25.00000024794638,-1.0,"[-185.6405068098683, -71.815522242037, 49.9641569626069]","[-166.75849207881933, -65.41745519213028, 51.55609217527967]","[-170.5070812825419, -84.11024533977526, 45.51227918364589]",10000000000.0,0.0245206356048584
8,21.471081972122192,-186.50123596191406,-71.68436431884766,50.00318145751953,0.28539213538169855,0.024448752403259152,-0.19506280024978134,15.863523602163152,"array('d', [-71.31591796875, -71.77668461880347, -72.26086638807315, -72.7586663967018, -73.26173302781794, -73.76375456187778, -74.2603384869928, -74.74863236921529, -75.22698780528115, -75.69467004303175, -76.15160518107027, -76.59816476024302, -77.0349887868172, -77.46284737206292, -77.88254024832275, -78.21165822242294])","array('d', [-188.03172302246094, -185.57519252043286, -183.1228499956605, -180.67307792818863, -178.2243032357329, -175.77527443023524, -173.3251170113533, -170.8732834230695, -168.41948573926268, -165.96362816155792, -163.50574628948613, -161.04595685142817, -158.5844189480852, -156.12130620231028, -153.6567884606873, -151.68405946152407])","array('d', [-50.002071380615234, -49.94686036390212, -49.907623168691735, -49.87939600149387, -49.858845121255904, -49.84369993239937, -49.832393337152645, -49.823830225112815, -49.817236336389335, -49.812058464866695, -49.80789805115459, -49.80446685915369, -49.80155747753602, -49.79902387976124, -49.79676881602423, -49.79514237066111])","array('d', [0.34412425756454457, 0.23663607956935045, 0.1393767456824135, 0.05137286058261619, -0.013851776312870824, -0.058906554147638, -0.0878900960647336, -0.10437007665634826, -0.11144875789548742, -0.1117875277705788, -0.10761973638037359, -0.10076306561040027, -0.09263365375801651, -0.08426058846227545, -0.07629867546933322, -0.0690379027622225])","array('d', [-0.02595258690416802, -0.018346803926700805, -0.013131281873796693, -0.009511331870791217, -0.0069719241469149325, -0.005174290678888268, -0.0038924013556261433, -0.00297343208474622, -0.0023127072613402027, -0.0018375199874347049, -0.00149650137238534, -0.0012525231140765392, -0.0010778958177266576, -0.0009510979727249713, -0.0008545636328056816, -0.000773241523398942])","array('d', [-0.17917983134719337, -0.1908798513121181, -0.19831853904623203, -0.20204582593633655, -0.20276098240983237, -0.20131782470204393, -0.19842274952567185, -0.194633411518208, -0.1903801714160791, -0.1859818829763707, -0.18166113412354606, -0.17756005686508045, -0.1737564066681464, -0.17027940452471294, -0.167125052816537, -0.16355734973306751])",-73.76375456187778,-175.77527443023524,-49.84369993239937,-0.058906554147638,-0.005174290678888268,-0.20131782470204393,25.000000244293005,-1.0,"[-185.03633246608632, -71.9733972491435, 49.96648645265821]","[-166.11210402087954, -65.65016796064945, 51.34138612854648]","[-169.98622302722717, -84.50239404831167, 45.90219745151711]",10000000000.0,0.026593446731567383
9,21.51627802848816,-185.5811767578125,-71.9152603149414,50.00607681274414,0.2193294465541838,0.021067732945084437,-0.2045804699275156,15.945600244263346,"array('d', [-71.38777923583984, -71.85572478869008, -72.34652227601008, -72.85045128387607, -73.3592153403874, -73.86653649918483, -74.36804950434974, -74.86092815446759, -75.34355006352581, -75.8152062151439, -76.27584775700342, -76.72587014708135, -77.16593583024884, -77.59683567038653, -78.01938838908539, -78.3506470198179])","array('d', [-187.72561645507812, -185.2704504721277, -182.819427350095, -180.37091093915012, -177.92331493946818, -175.47537929582592, -173.0262265838936, -170.57531091419858, -168.12234909122176, -165.6672518354776, -163.21006206613248, -160.75090393095283, -158.2899435990935, -155.82736115780804, -153.36333220476695, -151.39096163814418])","array('d', [-50.002357482910156, -49.94680638305133, -49.90730494515414, -49.878872837919346, -49.858162826687135, -49.842893612105506, -49.8314897400271, -49.82284963877384, -49.81619408350402, -49.810966070172604, -49.80676414751497, -49.803297893196095, -49.80035826556969, -49.79779805477052, -49.79551919736321, -49.79387557430488])","array('d', [0.33815309405326843, 0.23123314668786213, 0.13448796894606593, 0.04694930647891169, -0.01800046602291234, -0.06277720911065661, -0.09148006362837977, -0.10768041901555633, -0.1144853046095307, -0.11456064175854447, -0.11014341979806266, -0.1030538321257744, -0.09470941804021925, -0.08613968964332233, -0.0779990646917364, -0.07057647869698505])","array('d', [-0.02610596269369114, -0.01846613105467316, -0.013223822570374296, -0.009583100481086114, -0.00702773102801445, -0.005217909566957737, -0.003926759240037395, -0.0030007828328194193, -0.0023347780055166974, -0.0018556288686717467, -0.0015116490913555257, -0.0012654621209353823, -0.0010891812187091745, -0.0009611240095523841, -0.000863589226977296, -0.0007814080268303856])","array('d', [-0.1822282512995861, -0.19368549963729145, -0.200915149469503, -0.204458168457446, -0.2050051221262656, -0.20340445565039592, -0.200362251237163, -0.1964363128803087, -0.19205713165443541, -0.18754347510735914, -0.18311759387751603, -0.1789210766993504, -0.17503100117491407, -0.17147584496944862, -0.16825085732750492, -0.16460335415373475])",-73.86653649918483,-175.47537929582592,-49.842893612105506,-0.06277720911065661,-0.005217909566957737,-0.20340445565039592,25.000000247921676,-1.0,"[-184.4190585573849, -72.1375993102865, 49.971161156114384]","[-165.45252469307815, -65.89025407947754, 51.085284462214055]","[-169.45372675991894, -84.92988694566748, 46.45033437175902]",10000000000.0,0.04011201858520508
10,21.549780130386353,-185.5811767578125,-71.9152603149414,50.00607681274414,0.2193294465541838,0.021067732945084437,-0.2045804699275156,15.945600244263346,"array('d', [-71.53437805175781, -72.01693730742852, -72.52043875030915, -73.0354137097022, -73.55375023829123, -74.06929909768789, -74.57780147134832, -75.07652970037135, -75.56395556091252, -76.03946028045424, -76.50308063888535, -76.95529226155189, -77.39683171111596, -77.8285577066641, -78.25135067111243, -78.58232622562329])","array('d', [-187.11341857910156, -184.66106329028403, -182.21260891711253, -179.7663874036296, -177.3207986764827, -174.87458179783354, -172.4268704998731, -169.9771385494287, -167.52512703052585, -165.07077254008792, -162.61414334087573, -160.15538708413956, -157.69469095536954, -155.23225339337753, -152.76826579912816, -150.79584783087194])","array('d', [-50.002742767333984, -49.94797254540772, -49.9089850091791, -49.88089701986642, -49.86042140326822, -49.84531458386511, -49.8340251871651, -49.82546726602775, -49.81887190788186, -49.81368903320271, -49.80952191586853, -49.806083396933765, -49.80316669449154, -49.800626137631, -49.798364653552945, -49.79673354142257])","array('d', [0.3176245987415313, 0.21265819452771215, 0.11768065611345804, 0.031741423384865304, -0.032006678414475534, -0.07565224896095409, -0.10328060843568655, -0.11846206262218867, -0.1243075321819136, -0.1234874291321926, -0.11824171235793314, -0.11039133087822184, -0.10135246484060781, -0.09215159983671363, -0.08343898659721238, -0.07549872403213283])","array('d', [-0.025726707652211047, -0.018218333476989385, -0.01305906134042523, -0.009471659779147781, -0.006951069309400525, -0.00516426865538735, -0.003888561267477512, -0.0029730615456584042, -0.002314221893509821, -0.0018399919192582444, -0.001499385469853254, -0.001255499037359091, -0.0010807781198130968, -0.0009537861799719847, -0.0008570156407409746, -0.0007754601921272496])","array('d', [-0.18860773642989584, -0.19923642637220748, -0.20575039550220714, -0.20866106502250076, -0.20863499374181876, -0.2065060180244327, -0.2029766162521101, -0.19860299470597018, -0.19381436721662695, -0.18892787188448665, -0.18416364724063222, -0.17966080359059602, -0.17549376136794934, -0.1716883332587912, -0.16823721863372212, -0.16433428614497245])",-74.06929909768789,-174.87458179783354,-49.84531458386511,-0.07565224896095409,-0.00516426865538735,-0.2065060180244327,25.000000244229085,-1.0,"[-184.112783239506, -72.21992728402843, 49.974477550999644]","[-165.126122250848, -66.01046336194332, 50.948778480947]","[-169.18834850534174, -85.14287552923732, 46.77156379672466]",10000000000.0,0.02094125747680664
11,21.57402229309082,-184.6556396484375,-72.15238952636719,50.01325988769531,0.14088314771652213,0.016199154779314887,-0.21337716182204697,16.06194485025065,"array('d', [-71.68436431884766, -72.18114357351314, -72.69591355323392, -73.21957784524821, -73.7443012819107, -74.26414100135598, -74.77501248918834, -75.27434839207184, -75.76077209552425, -76.23380848412239, -76.69362917553829, -77.14083482027971, -77.57627666361249, -78.00091779520059, -78.4157331666624, -78.73960277981766])","array('d', [-186.50123596191406, -184.051659451611, -181.60551833041947, -179.16112651526097, -176.7168923069656, -174.27157981307946, -171.82436012463987, -169.37475129316147, -166.92254064610958, -164.46770935975096, -162.01036635073098, -159.55069491695983, -157.08891268153062, -154.62524367047936, -152.15990066359623, -150.1863034782558])","array('d', [-50.00318145751953, -49.951109383048426, -49.91400865916331, -49.88726091201416, -49.867751631080395, -49.85335185176912, -49.842587573045044, -49.834425930074204, -49.82813498727548, -49.82319078387466, -49.819215252788545, -49.81593464935968, -49.81315180586411, -49.81072780220171, -49.8085700533114, -49.80701375885205])","array('d', [0.28539213538169855, 0.1834930527465748, 0.0912909416915012, 0.0078630159025837, -0.05380542960623914, -0.09553995239635063, -0.12139471397131278, -0.1349292371034825, -0.13925183799095783, -0.13703185549788735, -0.13050664857281075, -0.12149217085462471, -0.11139750531518626, -0.10124071020976848, -0.09166313269491559, -0.08294023982862929])","array('d', [-0.024448752403259152, -0.017330750436881013, -0.012432657727493957, -0.009022841007933007, -0.006624750682824909, -0.004923517702164018, -0.003708206149832656, -0.0028356755171941384, -0.0022075622466938964, -0.0017553468996800048, -0.0014304984120214607, -0.0011978658390370757, -0.0010311898848705521, -0.0009100344453935295, -0.0008177051030683958, -0.0007398903508790082])","array('d', [-0.19506280024978134, -0.2044080328465561, -0.20980665979105687, -0.21172742008324819, -0.21080538889141687, -0.20785560734598818, -0.20357377384518371, -0.1985123985838007, -0.19309756029558603, -0.18764286609051578, -0.18236438063893812, -0.1773967955074661, -0.17281004468607922, -0.1686256175439649, -0.16483219846388952, -0.16054269958627942])",-74.26414100135598,-174.27157981307946,-49.85335185176912,-0.09553995239635063,-0.004923517702164018,-0.20785560734598818,25.000000247892885,-1.0,"[-184.112783239506, -72.21992728402843, 49.974477550999644]","[-165.126122250848, -66.01046336194332, 50.948778480947]","[-169.18834850534174, -85.14287552923732, 46.77156379672466]",10000000000.0,0.022350549697875977
12,21.62837839126587,-184.03433227539062,-72.31288146972656,50.02198028564453,0.08755454421043386,0.012242170050740126,-0.21895269950362672,16.160345224865065,"array('d', [-71.7605209350586, -72.26415055064398, -72.78396900547864, -73.31109826866866, -73.83786711746676, -74.35845795093523, -74.86889374425357, -75.36670673322706, -75.85061477333163, -76.32023226342311, -76.77581469636165, -77.21804030225628, -77.64783130424316, -78.0662152388019, -78.47422532207334, -78.7922064260704])","array('d', [-186.1950225830078, -183.74680075888563, -181.30170509297534, -178.8580467648017, -176.4142467881726, -173.96909123285047, -171.52177929377476, -169.07185997358022, -166.6191515116308, -164.16366393076174, -161.70553176054463, -159.24496023285857, -156.7821852993019, -154.31744609269003, -151.85096779702306, -149.8764133018539])","array('d', [-50.00375747680664, -49.95372909345844, -49.91806955244019, -49.89235289908494, -49.87359156195384, -49.859741755386366, -49.84938756560022, -49.841536348181336, -49.8354844172258, -49.83072791043025, -49.82690320709986, -49.823747001078004, -49.82106963667181, -49.81873748553154, -49.816661489109244, -49.81516415703396])","array('d', [0.26548331975936873, 0.16547881001035653, 0.07499097977390515, -0.0068857972938541285, -0.06724126999165016, -0.10777351217361095, -0.13251742785797577, -0.14502536232078433, -0.14840315918895747, -0.14531842899363007, -0.13800579626277656, -0.12827705501514447, -0.11753597249910046, -0.10679467105005506, -0.09668850685273389, -0.08748738681584926])","array('d', [-0.023484384641051185, -0.01665499936355348, -0.011952081110823564, -0.008676260680970955, -0.006371402723237699, -0.004735785689387775, -0.0035670864450125543, -0.0027278972851352257, -0.0021237309329059924, -0.0016887334174848537, -0.0013762433796754808, -0.001152455320339082, -0.0009921114514080192, -0.0008755541240026702, -0.0007867250380013424, -0.0007118586189381824])","array('d', [-0.19825772841903141, -0.20681979702595707, -0.21153393267930196, -0.21284459456659416, -0.21136932876212725, -0.207912901425009, -0.20316711383480557, -0.19768225121854444, -0.19188238244206904, -0.18607880036311084, -0.18048490963746905, -0.17523254786798675, -0.1703887856760758, -0.1659723841863474, -0.16196951924735423, -0.15744355043002584])",-74.35845795093523,-173.96909123285047,-49.859741755386366,-0.10777351217361095,-0.004735785689387775,-0.207912901425009,25.000000244175013,-1.0,"[-182.59360192106288, -72.6323107367567, 50.00302353995553]","[-163.5172510536126, -66.63213842382483, 50.30430380325596]","[-167.85701116851232, -86.0821369010789, 48.61195591350634]",10000000000.0,0.028923749923706055
13,21.669581174850464,-183.40872192382812,-72.4739990234375,50.034751892089844,0.03673494607210149,0.008125259540974972,-0.22414784034224955,16.2708024041749,"array('d', [-71.9152603149414, -72.43213901444086, -72.96107836227318, -73.49367668473288, -74.02262412260794, -74.54238345046842, -75.04922287646603, -75.54090517126828, -76.01636873159497, -76.47543774070371, -76.91856445047907, -77.34660895839745, -77.76065963602225, -78.16189462648133, -78.55148309279262, -78.85369569070738])","array('d', [-185.5811767578125, -183.13561431703533, -180.6924234087388, -178.24992477554832, -175.8065820734803, -173.36124309109073, -170.91318082159052, -168.46202259715645, -166.0076629333961, -163.55018159047427, -161.08977388813372, -158.6266962068153, -156.16122650113087, -153.69363793109534, -151.22418315345996, -149.24715379346108])","array('d', [-50.00607681274414, -49.96117821629215, -49.929148719021924, -49.906036066399224, -49.88916716096838, -49.87671044111275, -49.86739545640927, -49.86033073550602, -49.854883929157054, -49.85060209486103, -49.84715831193166, -49.84431585111682, -49.84190421545806, -49.83980328823351, -49.837933017761735, -49.83658405013643])","array('d', [0.2193294465541838, 0.12371705476698461, 0.03720337756300615, -0.041077437198095534, -0.09838407108017892, -0.13611796768545587, -0.15827437783138246, -0.16839194381960965, -0.1695721984260679, -0.1644790630622672, -0.15534041972313317, -0.1439576319132334, -0.13172123965959334, -0.11962877763940331, -0.10830109635039042, -0.09799489326500313])","array('d', [-0.021067732945084437, -0.014955102164179931, -0.01073953950888685, -0.007799891690956687, -0.005729869445163173, -0.004260067699917464, -0.0032094637436964942, -0.0024549080720903146, -0.001911603862161781, -0.0015203914405141352, -0.0012393245130196643, -0.0010380030538951835, -0.00089371280469599, -0.0007887796523468173, -0.0007087715475426213, -0.0006413233775901485])","array('d', [-0.2045804699275156, -0.21135096456710886, -0.21448855080951323, -0.2143868804221496, -0.21162659638757442, -0.206991385196741, -0.20116567162849852, -0.1946954110665033, -0.18800031242195472, -0.18138629077937624, -0.17506041823544666, -0.16914770306586271, -0.16370837848443498, -0.15875472253000683, -0.15426698386473392, -0.1491937632837907])",-74.54238345046842,-173.36124309109073,-49.87671044111275,-0.13611796768545587,-0.004260067699917464,-0.206991385196741,25.00000024414479,-1.0,"[-181.9462943867474, -72.80740141906647, 50.02256413688503]","[-162.83695310514364, -66.90576677966055, 50.08408133901376]","[-167.28231838019659, -86.39361537294657, 49.40401900619907]",10000000000.0,0.03717780113220215
14,21.705278158187866,-182.7782440185547,-72.6351547241211,50.05188751220703,-0.010114357806742285,0.004145404323935388,-0.22857014735671477,16.39219909505553,"array('d', [-72.0727767944336, -72.60179767114013, -73.13832147484955, -73.67443596897901, -74.20320789736114, -74.71939647000114, -75.21953674196908, -75.70164856806481, -76.16491990200076, -76.60941404180144, -77.035808088585, -77.44516994537138, -77.83877753763467, -78.21798047060102, -78.58410234775484, -78.86638007724024])","array('d', [-184.96490478515625, -182.52182470672426, -180.08023003111293, -177.6384713788071, -175.19507601354056, -172.74897374071355, -170.2995309670355, -167.846471348155, -165.38978110979772, -162.92962217801295, -160.46626009000187, -158.00000911522784, -155.53119373699192, -153.06012396139326, -150.58708149462382, -148.6071075323887])","array('d', [-50.01015090942383, -49.97181986308008, -49.944451543371095, -49.92468886398813, -49.91025672733092, -49.899593845795714, -49.89161599571223, -49.88556178884139, -49.88089091120824, -49.877216288079, -49.87425856593205, -49.8718155109032, -49.86974151626664, -49.86793402562809, -49.8663246855407, -49.865163870020496])","array('d', [0.16768598556518552, 0.07698811463593679, -0.005078719807798761, -0.07933586495753601, -0.13326800939889705, -0.16788285417084703, -0.18714239822297163, -0.19457747009935555, -0.19328950125966501, -0.18594084439022032, -0.1747528547095184, -0.1615152694428723, -0.1476033630909083, -0.13399771498735616, -0.12130238134260939, -0.10975894347366229])","array('d', [-0.017978349700570002, -0.012774533500708183, -0.009180526450164457, -0.006671638979544329, -0.0049036297891898745, -0.003647653960790699, -0.0027496181177753868, -0.0021045137752782996, -0.001639940509938821, -0.0013053408263882448, -0.0010648493036807692, -0.0008924706338169882, -0.0007687885153486815, -0.0006787068504809562, -0.0006099129180430559, -0.0005518723825156353])","array('d', [-0.21054570277663692, -0.21534354292574084, -0.21672891496875657, -0.2150466012852911, -0.2108406451939274, -0.2048748002657134, -0.1978283749494788, -0.19024418616455838, -0.18253781160692706, -0.1750092977581891, -0.16785845768223343, -0.16120235387846366, -0.15509324883761316, -0.149535887814734, -0.14450366966592493, -0.13881625791946567])",-74.71939647000114,-172.74897374071355,-49.899593845795714,-0.16788285417084703,-0.003647653960790699,-0.2048748002657134,25.000000244119512,-1.0,"[-181.31726951085435, -72.97502944107273, 50.045669423530164]","[-162.18155755851063, -67.16078437776746, 49.90753028801665]","[-166.71322045119916, -86.63942546571444, 50.12333759552274]",10000000000.0,0.029413938522338867
15,21.735172748565674,-182.4610137939453,-72.71577453613281,50.06187438964844,-0.03166862577199946,0.0021512922830878426,-0.23055772384139536,16.456179301076823,"array('d', [-72.2324447631836, -72.77269730712143, -73.31576300790859, -73.85419638943533, -74.38142836188675, -74.8925065645811, -75.3842342452437, -75.85489745972019, -76.30394715643077, -76.73170088978958, -77.13907570015581, -77.52736133376219, -77.89803781494246, -78.25263718064829, -78.59264698044551, -78.8528145379737])","array('d', [-184.34547424316406, -181.90473942528146, -179.46453433070917, -177.0232572936773, -174.57951510931838, -172.1323334869368, -169.68118541184336, -167.2259028123806, -164.7665735843466, -162.30344945560506, -159.83687154061684, -157.36721537289745, -154.89485375065559, -152.42013412457038, -149.94336701097137, -147.960366663944])","array('d', [-50.017181396484375, -49.98673702302468, -49.96497239673488, -49.94923717404267, -49.937731691741654, -49.929219090337455, -49.922839542819034, -49.91798885981179, -49.91423817761754, -49.91128029537449, -49.90889359183555, -49.90691772055913, -49.90523730271421, -49.90377109861767, -49.9024649291641, -49.90152267388547])","array('d', [0.11404229700565328, 0.02844929336685981, -0.04899846594247901, -0.1190761015524319, -0.16958762123224969, -0.2010053206499396, -0.21727170454506559, -0.22192048666439063, -0.21806061885321096, -0.20835768199644783, -0.1950290165810856, -0.17985361112753198, -0.1641913248778132, -0.1490050946021904, -0.1348813187326694, -0.12204567523697749])","array('d', [-0.014271164312958587, -0.010153642014991278, -0.007305792516440996, -0.005315669926184141, -0.00391216237608907, -0.0029145738860537063, -0.0022009739932063142, -0.0016881301089764257, -0.001318581565128137, -0.001052169056224147, -0.0008603932514011022, -0.0007226025434341668, -0.000623386935083158, -0.0005507875014575972, -0.0004950774538931028, -0.0004479647554812874])","array('d', [-0.21616725524398264, -0.21894124990417374, -0.2185125061923309, -0.2151826290921478, -0.20946126292878078, -0.20209458047258852, -0.1937604484612983, -0.18500064872450953, -0.1762275269739588, -0.16773533363546542, -0.15971621125255606, -0.15227864333007401, -0.1454662378975328, -0.13927556777019845, -0.13367262714273487, -0.12734184372086077])",-74.8925065645811,-172.1323334869368,-49.929219090337455,-0.2010053206499396,-0.0029145738860537063,-0.20209458047258852,25.000000247858686,-1.0,"[-181.0007085305217, -73.05855453044668, 50.05864745371288]","[-161.85335582969645, -67.28545623243043, 49.83454794090307]","[-166.4237557538814, -86.74616398552278, 50.4608851358239]",10000000000.0,0.02215576171875
16,21.7599515914917,-181.82247924804688,-72.87676239013672,50.085445404052734,-0.07064579427242287,-0.0015138748567552509,-0.23387090762587956,16.58174643436622,"array('d', [-72.31288146972656, -72.85870772722171, -73.40504122113478, -73.9446533468031, -74.47114580545764, -74.97970105028308, -75.46725100777788, -75.93221278028363, -76.37416873825785, -76.79356447958178, -77.19143828069049, -77.56919206476945, -77.92840797995369, -78.27071011964286, -78.59766862225786, -78.84678544841842])","array('d', [-184.03433227539062, -181.59478681886458, -179.15528574259883, -176.71425629727617, -174.27034859479002, -171.82263874765684, -169.37065534075288, -166.91428659194463, -164.45367299644641, -161.98911245177962, -159.52098463632657, -157.04969606507714, -154.57564370917893, -152.09919351271586, -149.62066999958654, -147.63625113693047])","array('d', [-50.02198028564453, -49.99585347041331, -49.977157073319034, -49.96362568268077, -49.95371953158565, -49.94637961811064, -49.94086939757732, -49.93667117438376, -49.93341746517867, -49.93084508176735, -49.92876422155342, -49.927037623890214, -49.92556656634084, -49.924281548388805, -49.923136183681706, -49.92230983044186])","array('d', [0.08755454421043386, 0.004482181567913286, -0.07068480703081147, -0.13869870213924854, -0.18756814631631621, -0.21743348041845742, -0.2322341128134515, -0.23551022211592618, -0.23037817285215334, -0.21950767779783853, -0.20511571238829096, -0.18897690712218373, -0.17244401099979334, -0.15647147161093794, -0.14163703088904528, -0.1281584969317509])","array('d', [-0.012242170050740126, -0.00871845586614709, -0.006279491598893151, -0.0045741239097868295, -0.003370890438266713, -0.002515321493988092, -0.0019030720675524597, -0.00146285181076483, -0.0011454118051142416, -0.000916317028543026, -0.000751127018703856, -0.0006321362124543196, -0.0005461443982494003, -0.0004829246298576166, -0.0004341803099420263, -0.0003928629427565492])","array('d', [-0.21895269950362672, -0.22073353481412064, -0.219408919095436, -0.21526161714791503, -0.20878511002208963, -0.20071773800409037, -0.19173826096510127, -0.1823889133823256, -0.17308093206718256, -0.1641058702698378, -0.15565205794782233, -0.14782362495675494, -0.14065975778370676, -0.13415284900578356, -0.1282651103788074, -0.12161345193468988])",-74.97970105028308,-171.82263874765684,-49.94637961811064,-0.21743348041845742,-0.002515321493988092,-0.20071773800409037,25.000000244084703,-1.0,"[-181.0007085305217, -73.05855453044668, 50.05864745371288]","[-161.85335582969645, -67.28545623243043, 49.83454794090307]","[-166.4237557538814, -86.74616398552278, 50.4608851358239]",10000000000.0,0.02307724952697754
17,21.792160987854004,-181.17832946777344,-73.0369873046875,50.11220932006836,-0.10368797928094871,-0.004437610041350259,-0.23676077922317007,16.712390701870177,"array('d', [-72.4739990234375, -73.03015367893582, -73.58239817599477, -74.12389707586726, -74.64856458605395, -75.15182904881621, -75.63086361208005, -76.0843373256185, -76.5120887520501, -76.91481475125266, -77.29379207139408, -77.65064329175058, -77.98715119365023, -78.30512039753877, -78.60628268200875, -78.83358029983788])","array('d', [-183.40872192382812, -180.97143103399208, -178.5332219001535, -176.09259109924886, -173.64828213901856, -171.19947553768958, -168.74581353607743, -166.28729855627296, -163.8241769878597, -161.3568388816611, -158.88574014177885, -156.4113478382847, -153.93410557048378, -151.45441439370626, -148.97262491633361, -146.98558876312282])","array('d', [-50.034751892089844, -50.01738630605191, -50.00491458011242, -49.995849582941645, -49.98917874760959, -49.98420479263678, -49.98044239501323, -49.977550365210575, -49.975286598938865, -49.97347786688091, -49.971999426794824, -49.970761232652066, -49.96969862799956, -49.96876610993611, -49.967933191398, -49.967331972012566])","array('d', [0.03673494607210149, -0.04150129656767104, -0.11229238245002966, -0.17634680566472377, -0.22214662587759307, -0.24907781628035858, -0.26108565941024386, -0.2617319532261585, -0.25415400177026815, -0.24103395544675155, -0.22459085783684685, -0.20659250772846735, -0.18837873903114816, -0.17088796602614295, -0.15468133357878647, -0.13996147116629978])","array('d', [-0.008125259540974972, -0.005806013646883877, -0.004198230497369519, -0.003072561839461061, -0.0022773780964213267, -0.0017112329499150418, -0.0013054554530859035, -0.0010130468484914226, -0.0008014954997685231, -0.0006480500359340586, -0.0005365619343452766, -0.0004553482172561755, -0.0003957300711717207, -0.00035103007389541215, -0.0003158909512310883, -0.0002858302952565999])","array('d', [-0.22414784034224955, -0.22402866873272134, -0.22098069029596712, -0.21525453227424513, -0.2073139091986429, -0.1978835911629329, -0.18764695849966775, -0.17714883031188947, -0.16679912738251942, -0.15688443339181588, -0.14758562388561552, -0.13899818183783252, -0.1311524796928685, -0.12403258313160913, -0.11759318906221446, -0.11032035423029009])",-75.15182904881621,-171.19947553768958,-49.98420479263678,-0.24907781628035858,-0.0017112329499150418,-0.1978835911629329,25.000000244064466,-1.0,"[-180.08381066582044, -73.29610806879066, 50.10109100259999]","[-160.91026926352842, -67.62261484759024, 49.66890497368853]","[-165.56966653732934, -87.00204448920387, 51.320487188003995]",10000000000.0,0.02386164665222168
18,21.82548761367798,-180.85409545898438,-73.11672973632812,50.12663650512695,-0.1179596409201623,-0.005619897041469942,-0.23813621600600693,16.7787238264186,"array('d', [-72.6351547241211, -73.19992546191047, -73.75670813351428, -74.29900549404286, -74.82100392197583, -75.31834514530946, -75.78841970796745, -76.23013115010365, -76.6435604066444, -77.02964372556013, -77.38988547996405, -77.7261186744759, -78.04031697970757, -78.33445628272688, -78.61042125960849, -78.81645744088563])","array('d', [-182.7782440185547, -180.34288947487727, -177.9056903930948, -175.46522659581927, -173.02034219506444, -170.5703249062496, -168.11493130914147, -165.65427722291992, -163.18871284938638, -160.71871734938864, -158.24481921313065, -155.76754216449743, -153.28737252088325, -150.80474268920975, -148.3200258335999, -146.33067291647268])","array('d', [-50.05188751220703, -50.042990840476904, -50.03653175651604, -50.03177309758074, -50.028212338194784, -50.02550323899009, -50.023404860495745, -50.02174801002354, -50.0204129043639, -50.01931414930282, -50.01839056229639, -50.017598240828086, -50.01690582594409, -50.016291256808486, -50.01573953373047, -50.015340826877974])","array('d', [-0.010114357806742285, -0.0838923035727896, -0.15064935527510676, -0.21105363555763124, -0.2541104002308233, -0.27838257996042315, -0.28783441985144953, -0.2860582809704046, -0.27621843334831536, -0.2610134985977097, -0.24266735611241347, -0.2229429944707448, -0.20316893213267018, -0.1842689016984149, -0.166788631872107, -0.15091660868531795])","array('d', [-0.004145404323935388, -0.0029912027901020407, -0.002189445130062864, -0.0016268692166431687, -0.0012283867276691874, -0.0009436431364619063, -0.0007384823333423065, -0.0005894837231758057, -0.00048042024136031635, -0.00039992662119046196, -0.00033994362921252626, -0.00029466882351145325, -0.00025984403175850735, -0.00023227124499441008, -0.00020948729624851968, -0.00018955227819402704])","array('d', [-0.22857014735671477, -0.22669933197088044, -0.22205250997911719, -0.2148548035688136, -0.20554367317743522, -0.19483298722840886, -0.18341372545085216, -0.17183501371466361, -0.16050639319488078, -0.14970997984440615, -0.1396194986880937, -0.1303220255960001, -0.1218393544346808, -0.11414747229707346, -0.10719382044360183, -0.09934237904378576])",-75.31834514530946,-170.5703249062496,-50.02550323899009,-0.27838257996042315,-0.0009436431364619063,-0.19483298722840886,25.000000244047897,-1.0,"[-179.72018955168178, -73.38881635057422, 50.118865713283625]","[-160.53751311767047, -67.75197916929132, 49.61787527451924]","[-165.22856706282667, -87.09177168536304, 51.609467180239434]",10000000000.0,0.0269472599029541
19,21.849320888519287,-180.85409545898438,-73.11672973632812,50.12663650512695,-0.1179596409201623,-0.005619897041469942,-0.23813621600600693,16.7787238264186,"array('d', [-72.71577453613281, -73.28438875105876, -73.84313274261812, -74.38565799639404, -74.90627154223557, -75.40070888982656, -75.8664589218433, -76.3025339028928, -76.7091285210438, -77.08729195929597, -77.43863612568859, -77.76509337307004, -78.06872735067927, -78.35159450959617, -78.61565129592647, -78.81164801029816])","array('d', [-182.4610137939453, -180.02654223244156, -177.58978665922382, -175.14937133008033, -172.70419118257487, -170.25358661668804, -167.7973698547503, -165.33571155886855, -162.86901179109495, -160.39779216741266, -157.92261543625082, -155.44403176262216, -152.96254712942917, -150.47860812655725, -147.9925978895589, -146.00223091687707])","array('d', [-50.06187438964844, -50.05722090316043, -50.05377301342196, -50.05116848944741, -50.04916048723018, -50.04757911279776, -50.046306381566595, -50.045259727941605, -50.04438101706066, -50.04362913880646, -50.04297496149778, -50.04239785259112, -50.041883243454045, -50.04142088796431, -50.0410035778596, -50.040701639054305])","array('d', [-0.03166862577199946, -0.10339541351651917, -0.16829650053120696, -0.2270214349272283, -0.26885055397675733, -0.29191838932689534, -0.30020270151661527, -0.29731378890019583, -0.2864311958449413, -0.27026305513926924, -0.25103665743238107, -0.23051343448956826, -0.21001701367184591, -0.1904644877265359, -0.1723945040971823, -0.155989012094555])","array('d', [-0.0021512922830878426, -0.0015810124740225156, -0.0011839244020293875, -0.0009043588509649987, -0.0007053627339152019, -0.0005621263530933314, -0.0004577990533750497, -0.0003808082233709167, -0.0003231227967656617, -0.0002791139646288439, -0.00024480030317115874, -0.00021734483332315507, -0.00019471990357282612, -0.0001754853563044858, -0.0001586436762794902, -0.00014354706425984544])","array('d', [-0.23055772384139536, -0.22787899830633018, -0.2224918013750431, -0.21461069838558677, -0.20466119170409408, -0.19335250277290217, -0.1813802804757428, -0.1692963207106441, -0.15751029453925153, -0.14630231000576496, -0.1358427087267601, -0.12621454723687758, -0.11743551310570516, -0.10947773347436926, -0.1022851932483532, -0.09416513183410166])",-75.40070888982656,-170.25358661668804,-50.04757911279776,-0.29191838932689534,-0.0005621263530933314,-0.19335250277290217,25.000000244040322,-1.0,"[-179.39644950705636, -73.4705619243492, 50.135066306315586]","[-160.20612259900633, -67.86498110054686, 49.57935343981768]","[-164.92388510595396, -87.16862637711301, 51.84032578917201]",10000000000.0,0.02200174331665039
20,21.88032078742981,-179.87217712402344,-73.35308074951172,50.1736946105957,-0.15454798936843878,-0.008009937591850863,-0.24107782443496156,16.977670860893905,"array('d', [-72.87676239013672, -73.4516288520054, -74.0132054872452, -74.55540244702823, -75.07273830144443, -75.56111218100884, -76.01818929495496, -76.44318099794751, -76.83649224999056, -77.19938169765781, -77.5336607424286, -77.84144579425106, -78.12496685608711, -78.38642898461238, -78.627920713422, -78.80493068460123])","array('d', [-181.82247924804688, -179.3894751030286, -176.95337095558446, -174.51288389310918, -172.06701010072834, -169.6151922562276, -167.15734914255458, -164.6937554306522, -162.22490483188994, -159.7513978689809, -157.27386020518426, -154.79288988155696, -152.30902787041992, -149.82274543031903, -147.3344425153169, -145.34229755264974])","array('d', [-50.085445404052734, -50.08858733242752, -50.09066326243871, -50.092000549652795, -50.0928237256952, -50.09328860582156, -50.0935046163082, -50.09354957423085, -50.093479565487705, -50.09333557611076, -50.093147922985, -50.092939156375216, -50.09272587545498, -50.09251975599255, -50.09232800566031, -50.0921883360767])","array('d', [-0.07064579427242287, -0.1386634172272504, -0.20020831286335317, -0.2558964379529188, -0.2955512376673235, -0.3164648807649004, -0.32264689985691347, -0.3177459204263083, -0.304973345328642, -0.2870572193941002, -0.26623252787003177, -0.24425860660488113, -0.22245047342575935, -0.20171319992777215, -0.18257252098344615, -0.16519846344845018])","array('d', [0.0015138748567552509, 0.0010081057429532818, 0.0006584710519413114, 0.00041541344736978125, 0.0002459543087153449, 0.0001279188575239412, 4.625189795109612e-05, -9.35787826158155e-06, -4.6037230925233566e-05, -6.877495879177535e-05, -8.114124592059857e-05, -8.579441592201024e-05, -8.484613735049383e-05, -8.012813574874242e-05, -7.338462145374006e-05, -6.64014743245228e-05])","array('d', [-0.23387090762587956, -0.229725078842404, -0.22298912622653028, -0.21386021714379047, -0.20274243791368204, -0.19033725650967742, -0.1773505831868597, -0.16434006042060395, -0.15171598030013958, -0.1397547961652693, -0.12862049742803403, -0.1183885677402806, -0.10906897277823463, -0.10062660658788677, -0.09299900311914329, -0.08439000682772639])",-75.56111218100884,-169.6151922562276,-50.09328860582156,-0.3164648807649004,0.0001279188575239412,-0.19033725650967742,25.000000244027852,-1.0,"[-179.39644950705636, -73.4705619243492, 50.135066306315586]","[-160.20612259900633, -67.86498110054686, 49.57935343981768]","[-164.92388510595396, -87.16862637711301, 51.84032578917201]",10000000000.0,0.025901079177856445
21,21.908379077911377,-179.54188537597656,-73.43110656738281,50.1902961730957,-0.16522450745105752,-0.008447791449725748,-0.24172954162093596,17.044066031453497,"array('d', [-72.95699310302734, -73.53456696939251, -74.09732589480176, -74.63929100529012, -75.15507218109366, -75.64063822562566, -76.09373153891248, -76.51365262665125, -76.90090158451777, -77.25683221724854, -77.58334663456321, -77.88264487125839, -78.15703239270863, -78.40878153858192, -78.6400405294934, -78.8084458380347])","array('d', [-181.50111389160156, -179.06875827207722, -176.63293103259215, -174.1923950889998, -171.7461949445317, -169.2938211232262, -166.83524190769455, -164.37078005864615, -161.90097234222702, -159.42645530848415, -156.94788310836893, -154.46587524108685, -151.98098815821635, -149.49370384118345, -147.00442937195763, -145.01153876746682])","array('d', [-50.09846115112305, -50.10491884042527, -50.10933914749918, -50.112343686004586, -50.11435858658426, -50.115679208188205, -50.116512535804446, -50.11700525884266, -50.117262550709576, -50.117360703433434, -50.11735561816294, -50.11728844274004, -50.11718920628922, -50.1170790263929, -50.116971297883396, -50.11689200204004])","array('d', [-0.08793383836746223, -0.15430628782979058, -0.21436256880312324, -0.26870374077615644, -0.30742075916233413, -0.32739392406801693, -0.33265034365014146, -0.3268585482406835, -0.31324625667506056, -0.29455183626427517, -0.27301461328649873, -0.2503935205204017, -0.2280000231378475, -0.20673397129584314, -0.18711539833077592, -0.1693090292300398])","array('d', [0.0030739777721465835, 0.002108289174664974, 0.0014391214095232899, 0.0009722975238342091, 0.0006450817171429178, 0.00041524966353296807, 0.0002541007213543233, 0.0001419486284822454, 6.516575484709845e-05, 1.4206525143653497e-05, -1.774177985429548e-05, -3.569899540518531e-05, -4.3559042599503204e-05, -4.456804039836505e-05, -4.166322197315521e-05, -3.7698762554262936e-05])","array('d', [-0.23531620105239356, -0.23051623694451395, -0.22317727080699296, -0.2134893985341104, -0.20184706944105074, -0.18894844138774886, -0.1755048382384679, -0.162077003259011, -0.14907572187630436, -0.13677585050903285, -0.12533848066547856, -0.1148356158695179, -0.10527367191954337, -0.09661422370910787, -0.08879185269360544, -0.0799640911878201])",-75.64063822562566,-169.2938211232262,-50.115679208188205,-0.32739392406801693,0.00041524966353296807,-0.18894844138774886,25.000000244022296,-1.0,"[-178.08554923484306, -73.79016711407681, 50.20296770955129]","[-158.87549099460276, -68.27620361165279, 49.44807109377458]","[-163.66296495052268, -87.43691195844163, 52.6020128767954]",10000000000.0,0.025361299514770508
