,x_pos,y_pos,z_pos,roll,pitch,yaw,vel,x_traj,y_traj,z_traj,roll_traj,pitch_traj,yaw_traj,x_cmd,y_cmd,z_cmd,roll_cmd,pitch_cmd,yaw_cmd,vel_cmd,effector_dmg,effector_x,effector_y,effector_z,cost,time_solution
0,198.12899780273438,11.146984100341797,47.3556022644043,0.30043306946754444,0.0678497403860093,-2.2661285281141823,22.64060659472762,"array('d', [12.835869789123535, 10.96068970389983, 9.10832524074816, 7.282304999631057, 5.485888992321418, 3.721516751692312, 1.9904126771502724, 0.2926746076509314, -1.3732249476274607, -3.010223045537775, -4.621474323698542, -6.20987095513738, -7.777911535877243, -9.327694914265713, -10.86097700046927, -12.379244958148776])","array('d', [199.62301635742188, 198.07562254969747, 196.49976793617415, 194.89247501686336, 193.2512143978191, 191.574521858959, 189.86242085108796, 188.1161748116587, 186.33709796603532, 184.5260614113249, 182.68420589943204, 180.81312550508514, 178.91479546693458, 176.9914352166483, 175.0453511514589, 173.07880217755573])","array('d', [-47.39925003051758, -47.204698025155444, -46.96764037121177, -46.69198220459362, -46.38125502728992, -46.03865263697502, -45.66707597693691, -45.26916813024453, -44.85347747243641, -44.43449552409036, -44.02514928364293, -43.63500580120723, -43.27031247526064, -42.934323921499306, -42.627798558631966, -42.349565645961256])","array('d', [0.31248214840888966, 0.35748601954779863, 0.39820720973277185, 0.43505326929784627, 0.4594486409778149, 0.4663554261218317, 0.4595285691815502, 0.4425157283274637, 0.4184938994282173, 0.3901745618328917, 0.3597735287329939, 0.32902298636847394, 0.29920333370907365, 0.2711790872232326, 0.24543008176793674, 0.22207434160912848])","array('d', [-0.07060313969850547, -0.0887978534652315, -0.10526111277209874, -0.12015768714155507, -0.13363666620783002, -0.14583295183643363, -0.15686860817593795, -0.16685408065842566, -0.17093256883838237, -0.16903753810403935, -0.16254732376365674, -0.15289042148918267, -0.14139532306101263, -0.1291972566156897, -0.11719427530234729, -0.1060417751139566])","array('d', [-2.253874528404099, -2.2678951800040545, -2.2838482716550352, -2.301597511754074, -2.320790810683473, -2.3407115341999543, -2.36058847013329, -2.379834284194193, -2.3980463448453406, -2.4149840957835687, -2.430535768517053, -2.4446844493146176, -2.4574783982429076, -2.469006855586775, -2.479380648324413, -2.488716270906049])",3.721516751692312,191.574521858959,-46.03865263697502,0.4663554261218317,-0.14583295183643363,-2.3407115341999543,24.62993591047326,-1.0,"[197.54612035369172, 10.413667053254263, 47.26268778756598]","[190.84707081669333, -27.355857128317844, 35.923120847048295]","[160.12785882205682, -3.622182677689887, 45.56898584196656]",10000000000.0,0.0210878849029541
1,197.52676391601562,10.475017547607422,47.34061050415039,0.295739322900772,0.06637455523014071,-2.2711143374403537,22.645558314639807,"array('d', [12.158917427062988, 10.290947679288843, 8.445619783514607, 6.626488400626095, 4.836832898736716, 3.079101228563824, 1.35452390236098, -0.3367949271018019, -1.9963802667406054, -3.627158734082272, -5.232264945243328, -6.814575965004962, -8.376580265718117, -9.920370615653622, -11.447699592460792, -12.9600525825873])","array('d', [199.02699279785156, 197.4704727270307, 195.8859741269496, 194.27050312480017, 192.62151442159296, 190.93753052186614, 189.21855295737083, 187.46581427235353, 185.68058294226967, 183.8636855949685, 182.01623284149505, 180.13979106394515, 178.2363100377793, 176.3079858220783, 174.3571035042211, 172.3859027579723])","array('d', [-47.380977630615234, -47.1882557518461, -46.952853665295414, -46.678693525167255, -46.369322103338455, -46.02794701757941, -45.65748170869504, -45.260580414612825, -44.845876872324226, -44.42791611726767, -44.01958328040169, -43.63041460065009, -43.26663730505391, -42.93149516358588, -42.625743288476414, -42.34821323545738])","array('d', [0.3076443970203399, 0.35310864067525677, 0.39424639317586313, 0.4314693739345234, 0.45606424656951206, 0.4631905949172443, 0.4565957732076604, 0.4398184922738499, 0.41602778010363767, 0.3879292260123652, 0.3577349779366475, 0.3271754198197373, 0.2975305011176108, 0.2696651689013696, 0.2440602013467528, 0.22083482243354177])","array('d', [-0.06980775296688085, -0.08807815772165759, -0.10460990507303905, -0.11956844999337397, -0.13310350233756887, -0.14535052516957472, -0.15643209042812684, -0.16645910272753472, -0.1705147047132349, -0.168616593140542, -0.16213838242274703, -0.1525037764559508, -0.14103694602923636, -0.12886956295836213, -0.11689699218032705, -0.10577278219728345])","array('d', [-2.2587621092756813, -2.27257471108017, -2.28833382166763, -2.305902108080842, -2.3249238172350872, -2.3446812067375418, -2.3644064400159053, -2.3835141358382037, -2.401602222138284, -2.4184296655952995, -2.433883612964705, -2.4479458083961245, -2.4606631413227382, -2.472123577899175, -2.4824368212160266, -2.4917184036916478])",3.079101228563824,190.93753052186614,-46.02794701757941,0.4631905949172443,-0.14535052516957472,-2.3446812067375418,24.630367401544863,-1.0,"[197.1702480588497, 9.997872816674628, 47.25390572390328]","[190.35035493238672, -27.785567533303855, 36.03335791805882]","[159.70738736792887, -3.923984802189466, 45.60589198223256]",10000000000.0,0.01973700523376465
2,197.22434997558594,10.139915466308594,47.33311462402344,0.2931136190891266,0.06549177318811426,-2.2735202193220676,22.649135281899,"array('d', [11.821260452270508, 9.956884734118841, 8.115058687533239, 6.299351274805333, 4.5130525240197406, 2.7586153375465674, 1.0372738639315604, -0.6508641292746388, -2.3073230220651655, -3.9350241755057587, -5.537090742875109, -7.116391272080663, -8.675408674588885, -10.21623254229108, -11.740613889431936, -13.250037445710733])","array('d', [198.72775268554688, 197.16667029258363, 195.57784913465156, 193.95828782113165, 192.30543359913662, 190.61780269374407, 188.89538596379043, 187.13940074247972, 185.35109173477204, 183.53126316709123, 181.681012112936, 179.8018922012566, 177.89584107577207, 175.9650432756124, 174.01177308273904, 172.03826021188124])","array('d', [-47.37212371826172, -47.18069100100333, -46.94645531509306, -46.67335067180562, -46.36493452512639, -46.02442416893351, -45.654741792423394, -45.2585494684745, -44.844537266222055, -44.42728581791514, -44.019653486741234, -43.631156802640355, -43.26801009399012, -42.93345023774436, -42.6282303499137, -42.35118367022785])","array('d', [0.30519500374794006, 0.35089233778988677, 0.39224099921314953, 0.4296548182685491, 0.45435134409596567, 0.4615892409479749, 0.45511208206804443, 0.4384541117612494, 0.41478037723256855, 0.38679352559327307, 0.35670387631217065, 0.3262409168536737, 0.29668437658886465, 0.2688994225970499, 0.24336730983219626, 0.22020786820774746])","array('d', [-0.06924844533205038, -0.08757207519841229, -0.1041519826267829, -0.11915410459072008, -0.13272858707783633, -0.145011287780986, -0.15612513571175443, -0.16618135836382147, -0.170223853170267, -0.16832531756458627, -0.16185634797355974, -0.15223758081443603, -0.14079040714028504, -0.1286441943907354, -0.11669254889361343, -0.10558779424501481])","array('d', [-2.2612028002699436, -2.2749103277655753, -2.290571477051435, -2.3080483831778045, -2.3269834570316648, -2.346658400755618, -2.366307062625384, -2.3853450362536748, -2.403370528024636, -2.420142264248968, -2.43554684659319, -2.449565344829529, -2.462243959361296, -2.47367001540651, -2.48395265028553, -2.493206911766861])",2.7586153375465674,190.61780269374407,-46.02442416893351,0.4615892409479749,-0.145011287780986,-2.346658400755618,24.630579433293402,-1.0,"[196.56220122917497, 9.3305872033274, 47.24112175983296]","[189.54565141033325, -28.47289763880951, 36.21095573977519]","[159.02750889619932, -4.404815400360615, 45.66454737736313]",10000000000.0,0.01967000961303711
3,196.9210662841797,9.805392265319824,47.32609939575195,0.2905998826026916,0.06457824259996424,-2.27577518224321,22.653300384468594,"array('d', [11.48383617401123, 9.62308418169469, 7.784790404430218, 5.9725388714433025, 4.189630954248074, 2.438525263107651, 0.7204601188815918, -0.9644528090337163, -2.617737876645507, -4.242311416512898, -5.841284371560946, -7.417516358017606, -8.973484631223547, -10.51127576210509, -12.032639519005047, -13.539060374609685])","array('d', [198.42881774902344, 196.8631328428621, 195.26994426422573, 193.64624401864017, 191.9894726269218, 190.2981403635489, 188.572227731328, 186.81293726237993, 185.02148950084614, 183.19866634463517, 181.34555262132926, 179.46369021454552, 177.5550052998218, 175.62167124076632, 173.66595161125434, 171.69006609935252])","array('d', [-47.36368942260742, -47.17377067668546, -46.940904859225284, -46.66903984894077, -46.36174561629429, -46.02225079531425, -45.6534878247666, -45.25812797134898, -44.844927185005695, -44.42850792895042, -44.02169755402667, -43.63398961142083, -43.27158327903905, -42.93770725209156, -42.63311220210755, -42.35663328398842])","array('d', [0.3027812838554382, 0.34870831351641773, 0.3902648121489754, 0.4278666900999493, 0.4526676195735758, 0.4600182901792723, 0.45365878800984377, 0.4371192113054872, 0.41356092614980267, 0.3856838894693256, 0.35569678790161396, 0.3253283536347791, 0.29585819044236705, 0.2681517422738169, 0.24269076817180668, 0.21959570794312272])","array('d', [-0.06859204173088079, -0.08697813660351458, -0.10361456471210098, -0.11866782870695336, -0.1322885864211516, -0.1446131586841388, -0.15576489356824372, -0.16585539746731998, -0.1698827063564469, -0.16798365067268042, -0.16152540823727266, -0.15192510192615638, -0.1405009078422989, -0.12837950294823805, -0.11645241906409728, -0.10537051577060404])","array('d', [-2.2636628031691135, -2.2772669482468655, -2.2928317176371644, -2.3102187191677785, -2.329068662023393, -2.3486627691917543, -2.368236477127997, -2.3872062816578405, -2.405170622653686, -2.4218879647286142, -2.4372443599247746, -2.4512202094311797, -2.46386103572996, -2.4752535362174193, -2.485506295579917, -2.4947338889556856])",2.438525263107651,190.2981403635489,-46.02225079531425,0.4600182901792723,-0.1446131586841388,-2.3486627691917543,24.63079555029749,-1.0,"[195.98740071534124, 8.70481744917247, 47.22996972539659]","[188.79751521093416, -29.121472149426513, 36.391272311203366]","[158.3892983563046, -4.862548359604119, 45.71033687163066]",10000000000.0,0.021858930587768555
4,196.61688232421875,9.471468925476074,47.31957244873047,0.28847673535346974,0.06378126889467245,-2.2778680205305637,22.657482685221495,"array('d', [11.146984100341797, 9.289868173915481, 7.45512130472929, 5.646343201326928, 3.866847141811745, 2.119098106890853, 0.4043390346323212, -1.2773143104212508, -2.927386840019912, -4.548790138807733, -6.144622411191714, -7.717734095420157, -9.27059681122252, -10.805294335798772, -12.323575549883584, -13.826925086522388])","array('d', [198.12899780273438, 196.55869662601728, 194.96111969284163, 193.33325345547476, 191.67253257740362, 189.97746186480538, 188.24801196135746, 186.48537120396205, 184.69073590846014, 182.86486596277447, 181.00883527909238, 179.1241750470094, 177.21280069738276, 175.27687484046598, 173.31865052976642, 171.34033746041735])","array('d', [-47.3556022644043, -47.16739651262985, -46.93608070138187, -46.66561835063141, -46.35959356774699, -46.02124779749271, -45.65352505511439, -45.259107003322725, -44.8468237486175, -44.4313450001239, -44.02546345876556, -43.638646895035684, -43.27707740752874, -42.94397440852836, -42.64008574809291, -42.36424870737594])","array('d', [0.30043306946754444, 0.3465835610799933, 0.38834225646569986, 0.42612708961632817, 0.4510332800976886, 0.4584961501755117, 0.45225260160942016, 0.43582892176666127, 0.41238310616993057, 0.3846126769530115, 0.3547248797146062, 0.32444782373344505, 0.2950610702834109, 0.2674303850945692, 0.24203804750279212, 0.21900510180478097])","array('d', [-0.0678497403860093, -0.0863064745087538, -0.10300681965993426, -0.11811791819173799, -0.1317910067634059, -0.1441629299475569, -0.1553575097159602, -0.1654867808965975, -0.16949720598430193, -0.16759763171306605, -0.16115147385516895, -0.15157195948340046, -0.14017367618331922, -0.1280802782029396, -0.11618095019039054, -0.10512488055382202])","array('d', [-2.2661285281141823, -2.279632250026551, -2.2951034024633157, -2.3124030774363886, -2.331170422025673, -2.3506862520554623, -2.3701874859136223, -2.3890914462577926, -2.4069967646691195, -2.423661629786525, -2.4389715483215406, -2.452906267732557, -2.4655106520916696, -2.4768707914440946, -2.487094737210672, -2.4962966091507606])",2.119098106890853,189.97746186480538,-46.02124779749271,0.4584961501755117,-0.1441629299475569,-2.3506862520554623,24.63101152034327,-1.0,"[195.98740071534124, 8.70481744917247, 47.22996972539659]","[188.79751521093416, -29.121472149426513, 36.391272311203366]","[158.3892983563046, -4.862548359604119, 45.71033687163066]",10000000000.0,0.02540445327758789
5,195.69888305664062,8.473333358764648,47.30165481567383,0.2876317799091338,0.06343694776296618,-2.2825579524000705,22.676772416831337,"array('d', [10.475017547607422, 8.625296766365256, 6.7977659095287155, 4.996056438897584, 3.223505894725603, 1.4825926399085785, -0.2254306471303689, -1.9004396910910997, -3.5439601164315846, -5.158893796728832, -6.748313589973983, -8.31505171591323, -9.861568654759438, -11.389942717463228, -12.901921118863523, -14.398988907978534])","array('d', [197.52676391601562, 195.9471564795982, 194.34072751830783, 192.70445291434976, 191.0357560204225, 189.33313067792244, 187.59652778676883, 185.82710739275834, 184.02601753977504, 182.19397423168886, 180.33202960324329, 178.4416935145557, 176.52485996839286, 174.5836701301497, 172.62035607284207, 170.63710756578874])","array('d', [-47.34061050415039, -47.155809326793324, -46.927574092755165, -46.65989941964446, -46.35639752544232, -46.020335325667006, -45.65467984836578, -45.262133425348786, -44.85167408583196, -44.438065791686675, -44.034032057006506, -43.64898912587523, -43.28908493641675, -42.95752031781312, -42.655037450770685, -42.38047783051925])","array('d', [0.295739322900772, 0.3423364831704625, 0.38449934110661277, 0.4226498756791806, 0.4477721267920663, 0.4554630308853551, 0.4494534740062204, 0.4332624914933643, 0.4100416788874751, 0.38248397482410645, 0.3527939664008957, 0.322698682455279, 0.293477715248441, 0.2659975497480548, 0.24074154875511825, 0.21783198111919796])","array('d', [-0.06637455523014071, -0.08497167165695853, -0.10179903998146253, -0.11702507384370663, -0.13080216021169816, -0.14326818449965123, -0.1545479104654739, -0.16475422413907778, -0.16873068108009273, -0.16682979325589278, -0.16040749801660587, -0.1508692556578027, -0.1395224882645363, -0.12748480986012786, -0.11564071482616713, -0.10463605533790196])","array('d', [-2.2711143374403537, -2.284417778969727, -2.2997022374422578, -2.316827765486159, -2.335430531717689, -2.3547906234067804, -2.374147813832173, -2.392920997224096, -2.410709136184009, -2.427269839942898, -2.4424875145413893, -2.4563406005677346, -2.4688726515131245, -2.480168551421489, -2.4903352944234607, -2.499486098163103])",1.4825926399085785,189.33313067792244,-46.020335325667006,0.4554630308853551,-0.14326818449965123,-2.3547906234067804,24.631457451403893,-1.0,"[195.02941692662833, 7.670696089490232, 47.21320157545525]","[187.61076311994898, -30.161644850045963, 36.55123389911448]","[157.35024021989685, -5.677374301381018, 45.761079148368]",10000000000.0,0.03417778015136719
6,195.39187622070312,8.14111614227295,47.295799255371094,0.29031714797019953,0.06416514515876777,-2.2833695292433327,22.687866913581782,"array('d', [10.139915466308594, 8.293744322980388, 6.469649980956912, 4.671281113704377, 2.9019880799215327, 1.1642555474410023, -0.5406589671340162, -2.2126263645841684, -3.8531718227077696, -5.465191039124972, -7.05174242105004, -8.615647548317128, -10.15936001045272, -11.684954222998197, -13.194175522906784, -14.68850821179457])","array('d', [197.22434997558594, 195.64025822494418, 194.02958771956636, 192.38930755233037, 190.7168340610518, 189.01065531228028, 187.27071184009415, 185.49814852188777, 183.69408789605924, 181.85922319216036, 179.99459537497472, 178.10170305734016, 176.18242872077883, 174.23890187784744, 172.27334315319195, 170.28793143964714])","array('d', [-47.33311462402344, -47.15035207048928, -46.923961621723734, -46.65795646038177, -46.35596558962545, -46.02127114280605, -45.65685390779442, -45.26542857533153, -44.856053373694934, -44.44354320008093, -44.040585041034376, -43.65656856547116, -43.29762462094978, -42.9669452550394, -42.66527061245821, -42.39144519980008])","array('d', [0.2931136190891266, 0.3399606478975046, 0.38234959625704545, 0.42070470591616016, 0.44593303224393016, 0.45374134344714995, 0.4478564217055582, 0.43179244514623966, 0.4086966467868371, 0.38125869988924754, 0.35168111783535494, 0.3216898629108084, 0.29256420144977907, 0.26517078459476784, 0.23999343980066132, 0.21715506408312837])","array('d', [-0.06549177318811426, -0.08417289735903154, -0.10107627904086527, -0.11637109263925424, -0.13021041349134735, -0.1427327498730576, -0.15406342912726204, -0.16431584653342948, -0.16827868073364316, -0.16638158739595935, -0.15997620864567075, -0.15046370886343144, -0.1391476500672882, -0.12714246314568145, -0.11533022418720323, -0.10435511176462905])","array('d', [-2.2735202193220676, -2.2867119276202703, -2.301892246507667, -2.3189206411055863, -2.3374312466558367, -2.356703486755702, -2.3759789344519997, -2.394677547988083, -2.412398622837595, -2.4288995488419354, -2.444064182111427, -2.457870267432233, -2.4703606389234958, -2.481619505967177, -2.4917532633962374, -2.5008746130509643])",1.1642555474410023,189.01065531228028,-46.02127114280605,0.45374134344714995,-0.1427327498730576,-2.356703486755702,24.63165777263779,-1.0,"[194.5158955409088, 7.118938623676109, 47.201934245523475]","[187.02777817385754, -30.673678548686418, 36.44804259828642]","[156.81525408693008, -6.169786266321572, 45.76268973658894]",10000000000.0,0.02478766441345215
7,195.0839080810547,7.809397220611572,47.28986358642578,0.2945700287818908,0.06537742912769327,-2.283815848823411,22.69901811924415,"array('d', [9.805392265319824, 7.962548216025967, 6.141669306218893, 4.3464211566212185, 2.5801666396102325, 0.8453962960513879, -0.8566278664915504, -2.525772157778908, -4.1635610978675315, -5.772884135174331, -7.356785635250284, -8.918076870875819, -10.459204752640415, -11.982239891997896, -13.488925745985028, -14.980745808287727])","array('d', [196.9210662841797, 195.33277367449224, 193.7181313291853, 192.0741021595399, 190.39809610421804, 188.68859635009554, 186.94553412387074, 185.17004022456095, 183.36321328757003, 181.5257253235835, 179.658606981992, 177.76334624846476, 175.841814555699, 173.8961301539458, 171.92850256766687, 169.94110013700882])","array('d', [-47.32609939575195, -47.14544738581079, -46.92096690782598, -46.65669031922606, -46.356263967982926, -46.02298571825867, -45.65985058639376, -45.26958604730575, -44.86132803838144, -44.44994071863074, -44.04807639646539, -43.665099939677184, -43.30712662721023, -42.97734089998208, -42.67648166146764, -42.403396851276845])","array('d', [0.2905998826026916, 0.3376861248591575, 0.38029152251652315, 0.4188424836097191, 0.4441654338054884, 0.4520813951125781, 0.4463128670015144, 0.4303690005292424, 0.40739248618554086, 0.38006954367790746, 0.3506004273077848, 0.3207098623143583, 0.2916766423558592, 0.26436746701671443, 0.23926654230237965, 0.21649733996803552])","array('d', [-0.06457824259996424, -0.08334630062344063, -0.10032834331528907, -0.11569433234527231, -0.1295980553965582, -0.14217866530193937, -0.15356207261984678, -0.1638621994794315, -0.16781519784058607, -0.1659249275746866, -0.1595387192908015, -0.15005352093054727, -0.13876916924433114, -0.12679706987351358, -0.11501703944589564, -0.10407173046652783])","array('d', [-2.27577518224321, -2.288860118940596, -2.303940931594211, -2.320876518763385, -2.339298898480458, -2.3584867389115485, -2.377683427600757, -2.3963100260010837, -2.413966216948141, -2.43040922986016, -2.4455224262493345, -2.459282902480636, -2.471732811513671, -2.482955717717563, -2.4930574391921296, -2.5021501792461875])",0.8453962960513879,188.68859635009554,-46.02298571825867,0.4520813951125781,-0.14217866530193937,-2.3584867389115485,24.63182367357072,-1.0,"[194.5158955409088, 7.118938623676109, 47.201934245523475]","[187.02777817385754, -30.673678548686418, 36.44804259828642]","[156.81525408693008, -6.169786266321572, 45.76268973658894]",10000000000.0,0.022289037704467773
8,194.46530151367188,7.147303104400635,47.27685546875,0.3076475262641906,0.06962292641401294,-2.2837216734846653,22.722900563405013,"array('d', [9.471468925476074, 7.631741106720748, 5.8138878717468945, 4.021590010797418, 2.2582216562852278, 0.5262786739325012, -1.1729730726603698, -2.8393961810803523, -4.474514570247497, -6.08121230778451, -7.662522106128433, -9.22124686212955, -10.759828251566226, -12.280334112140144, -13.784506749647528, -15.273829385351656])","array('d', [196.61688232421875, 195.0246995318483, 193.4063632247748, 191.75883203282646, 190.0795113422819, 188.36688093914069, 186.62086465334457, 184.84258159453123, 183.033110247373, 181.19310446131928, 179.3235856594047, 177.4260322934936, 175.50230593181823, 173.55451484112203, 171.5848587710696, 169.5954968169526])","array('d', [-47.31957244873047, -47.14076211311631, -46.91794831906528, -46.65518013854314, -46.35611904347896, -46.024076616576025, -45.66206028381899, -45.27280867278768, -44.86552276612827, -44.45510787562318, -44.05418763784399, -43.67210667592436, -43.31496780549785, -42.985949639035375, -42.68579048848277, -42.41334147910281])","array('d', [0.28847673535346974, 0.335765021609777, 0.37855323625440496, 0.41726961700670784, 0.44267099128896015, 0.45067685793277806, 0.4450060139431223, 0.42916328074448595, 0.4062874333773148, 0.37906170448826704, 0.34968438135160024, 0.31987909770373685, 0.2909242133818091, 0.2636864453531574, 0.23865030556296005, 0.21593974585733822])","array('d', [-0.06378126889467245, -0.0826251689265923, -0.09967583631194164, -0.1151039195379915, -0.1290638277460794, -0.1416952760872158, -0.15312468392324535, -0.16346643284406015, -0.1674130726757737, -0.1655302908694532, -0.15916171439406712, -0.14970071812071298, -0.13844401772916107, -0.1265005140892689, -0.11474818126058262, -0.10382845749849745])","array('d', [-2.2778680205305637, -2.29086291612497, -2.3058598201239517, -2.322717149601465, -2.341065098846646, -2.3601816710441743, -2.3793118010684497, -2.397877498036906, -2.415478786717292, -2.431872773134923, -2.446942409921044, -2.460664251571756, -2.473079879054283, -2.4842723134938103, -2.4943468862638336, -2.5034153793629392])",0.5262786739325012,188.36688093914069,-46.024076616576025,0.45067685793277806,-0.1416952760872158,-2.3601816710441743,24.631956006680564,-1.0,"[194.10482319073017, 6.677235790940148, 47.19186728699269]","[186.58931192014822, -31.058057428254035, 36.25730117748501]","[156.3983404622436, -6.594096365519227, 45.7451803687997]",10000000000.0,0.02221202850341797
9,194.1547393798828,6.816814422607422,47.26850128173828,0.3160577118396759,0.07277938723564155,-2.283357608314377,22.738560038765755,"array('d', [8.805465698242188, 6.971060692835822, 5.158492724903985, 3.3714607539803914, 1.6133530243393142, -0.11332721622977271, -1.8073103413494696, -3.4684572956284625, -5.098291957160543, -6.699693970356671, -8.275688251136883, -9.829073430209796, -11.362290099507026, -12.877407353809545, -14.376170139201202, -15.860064889196622])","array('d', [196.0058135986328, 194.4072637159467, 192.78276639496082, 191.1292825543183, 189.44421908706457, 187.72605664412663, 185.97471446133432, 184.19130158782482, 182.37687763476146, 180.5320768100402, 178.657906887347, 176.75583280470352, 174.8277030816149, 172.87561366065435, 170.90175288954356, 168.90826950615272])","array('d', [-47.30779266357422, -47.13055076087664, -46.90915635293135, -46.64767274061378, -46.3497742741458, -46.01878421854453, -45.657720567407424, -45.2693314482108, -44.86286467771578, -44.45325474028859, -44.05310550572679, -43.67174862383162, -43.31527988552685, -42.986875660773016, -42.68727550380063, -42.41533397567154])","array('d', [0.28662315011024464, 0.3340878281720402, 0.377035648736595, 0.41589644690487426, 0.44136997227527164, 0.4494570382546366, 0.4438732755576015, 0.4281198510852305, 0.4053322774094585, 0.37819133908700114, 0.34889375259778344, 0.3191623245918034, 0.2902751384457758, 0.26309900379351014, 0.23811875122905904, 0.2154587755627433])","array('d', [-0.06310259550809864, -0.08201107979470974, -0.09912018543578334, -0.11460114578703512, -0.12860889920066032, -0.14128363967717486, -0.15275221985702714, -0.1631294125574583, -0.16707754864123653, -0.16520608650434668, -0.15885558495621666, -0.1494166160191539, -0.13818357650100593, -0.12626362764251808, -0.1145335901433593, -0.1036342874086384])","array('d', [-2.2813179373701638, -2.294234327311925, -2.3091580748293095, -2.325947174274751, -2.3442303199795367, -2.3632849997656753, -2.3823574467504747, -2.400870449303179, -2.418424292777026, -2.4347759493348233, -2.4498079989499324, -2.4634965152527752, -2.475882577592233, -2.487048734190104, -2.4970998949557845, -2.506147478356792])",-0.11332721622977271,187.72605664412663,-46.01878421854453,0.4494570382546366,-0.14128363967717486,-2.3632849997656753,24.632076628349036,-1.0,"[193.4866041839282, 6.015374393639014, 47.17250543038823]","[185.97694032277562, -31.58395795933236, 35.77534985088949]","[155.79217470246573, -7.287738863797733, 45.703776821398804]",10000000000.0,0.021832704544067383
10,193.53134155273438,6.156584739685059,47.24814224243164,0.3356775939464569,0.08051879703998575,-2.2818789362867897,22.769415325875883,"array('d', [8.473333358764648, 6.6410045898435905, 4.830613732039437, 3.0458596015432153, 1.2901313065583786, -0.4340660473921625, -2.125463612680847, -3.7839259735442576, -5.410979104556169, -7.009506205699016, -8.58253991181215, -10.132886253725513, -11.662992709615533, -13.174934686935785, -14.670462868328988, -16.151068878698826])","array('d', [195.69888305664062, 194.09807087127896, 192.4712666223681, 190.81544169448875, 189.1280127068977, 187.40746682162884, 185.65372898700062, 183.86791380867635, 182.0510872793519, 180.2038862521199, 178.32731641125926, 176.42284117704148, 174.49230844606697, 172.53781439317598, 170.56154821984333, 168.56565985364918])","array('d', [-47.30165481567383, -47.123640225892046, -46.90154649052349, -46.63942988544, -46.340958418131706, -46.009449599083915, -45.64791621047369, -45.25910170602455, -44.852222329288885, -44.44219232479566, -44.041629854700105, -43.65987715969084, -43.303037084828624, -42.974289900961985, -42.6743764038826, -42.40215026104903])","array('d', [0.2876317799091338, 0.3350004742378594, 0.37786144512162756, 0.4166436584462181, 0.442092458197845, 0.4501456532917965, 0.4445211074166304, 0.42872262335166006, 0.40588818217738537, 0.37870056078467434, 0.3493579087562958, 0.31958395868955775, 0.2906573140705689, 0.2634450010812761, 0.2384318457853171, 0.21574207525828776])","array('d', [-0.06343694776296618, -0.08231361425394787, -0.09939392996028658, -0.11484884009899166, -0.1288330223035862, -0.14148643466677188, -0.15293571637235834, -0.16329544766719173, -0.1672497233541582, -0.16537764688490053, -0.1590213737143308, -0.14957306699800688, -0.13832856709622568, -0.12639625801523444, -0.11465393998326082, -0.10374318445679337])","array('d', [-2.2825579524000705, -2.2955170405486967, -2.310480571842277, -2.3273067707018678, -2.3456255071148093, -2.3647148030132876, -2.3838199866097036, -2.4023632396586354, -2.4199445593877074, -2.4363208872108375, -2.4513749412115238, -2.4650830225103255, -2.4774864709155495, -2.488668093617089, -2.498733039678851, -2.5077929386237976])",-0.4340660473921625,187.40746682162884,-46.009449599083915,0.4501456532917965,-0.14148643466677188,-2.3647148030132876,24.63204346306073,-1.0,"[192.9803161296228, 5.4756423010907245, 47.14997696028882]","[185.50407269419912, -31.9742575196815, 35.249943871746225]","[155.31099304540095, -7.897823018084596, 45.6760286120331]",10000000000.0,0.035430192947387695
11,192.90541076660156,5.4969916343688965,47.221221923828125,0.357555478811264,0.08968773484230051,-2.279301869865281,22.802188251985676,"array('d', [7.809397220611572, 5.979682507374309, 4.1724078226494745, 2.3912514958774467, 0.6395912274256245, -1.0800664682726953, -2.7664594267909846, -4.419469934093596, -6.0406358015779125, -7.632862609329943, -9.199224686145843, -10.742565134112334, -12.265363372461133, -13.76972214128909, -15.25741570836577, -16.72995638921256])","array('d', [195.0839080810547, 193.48083546503565, 191.85129891312417, 190.19231691372423, 188.5013502861095, 186.7769158724121, 185.0189714328057, 183.22867061452183, 181.4071304432155, 179.55502463278034, 177.67337104172435, 175.7636465277549, 173.82771456681377, 171.8676886865551, 169.88577620579753, 167.8841448251235])","array('d', [-47.28986358642578, -47.10736716637423, -46.88121738128971, -46.615429628145144, -46.31363504844162, -45.979117713236484, -45.6148601201512, -45.223578587184114, -44.81432497298037, -44.40190954051266, -43.9990238825523, -43.61506242868734, -43.25616076776055, -42.92551533318689, -42.62386981512277, -42.350070839153474])","array('d', [0.2945700287818908, 0.34127846200331347, 0.38354200387917015, 0.4217836410596807, 0.44703541522959217, 0.4548361528755586, 0.44891831356868817, 0.4328027913753814, 0.4096433694530208, 0.38213535779848923, 0.35248570040834026, 0.32242359390671044, 0.29323049312262184, 0.26577437320026764, 0.24053967717528557, 0.2176493201435835])","array('d', [-0.06537742912769327, -0.08406943456528818, -0.10098266202527945, -0.11628638445298656, -0.13013376634797047, -0.14266339666368374, -0.15400067574338747, -0.16425906499291476, -0.16823376975546084, -0.1663468168164513, -0.15994973416250038, -0.15044361164901443, -0.13913204673721474, -0.12712968471506836, -0.11531904361321221, -0.10434499516198108])","array('d', [-2.283815848823411, -2.2970694160022234, -2.3123073654737216, -2.3293894887485256, -2.3479530946530742, -2.3672793959759235, -2.3866078057013254, -2.405356643762974, -2.4231241961336414, -2.439667400321987, -2.4548700662040095, -2.4687101450558635, -2.481230809979234, -2.4925166603411038, -2.5026744815016313, -2.5118173362376375])",-1.0800664682726953,186.7769158724121,-45.979117713236484,0.4548361528755586,-0.14266339666368374,-2.3672793959759235,24.631734585335106,-1.0,"[192.5555317448699, 5.023783193176711, 47.12749451098246]","[185.12419015504443, -32.27941756140665, 34.748222495286974]","[154.91614891482186, -8.433259814267565, 45.64936945914213]",10000000000.0,0.025494813919067383
12,192.59165954589844,5.167285919189453,47.204345703125,0.36878022551536555,0.09464225172996533,-2.277644622321946,22.82061527246941,"array('d', [7.147303104400635, 5.318662175098706, 3.5133544239065606, 1.7350092514055722, -0.01302539344348731, -1.728244513016579, -3.409399158915416, -5.056402963462548, -6.6708121460733745, -8.255573914922357, -9.81384311551864, -11.348531768171059, -12.86217612252259, -14.356925422132989, -15.834592548462153, -17.296722832832913])","array('d', [194.46530151367188, 192.86256123505558, 191.23241519535273, 189.57196006650793, 187.87873050601618, 186.15129153437564, 184.38965865486276, 182.5950585507702, 180.76871107616924, 178.911366913608, 177.0240700476157, 175.10832687743903, 173.16603512476473, 171.199346212828, 169.21050679108026, 167.20172297108817])","array('d', [-47.27685546875, -47.08455355454742, -46.84952944207601, -46.5757093554681, -46.266643939518524, -45.925544222923115, -45.555326549020904, -45.15864791178159, -44.74421631316967, -44.32662460389578, -43.91871551570626, -43.52998969020064, -43.166648131323974, -42.8319181840702, -42.526547147117746, -42.249365174230576])","array('d', [0.3076475262641906, 0.3531114721334257, 0.39424895518795944, 0.4314716921625925, 0.45636457910144895, 0.4636969460923806, 0.45722992285581526, 0.44051782732761685, 0.41674526259526845, 0.38863192248214606, 0.3584018198003987, 0.32779473508808704, 0.29809764138475503, 0.27018035956353825, 0.24452662045354803, 0.22125685593208105])","array('d', [-0.06962292641401294, -0.08791091972487483, -0.10445858186133214, -0.11943152707584871, -0.13297960934584596, -0.14523842214230462, -0.1563306553982852, -0.16636732020159614, -0.1703740808906442, -0.16844606399694087, -0.1619547409490872, -0.15232003952935322, -0.1408618016079251, -0.12870765825331426, -0.11674976738078777, -0.10563956767775554])","array('d', [-2.2837216734846653, -2.2975338555087035, -2.3132924789583, -2.330860220778795, -2.349888819235837, -2.3696656718449143, -2.3894185982747143, -2.408558353757312, -2.426679869679334, -2.4435400608558724, -2.4590248426907713, -2.473115348359005, -2.485858279480817, -2.497341677415416, -2.507675463428298, -2.516975441512471])",-1.728244513016579,186.15129153437564,-45.925544222923115,0.4636969460923806,-0.14523842214230462,-2.3696656718449143,24.631174901950256,-1.0,"[191.93328419682848, 4.362566821330004, 47.08687060860239]","[184.60864690088522, -32.69943453437635, 33.94313658845054]","[154.35731855318141, -9.269707268714154, 45.600967152328934]",10000000000.0,0.02314019203186035
13,192.2781219482422,4.836426734924316,47.183738708496094,0.3798034489154815,0.09961556643247613,-2.27600883245073,22.842578514058072,"array('d', [6.816814422607422, 4.98845220479008, 3.1839954747378143, 1.4070394225658565, -0.3390889487275934, -2.0518857451991455, -3.7301102448328476, -5.373695948001847, -6.984208864493086, -8.564623017095538, -10.118148097943084, -11.647742119602853, -13.155978339484955, -14.64503549806242, -16.116750387616232, -17.57268804475235])","array('d', [194.1547393798828, 192.55282906911754, 190.92290044921842, 189.26209846776868, 187.56800349040185, 185.83920924419436, 184.07576694093873, 182.27894989547806, 180.45004715803034, 178.589860524559, 176.69944845038873, 174.7803351335829, 172.8344402047061, 170.86394019358286, 168.87110832422727, 166.85817747808113])","array('d', [-47.26850128173828, -47.06890992433104, -46.82728834556632, -46.54749662255829, -46.233025654239796, -45.88703224057067, -45.51238360675576, -45.11169267665696, -44.693418827299844, -44.27199756292835, -43.86037950406224, -43.46814067328766, -43.10152805570357, -42.763790194296355, -42.45567605427869, -42.17600326529943])","array('d', [0.3160577118396759, 0.3607213234253656, 0.4011346340096306, 0.4377021126012163, 0.46238001567649356, 0.46942141947752414, 0.46260694836622995, 0.4455135848251714, 0.4213468240688946, 0.39284290124249627, 0.36223743437454947, 0.33127744065521225, 0.30125372011436946, 0.2730374478693037, 0.24711198359133332, 0.22359618945023604])","array('d', [-0.07277938723564155, -0.0907670038493803, -0.10704287388568247, -0.1217698914159718, -0.1350954490961124, -0.14715291330241193, -0.1580629588183132, -0.16793477415846395, -0.17195980100761668, -0.16999764503672524, -0.16343426847440629, -0.15370322687358587, -0.14213607364192668, -0.12986976595897504, -0.11780334404900532, -0.1065928833553178])","array('d', [-2.283357608314377, -2.2975315816978674, -2.3136274899753904, -2.3315098212647483, -2.350840067630308, -2.370909853958433, -2.39093912809602, -2.4103334851415923, -2.4286855347173413, -2.445752115869516, -2.4614205013622668, -2.475673905905201, -2.48856134694094, -2.5001731262019176, -2.5106212235038656, -2.5200232431285086])",-2.0518857451991455,185.83920924419436,-45.88703224057067,0.46942141947752414,-0.14715291330241193,-2.370909853958433,24.630847350790077,-1.0,"[191.41318862661458, 3.8092462123107165, 47.04379600798427]","[184.20181362460409, -33.03876412595976, 33.251761905246184]","[153.9030166787349, -10.00247020816674, 45.55265887116055]",10000000000.0,0.025354385375976562
14,191.964111328125,4.505526542663574,47.16079330444336,0.39074838161468506,0.10447651892900477,-2.2743639826735085,22.865361993976165,"array('d', [6.486589431762695, 4.658174121722739, 2.854295343543044, 1.0785097117839175, -0.6658793859611807, -2.3763690375936064, -4.05172733465257, -5.691909588916466, -7.298491312342119, -8.874476088092607, -10.423136124789334, -11.947481429529802, -13.450126647565535, -14.93328309769393, -16.39881366051416, -17.84830422577014])","array('d', [193.8433837890625, 192.24289487989313, 190.61369442268708, 188.9529808320592, 187.2583851115535, 185.52853262012633, 183.7635144981574, 181.96465665579987, 180.13332795617004, 178.27038911916992, 176.37691418143643, 174.45444692116416, 172.50493147665566, 170.53057275396614, 168.53367419919888, 166.51649983996842])","array('d', [-47.25901794433594, -47.05101043889304, -46.801771617536254, -46.51508518206191, -46.194373059046235, -45.842729442626506, -45.462964851675316, -45.05764134023466, -44.63492993407471, -44.2090835305666, -43.79317798560843, -43.396877021036055, -43.02648127558077, -42.68526417944011, -42.37397686987869, -42.091422700551696])","array('d', [0.3254219889640808, 0.3691944723784252, 0.4088014566696153, 0.4446393404912466, 0.4690803952193212, 0.4757990748161854, 0.4685980281621714, 0.4510798635939676, 0.4264736696018002, 0.3975343150775495, 0.3665104452389652, 0.33515716301547066, 0.3047695148734278, 0.27622015258024757, 0.24999199218684073, 0.2262021292231344])","array('d', [-0.07642507553100589, -0.09406575910079788, -0.1100277110876818, -0.12447068375403818, -0.1375392269149867, -0.14936413459637163, -0.16006375384619578, -0.16974516412572088, -0.17379235918567046, -0.17179153808233685, -0.1651453890906318, -0.1553032527757086, -0.1436102809457532, -0.13121427976689473, -0.11902230742686914, -0.1076958471879372])","array('d', [-2.282698380943162, -2.2972776635896928, -2.313751483217481, -2.3319863050838867, -2.351654625413053, -2.372052805981855, -2.392391818341056, -2.412071392078783, -2.4306815186266935, -2.4479789780231775, -2.4638526069995064, -2.4782879956627033, -2.4913367914589015, -2.5030918540808087, -2.5136674862464132, -2.5231833218676565])",-2.3763690375936064,185.52853262012633,-45.842729442626506,0.4757990748161854,-0.14936413459637163,-2.372052805981855,24.63046458492336,-1.0,"[191.41318862661458, 3.8092462123107165, 47.04379600798427]","[184.20181362460409, -33.03876412595976, 33.251761905246184]","[153.9030166787349, -10.00247020816674, 45.55265887116055]",10000000000.0,0.025982379913330078
15,191.32168579101562,3.8297863006591797,47.10639953613281,0.4123801589012146,0.1143052577972414,-2.2711124300917214,22.910433455859874,"array('d', [6.156584739685059, 4.327998650459591, 2.524637556929105, 0.7500162858300969, -0.9925867359668135, -2.700667233887434, -4.373000877368675, -6.009565575891463, -7.612132059491777, -9.183728181088261, -10.727502094404722, -12.246504152777385, -13.743385900573829, -15.22039272150987, -16.679419189247074, -18.12208067877059])","array('d', [193.53134155273438, 191.93261912657732, 190.30441608914887, 188.64399018269285, 186.9490282761857, 185.21818917703945, 183.45160699703192, 181.650665475921, 179.8166084667056, 177.95035889948784, 176.05323018685016, 174.12681200392868, 172.17309092241408, 170.19430999030087, 168.19280607858133, 166.17087203142611])","array('d', [-47.24814224243164, -47.030688226349056, -46.77289949043632, -46.478474006471146, -46.15075631760709, -45.79277036325183, -45.407263005071826, -44.996739219531364, -44.570677423329016, -44.14310894167742, -43.725643930320025, -43.32794112912893, -42.95628758362244, -42.613939505064494, -42.3016311626612, -42.018152358675856])","array('d', [0.3356775939464569, 0.37847412835594985, 0.4171980373958605, 0.4522368816818983, 0.4764441767379322, 0.48282735841126545, 0.475214135782169, 0.45723639363048685, 0.43215027390892613, 0.4027323483042225, 0.3712467781350135, 0.33945844831355626, 0.3086676722309493, 0.27974908861238706, 0.25318531434522057, 0.22909156686151153])","array('d', [-0.08051879703998575, -0.09776991184676992, -0.11337936740457422, -0.12750338807910122, -0.14028333150932332, -0.15184710330948376, -0.16231043690333075, -0.17177803353442908, -0.17453292512219232, -0.17246345390384574, -0.16574852108666485, -0.15584236130692852, -0.14409261537919218, -0.13164761488148982, -0.11941349195448131, -0.10804980561673742])","array('d', [-2.2818789362867897, -2.2969051745249303, -2.3137957903349093, -2.3324193701045512, -2.352461222681915, -2.3732233544055257, -2.3939063342842264, -2.413903021857137, -2.432800268037482, -2.4503546279241935, -2.466456586773994, -2.48109435493981, -2.494322511433657, -2.5062367789372972, -2.516954063862349, -2.5265962694831967])",-2.700667233887434,185.21818917703945,-45.79277036325183,0.48282735841126545,-0.15184710330948376,-2.3732233544055257,24.630052623523458,-1.0,"[190.3613050128977, 2.6903132796965026, 46.93531477491834]","[183.3752345948965, -33.7071826064954, 31.88815180878509]","[152.98928736922514, -11.487972250496341, 45.41593441919752]",10000000000.0,0.027828216552734375
16,190.69097900390625,3.1673781871795654,47.0425910949707,0.43186706304550176,0.12313202768564234,-2.2681224226912087,22.959190744467154,"array('d', [5.4969916343688965, 3.6669148941471192, 1.8635042264808492, 0.09018570207351057, -1.64981462452516, -3.3539866633173956, -5.021119464881387, -6.651493716765675, -8.247292048327973, -9.811330046530458, -11.346474349785197, -12.855842175459946, -14.342153985968674, -15.807725732791065, -17.254522767570883, -18.68423021267895])","array('d', [192.90541076660156, 191.31211944836926, 189.68765633207735, 188.02940692745236, 186.33517813787807, 184.60369979702608, 182.83519905212265, 181.03090027695612, 179.19176583186993, 177.31914782599344, 175.41490274617206, 173.4807504204866, 171.51878852533008, 169.53135112710464, 167.52084753622233, 165.48962656142362])","array('d', [-47.221221923828125, -46.98262768696682, -46.7057051543324, -46.3939603566915, -46.0505646714558, -45.67838480956487, -45.280025150027015, -44.86008587573076, -44.430731441868225, -44.00337243799063, -43.58645457100003, -43.18950984630412, -42.8187140852951, -42.47723705280909, -42.16575650104382, -41.88303736882831])","array('d', [0.357555478811264, 0.3982700591536465, 0.43511013818929895, 0.46844442297060973, 0.49216701164852267, 0.4978435775395943, 0.48935560587736954, 0.4703983401810165, 0.4442869289381283, 0.4138455662565635, 0.38137237424070636, 0.34865353132162197, 0.31700071332491875, 0.2872927572634375, 0.2600115409958353, 0.2352681927230764])","array('d', [-0.08968773484230051, -0.10606631084380373, -0.12088626059076558, -0.1342959068413187, -0.1464294575768141, -0.1574083491698896, -0.16734246153559074, -0.17453291334585638, -0.17453293400421543, -0.17229618088394583, -0.16546934274090494, -0.15550229868277735, -0.14373344063186316, -0.13129903689895708, -0.11909205697720901, -0.10775895913800086])","array('d', [-2.279301869865281, -2.295293001307438, -2.31308354558046, -2.332546472814683, -2.3533952260798787, -2.3749441283315385, -2.3963705836493663, -2.4170522178096867, -2.436568944647353, -2.4546768625202757, -2.471270177823357, -2.4863429418119765, -2.4999562231746166, -2.512212046753486, -2.5232330220545864, -2.533145996967126])",-3.3539866633173956,184.60369979702608,-45.67838480956487,0.4978435775395943,-0.1574083491698896,-2.3749441283315385,24.629034157012025,-1.0,"[190.3613050128977, 2.6903132796965026, 46.93531477491834]","[183.3752345948965, -33.7071826064954, 31.88815180878509]","[152.98928736922514, -11.487972250496341, 45.41593441919752]",10000000000.0,0.023392438888549805
17,190.37509155273438,2.836022138595581,47.00701904296875,0.4407621920108794,0.12724235653877267,-2.2668609499891823,22.983565573390237,"array('d', [4.836426734924316, 3.0040634539479467, 1.1998013540157948, -0.5730208660401557, -2.3112270398816004, -4.012295158607511, -5.675023056696406, -7.300455348055842, -8.890766133050214, -10.448123739108292, -11.975495814205187, -13.476069780721339, -14.952637816555109, -16.407588668302036, -17.842960203050566, -19.260508489663206])","array('d', [192.2781219482422, 190.69180093762571, 189.07252344573644, 187.41780929146546, 185.72559090248322, 183.99467106552513, 182.22537422151532, 180.41825115221002, 178.5744393898308, 176.69624392536815, 174.78564108275918, 172.84448786336517, 170.87499859492115, 168.87960261843435, 166.86078488712053, 164.82095276929127])","array('d', [-47.183738708496094, -46.92228244804234, -46.62466727142341, -46.294191572203026, -45.933839543329974, -45.5463079088036, -45.13404697239585, -44.70760787794232, -44.2782622903286, -43.851116824396954, -43.434754103243954, -43.0385783278926, -42.66865283991238, -42.32805971849899, -42.0174192101179, -41.735470911772175])","array('d', [0.3798034489154815, 0.4184008568058991, 0.45332523881718767, 0.4849261291260009, 0.5081822160358247, 0.513155869991227, 0.5037849295493556, 0.48383158823639244, 0.4566740825272575, 0.4251874808038626, 0.3917055322062653, 0.358036507368214, 0.32550371840906295, 0.29499018085926865, 0.26697688452763996, 0.24157069675095022])","array('d', [-0.09961556643247613, -0.11504938516245913, -0.12901448309707353, -0.14165062736210748, -0.15308428447188885, -0.16342988596825964, -0.17279097041412683, -0.17453293439681553, -0.17453293392923216, -0.17212693850239966, -0.16518664217629497, -0.15515767573238046, -0.1433692175910516, -0.1309454156391374, -0.11876592455170878, -0.10746386228949369])","array('d', [-2.27600883245073, -2.2929981203747785, -2.311719694258129, -2.332050816461128, -2.353734945189586, -2.3760994361923893, -2.398296535080014, -2.419687436653644, -2.439844573552927, -2.458523642637901, -2.4756230015033855, -2.4911430243333346, -2.505151728627971, -2.5177578316547704, -2.529089957834451, -2.5392801415741486])",-4.012295158607511,183.99467106552513,-45.5463079088036,0.513155869991227,-0.16342988596825964,-2.3760994361923893,24.627872594045066,-1.0,"[189.81397483805554, 2.109943957001741, 46.86831286069836]","[182.93618579250955, -34.05885986237233, 31.23138067690352]","[152.5116312716744, -12.24812942242693, 45.325298509953605]",10000000000.0,0.025956153869628906
18,189.74215698242188,2.173022985458374,46.92884826660156,0.45663151144981384,0.13462992012500777,-2.264935243125779,23.036260177759594,"array('d', [4.505526542663574, 2.6720694071916364, 0.8674133526409566, -0.9051427576655232, -2.64244413281487, -4.341958398697809, -6.002618287412239, -7.625711555069051, -9.213273905208855, -10.767283652373607, -12.290759456117215, -13.786924411879744, -15.258607101774965, -16.708233134870376, -18.137876998917875, -19.549330263697676])","array('d', [191.964111328125, 190.3813071923427, 188.764646973851, 187.1117201433152, 185.42052363633604, 183.68989658210168, 181.9200684536511, 180.1113939750008, 178.26525018792609, 176.3842746568292, 174.47050431632547, 172.52586538030204, 170.55263088207064, 168.55327797169167, 166.53032943863053, 164.48622217120632])","array('d', [-47.16079330444336, -46.888155023083016, -46.58041854793544, -46.24078068050937, -45.87213412440334, -45.477092490628046, -45.059172928160784, -44.63065959749027, -44.20131845085726, -43.77428028498195, -43.35819652670766, -42.96240712416413, -42.592918890956994, -42.25276985368179, -41.94255137672572, -41.66099037936938])","array('d', [0.39074838161468506, 0.4283042423486159, 0.46228619343662697, 0.4930343369192271, 0.5160863177231794, 0.5207303529397067, 0.5109335024859123, 0.4904930627569845, 0.4628203837722675, 0.43081703741925276, 0.3968353075266078, 0.36269497146236573, 0.3297254365370043, 0.2988119665833315, 0.2704351951399785, 0.24469990587959922])","array('d', [-0.10447651892900477, -0.11944775726836163, -0.13299429511663072, -0.14525171051507904, -0.1563426795304369, -0.16637820390608818, -0.17453292797313097, -0.17453293458494717, -0.17453293388787705, -0.1720418860956578, -0.16504459016501513, -0.15498452662986156, -0.14318623369896083, -0.13076776479925636, -0.11860208534208293, -0.10731561442866237])","array('d', [-2.2743639826735085, -2.29185096104937, -2.311036735483691, -2.331800630556219, -2.3539018509981022, -2.3766746451525593, -2.3992580136975845, -2.4210044406527356, -2.4414823705350988, -2.4604472582052903, -2.4777995747660206, -2.4935429286360145, -2.5077488867924393, -2.5205295760805906, -2.5320166764394907, -2.5423448510186444])",-4.341958398697809,183.68989658210168,-45.477092490628046,0.5207303529397067,-0.16637820390608818,-2.3766746451525593,24.627269083624,-1.0,"[189.42106300830508, 1.694270490627883, 46.8166701244608]","[182.6120728369072, -34.31773378086575, 30.792525804225427]","[152.16536222443526, -12.78268250697266, 45.25763484326082]",10000000000.0,0.03180861473083496
19,189.42208862304688,1.836475133895874,46.88383102416992,0.4636149406433107,0.13805522024631509,-2.2642862677534645,23.06574398597869,"array('d', [3.8297863006591797, 1.9943583636087858, 0.1891050448298806, -1.5827484226416135, -3.318083896669616, -5.014339621116237, -6.671241826496978, -8.290028797815662, -9.871963829910653, -11.419133167699371, -12.934659082188265, -14.421837825163752, -15.883572527967248, -17.32236406090111, -18.7403614342304, -20.1394277447324])","array('d', [191.32168579101562, 189.7459605836178, 188.1345613674134, 186.48522172414553, 184.7960709805278, 183.06602009770833, 181.29453560113302, 179.482132244392, 177.6312344009212, 175.74461018385472, 173.82441977650393, 171.87272945975567, 169.89193075393118, 167.88459703352757, 165.85332701359414, 163.80061736159274])","array('d', [-47.10639953613281, -46.811174941973576, -46.48299382627726, -46.124847827126736, -45.73944504533263, -45.32923132392388, -44.90422130008164, -44.47572401166364, -44.046391795765025, -43.619568631753616, -43.20404383162044, -42.80902859625618, -42.440416466195394, -42.10115720106285, -41.79178430366285, -41.51099940048115])","array('d', [0.4123801589012146, 0.4478774855026862, 0.47999679763684083, 0.5090595552882848, 0.5317629420861969, 0.5357904555366313, 0.5251697858889061, 0.5037725161038531, 0.47508023619079703, 0.44205003777664076, 0.4070729460334952, 0.37199281444561705, 0.3381518700834069, 0.30644022135390675, 0.2773379647675365, 0.2509457906871938])","array('d', [-0.1143052577972414, -0.1283411685591167, -0.1410413868825844, -0.15253302052005036, -0.16293108115236887, -0.1723396330161298, -0.1745329333048217, -0.17453293349265317, -0.17453293133182773, -0.1718714585159928, -0.16475995720762546, -0.1546375962318051, -0.14281960899939047, -0.13041183219255045, -0.11827382720487746, -0.10701859421423474])","array('d', [-2.2711124300917214, -2.2895967650931164, -2.3097126529622587, -2.331343422730766, -2.354281580784506, -2.377876088833062, -2.401237924529134, -2.4237009268270553, -2.444824960518466, -2.4643649339146982, -2.482225644720185, -2.4984173537405576, -2.51301891843321, -2.526149450227152, -2.5379468700354364, -2.548551198484083])",-5.014339621116237,183.06602009770833,-45.32923132392388,0.5357904555366313,-0.1723396330161298,-2.377876088833062,24.625973963380368,-1.0,"[188.7912544388802, 1.030548296048919, 46.72751288286419]","[182.0640967181967, -34.7521158521962, 30.164110591820783]","[151.59810500061124, -13.604462142188549, 45.150774370848225]",10000000000.0,0.025659799575805664
20,188.7809600830078,1.1640745401382446,46.788063049316406,0.4758051633834837,0.14431414008140567,-2.2631852507551735,23.126668226334033,"array('d', [3.498638391494751, 1.6624078397490736, -0.14301617774268882, -1.9144396637556738, -3.6487585152095927, -5.343476884388417, -6.998609664003991, -8.615282633953289, -10.194477369420223, -11.738331602307627, -13.250017055703172, -14.732864875238562, -16.18981376673908, -17.62340048448557, -19.035809520329494, -20.42893856140826])","array('d', [191.0065155029297, 189.4340621866131, 187.82507550695217, 186.1773591166383, 184.48910621226437, 182.75917507735724, 180.98675220872838, 179.1725226972846, 177.31931954767606, 175.42997266683992, 173.5067005470479, 171.55163596775674, 169.5672265475037, 167.5560910557814, 165.52086386913862, 163.46406874330006])","array('d', [-47.07573318481445, -46.77005265689671, -46.43240660680103, -46.065691714946965, -45.67253072408418, -45.255993055349194, -44.82837834959871, -44.39988865665761, -43.97056067043578, -43.543841142488574, -43.12858579581846, -42.733943671728206, -42.365753696094075, -42.026923111212, -41.717957566557814, -41.43754640172968])","array('d', [0.4223875701427459, 0.45693256660266224, 0.4881901747933448, 0.5164732306943505, 0.5390389111222597, 0.5427962049025129, 0.5318023325249889, 0.5099652442604973, 0.4808008146775789, 0.44729321453812826, 0.41185235740335785, 0.3763338424606955, 0.34208617707443306, 0.3100018905552999, 0.28056090500430925, 0.2538620278788386])","array('d', [-0.11886037886142733, -0.13246281312602123, -0.14477080570518722, -0.155907538866651, -0.1659844724220979, -0.1745329325261536, -0.17453293468338735, -0.17453293457793836, -0.17453293374743117, -0.171789288951262, -0.16462277413994933, -0.15447043235312477, -0.14264298547938312, -0.13024037423360224, -0.11811570427759453, -0.10687551860215742])","array('d', [-2.2696328043898166, -2.2885850103942507, -2.3091371335957263, -2.331174332101448, -2.3545055183448698, -2.378486970796334, -2.4022158129398483, -2.425016644817762, -2.446445082982128, -2.466255726362376, -2.4843554467099844, -2.50075770588626, -2.515544863568494, -2.528839377255186, -2.5407821488564615, -2.5515157461792475])",-5.343476884388417,182.75917507735724,-45.255993055349194,0.5427962049025129,-0.1745329325261536,-2.378486970796334,24.625348279960942,-1.0,"[188.27028879306926, 0.4809436966085179, 46.64463913853317]","[181.58970145721304, -35.13803155001062, 29.713651121623744]","[151.11983655169524, -14.2622396479998, 45.069062060554465]",10000000000.0,0.025194644927978516
21,188.7809600830078,1.1640745401382446,46.788063049316406,0.4758051633834837,0.14431414008140567,-2.2631852507551735,23.126668226334033,"array('d', [2.836022138595581, 0.9983543502882795, -0.8073556841406496, -2.5779668324973346, -4.310396277783072, -6.002873142479655, -7.655318656735226, -9.268079060144577, -10.842192108122246, -12.379891383458235, -13.884441200394745, -15.359239341746274, -16.807292096124346, -18.231203969095738, -19.633226073840774, -21.015321012264767])","array('d', [190.37509155273438, 188.8088205490902, 187.2044042630976, 185.55978047006874, 183.87326391371488, 182.14298749768378, 180.3682394116808, 178.5506479956969, 176.6931934944976, 174.79882336645065, 172.8698663679308, 170.9085791168626, 168.91751341579297, 166.89937218455708, 164.8568558257425, 162.7925378085934])","array('d', [-47.00701904296875, -46.682119324181734, -46.32707488770449, -45.94460792646628, -45.53718446432252, -45.113985970450685, -44.68639395730345, -44.2579191831111, -43.828599765382904, -43.402066472588764, -42.98729418999552, -42.59332100972298, -42.22588810829886, -41.88782646077391, -41.57959165972084, -41.2998508720136])","array('d', [0.4407621920108794, 0.473558613519683, 0.5032340455257845, 0.530085489099649, 0.5524262714757742, 0.5557035471178466, 0.544031430527419, 0.5213882075409491, 0.4913550386336061, 0.4569674555036053, 0.4206710920454514, 0.3843436789473604, 0.3493455086942491, 0.316573632394707, 0.286507644257585, 0.2592428605578488])","array('d', [-0.12724235653877267, -0.1400471408484764, -0.15163338982610114, -0.16211706227422515, -0.1716030816252406, -0.1745329345816295, -0.174532934680571, -0.17453293457381464, -0.17453293365098865, -0.1716421979926124, -0.1643770249692648, -0.15417079903069775, -0.14232626117917624, -0.12993283628877422, -0.1178320615440557, -0.10661886802010875])","array('d', [-2.2668609499891823, -2.286683529995138, -2.3080469631380733, -2.330839744537488, -2.3549023537577254, -2.3796052417141587, -2.404018594860366, -2.4274491056662013, -2.449444340838797, -2.469758347214345, -2.4883019981548333, -2.5050948796203376, -2.5202260148827236, -2.533824198832042, -2.5460359568814774, -2.557008643359643])",-6.002873142479655,182.14298749768378,-45.113985970450685,0.5557035471178466,-0.1745329345816295,-2.3796052417141587,24.62404132415595,-1.0,"[187.8333474864731, 0.021491943727449447, 46.57234244930822]","[181.18360659741163, -35.47281628823817, 29.369580193130822]","[150.71473735979043, -14.802242070095806, 45.00209019226432]",10000000000.0,0.02673816680908203
22,187.81614685058594,0.15712794661521912,46.63134002685547,0.4911649227142334,0.15199236571788796,-2.2628588557203835,23.219226624551077,"array('d', [2.173022985458374, 0.3349976256506222, -1.4700648395008407, -3.239063579899639, -4.96923328445427, -6.659141223719968, -8.30831357648463, -9.916690118462054, -11.48535916903521, -13.016642541025265, -14.513889183209146, -15.980556666451267, -17.419712379122696, -18.834022400078368, -20.225798561391535, -21.597061466886224])","array('d', [189.74215698242188, 188.18046008760027, 186.57920726899673, 184.9364593221431, 183.25034159292267, 181.5186183728906, 179.7409824241428, 177.91960921241713, 176.0576095829952, 174.15803287763333, 172.22330358302762, 170.25578861597677, 168.2581322387377, 166.23311155814042, 164.18348463441401, 162.11186955802077])","array('d', [-46.92884826660156, -46.58703037000478, -46.21666943900764, -45.820334223337724, -45.4028367959675, -44.97617767352293, -44.54860504801528, -44.12014283355586, -43.6908303989498, -43.2644768883261, -42.850172184131914, -42.456846103998146, -42.09014500732298, -41.75282622785463, -41.44529719796837, -41.16620406934942])","array('d', [0.45663151144981384, 0.4879177688495992, 0.5162267477409819, 0.54184177330719, 0.5640499738981386, 0.5669526654894257, 0.5547169459543788, 0.5313863764385139, 0.5006028482191623, 0.4654497760452355, 0.4284061841783656, 0.39137060209983454, 0.35571454064545294, 0.32233954513563906, 0.29172520948275976, 0.2639639092322157])","array('d', [-0.13462992012500777, -0.14673168540094297, -0.15768181636866085, -0.1675899052513822, -0.17453293426505814, -0.1745329347574356, -0.174532934677677, -0.17453293456963412, -0.17453293354383392, -0.17149952196936374, -0.16413904982631913, -0.15388101086417383, -0.1420202075676221, -0.12963580102660302, -0.11755814649396316, -0.1063710194107452])","array('d', [-2.264935243125779, -2.28552180993481, -2.3075970902004617, -2.3310524576613365, -2.35575822765539, -2.381098380173132, -2.406117750899401, -2.4301061575127205, -2.452603445335177, -2.473362947278241, -2.492299068500409, -2.509436898688769, -2.524871465353051, -2.5387372695465014, -2.5511858907578584, -2.5623689845553614])",-6.659141223719968,181.5186183728906,-44.97617767352293,0.5669526654894257,-0.1745329347574356,-2.381098380173132,24.622924822684844,-1.0,"[187.19171688867036, -0.6494490890632671, 46.46168186637276]","[180.55993668256613, -35.978571627269936, 28.91538333995125]","[150.10666299167858, -15.55814943727538, 44.90301853375876]",10000000000.0,0.023614883422851562
