,current_time,x_pos,y_pos,z_pos,roll,pitch,yaw,vel,x_traj,y_traj,z_traj,roll_traj,pitch_traj,yaw_traj,x_cmd,y_cmd,z_cmd,roll_cmd,pitch_cmd,yaw_cmd,vel_cmd,effector_dmg,effector_x,effector_y,effector_z,cost,time_solution
0,8.583552837371826,14.445487022399902,-227.33273315429688,45.07902526855469,0.6294167041778562,0.038794301450252464,0.1601818362858631,23.05543452490387,"array('d', [-227.8070831298828, -227.35500325201798, -226.95518919417424, -226.5934182236222, -226.2581411534675, -225.94072910879268, -225.6347976036511, -225.45396730982813, -225.27669477129845, -225.10067236332802, -224.9245182755049, -224.7475025300191, -224.56932474686255, -224.38993971763702, -224.2094287094806, -224.02791443544427])","array('d', [10.799065589904785, 13.256577669416451, 15.723922774121482, 18.197459140329478, 20.67484282543303, 23.15460612184393, 25.635807020740955, 27.14444622304146, 28.65068832250558, 30.154509401161274, 31.65587992229298, 33.15477494129273, 34.65118054366589, 36.14509516933697, 37.63652696768331, 39.1254944425915])","array('d', [-45.074851989746094, -44.998502543372275, -44.95235222892954, -44.92734372075957, -44.917055116332364, -44.91679881021162, -44.92304580491412, -44.929264541128724, -44.936943186953535, -44.94545445615256, -44.95430176188364, -44.96309799359111, -44.971552654853255, -44.97946519801723, -44.986722953808815, -44.993302347065146])","array('d', [0.6289414167404171, 0.49434932560010697, 0.372565354476663, 0.2623706806500171, 0.17878521852894197, 0.11534438175372104, 0.06668210726369123, 0.03128233912897644, 0.008394612549217409, -0.005238692875297069, -0.012345471979154182, -0.015159005172349516, -0.01544034064046537, -0.014494484549523123, -0.013182221585087745, -0.01192776841914042])","array('d', [-0.037792816758155656, -0.02353461490855528, -0.013554378204208345, -0.006569327423767147, -0.0017421148827856568, 0.0014832641318391702, 0.003481011210920379, 0.004684437949237481, 0.005428933219193141, 0.005807403352245928, 0.005896325876968678, 0.00576174049577675, 0.005463808421958851, 0.005060306113720572, 0.004609233346024936, 0.0041706070666852006])","array('d', [0.19488354126480628, 0.17020099722898632, 0.15206118569963195, 0.1391930494056881, 0.13041773085666297, 0.12462415890511334, 0.12105824944306365, 0.11791206628331732, 0.1166410082151879, 0.11654613748363427, 0.11712055539846501, 0.1180159704762901, 0.11901215188819687, 0.11998754301412975, 0.12089050852821234, 0.12171096130206538])",-225.94072910879268,23.15460612184393,-44.91679881021162,0.11534438175372104,0.0014832641318391702,0.12462415890511334,25.000000247243662,-1.0,"[15.4674413364333, -227.13965018552284, 45.02067422005777]","[30.905708227482698, -216.52083937166861, 52.013582935342164]","[34.17737274603227, -232.39718313168646, 40.2987239907451]",10000000000.0,0.07475519180297852
1,8.624496936798096,15.359676361083984,-227.23422241210938,45.07952880859375,0.6294646859169003,0.039288468658924006,0.1518224040654042,23.052194196064026,"array('d', [-227.61447143554688, -227.19384598603935, -226.82559901559597, -226.49546474457077, -226.1918582641861, -225.90609670915777, -225.63175247025373, -225.47010488807354, -225.31186251301688, -225.1547127430347, -224.99727474764686, -224.83882361501145, -224.6790665413018, -224.51796711719015, -224.35561565378188, -224.19214358461832])","array('d', [12.16481876373291, 14.627883245290272, 17.100122872580474, 19.578073942344936, 22.05953603414838, 24.54314560024496, 27.028037973985313, 28.53829290617161, 30.04616234817973, 31.551653325201844, 33.0547541701644, 34.555448953533514, 36.0537272078923, 37.5495877009852, 39.043037494590116, 40.53409348994505])","array('d', [-45.076812744140625, -44.99962298134236, -44.952741547010916, -44.92714329776439, -44.916405385986145, -44.91582223244817, -44.92183936176674, -44.92796000196193, -44.93557296015345, -44.94404257950268, -44.95286516605558, -44.96164785154867, -44.97009572361899, -44.97800508736903, -44.98526127979309, -44.9918397483483])","array('d', [0.6288853883743285, 0.4942986290313015, 0.37251948231142235, 0.26232915039505317, 0.17827906412948274, 0.11451520770706265, 0.06562839618238003, 0.030093694176650303, 0.007158079169872649, -0.006461114530527438, -0.01351274512983813, -0.016247164808368835, -0.016438710983663837, -0.015402009937367449, -0.014003915839608614, -0.012671268194156152])","array('d', [-0.03814578056335439, -0.023854776778742738, -0.013820125413460116, -0.006776378088570013, -0.0018954105546533059, 0.0013743415173849843, 0.003405483863394525, 0.004633391472842273, 0.00539628343740055, 0.005787901164395321, 0.005885646822202123, 0.005756497981760955, 0.005461514915622288, 0.0050593001013362025, 0.004608586018540692, 0.0041700213404884615])","array('d', [0.18209917942551168, 0.1574195657034424, 0.13928205744484615, 0.12641582209346727, 0.11765189216648396, 0.11188518472116123, 0.1083565943414215, 0.105281915783277, 0.10408896348427554, 0.10407374065765634, 0.10472582355693215, 0.10569468363337281, 0.10675889049115894, 0.10779647007972652, 0.10875590109599878, 0.10962750156179675])",-225.90609670915777,24.54314560024496,-44.91582223244817,0.11451520770706265,0.0013743415173849843,0.11188518472116123,25.00000024716358,-1.0,"[16.456572359801996, -227.04285786393578, 45.020747648371014]","[32.009637991799124, -216.53245098289307, 51.92245009354496]","[35.10133052668814, -232.43376772650592, 40.192592332727514]",10000000000.0,0.03310728073120117
2,8.675631046295166,16.732437133789062,-227.10121154785156,45.079952239990234,0.6289912462234496,0.03993527963757502,0.13907618919876602,23.050129686676524,"array('d', [-227.49571228027344, -227.09701350186293, -226.75078948931952, -226.4427412036494, -226.1612111049093, -225.89722971048892, -225.74482042156987, -225.59841804270357, -225.45452486615108, -225.31090544459136, -225.16625079830163, -225.01990307748056, -224.87163173777364, -224.7214577183747, -224.56952374946047, -224.4160088989631])","array('d', [13.07620906829834, 15.542889084555378, 18.01828812740137, 20.499067839599665, 22.983124102743552, 25.469142038614592, 26.983002258500424, 28.49437064762554, 30.00332325772155, 31.509886794359094, 33.01405844571595, 34.51582481272852, 36.015174702580765, 37.51210488023859, 39.00662029630386, 40.498736402495936])","array('d', [-45.0777473449707, -44.999642020917726, -44.951666525035385, -44.9247527060598, -44.91239384363255, -44.909767843139996, -44.912019843157225, -44.91682821630793, -44.92333669599012, -44.93086583430233, -44.938877767911286, -44.94695312439317, -44.95477666975597, -44.962129428886776, -44.9688856115526, -44.9750129919646])","array('d', [0.6290462613105773, 0.49444419290064173, 0.37265119396248303, 0.2624483237125224, 0.1754397041484799, 0.10716631129436098, 0.055988728114652435, 0.021250724153102984, -0.000927705981142762, -0.013831595500335135, -0.020213362441639834, -0.022326255636604328, -0.02194607204810716, -0.020387275296454965, -0.018515020928203594, -0.016753085244698856])","array('d', [-0.03847795352339737, -0.024254284301771033, -0.014294772463042157, -0.007352552095804984, -0.002613641834378746, 0.00046154006711779806, 0.002465240017891005, 0.0038450152522591066, 0.004727735860880174, 0.005214075513903311, 0.005386968902846329, 0.005317854241277385, 0.005071422487815749, 0.004709259161595005, 0.004292571132675385, 0.003884079221303336])","array('d', [0.17320986191299942, 0.14852183391536464, 0.13037771205101373, 0.11750601998366156, 0.10879876732304344, 0.10323741216582344, 0.09799253445645804, 0.09551474841009419, 0.09486904170173885, 0.09535438607555294, 0.09646302180425347, 0.09784721595848639, 0.09928852780828765, 0.10066808068049937, 0.10193743461344162, 0.10308985623351678])",-225.89722971048892,25.469142038614592,-44.909767843139996,0.10716631129436098,0.00046154006711779806,0.10323741216582344,15.21516660071419,-1.0,"[17.75831001603546, -226.92964154380343, 45.0202500478159]","[33.460853547506076, -216.56135653498717, 51.79732852000631]","[36.3146564009602, -232.49672586479593, 40.05340185145938]",10000000000.0,0.04802703857421875
3,8.716742038726807,17.64841651916504,-227.02235412597656,45.07958984375,0.6242474317550657,0.03959643095731721,0.13050980965164688,23.052851489404503,"array('d', [-227.33273315429688, -226.96623191673442, -226.65235529418607, -226.37675468483403, -226.12773277862763, -225.89626189313702, -225.76365742955116, -225.636936992603, -225.5125895114554, -225.38837390776152, -225.26298121866904, -225.13575754115098, -225.0064787429175, -224.87517342804193, -224.7419923112848, -224.60712221275426])","array('d', [14.445487022399902, 16.91713138693652, 19.396825795099588, 21.881412998353603, 24.3689360351578, 26.858191055714073, 28.373270094847133, 29.885838209501728, 31.39602090153399, 32.90387548951749, 34.4094163373474, 35.912638124080395, 37.413532035081765, 38.91209405529944, 40.40832697087953, 41.9022436750331])","array('d', [-45.07902526855469, -45.00014732374234, -44.95146965088512, -44.92396915926851, -44.911146209670164, -44.908165714166515, -44.910255676052, -44.91494499833894, -44.921368440311944, -44.92883832517131, -44.93680964861108, -44.94485715691424, -44.9526610417155, -44.9599990202186, -44.96674316368548, -44.97286014796083])","array('d', [0.6294167041778562, 0.49477938349643064, 0.372954486975033, 0.26272275399818584, 0.17520564207957684, 0.10655197008894093, 0.055111405970742634, 0.02022630176004424, -0.002012543621224147, -0.014914799053220334, -0.02125352861582508, -0.023298819153249658, -0.02283959841860816, -0.02119985975666428, -0.019250799663964823, -0.017418845436511805])","array('d', [-0.038794301450252464, -0.024556578589667664, -0.014555029702676602, -0.007562501590526902, -0.0027757651640294497, 0.00033940007293210324, 0.002375011832090223, 0.0037803542424405265, 0.004682691470192441, 0.005183390867165258, 0.005366237718314686, 0.005303577446975046, 0.005060995691442873, 0.004700913978322762, 0.004285288332451584, 0.0038774894705447655])","array('d', [0.1601818362858631, 0.13547442645912533, 0.11731507215904582, 0.10443081295916376, 0.09572283515093465, 0.09017856795421893, 0.08498004024610167, 0.08256294039341373, 0.08198533602591389, 0.08254111017143943, 0.08371894572756283, 0.08516883567925643, 0.08667109759663508, 0.08810639091173066, 0.08942634059175572, 0.0906245691017493])",-225.89626189313702,26.858191055714073,-44.908165714166515,0.10655197008894093,0.00033940007293210324,0.09017856795421893,15.208745034403496,-1.0,"[18.84685703327079, -226.8473336387505, 45.0200645652148]","[34.67303363526545, -216.58382827428903, 51.667815447742456]","[37.32754299595855, -232.58204470460257, 39.96266055330221]",10000000000.0,0.033063411712646484
4,8.808022022247314,19.96303367614746,-226.86082458496094,45.080718994140625,0.5653074979782102,0.032865982502698704,0.10685940186050936,23.071029906145636,"array('d', [-227.23422241210938, -226.8884035955864, -226.59527749982496, -226.34047012159354, -226.11226297104605, -225.90159454579643, -225.7816455187633, -225.6674934727766, -225.5556203361325, -225.4437825904676, -225.33067217319746, -225.21563840070004, -225.0984617988996, -224.97917633508547, -224.85793822557113, -224.73493961892467])","array('d', [15.359676361083984, 17.834262625556303, 20.316476819707837, 22.803273984525305, 25.2927897008703, 27.783890883938597, 29.299605706562033, 30.812799682245092, 32.323629890700715, 33.83217312288979, 35.33845458884903, 36.84247398160714, 38.344223854605296, 39.843699549552795, 41.340902337957004, 42.835843080276085])","array('d', [-45.07952880859375, -44.999518438959626, -44.949906581136155, -44.92165640376336, -44.90824237674876, -44.904798780002395, -44.9066670540442, -44.911181930110885, -44.917468265629026, -44.92482986828847, -44.93271461746506, -44.94069150561019, -44.948436256930506, -44.955723303517985, -44.9624224929731, -44.968499210938646])","array('d', [0.6294646859169003, 0.4948227991719627, 0.37299377110155335, 0.2627582994937378, 0.17493686783400555, 0.10605711661740261, 0.05446244141664302, 0.019494674254005903, -0.002773466987042685, -0.015666960809980538, -0.02197172215220118, -0.02396832022019551, -0.02345384914348431, -0.021758215760827926, -0.019756347665089057, -0.017876284225975207])","array('d', [-0.039288468658924006, -0.024970167100659975, -0.014890246751679942, -0.00782823176402935, -0.0029838655152454757, 0.00017626877031760974, 0.0022467098626751114, 0.003679802622531674, 0.004603713085249214, 0.005120756482741726, 0.005315661511658726, 0.005261676336475165, 0.005025224179022052, 0.004669483763539562, 0.004257080385898028, 0.0038519658627065682])","array('d', [0.1518224040654042, 0.12711248316397325, 0.10895115554528875, 0.09606526841137378, 0.08736215853616083, 0.08183323886372407, 0.0766705056282089, 0.0742975440395559, 0.07376815995434619, 0.0743730991688632, 0.07559885850447282, 0.0770940460846502, 0.07863823984994445, 0.08011184495251361, 0.08146656079198705, 0.08269626378121256])",-225.90159454579643,27.783890883938597,-44.904798780002395,0.10605711661740261,0.00017626877031760974,0.08183323886372407,15.20456867721568,-1.0,"[20.51342804257993, -226.745076188495, 45.02390181976958]","[36.54056465947275, -216.536876463553, 51.26277593607833]","[38.86817837016437, -232.90471376409621, 40.00772744587862]",10000000000.0,0.08697009086608887
5,8.910685300827026,22.281457901000977,-226.75486755371094,45.10041809082031,0.44742712378501864,0.01745366677641855,0.08316369453934228,23.0363473262293,"array('d', [-227.02235412597656, -226.72900054405986, -226.4878894587424, -226.28469972120612, -226.10763708900782, -226.0125975504096, -225.9271775024034, -225.846263431793, -225.76643281666256, -225.68553353789343, -225.60234598262196, -225.51630457668404, -225.42727068658303, -225.33535394002269, -225.24078039863684, -225.14380606476496])","array('d', [17.64841651916504, 20.12973672808465, 22.61751083376235, 25.109032736939614, 27.602692771344124, 29.122473851834993, 30.639334607497307, 32.15365697391531, 33.665672422179384, 35.17549762567772, 36.68317494162166, 38.18870723762587, 39.69208257862733, 41.19328847295496, 42.69231774734447, 44.18917369234495])","array('d', [-45.07958984375, -44.998511165452975, -44.94729491244093, -44.916939714837795, -44.90084479766238, -44.89690427505954, -44.89707489650424, -44.9001791530573, -44.90528371338321, -44.91164510973623, -44.91867320903157, -44.92590689557821, -44.93299853698135, -44.93970496664513, -44.94588333091988, -44.951490468741845])","array('d', [0.6242474317550657, 0.4901020319585169, 0.3687222438764576, 0.2588932603998836, 0.1648284268969613, 0.09274652463927309, 0.0419945618180611, 0.007900529480936726, -0.013480464251842047, -0.025493921008728937, -0.030944932791903634, -0.03212968908904037, -0.030856455093757368, -0.02846171895354448, -0.02582260467309537, -0.023365261051383607])","array('d', [-0.03959643095731721, -0.02551336062169528, -0.015627590407686114, -0.008771583963915586, -0.004181029594637725, -0.001046763896297, 0.0012333377145969013, 0.0028339762632079036, 0.0038909690651926622, 0.004513196128773361, 0.004791022982093635, 0.004802528958877222, 0.004618265070831039, 0.004304923977380884, 0.003928111692864937, 0.00355430265302376])","array('d', [0.13050980965164688, 0.10607207766766491, 0.08812487304424069, 0.07541576345455721, 0.06700134991483146, 0.05869405441935819, 0.05436381493449392, 0.05276789828971647, 0.0529602213876111, 0.05423124436405122, 0.05606803592159116, 0.05812094947217016, 0.060172340943557785, 0.06210610913405138, 0.06387781398678129, 0.06548523619679077])",-226.0125975504096,29.122473851834993,-44.89690427505954,0.09274652463927309,-0.001046763896297,0.05869405441935819,15.192656752075639,-1.0,"[22.846007231986867, -226.65272139292924, 45.05199011564697]","[39.16637133276399, -216.32170816960604, 50.240041907754176]","[41.009073723915776, -233.78048026374267, 40.65903335632079]",10000000000.0,0.10082769393920898
6,9.002137184143066,24.13135528564453,-226.7040252685547,45.14787673950195,0.332753151655197,0.003953598439693342,0.06551154057053123,22.92740784533378,"array('d', [-226.86082458496094, -226.6223457348346, -226.42969018496512, -226.26966655575117, -226.18870188955913, -226.12021411242188, -226.05733064008913, -225.9953324861653, -225.931135855725, -225.8628927364242, -225.78966165237202, -225.71113239283451, -225.62740015087874, -225.53878770348618, -225.44571463661222, -225.34861215458687])","array('d', [19.96303367614746, 22.450671048688292, 24.94285966143084, 27.437602358873686, 28.96084960805416, 30.48052210953637, 31.997298676194784, 33.51161683044767, 35.02371638156244, 36.53369620738771, 38.04156909209593, 39.54730562933051, 41.050864017307866, 42.55220664430102, 44.051306549971144, 45.54815271410347])","array('d', [-45.080718994140625, -45.01387843017138, -44.97248235445391, -44.948556642966636, -44.94123581276454, -44.93911239708375, -44.94078371156393, -44.94514388801854, -44.95131212293082, -44.95858450161721, -44.96640131349096, -44.974325153470694, -44.98202691012406, -44.9892777072213, -44.99594536052154, -45.00199415964908])","array('d', [0.5653074979782102, 0.4367709696302519, 0.320466298739686, 0.2152294712812769, 0.12077373512630407, 0.05272484138423291, 0.0055956795701712185, -0.025189434133485837, -0.043530658238197587, -0.052752118361738515, -0.05564613981288469, -0.05449766241307272, -0.05110246726404198, -0.0467828322677273, -0.042400435375573496, -0.038365503939416665])","array('d', [-0.032865982502698704, -0.020814214304457575, -0.012443890558005774, -0.006791292914782494, -0.002872542595839437, 3.2352579845778866e-05, 0.0021344587227706806, 0.0035949414383762415, 0.004540400518421577, 0.005073228632517641, 0.005279033093067627, 0.0052322298285316, 0.005000399956902176, 0.004647708174011873, 0.0042375201246322046, 0.0038342670047830773])","array('d', [0.10685940186050936, 0.08538542217259801, 0.0697988513194437, 0.05905600956821982, 0.04819275443558772, 0.042619101600651306, 0.04075927434830933, 0.04141009090471905, 0.043648098825965785, 0.046779951728114756, 0.0503068958434937, 0.05389295739666709, 0.057333886360362456, 0.060526479615439395, 0.06343843030727925, 0.06607870311828537])",-226.12021411242188,30.48052210953637,-44.93911239708375,0.05272484138423291,3.2352579845778866e-05,0.042619101600651306,15.180810672529239,-1.0,"[25.166361274487688, -226.60982839750938, 45.122077894637584]","[41.74667619108397, -216.1087934498558, 48.971937930360035]","[43.141794627937976, -234.76359530117003, 41.89719323988864]",10000000000.0,0.08739233016967773
7,9.107283353805542,26.88787841796875,-226.65866088867188,45.286930084228516,0.1700288355350493,-0.009617053903639435,0.04346843163040683,22.627243446049874,"array('d', [-226.7718963623047, -226.57564644449442, -226.41577265037765, -226.33723739229887, -226.2736289156472, -226.2164143981529, -226.159370374581, -226.09830665476898, -226.03060289082373, -225.95483186560472, -225.87043840822471, -225.777466565555, -225.6763347038146, -225.56765888607384, -225.45212393254948, -225.3304004592901])","array('d', [21.817363739013672, 24.30926966513498, 26.804029048337604, 28.330523069508605, 29.852795484821492, 31.37165334069658, 32.88778608066212, 34.401585160085496, 35.91321685422375, 37.42269939109723, 38.92997046772645, 40.434937642469905, 41.93751015610174, 43.43761475708225, 44.935200013243204, 46.43023899067224])","array('d', [-45.093528747558594, -45.05239131046975, -45.02961437699847, -45.02335025746061, -45.022567734310584, -45.02580492240387, -45.03191478234747, -45.03998522184717, -45.049285323898495, -45.05922873043736, -45.06934859502152, -45.079280850243464, -45.08875377312629, -45.097582468192435, -45.10566718339907, -45.11299450162025])","array('d', [0.47423499822616566, 0.3543651566311303, 0.24590242888344524, 0.14776128560092336, 0.06000219594096908, -0.002240220402804468, -0.04418796386838745, -0.07028471495719452, -0.08436316846381726, -0.08970860143643243, -0.0890847141792587, -0.08474977402735621, -0.07847222153438374, -0.07154651276841323, -0.064807306372901, -0.05864008107515063])","array('d', [-0.020930279046297, -0.012128100580813763, -0.0061927387444137855, -0.002072252642012312, 0.0009939029636850348, 0.0032284526385837364, 0.004799393011940527, 0.005837023493816835, 0.006445061845543766, 0.00670836130568594, 0.006698643835797291, 0.006478995552989816, 0.006107497323492129, 0.005640157318829501, 0.0051332007004454465, 0.004644712377482676])","array('d', [0.08767898479965733, 0.070445051754056, 0.058326714825374444, 0.045572421227104275, 0.03890291182253521, 0.03707128610322733, 0.03859538461187713, 0.04231985573144461, 0.04735056061571166, 0.053016944442684476, 0.05884122854637095, 0.06450786606649174, 0.06983236608544494, 0.07473015245461917, 0.07918605280174856, 0.08322453901258112])",-226.2164143981529,31.37165334069658,-45.02580492240387,-0.002240220402804468,0.0032284526385837364,0.03707128610322733,15.172181747461307,-1.0,"[27.425166187173808, -226.59635474267782, 45.239222668070475]","[44.21753668111643, -216.02508034973192, 47.742111180012614]","[45.22882995562191, -235.50679942699588, 43.33304010919624]",10000000000.0,0.10230779647827148
8,9.184712648391724,28.248924255371094,-226.64144897460938,45.37852096557617,0.10510598868131624,-0.011990253813564897,0.034673527875218796,22.432112104363323,"array('d', [-226.69479370117188, -226.55483679122207, -226.4846527950219, -226.42521496165855, -226.3681026643618, -226.30610722681885, -226.23406495604385, -226.14871281929618, -226.04828774217714, -225.93216753962025, -225.8005492509471, -225.65417138503915, -225.49408588256804, -225.32148181262352, -225.13755970556954, -224.9434532989776])","array('d', [24.591690063476562, 27.087755498620524, 28.615834609883038, 30.139445370241972, 31.659385270265506, 33.17636977690419, 34.690881401928266, 36.20305800657489, 37.7128099931439, 39.21992733843816, 40.724162844611165, 42.22528678902752, 43.72311530006668, 45.217518675399646, 46.70841698219745, 48.19577491520271])","array('d', [-45.16518783569336, -45.167762560110184, -45.17433205101271, -45.18433685625943, -45.19676390309231, -45.21081074733515, -45.225834265755495, -45.24131419956327, -45.256828818691865, -45.27203779037727, -45.28667041698296, -45.30051821516783, -45.31343118793647, -45.3253172710321, -45.3361444241372, -45.345944785411255])","array('d', [0.3036812245845793, 0.2000417064633208, 0.10626478402731626, 0.02141190813453662, -0.05431902180822383, -0.10589157716394439, -0.138170512613708, -0.15543645484833124, -0.16144769129622777, -0.15944673896325004, -0.15215833811384918, -0.14179533007236841, -0.13007358341876638, -0.1182314437037579, -0.1070487087015184, -0.09686168595406532])","array('d', [-0.0009581319754942377, 0.0029526731140566424, 0.005592508828537519, 0.0074985323530228284, 0.008819555556042701, 0.009669696459582162, 0.010138792586482169, 0.010298922420458847, 0.010208989647643585, 0.009918310140996906, 0.009469667457124617, 0.00890202546070939, 0.008252940485150906, 0.007560643348875813, 0.006865727991837623, 0.0062123680399232325])","array('d', [0.06140990654495736, 0.051338917507516194, 0.041483606445215974, 0.0374141362299467, 0.03851665473023784, 0.04373257182462421, 0.05168540411450337, 0.06127204677077176, 0.0716341319865771, 0.08213555970676865, 0.09233586375771038, 0.10195894653090636, 0.11085972454253347, 0.11899101811992992, 0.1263718591112224, 0.13305734991509627])",-226.30610722681885,33.17636977690419,-45.21081074733515,-0.10589157716394439,0.009669696459582162,0.04373257182462421,15.163025770902758,-1.0,"[29.29573389526278, -226.59087673179167, 45.36421463068912]","[46.2285757768188, -216.05708345290975, 46.886733915297455]","[46.97733523834674, -235.88754497341753, 44.39832977761555]",10000000000.0,0.06445193290710449
9,9.242860794067383,29.1480712890625,-226.6303253173828,45.44364547729492,0.06936701387166962,-0.012207310646772508,0.029537872472081478,22.29460221592274,"array('d', [-226.67149353027344, -226.55526455526174, -226.49362223125848, -226.43593396061738, -226.3744747899555, -226.302568838557, -226.21551074566676, -226.1104734954792, -225.98612061441042, -225.84224353466203, -225.67943151043133, -225.49878658790266, -225.3016916126175, -225.0896332791798, -224.8640781785495, -224.62639741858982])","array('d', [25.972444534301758, 28.469662928057872, 29.995770261656848, 31.51780986337453, 33.0364915068776, 34.55237994641558, 36.0657789352361, 37.576643561905755, 39.08471810202166, 40.589655951933274, 42.091107941272774, 43.58877595064509, 45.08243655771971, 46.57194309016942, 48.05721498153386, 49.53822687137])","array('d', [-45.23234939575195, -45.25139255204754, -45.26594575206485, -45.28234850105732, -45.299928436748274, -45.318144993009746, -45.336559940863964, -45.354815386112584, -45.372619578562194, -45.38973666085256, -45.40597971835669, -45.421206824239256, -45.43531987733042, -45.448265995883055, -45.46004112113165, -45.47069537354932])","array('d', [0.22023516893386832, 0.12453658608496188, 0.03794491966764854, -0.04040646713660823, -0.11061608356675058, -0.15714875505353648, -0.18476361951933074, -0.19770862334667602, -0.19973774689968785, -0.1940931865525108, -0.18349252521630965, -0.1701321738569252, -0.1557042000955138, -0.14141930047062382, -0.1280294042260234, -0.11584580604041])","array('d', [0.00642494438216101, 0.008770601103390603, 0.01026071390913449, 0.011259958119298114, 0.011861587551551681, 0.012139713514267101, 0.012154433314877507, 0.011954941850884157, 0.011581981949139081, 0.011070074016258914, 0.010449679289856148, 0.009749302335755933, 0.008997469803985938, 0.008224496359553704, 0.007463940860936442, 0.00675365347667697])","array('d', [0.05023546616104626, 0.04343010094050947, 0.038244227387681656, 0.03836562421934182, 0.04328831551700374, 0.052021298388051675, 0.06320880993604464, 0.07575550688781849, 0.08881115491959425, 0.10175260720823018, 0.11415700874239428, 0.12576858507082989, 0.13646318566037968, 0.14621362223396647, 0.15505712414580855, 0.16306493491955495])",-226.302568838557,34.55237994641558,-45.318144993009746,-0.15714875505353648,0.012139713514267101,0.052021298388051675,15.160206880867893,-1.0,"[30.19844074282412, -226.587892117403, 45.42915292221656]","[47.188656415380095, -216.0959027381337, 46.54751344786709]","[47.828895305735955, -236.0115972491967, 44.82844209818722]",10000000000.0,0.04000043869018555
10,9.2853364944458,30.48900032043457,-226.61093139648438,45.543094635009766,0.02583410404622542,-0.010662290267646434,0.023122147717747926,22.08419183450145,"array('d', [-226.65866088867188, -226.59899605602058, -226.54736034174815, -226.49560393043703, -226.43638396658363, -226.36331001402237, -226.27193228475952, -226.1596798052048, -226.02547523544192, -225.8693661800599, -225.69218724431875, -225.49526884803876, -225.28020188001068, -225.04865993595044, -224.80227630448212, -224.54256986740424])","array('d', [26.88787841796875, 28.41757634692413, 29.9425701383289, 31.4637622578055, 32.98180626143073, 34.49717644929009, 36.010068223173754, 37.520321730239736, 39.027574478163544, 40.53139068559846, 42.03135357530239, 43.52711876320185, 45.01843513569339, 46.5051430656226, 47.9871598913178, 49.464468655270885])","array('d', [-45.286930084228516, -45.302820915500156, -45.32057403460834, -45.339525261427745, -45.35913865069085, -45.37898017430986, -45.39869627081757, -45.417997078880084, -45.43664599124374, -45.454451938667944, -45.47126421092805, -45.48696977960978, -45.50149308668998, -45.51479816541373, -45.52689281379824, -45.53783443155028])","array('d', [0.1700288355350493, 0.07910801302071684, -0.0031605565833592256, -0.07760024301385375, -0.14470562074412166, -0.18833424600751972, -0.21320794397651605, -0.22357541213517632, -0.22320369511797328, -0.2153462164714042, -0.20272408640238473, -0.18752886323352166, -0.17144129394299132, -0.15565704543664874, -0.14091197195649202, -0.12750243641573653])","array('d', [0.009617053903639435, 0.011117749190715624, 0.01213377971514587, 0.012756409783136014, 0.013057772602028086, 0.013096596170665031, 0.012921378744569887, 0.012572228504742735, 0.01208252610067201, 0.01148066159882403, 0.010791878483671892, 0.010040158735207513, 0.009250045850465695, 0.00844829546969338, 0.0076652456828087195, 0.006935801431457081])","array('d', [0.04346843163040683, 0.03548851149345107, 0.033088915696741744, 0.035734001724938284, 0.04297997011838918, 0.05387303251442003, 0.06705884189374804, 0.081439671982178, 0.0961660993502637, 0.11062082348855652, 0.12439102328096967, 0.1372333730469801, 0.14903690238003137, 0.15978714566932092, 0.16953294754201828, 0.1783558197081582])",-226.36331001402237,34.49717644929009,-45.37898017430986,-0.18833424600751972,0.013096596170665031,0.05387303251442003,15.157880575929175,-1.0,"[31.542395181363236, -226.58013480828575, 45.527090858044986]","[48.60501187538119, -216.16364221738266, 46.13024395360284]","[49.10759268677936, -236.14223131629447, 45.353462037710756]",10000000000.0,0.037731170654296875
11,9.337522029876709,31.37592887878418,-226.5966796875,45.60891342163086,0.001701718079857402,-0.008510940708220126,0.01947195927170327,21.943437605755484,"array('d', [-226.64144897460938, -226.5922054160537, -226.5451593137249, -226.49274511247393, -226.42808342201974, -226.34515212991582, -226.23982624955494, -226.10986759217027, -225.95454372106803, -225.77424643104968, -225.57014034520955, -225.34386201902956, -225.09727964950707, -224.83231434439605, -224.55081873002197, -224.25450557487082])","array('d', [28.248924255371094, 29.7765756633218, 31.29997043311083, 32.81992668251773, 34.33695774700276, 35.851360389116195, 37.363142769280444, 38.87196715615141, 40.37731646846287, 41.87863381141273, 43.37541740511822, 44.86727110601124, 46.35391944775739, 47.83519914134969, 49.31103831596508, 50.78144008051062])","array('d', [-45.37852096557617, -45.39760915080548, -45.41784325505274, -45.43870971875868, -45.45978985623357, -45.480743206404156, -45.50129210801222, -45.52120882823202, -45.54030784868948, -45.558440032230344, -45.57548876018351, -45.59136821096184, -45.60602386761479, -45.619435194910935, -45.631620252438395, -45.64264188544305])","array('d', [0.10510598868131624, 0.020363386579730875, -0.05631489751625131, -0.12569628400614077, -0.18847512681225898, -0.22841795151086466, -0.2497830016702922, -0.25683525685589575, -0.25336896933912906, -0.24265812902512088, -0.22743121872603736, -0.209874207322159, -0.19165272625307775, -0.17394209093322527, -0.15745650796503008, -0.14247255301570286])","array('d', [0.011990253813564897, 0.01296935544336841, 0.013570877695421006, 0.013862839686056746, 0.013900715435383923, 0.01373084410470027, 0.013392124819628006, 0.012916906608461938, 0.012332071590780222, 0.011660421454206676, 0.01092229920544455, 0.010137321785346036, 0.00932608996358447, 0.00851175129810792, 0.007721302632368681, 0.0069865238614885295])","array('d', [0.034673527875218796, 0.03068517038972777, 0.0318839487790508, 0.03780980754392515, 0.04808007949530579, 0.06178436637365359, 0.07757524667883102, 0.09434672099112973, 0.11124809611804327, 0.12766920275489438, 0.14321078818758093, 0.15764660736622774, 0.17088372770760174, 0.18292496362355543, 0.19383479210639054, 0.203708442320215])",-226.34515212991582,35.851360389116195,-45.480743206404156,-0.22841795151086466,0.01373084410470027,0.06178436637365359,15.15602023528923,-1.0,"[32.875590203413665, -226.56747465207238, 45.62167967856888]","[49.997487356591506, -216.23239041351192, 45.7849942763845]","[50.38688782895999, -236.22857564829107, 45.754280622750684]",10000000000.0,0.03643012046813965
12,9.424405574798584,33.564613342285156,-226.5573272705078,45.76416778564453,-0.05313185974955571,-0.0014316217275337538,0.012027577557836044,21.59747432054041,"array('d', [-226.6303253173828, -226.58726558940018, -226.5432035113584, -226.49087334324656, -226.42364024592425, -226.33568610759588, -226.2230593359366, -226.08370262097236, -225.91707594522723, -225.72376555979505, -225.50512345151955, -225.26296008318923, -224.99930090310355, -224.7162069496942, -224.41565440556275, -224.09946484150692])","array('d', [29.1480712890625, 30.674560314533792, 32.197059767657684, 33.71632767948799, 35.23279052821414, 36.746637524700766, 38.25776461090472, 39.76573003018543, 41.269926896319554, 42.769728701808475, 44.26458561553592, 45.75407309810555, 47.23790334135695, 48.71591273021603, 50.18803739345188, 51.65429380279089])","array('d', [-45.44364547729492, -45.462983166845156, -45.4833536913684, -45.50426508769616, -45.525316864526026, -45.54618437250401, -45.56660396356748, -45.58636036399623, -45.60527900875554, -45.623220238700135, -45.640075426648394, -45.655765230303636, -45.67024007293127, -45.68348279696986, -45.69551325748111, -45.706394495680094])","array('d', [0.06936701387166962, -0.011974578041182187, -0.08557550058381741, -0.15217237495483543, -0.21243170747738868, -0.25043467833071403, -0.2699221584231206, -0.27517914075731026, -0.2700234403567232, -0.25774658358340674, -0.24108530083407936, -0.22222512437038952, -0.20282491928797658, -0.18404963826822823, -0.16660196417659706, -0.15074770475016713])","array('d', [0.012207310646772508, 0.013102485523496504, 0.013635138879344123, 0.013871056988691084, 0.013864181372227702, 0.013659659502018185, 0.01329534481532504, 0.012802584619983058, 0.012207252972455618, 0.011531123685567395, 0.010793494491618257, 0.010012925454754993, 0.009208952800389799, 0.008403653182498002, 0.00762294604186182, 0.006897527130103262])","array('d', [0.029537872472081478, 0.027736677528599187, 0.030921381582306725, 0.038667440098466156, 0.050617375414886416, 0.065884571323279, 0.08312894993203386, 0.10123625954289395, 0.11935304646252382, 0.13687219466130315, 0.15340178851276853, 0.1687252358317761, 0.18275993021049752, 0.1955186095034093, 0.20707471970243396, 0.21753133542699474])",-226.33568610759588,36.746637524700766,-45.54618437250401,-0.25043467833071403,0.013659659502018185,0.065884571323279,15.154747515476801,-1.0,"[34.79397796729309, -226.54323400578912, 45.74915457625308]","[51.98435055142539, -216.3303546457063, 45.31535093967696]","[52.24165990851421, -236.30716524662122, 46.243160246553664]",10000000000.0,0.060991764068603516
13,9.490372896194458,35.29315948486328,-226.5181884765625,45.87492370605469,-0.0984535962343217,0.0040386039763687775,0.0071823159840445,21.33362808267062,"array('d', [-226.5966796875, -226.56582489094504, -226.52790226043786, -226.47617790018816, -226.40445943992296, -226.3073027486038, -226.18107187792037, -226.024050647005, -225.83607238321906, -225.6181055710558, -225.3718722027973, -225.09952621188728, -224.80340289883725, -224.48583803479184, -224.14904937576077, -223.79507097440813])","array('d', [31.37592887878418, 32.90012437951748, 34.42088502949505, 35.938824142580906, 37.45417840976319, 38.966910842257285, 40.476685592341, 41.98284884167817, 43.48461218642856, 44.981210256518345, 46.47199933038168, 47.956501485386504, 49.434408233739326, 50.90555948424981, 52.369911470222576, 53.82750849232913])","array('d', [-45.60891342163086, -45.623051739561475, -45.63906125447921, -45.65626987321527, -45.67414063351502, -45.69224491381318, -45.71023998536129, -45.72785056028754, -45.744856342828115, -45.76108272890258, -45.776394244410305, -45.79069070514754, -45.80390605570062, -45.816009728225254, -45.82701020724276, -45.8369603516855])","array('d', [0.001701718079857402, -0.07320067526462744, -0.14097516955811584, -0.20230007341291062, -0.2577891435989631, -0.29228692205392864, -0.3083131839527239, -0.3102138298828639, -0.3018697212812425, -0.28661911392175604, -0.2672234994660081, -0.2458733204472999, -0.22421796347207554, -0.20340451119590358, -0.18411458855819232, -0.16659378401770705])","array('d', [0.008510940708220126, 0.010011530620613412, 0.011018913834082994, 0.011630305643231767, 0.011923364409936828, 0.011961186883979902, 0.011795268284482388, 0.011467368539739292, 0.011011290307007345, 0.010454801471533349, 0.00982167907226291, 0.009133772702891108, 0.008412970206084999, 0.0076829562782449075, 0.006970663520351295, 0.006307317641204006])","array('d', [0.01947195927170327, 0.021814606337863696, 0.028786094638650013, 0.040019145866160385, 0.05519754946435514, 0.07348030353251947, 0.09353952504783694, 0.11423753053737325, 0.1347113163577355, 0.1543578356297165, 0.1727989847559453, 0.18983719709100635, 0.20541046522216735, 0.21955136909437703, 0.23235126159959926, 0.24392884773464718])",-226.3073027486038,38.966910842257285,-45.69224491381318,-0.29228692205392864,0.011961186883979902,0.07348030353251947,15.151748357133942,-1.0,"[35.93099887352487, -226.52450090438367, 45.81907165971503]","[53.155457641533545, -216.3906691527297, 45.029467848719094]","[53.34595014037612, -236.3330220933003, 46.53488201153306]",10000000000.0,0.05632805824279785
14,9.546250820159912,35.72190475463867,-226.50741577148438,45.9006462097168,-0.11017173528671274,0.005234444513916847,0.006030992665562983,21.269342463316008,"array('d', [-226.56568908691406, -226.54206354227514, -226.50740635199858, -226.45530784327872, -226.37985164474935, -226.2758307902625, -226.13980923008452, -225.97029542281328, -225.76737522536203, -225.53227830737788, -225.26697994403676, -224.97386860106135, -224.65549017564763, -224.31436612423335, -223.9528765245918, -223.57319666202682])","array('d', [33.13003921508789, 34.6526733002628, 36.17227325112028, 37.68932617409384, 39.20391898961504, 40.71584482169464, 42.22459855293889, 43.72937495982674, 45.22925858286841, 46.72338932665148, 48.211061884947625, 49.691765939975745, 51.16518369516741, 52.631162487720644, 54.089677187116614, 55.5407989690634])","array('d', [-45.73441696166992, -45.74074660598861, -45.75031442616196, -45.762164147564214, -45.77553839384425, -45.78983618918847, -45.804579744549265, -45.819387910281314, -45.83395715838656, -45.84804738892602, -45.861471616545515, -45.87408920704712, -45.88580241939067, -45.896555952580385, -45.906339075201096, -45.915189803884275])","array('d', [-0.04228668659925474, -0.11300303338505668, -0.1769898357774811, -0.2348874939702483, -0.28727546459009706, -0.31959015153061343, -0.3334164992104989, -0.33315526669764256, -0.3227403582003873, -0.3055489138699053, -0.2843639078040176, -0.2613820281899312, -0.23824801146328473, -0.216097919104418, -0.1955998045106294, -0.17698603810688554])","array('d', [0.0028890229295940465, 0.005382395657434594, 0.007176734336593854, 0.00841499544823487, 0.009209710188297554, 0.009650799072627895, 0.009810603843214872, 0.00974726455751323, 0.009507532275529484, 0.0091294341932418, 0.008644879870772114, 0.008082165725948966, 0.007468291928597783, 0.0068310001334220645, 0.006200442763405511, 0.005610393017290545])","array('d', [0.013371304669652275, 0.01842355803777137, 0.027885975731004112, 0.041422531086742057, 0.05873995626237209, 0.07902722131117773, 0.10096295143476165, 0.12338903319620272, 0.14543360409330428, 0.16649548693687738, 0.1862058894344209, 0.20438044221804877, 0.22097147188656643, 0.23602532070205307, 0.24964569383370525, 0.2619619849185403])",-226.2758307902625,40.71584482169464,-45.78983618918847,-0.31959015153061343,0.009650799072627895,0.07902722131117773,15.149749295168714,-1.0,"[36.79310856337301, -226.50741518307086, 45.86886581655786]","[54.041206691728604, -216.4391474792372, 44.80439580826432]","[54.18485060495037, -236.34183831158117, 46.769660181911]",10000000000.0,0.038251638412475586
15,9.6177499294281,37.84385299682617,-226.44776916503906,46.01772689819336,-0.16926839947700514,0.009935606271028404,0.0007123510029653875,20.961365519604865,"array('d', [-226.5573272705078, -226.53523532214572, -226.5011304367259, -226.44868062155865, -226.37203645286354, -226.26604911053778, -226.1273319494906, -225.95444992201521, -225.7475529407986, -225.50793703396602, -225.2376417207404, -224.9391147648713, -224.61495510578337, -224.26773078247612, -223.89986243977793, -223.51356060907185])","array('d', [33.564613342285156, 35.08685646009619, 36.60616820565915, 38.12299954274616, 39.63739622621493, 41.149105849905006, 42.65757867741291, 44.16197017440034, 45.66133242466487, 47.154781624860576, 48.641597538239004, 50.12126252130395, 51.593457376967336, 53.05803227151523, 54.5149676847768, 55.9643420980765])","array('d', [-45.76416778564453, -45.7684764399864, -45.776377673568575, -45.78684248763537, -45.7990566773499, -45.812374551234335, -45.82628309093297, -45.84037340934259, -45.8543200929082, -45.86786577086539, -45.88080984690299, -45.89300098759717, -45.90433307436457, -45.91474428409973, -45.92421884950051, -45.93279094168402])","array('d', [-0.05313185974955571, -0.12281615274586566, -0.185869114168031, -0.24292179803391917, -0.29454520433313996, -0.3263272283020436, -0.33961315555205274, -0.3388188259356958, -0.3278923700380936, -0.3102212277277257, -0.2885940234400602, -0.2652090963727096, -0.24171001209400803, -0.21923003474260513, -0.19843378879706444, -0.1795503333636167])","array('d', [0.0014316217275337538, 0.0041827916415208026, 0.0061821661746715014, 0.007584127516658645, 0.008510011452433932, 0.009056575052172612, 0.009301516903261923, 0.00930721619711458, 0.009123796129635675, 0.008791970712534522, 0.00834579050871102, 0.007815258338085333, 0.007228736041407721, 0.006615054470663552, 0.00600523967411969, 0.005433765942052083])","array('d', [0.012027577557836044, 0.017751122410041696, 0.027832207696254302, 0.04194188366970556, 0.05979213020852794, 0.0805792003416519, 0.10298303925864734, 0.12583998030397017, 0.14827576918429167, 0.16968969613004242, 0.18971538262211057, 0.20817186637579582, 0.22501515310689577, 0.24029509682373013, 0.25411853716932387, 0.26661756898066524])",-226.26604911053778,41.149105849905006,-45.812374551234335,-0.3263272283020436,0.009056575052172612,0.0805792003416519,15.149330408732144,-1.0,"[39.115053121685136, -226.45279543787728, 45.991535606953214]","[56.4220214384394, -216.59002665561616, 44.20418012174067]","[56.44750710994141, -236.32540522943674, 47.446738221224976]",10000000000.0,0.06590437889099121
16,9.706266403198242,39.51071548461914,-226.3902130126953,46.099430084228516,-0.21547935903072366,0.012117373757064214,-0.002562566599573705,20.725448809534605,"array('d', [-226.50741577148438, -226.49172754474475, -226.45882730627542, -226.40277942017184, -226.31808159708152, -226.19989092675982, -226.04508424927312, -225.852533741236, -225.62274034507078, -225.35736368913365, -225.05879402788227, -224.72980118398615, -224.37327053706028, -223.99202025839148, -223.5886876732041, -223.16567102870283])","array('d', [35.72190475463867, 37.242089586384, 38.75989295622624, 40.27554520619724, 41.78884881770935, 43.299288416035154, 44.806060763633354, 46.30810189141389, 47.80428655189198, 49.29360506946948, 50.775261628773826, 52.24870566929096, 53.71361765851169, 55.16987019597637, 56.61748078473037, 58.056572254669064])","array('d', [-45.9006462097168, -45.89572067862904, -45.89599596340257, -45.900118170050185, -45.90701686778082, -45.915843425025365, -45.925924211777094, -45.93672354053977, -45.94781581325958, -45.958864556847615, -45.96960683317656, -45.979842311407666, -45.989426511729235, -45.99826774287219, -46.006327168242784, -46.01362132954713])","array('d', [-0.11017173528671274, -0.17442797112959788, -0.2325694228897507, -0.2851779886421156, -0.3327801907094347, -0.361783354553042, -0.37222988610334684, -0.3686248080408447, -0.3549980865304817, -0.3347953374679936, -0.310836516397506, -0.2853287285138107, -0.25990869317375737, -0.23569404851431036, -0.21333059492202786, -0.1930295221754688])","array('d', [-0.005234444513916847, -0.0013107922130082051, 0.0016244791303508205, 0.003775359280391476, 0.005302100210011144, 0.006332103180821272, 0.006967330160643214, 0.00728950024923014, 0.0073641897512572475, 0.007244450638473586, 0.006974166992052918, 0.006591171063730214, 0.006130062801141361, 0.005624656243838476, 0.005109972509987047, 0.004623694639717025])","array('d', [0.006030992665562983, 0.015314298586571785, 0.028684992524039967, 0.04584773456853505, 0.06653975495578356, 0.08999475514604681, 0.11489753355711024, 0.1400520426357753, 0.1645703939270649, 0.18785470000316398, 0.20955232283626482, 0.22950141897868334, 0.2476784160399847, 0.26415247908125616, 0.2790475417694729, 0.2925103365873863])",-226.19989092675982,43.299288416035154,-45.915843425025365,-0.361783354553042,0.006332103180821272,0.08999475514604681,15.147766290612918,-1.0,"[40.59728334729834, -226.4085144911699, 46.0623149600435]","[57.935124163227464, -216.6889199756425, 43.84223426438579]","[57.898013629920165, -236.27347197686345, 47.89734779174729]",10000000000.0,0.07536554336547852
17,9.805909395217896,41.96787643432617,-226.2849884033203,46.20625305175781,-0.27776554226875316,0.012506724335253131,-0.005070968470301364,20.392943367544657,"array('d', [-226.44776916503906, -226.43728890387766, -226.40411529069104, -226.34270700275744, -226.2479167878494, -226.11522144381541, -225.9417759784876, -225.72678806254893, -225.47114806130637, -225.17691952823853, -224.846880395689, -224.48415366207627, -224.09193600096285, -223.67331493908543, -223.2311591027607, -222.76806526643188])","array('d', [37.84385299682617, 39.36188831809857, 40.87812278527962, 42.39251376906258, 43.90457157202395, 45.41347192259363, 46.91811856321728, 48.41719921263384, 49.90939343743393, 51.393558666767525, 52.86882522357252, 54.3346173722486, 55.790626550995306, 57.23676081430693, 58.67308820728644, 60.099790140395235])","array('d', [-46.01772689819336, -46.00629406170065, -46.00116303212342, -46.00076548145294, -46.00385826481721, -46.009454075157414, -46.01676866495444, -46.02517875637349, -46.03418956679854, -46.04341011399366, -46.052534621455465, -46.06132916108572, -46.06962294399772, -46.077303703579005, -46.08431653301888, -46.09066543060961])","array('d', [-0.16926839947700514, -0.22790084901667246, -0.2809536880403362, -0.3289578861758429, -0.3723938840576565, -0.3986010510270808, -0.4061380924949337, -0.3996235532525738, -0.383188006984062, -0.3603472489547536, -0.3339587321235001, -0.3062404203455065, -0.27882190553773006, -0.25280383644779836, -0.22881161459889476, -0.20703732931707688])","array('d', [-0.009935606271028404, -0.005205229632420077, -0.001620959155546879, 0.0010517823139857313, 0.0029984540208788033, 0.004367024254478731, 0.005276136713831283, 0.005821002863809167, 0.006078050816767673, 0.0061089936000295235, 0.005964575860341916, 0.005688032910508857, 0.005318206196798844, 0.004892237072724878, 0.0044477582036835835, 0.004024498302552294])","array('d', [0.0007123510029653875, 0.013752879433988313, 0.03060936764756215, 0.051015701885494855, 0.07473163406852401, 0.10103037239825832, 0.12859918093583192, 0.15620149792757024, 0.18293265319677732, 0.2081979768204962, 0.23166083138360966, 0.25318135258269575, 0.27275912886450554, 0.2904849470474001, 0.30650165486140946, 0.32097200105767254])",-226.11522144381541,45.41347192259363,-46.009454075157414,-0.3986010510270808,0.004367024254478731,0.10103037239825832,15.146761236581762,-1.0,"[42.47790483987155, -226.33679065000186, 46.14593672002993]","[59.84137025569621, -216.78769803563296, 43.43948165931556]","[59.75232877639876, -236.14551473622907, 48.466111166359724]",10000000000.0,0.09438133239746094
18,9.84994101524353,42.77823257446289,-226.2447967529297,46.23785400390625,-0.29579812288284313,0.012169130146503334,-0.005026622614588252,20.288168309501618,"array('d', [-226.3741455078125, -226.3667534765441, -226.33122195201207, -226.26238349565153, -226.1554374021241, -226.0061795205444, -225.81204554654371, -225.57259184302598, -225.28911802853656, -224.96411128240925, -224.60075302618765, -224.20253017086338, -223.7729566973872, -223.31539176081588, -222.83293488812018, -222.32837917619938])","array('d', [39.92293167114258, 41.43891577101708, 42.953638362544915, 44.466747028253, 45.977426907239135, 47.484515737109675, 48.98660121103443, 50.48210949477761, 51.969521477994604, 53.447566619914376, 54.91531208967541, 56.37217078154926, 57.817859944544324, 59.25233766284975, 60.67573615576677, 62.08830794831554])","array('d', [-46.118343353271484, -46.10348440834767, -46.0954589869985, -46.09260253657299, -46.093591179694656, -46.097371343947025, -46.10310548454203, -46.11012823335674, -46.117911857419436, -46.12603972220844, -46.13418612323303, -46.14210160563259, -46.14960316890482, -46.156568778790266, -46.16293551656726, -46.16870057809382])","array('d', [-0.22662158310413366, -0.27979616030983817, -0.3279105117780367, -0.37144618118915446, -0.4108388868954808, -0.4344063267133081, -0.439143941894367, -0.4298023997500321, -0.4106260945049091, -0.3852086495660019, -0.35644843268197474, -0.326575124356795, -0.29721083384157376, -0.2694385235745865, -0.24386265120081793, -0.22065607164811296])","array('d', [-0.012405618093907752, -0.007281801272299153, -0.0033767035160526425, -0.00044383409410757047, 0.001713412057284236, 0.0032528099017804695, 0.004301302535926, 0.0049609446118001645, 0.005313673320089837, 0.005425534358003492, 0.005350606256050031, 0.005134638549547253, 0.004818332192932469, 0.00444017487313564, 0.004038746505560858, 0.0036544091802854254])","array('d', [-0.003206892809595555, 0.013571396145047123, 0.03390574694569927, 0.05755402277905181, 0.08429503542450656, 0.11344179976796527, 0.14368151506248575, 0.17373112226796095, 0.2026672862352555, 0.22989926404854916, 0.2551082241776016, 0.27817820500885143, 0.29913354481146265, 0.318087790685495, 0.335203438128996, 0.3506596814617506])",-226.0061795205444,47.484515737109675,-46.097371343947025,-0.4344063267133081,0.0032528099017804695,0.11344179976796527,15.1464736474791,-1.0,"[43.46773983774886, -226.29259422854284, 46.18749345432079]","[60.83737613350745, -216.82004847749675, 43.26061594622372]","[60.735965130540535, -236.05286425893587, 48.7459156577895]",10000000000.0,0.03683829307556152
19,9.888285160064697,43.5796012878418,-226.20040893554688,46.26763153076172,-0.31227132678031927,0.011724296957254252,-0.004686041674341863,20.18435964556557,"array('d', [-226.34030151367188, -226.33335735863125, -226.29619161864304, -226.22377653344952, -226.11144347502494, -225.95511177093587, -225.75232678639946, -225.5027833193177, -225.2079440798131, -224.8704644195638, -224.49368482420405, -224.08123448938318, -223.63675040043083, -223.1636961312963, -222.66525927614666, -222.14430726561653])","array('d', [40.74406051635742, 42.25929626845664, 43.773455758519745, 45.286058420008295, 46.79615612639131, 48.302449412698024, 49.80339889008903, 51.29732749963005, 52.78263997581748, 54.25801915899476, 55.722512007937496, 57.17553179402122, 58.61681053333158, 60.046330142018704, 61.46425170535936, 62.87085885768174])","array('d', [-46.15486526489258, -46.139649944127804, -46.131293107533104, -46.12812939166211, -46.128832632084766, -46.1323467796873, -46.137832230538045, -46.14462218943823, -46.152188063330826, -46.16011278306539, -46.168070470363055, -46.17581159666705, -46.18315304664149, -46.18997251398884, -46.19620655860893, -46.2018515320339])","array('d', [-0.24813008308410656, -0.29925785766161983, -0.34552018535764945, -0.3873800742120067, -0.4252564708809311, -0.4478489707442746, -0.4515398370414325, -0.44113507758659726, -0.42092592713359617, -0.39453754637695193, -0.36488459080408436, -0.33420121571896705, -0.30410639229950276, -0.27567600570221507, -0.24950627920466392, -0.22576263790194553])","array('d', [-0.012655907310545342, -0.00751184881282316, -0.003588205207022239, -0.0006392320288499137, 0.0015318023714349404, 0.0030831584913377373, 0.004142343731045441, 0.0048119176519730265, 0.005174201355370079, 0.005295487039470286, 0.005229971076682683, 0.005023411909243848, 0.004716432233233509, 0.004347373698933336, 0.0039546177414885525, 0.0035782863197519723])","array('d', [-0.004223509630884751, 0.01398491308157026, 0.03565183150587549, 0.06054319164491166, 0.08844439438250838, 0.11868383590514499, 0.14994800898266286, 0.18093455533857153, 0.21071263593355244, 0.23869334324848399, 0.26456525310472556, 0.28822213610916597, 0.30969826465912376, 0.32911621630893806, 0.34664620526646456, 0.362473832082701])",-225.95511177093587,48.302449412698024,-46.1323467796873,-0.4478489707442746,0.0030831584913377373,0.11868383590514499,15.146577896873715,-1.0,"[44.27810256127896, -226.25233609682317, 46.21960075920787]","[61.64737166665614, -216.8316589380322, 43.127783718239236]","[61.54684708140971, -235.96245645943785, 48.95894835343357]",10000000000.0,0.030495166778564453
20,9.924698114395142,43.978946685791016,-226.1771697998047,46.28196334838867,-0.3199585378170015,0.011484110727906118,-0.004383369288172352,20.133050823597205,"array('d', [-226.30406188964844, -226.2971540857646, -226.25805406556205, -226.18186514824768, -226.06404395621584, -225.90062781541894, -225.68926730197674, -225.4297910148516, -225.1238195154048, -224.77417051887124, -224.38433745586096, -223.9580856914057, -223.49916935894328, -223.01115100964975, -222.4973013430476, -221.96055764455068])","array('d', [41.560821533203125, 43.07536466674805, 44.58899428261752, 46.101103376798655, 47.610613080851806, 49.11609004954112, 50.61587153757794, 52.108181374661854, 53.59135244230209, 55.06402499126326, 56.52522919624828, 57.97438138455609, 59.411230280823816, 60.83578293778881, 62.248230107567245, 63.64888696446491])","array('d', [-46.189613342285156, -46.17441181934003, -46.16602602988728, -46.162803057567835, -46.163425195438954, -46.16684261737132, -46.172220675696934, -46.17889677148095, -46.18634594269228, -46.1941542577991, -46.201998489499516, -46.209631251402314, -46.2168710317527, -46.22359656168811, -46.2297448496186, -46.23531208732618])","array('d', [-0.26825428009033214, -0.3174669857713401, -0.361996487315573, -0.40228845008968867, -0.43874612848673555, -0.4604348719290876, -0.46314834829702606, -0.4517474317354893, -0.430569404356396, -0.40327019280865456, -0.3727802043828341, -0.34133783954904157, -0.3105589760189624, -0.28151266007093245, -0.25478722407828447, -0.2305410348589383])","array('d', [-0.012636388652026553, -0.007521800175303423, -0.003619616778284941, -0.0006866661598396286, 0.0014724114603633565, 0.0030151346255256175, 0.004068569547160519, 0.004734955716550028, 0.005096322136814867, 0.005218655808447472, 0.005155822373573881, 0.004953224711041654, 0.00465110990241632, 0.004287428640399382, 0.003900159317980198, 0.003529010295988967])","array('d', [-0.004930301508631401, 0.01463225992047785, 0.0375616157063934, 0.06363089542721072, 0.09263144240230113, 0.12390639229854451, 0.15614127536248057, 0.18801467752738227, 0.2185884783261059, 0.24727569239224753, 0.27377222231412796, 0.2979813555872173, 0.31994700516899927, 0.3398004585315246, 0.35771933579277415, 0.3738953568216613])",-225.90062781541894,49.11609004954112,-46.16684261737132,-0.4604348719290876,0.0030151346255256175,0.12390639229854451,15.146767115293619,-1.0,"[45.07948172659049, -226.2074374892361, 46.25004548822601]","[62.44546625246153, -216.8309530473764, 43.00903932365755]","[62.351752203271914, -235.86317103140235, 49.15443567259252]",10000000000.0,0.024959087371826172
21,9.968863487243652,44.774959564208984,-226.12843322753906,46.309356689453125,-0.33472177386283886,0.011033044196665221,-0.0035684545848031707,20.03416626340815,"array('d', [-226.2849884033203, -226.27780060630388, -226.23748119120955, -226.1591957765241, -226.0384610057676, -225.87137119056695, -225.65562825211987, -225.39112616919707, -225.07956238041598, -224.72383332677785, -224.3275062408399, -223.89441187416554, -223.42836034566596, -222.93296129543987, -222.41152479728837, -221.86702110819732])","array('d', [41.96787643432617, 43.48210171165556, 44.995481950798066, 46.507347689554855, 48.016555744139765, 49.52160725093707, 51.020779468684246, 52.51224860987752, 53.994313737472304, 55.46559581842378, 56.92511837327455, 58.37230064754275, 59.8069007648357, 61.22893908964885, 62.63862170896767, 64.03627988571522])","array('d', [-46.20625305175781, -46.19122268724283, -46.18295658985455, -46.17981384428249, -46.180485709504396, -46.18392934254401, -46.18931571954597, -46.19598687533608, -46.203421696361495, -46.21120944091188, -46.219029490266315, -46.22663653507508, -46.233850643733945, -46.240551656623126, -46.24667724054616, -46.25222380995648])","array('d', [-0.27776554226875316, -0.3260731324632257, -0.3697836515737985, -0.40933456833140225, -0.44512172052155996, -0.4663814971940988, -0.46863053846300246, -0.45675646611937937, -0.4351188041627059, -0.4073881700504863, -0.37650234236220964, -0.34470154571052103, -0.31359998896639035, -0.284263305080035, -0.25727596779321904, -0.23279294350005691])","array('d', [-0.012506724335253131, -0.007428985861716647, -0.0035554168321044184, -0.0006448856825571932, 0.001496647586288, 0.003025801175252358, 0.004068980112225398, 0.004727897610375678, 0.00508413331690477, 0.0052032720320203925, 0.005138809777935858, 0.004935804864958417, 0.004634179975028711, 0.004271577509615218, 0.0038856799660583322, 0.0035159088353994713])","array('d', [-0.005070968470301364, 0.015137265213080031, 0.03866873782929466, 0.06529986278409008, 0.09482473026730981, 0.12659338825728592, 0.1592906928510437, 0.19158600282846167, 0.22253777511460496, 0.2515600844522484, 0.2783524845690691, 0.30282293020548073, 0.3250200204968608, 0.3450792492375458, 0.3631817943103338, 0.3795223027861956])",-225.87137119056695,49.52160725093707,-46.18392934254401,-0.4663814971940988,0.003025801175252358,0.12659338825728592,15.146933515605745,-1.0,"[45.47883336380728, -226.18374439911284, 46.264737560939224]","[62.84186357199427, -216.82613893362048, 42.95408778456992]","[62.7542022478854, -235.8106090913281, 49.2455270732673]",10000000000.0,0.03748440742492676
