,x_pos,y_pos,z_pos,roll,pitch,yaw,vel,x_traj,y_traj,z_traj,roll_traj,pitch_traj,yaw_traj,x_cmd,y_cmd,z_cmd,roll_cmd,pitch_cmd,yaw_cmd,vel_cmd,effector_dmg,effector_x,effector_y,effector_z,cost,time_solution
0,-268.6255187988281,-303.4153137207031,49.976585388183594,0.6297963261604306,0.040396600961685174,1.9452126185086107,23.082741066947303,"array('d', [-303.4153137207031, -301.07708210868384, -298.7132733938455, -296.3256062390181, -293.91592104216346, -291.48621794789324, -289.0387839163092, -286.576479957902, -284.1023636800005, -281.6192876996174, -279.129698594246, -276.63558414851417, -274.1385018873304, -271.6396415669579, -269.1398950253332, -266.63992469924256])","array('d', [-268.6255187988281, -269.50553852324686, -270.31644839099573, -271.05542898001283, -271.7198847319898, -272.3074205751475, -272.81639808292596, -273.2480013502022, -273.60597111493644, -273.895555869577, -274.12265517378484, -274.2932437056116, -274.41303011028714, -274.4872798424079, -274.5207433568771, -274.51765071836144])","array('d', [-49.976585388183594, -49.888579472426684, -49.82271520485429, -49.77325877035485, -49.73594958071273, -49.70762602547122, -49.685942926187735, -49.66916030434074, -49.655986930863904, -49.64546478462822, -49.636883898223644, -49.629720232355886, -49.62359112671715, -49.61822406783127, -49.61343533453662, -49.60911566783013])","array('d', [0.6297963261604306, 0.6446037869154988, 0.658002132672799, 0.6701254583243087, 0.6810950979163721, 0.6910208351465515, 0.679510725180525, 0.65190273547436, 0.613909740050786, 0.5701635487949754, 0.5241672615711084, 0.4784235763327281, 0.43461312782171846, 0.39375820377991083, 0.35635006282790466, 0.3224388999700073])","array('d', [-0.040396600961685174, -0.030193200495430467, -0.022630596077503253, -0.017030603264139105, -0.012887001191480006, -0.009823442705882958, -0.007560999811535848, -0.005893025081386968, -0.0046661890977737035, -0.0037665605414405603, -0.0031091293786233857, -0.0026298072052863292, -0.002279328871250827, -0.0020186698180939184, -0.0018157049882041244, -0.0016429180440032012])","array('d', [1.9452126185086107, 1.9161588129143539, 1.8862399929333376, 1.8555223046203213, 1.8240679044555577, 1.7919350590314536, 1.7598656624411415, 1.7290623202858402, 1.7002905968369235, 1.6739159818918872, 1.6500253436778705, 1.6285369531190437, 1.6092793607238258, 1.5920418826286593, 1.5766055735562947, 1.5627626270243922])",-291.48621794789324,-272.3074205751475,-49.70762602547122,0.6910208351465515,-0.009823442705882958,1.7919350590314536,25.000000247700513,-1.0,"[-267.18235399560854, -307.6486544129639, 49.9164977003807]","[-299.8067900326944, -289.7331083979216, 64.56843901356507]","[-263.4950288054813, -275.4192225489233, 73.31879149102056]",10000000000.0,0.016273975372314453
1,-270.24212646484375,-298.1427001953125,49.95977020263672,0.6446536183357235,0.028901353478431684,1.8973861495640612,23.123616334179587,"array('d', [-298.1427001953125, -295.76400667912804, -293.36282912692326, -290.94105202570387, -288.5007158962673, -286.0440392069199, -283.5735177796743, -281.09206333887397, -278.6026080806527, -276.1077650903119, -273.60968661989955, -271.11005198582444, -268.6101199959648, -266.1108036267741, -263.61274478164233, -261.1163834547454])","array('d', [-270.24212646484375, -271.00854276334616, -271.7025788616357, -272.3216773080233, -272.86348359967144, -273.3258742334902, -273.7076555981065, -274.0105632358181, -274.2388145808849, -274.39801388589206, -274.4943098171276, -274.53384480887684, -274.5224381530793, -274.46542792489447, -274.3676128054164, -274.2332559410397])","array('d', [-49.95977020263672, -49.89709742473065, -49.85069362500241, -49.81620748687896, -49.79044951536125, -49.771083037042786, -49.75639546867867, -49.74513032940258, -49.736364743878575, -49.729420287447944, -49.7237982383245, -49.71913301539878, -49.715159245467504, -49.711688982497364, -49.70859634822155, -49.705807387128964])","array('d', [0.6446536183357235, 0.6580472220231858, 0.670166256885189, 0.681132014061938, 0.6910542422754192, 0.6986721203241217, 0.6845568957286717, 0.65507421845208, 0.6158189606828071, 0.5712793185659593, 0.5248214257200863, 0.478833121960846, 0.4349064926389494, 0.39400062618278764, 0.35656650839059334, 0.32263474803183345])","array('d', [-0.028901353478431684, -0.021367913568048427, -0.015849365607713342, -0.011807858929175291, -0.008848262210670978, -0.00668122873430818, -0.005095350284501103, -0.003936130152735515, -0.003090460233615587, -0.0024753729689062512, -0.0020297047471278707, -0.0017078450004227705, -0.0014750556491779452, -0.001304008993667477, -0.0011722962668711658, -0.001060737705277129])","array('d', [1.8973861495640612, 1.867464387360719, 1.836743983835169, 1.8052870815125688, 1.7731519332733527, 1.7404391328180568, 1.7079531681055797, 1.6768889151643716, 1.6479638745976357, 1.6215031407668172, 1.5975649567847987, 1.576049475129894, 1.5567747904465976, 1.5395247808243147, 1.524078080124832, 1.5102260414355042])",-286.0440392069199,-273.3258742334902,-49.771083037042786,0.6986721203241217,-0.00668122873430818,1.7404391328180568,25.00000024789321,-1.0,"[-270.72314796668906, -296.72258067940544, 49.91642420740714]","[-300.7667905885046, -276.1478465833661, 66.47117744899623]","[-262.8969368309834, -265.23276201217055, 73.30748531125668]",10000000000.0,0.02149510383605957
2,-271.6009521484375,-292.2779541015625,49.998680114746094,0.6908755302429196,-0.016871495172381415,1.845314846434865,23.193787800561687,"array('d', [-292.2779541015625, -289.86118930862347, -287.42454385470484, -284.970469954785, -282.5015672111962, -280.02058946201834, -277.53049640381306, -275.0344110585669, -272.53522421391403, -270.03533305817484, -267.53657575449614, -265.0402763557069, -262.54733361557567, -260.05831624493703, -257.573547738741, -255.09317896901396])","array('d', [-271.6009521484375, -272.23919357734593, -272.79728158164664, -273.27323878216777, -273.66527449525984, -273.9718768038844, -274.19269928079075, -274.33043739872414, -274.3902081305563, -274.3783672026734, -274.30164962319634, -274.16663899272993, -273.9794819755267, -273.74576028893506, -273.47045680643976, -273.15797748461046])","array('d', [-49.998680114746094, -50.0351082584416, -50.061813838783294, -50.08147915759003, -50.0960452139842, -50.10691605626441, -50.115108002305, -50.12135775063071, -50.12620020211823, -50.13002437026755, -50.13311344163649, -50.13567320920837, -50.13785194408129, -50.139754001063444, -50.14144891662889, -50.14297738306988])","array('d', [0.6908755302429196, 0.6998705412387605, 0.7080095644857062, 0.7153740579011256, 0.722037727604837, 0.7249108135323947, 0.706602766466855, 0.6736101487991426, 0.631533858777666, 0.5847819821204732, 0.5366023525316569, 0.48926040369659857, 0.4442401648854611, 0.40241518431254064, 0.3641763518074166, 0.32952041972438867])","array('d', [0.016871495172381415, 0.012347544369751766, 0.009071978598130134, 0.006700011383732687, 0.004981568046366025, 0.0037359136591358483, 0.00283272209415193, 0.002178003818928089, 0.0017038692995586348, 0.001361183086161688, 0.0011141948748996085, 0.0009365824518112609, 0.0008085416271455302, 0.0007146700558279695, 0.0006424669788902014, 0.0005813281326413166])","array('d', [1.845314846434865, 1.812567249258131, 1.7792457759174447, 1.745397799424758, 1.7110673220890222, 1.6764075210048515, 1.6422937146203362, 1.6099136958169773, 1.579938484157519, 1.5526356566802941, 1.5280116123908094, 1.5059260573510376, 1.4861679030709136, 1.4685008972617637, 1.4526900852835083, 1.4385175440038618])",-280.02058946201834,-273.9718768038844,-50.10691605626441,0.7249108135323947,0.0037359136591358483,1.6764075210048515,25.000000248081957,-1.0,"[-270.72314796668906, -296.72258067940544, 49.91642420740714]","[-300.7667905885046, -276.1478465833661, 66.47117744899623]","[-262.8969368309834, -265.23276201217055, 73.30748531125668]",10000000000.0,0.022504568099975586
3,-272.481201171875,-286.7364501953125,50.1591796875,0.7106354832649228,-0.03580771014094361,1.7925115386631825,23.227861016839228,"array('d', [-286.7364501953125, -284.2899529223758, -281.82693353710005, -279.350395280184, -276.86335509252376, -274.3689009024636, -271.8702118913074, -269.370367562869, -266.87200562575504, -264.37716062997293, -261.88727066828056, -259.40326503644627, -256.92567456265937, -254.45473554538842, -251.99047623141283, -249.53278738798014])","array('d', [-272.481201171875, -272.9892292506271, -273.4132634630046, -273.7516209937356, -274.0028407699659, -274.16586154628686, -274.24117978840064, -274.2322993629006, -274.1449376596953, -273.9858510258088, -273.762020003642, -273.48016690889096, -273.1465089880716, -272.76665768355247, -272.34560262089985, -271.88774469771977])","array('d', [-50.1591796875, -50.236022178960226, -50.29156562540317, -50.33186875830543, -50.36125995374122, -50.3828318209702, -50.3987968789891, -50.41074142031846, -50.4198057877449, -50.426812166597045, -50.4323548282662, -50.43686320865324, -50.44064527236652, -50.443916633610236, -50.44681953548015, -50.449434860788024])","array('d', [0.7106354832649228, 0.7177500877298529, 0.7241876486308991, 0.7300125951062407, 0.7352832249723503, 0.7335501062528001, 0.7117812651897626, 0.6763718435324134, 0.632728561361934, 0.5850428988422517, 0.5363667676757229, 0.4888071385246947, 0.4437290207252634, 0.4019227073805998, 0.3637269692947235, 0.3291138015750665])","array('d', [0.03580771014094361, 0.025842462484702396, 0.01871494644459527, 0.013614084044663464, 0.009960377995057165, 0.007341030668405016, 0.005462442905577451, 0.004115693605185977, 0.003151894522402259, 0.0024646800577878833, 0.001977578730406824, 0.0016348449973921397, 0.0013948113441808855, 0.0012251093425753553, 0.0010993112178167349, 0.0009946979315533506])","array('d', [1.7925115386631825, 1.758492192823849, 1.724004781405488, 1.6890890187666923, 1.6537816220274366, 1.6183527214986138, 1.5837613023698662, 1.5511190896202363, 1.521021018068021, 1.4936759258039356, 1.4690512767325548, 1.4469835627298107, 1.4272491396599691, 1.4096058106534572, 1.3938164657105443, 1.3796628973950533])",-274.3689009024636,-274.16586154628686,-50.3828318209702,0.7335501062528001,0.007341030668405016,1.6183527214986138,25.00000024823058,-1.0,"[-272.8108444840914, -285.27410564382154, 50.212879775356434]","[-299.92155803909105, -262.36071848382164, 68.65158632963261]","[-260.92570333266605, -256.6049679745912, 75.44825108456078]",10000000000.0,0.019278526306152344
4,-273.0984191894531,-280.6628723144531,50.37712097167969,0.729083120822906,-0.04061436280608178,1.7440404007819033,23.256274345881067,"array('d', [-280.6628723144531, -278.19472266033415, -275.71366593693847, -273.2231029816762, -270.7263655071558, -268.2267906910976, -265.7276712744532, -263.231963570473, -260.74201152410484, -258.2594763607886, -255.78540459937577, -253.32034968455352, -250.86449793613676, -248.4177776230599, -245.97994515652886, -243.5506527366627])","array('d', [-273.0984191894531, -273.48572513210206, -273.78545275894095, -273.99627719623254, -274.1171016591385, -274.14733505750206, -274.08832098280965, -273.94434415346836, -273.7216772755707, -273.42743018552767, -273.0687870699871, -272.6525741960839, -272.1850512582224, -271.6718367176492, -271.11790846485775, -270.52764705749036])","array('d', [-50.37712097167969, -50.46380594972873, -50.525656719247955, -50.569918032755716, -50.60170943383838, -50.62465091549709, -50.64130695225529, -50.65349944767407, -50.66252743128207, -50.66932103387475, -50.67454889446439, -50.678692259925164, -50.682095188552644, -50.684997656061185, -50.68755657593805, -50.68985856453297])","array('d', [0.729083120822906, 0.7344422019771324, 0.7392912995528175, 0.7436789448382259, 0.7476490506361099, 0.7414943548292801, 0.7164322408350158, 0.6787429131766574, 0.6336348425828824, 0.5850864299854971, 0.5359606007984925, 0.48821318585967777, 0.4430964362498179, 0.40132211028282705, 0.3631799797045938, 0.3286188648818159])","array('d', [0.04061436280608178, 0.028942626616860114, 0.02068099963266547, 0.014827598175376152, 0.01067549174387023, 0.007727142029891291, 0.0056327272817908525, 0.004146108292123267, 0.0030938483466691155, 0.002353392761105211, 0.001837504802388418, 0.0014831012257740478, 0.0012432437961726363, 0.001081430087030028, 0.000967604982868657, 0.0008755251912088333])","array('d', [1.7440404007819033, 1.7087957575272188, 1.6731879156237779, 1.6372485275301967, 1.601006718462946, 1.564850257403549, 1.529818318667615, 1.496942758964724, 1.4667426401025958, 1.4393699822756176, 1.4147553302626097, 1.39271348108087, 1.3730092149706314, 1.3553949615577618, 1.3396317613186228, 1.3255012790071754])",-268.2267906910976,-274.14733505750206,-50.62465091549709,0.7414943548292801,0.007727142029891291,1.564850257403549,25.000000248343273,-1.0,"[-272.8108444840914, -285.27410564382154, 50.212879775356434]","[-299.92155803909105, -262.36071848382164, 68.65158632963261]","[-260.92570333266605, -256.6049679745912, 75.44825108456078]",10000000000.0,0.01688218116760254
5,-273.393798828125,-275.0308532714844,50.57356262207031,0.7358456850051877,-0.041492912918329274,1.6999257365849356,23.28054442240787,"array('d', [-275.0308532714844, -272.5480154727837, -270.0560394002538, -267.5584932349621, -265.0588383236086, -262.5604979066258, -260.0667130847957, -257.5802049171012, -255.10297563659407, -252.63631301913753, -250.1809015640168, -247.73696396823303, -245.3043934262812, -242.88286236875817, -240.47190543205832, -238.07098284225722])","array('d', [-273.393798828125, -273.671296924898, -273.85964315575376, -273.95775137382486, -273.9647605301895, -273.88042106305363, -273.70678866989095, -273.4487366371018, -273.11287986370377, -272.7064859179419, -272.2367787585569, -271.7105573953349, -271.13402068297006, -270.5127128278159, -269.85153541335865, -269.1547965485427])","array('d', [-50.57356262207031, -50.66171046735653, -50.7238960727418, -50.767853451640406, -50.79899541398537, -50.821115102768545, -50.836877480967864, -50.8481616526049, -50.85629867318247, -50.862236539606315, -50.8666540625652, -50.87003855397033, -50.872737805992976, -50.87499381868132, -50.87696369585238, -50.87873181251126])","array('d', [0.7358456850051877, 0.7405612236429948, 0.7448280198146028, 0.7486887769447615, 0.7521821344709317, 0.7421943343584713, 0.7145198988714463, 0.6752349658238862, 0.6292966141752506, 0.5804486022641694, 0.5313630285666507, 0.4838523995673427, 0.43906732815873845, 0.3976519712136611, 0.3598560488649804, 0.32561124761077737])","array('d', [0.041492912918329274, 0.029244749865578564, 0.02065235776853055, 0.014616107640900348, 0.010368975805339574, 0.007376925930902161, 0.005268239490216506, 0.0037838911034450665, 0.0027430995587569913, 0.0020192729726837785, 0.0015230256288376242, 0.0011901218068068463, 0.0009729038420595082, 0.0008342200590301398, 0.0007432002185445251, 0.000672475345315575])","array('d', [1.6999257365849356, 1.6642222213403712, 1.6281955417271772, 1.5918741463751995, 1.5552841645567321, 1.5189393814272056, 1.4839509788090675, 1.4512563532641545, 1.4213008188978977, 1.3941892750115736, 1.3698264566538527, 1.3480152600701067, 1.3285166474259336, 1.3110835224054895, 1.2954793981012056, 1.2814890182100969])",-262.5604979066258,-273.88042106305363,-50.821115102768545,0.7421943343584713,0.007376925930902161,1.5189393814272056,25.00000024842838,-1.0,"[-273.5867888513751, -273.54462201949, 50.6357841337941]","[-297.86011921960767, -249.3129379566379, 71.21808041756083]","[-258.22728583309134, -246.59924681751866, 75.89508781098044]",10000000000.0,0.019338369369506836
6,-273.42022705078125,-268.9664001464844,50.78956604003906,0.7420764565467831,-0.041185170412063585,1.6483599404480793,23.286257079650284,"array('d', [-268.9664001464844, -266.4724921250271, -263.9740480652775, -261.4747698348836, -258.9782231672815, -256.48788024260483, -254.00682970444888, -251.53744464550584, -249.08128874801812, -246.639198770829, -244.21143663218157, -241.7978470682353, -239.39799294745492, -237.01126106906722, -234.63693999322987, -232.27427779636787])","array('d', [-273.42022705078125, -273.5688442099152, -273.6269343193, -273.5936869763555, -273.4685082585165, -273.2515431201537, -272.9456850326192, -272.5564676123597, -272.0908573930155, -271.55625499765847, -270.9598841192882, -270.308471755303, -269.6081119261298, -268.86423390618626, -268.0816265885116, -267.2644936884715])","array('d', [-50.78956604003906, -50.87660035775409, -50.937207742520485, -50.97944089694753, -51.008875045082206, -51.0293782450723, -51.04364328900979, -51.053553321646405, -51.06043286412881, -51.06522000246034, -51.068583834718474, -51.071003613273895, -51.07282095786769, -51.074273105261284, -51.07551289746569, -51.07661978492009])","array('d', [0.7420764565467831, 0.7461990593840737, 0.7499293450043981, 0.7533046472528295, 0.7563587465438958, 0.7417686863889037, 0.7110226996860737, 0.6699142917830392, 0.6230772671733171, 0.573963952396194, 0.5250138655626341, 0.47786672489952264, 0.433551457640808, 0.39263173026174947, 0.3553098950197199, 0.32149771713088443])","array('d', [0.041185170412063585, 0.02866566366307001, 0.019970205621960134, 0.013918924116344716, 0.009699346744494294, 0.00675256118957426, 0.0046938806930582715, 0.0032581181637274105, 0.0022621378770655417, 0.0015789717371165607, 0.00111975551948813, 0.0008210506079554449, 0.0006359136362427715, 0.0005276110361948996, 0.00046526285053404763, 0.00042098719214723925])","array('d', [1.6483599404480793, 1.6122288534159595, 1.5758122870533267, 1.539135609943686, 1.5022220820989542, 1.4657424946607704, 1.4308928859436338, 1.3984906979657028, 1.3688921947766284, 1.3421474327898282, 1.318132169040869, 1.296636678301807, 1.2774185978237618, 1.260232335700044, 1.2448450771920896, 1.231045804023605])",-256.48788024260483,-273.2515431201537,-51.0293782450723,0.7417686863889037,0.00675256118957426,1.4657424946607704,25.000000248515487,-1.0,"[-273.5867888513751, -273.54462201949, 50.6357841337941]","[-297.86011921960767, -249.3129379566379, 71.21808041756083]","[-258.22728583309134, -246.59924681751866, 75.89508781098044]",10000000000.0,0.020456314086914062
7,-273.1709289550781,-263.4129638671875,50.99243927001953,0.7424749135971067,-0.043838165700435625,1.6005523866650202,23.27203985690468,"array('d', [-263.4129638671875, -260.9149930554607, -258.41670557333407, -255.92190965661734, -253.43422526012, -250.957097205853, -248.49336565847608, -246.04500839563983, -243.61315338754443, -241.1982195153305, -238.80009385210167, -236.41829563924182, -234.05210920716385, -231.7006842018098, -229.363107222112, -227.03845376539743])","array('d', [-273.1709289550781, -273.20015645908535, -273.13868233096497, -272.98587566815667, -272.7413413295997, -272.405608224271, -271.9822809699577, -271.47738210576495, -270.8980738727026, -270.25176418912804, -269.54558052766544, -268.78610608111467, -267.9792762777627, -267.13036468803733, -266.2440159751597, -265.32430449076753])","array('d', [-50.99243927001953, -51.0846929387548, -51.1482822155122, -51.192105644249054, -51.222266359674286, -51.24296220177311, -51.25709262249447, -51.2666711087873, -51.27310542756477, -51.277387949730496, -51.280224174637404, -51.28211846848928, -51.28343001050834, -51.28440791583105, -51.285211870516285, -51.28592298740778])","array('d', [0.7424749135971067, 0.7465595982605349, 0.7502555740897292, 0.7535998315258188, 0.755904392769477, 0.7372431112903319, 0.7039482469342806, 0.6614829312162005, 0.6141420975392172, 0.5650898599548841, 0.5165441164008396, 0.46998429565404864, 0.4263289040962325, 0.386070129971087, 0.3493694341858362, 0.316122565401193])","array('d', [0.043838165700435625, 0.03020945789970043, 0.020824202748653844, 0.014344491832141386, 0.009859504489523673, 0.0067492500922585255, 0.0045911501755658965, 0.003096590480244187, 0.0020680288579733343, 0.0013696410850285133, 0.0009070561627587737, 0.0006132798285054855, 0.00043886343857338535, 0.00034502622378124143, 0.000298906891670742, 0.0002704620822506158])","array('d', [1.6005523866650202, 1.5643937978061027, 1.5279521662632336, 1.49125265932134, 1.454345503241927, 1.4180493603079845, 1.3836054753160638, 1.3517120564963996, 1.3226449092045265, 1.2964089473927916, 1.2728590212250006, 1.2517787613939915, 1.2329267001771222, 1.2160616831867566, 1.2009566156259905, 1.1874061855197868])",-250.957097205853,-272.405608224271,-51.24296220177311,0.7372431112903319,0.0067492500922585255,1.4180493603079845,25.000000248584236,-1.0,"[-273.2155135831381, -261.91506835533204, 51.058175458714096]","[-294.2170916216958, -236.21849531269874, 73.38797289968932]","[-254.2732113055507, -236.52633574926796, 75.48360157745941]",10000000000.0,0.017368078231811523
8,-272.6042785644531,-257.43218994140625,51.22089385986328,0.73914361000061,-0.04341508820652952,1.5502534723517036,23.25525095574552,"array('d', [-257.43218994140625, -254.9358480778819, -252.44370536640912, -249.95956805187123, -247.48700988219915, -245.02924485540598, -242.58869408942036, -240.16684485800542, -237.76434828960038, -235.38119912468167, -233.01692303773336, -230.67073706726586, -228.34167433397783, -226.02867548355624, -223.7306524652149, -221.44653626226972])","array('d', [-272.6042785644531, -272.50816562082446, -272.32199397565574, -272.0452738089339, -271.67793218591345, -271.2214666295407, -270.680207434072, -270.0604682073113, -269.3694052656509, -268.6142547257681, -267.8018981614378, -266.9386529594861, -266.0301971877371, -265.08156853102355, -264.09720181749077, -263.0809888294393])","array('d', [-51.22089385986328, -51.311824228330714, -51.37375244676044, -51.415848688265875, -51.444343549698196, -51.46348605039385, -51.476188432378805, -51.484459545637904, -51.48969636235846, -51.49287989663197, -51.49470612978138, -51.4956724103225, -51.496133119419966, -51.496333980912986, -51.49643155889862, -51.49650277635425])","array('d', [0.73914361000061, 0.7435453097400042, 0.7475281326195047, 0.7511319396872164, 0.7475615310186859, 0.7251032332641631, 0.6897285249439123, 0.6464591904479967, 0.599183609896401, 0.5507416318095857, 0.5031128249310433, 0.45761040352480725, 0.41504216396738486, 0.3758312325769788, 0.3401016494728422, 0.30773672624441034])","array('d', [0.04341508820652952, 0.02957669138519367, 0.02012874702486344, 0.0136578441830953, 0.00921271091655175, 0.006152495636220486, 0.004044619048761908, 0.0025964426137000986, 0.0016094784837452252, 0.0009483781157647654, 0.0005197587551623346, 0.0002576383815082924, 0.00011333614400282861, 4.843571745061702e-05, 2.993529428071852e-05, 2.7086350021190754e-05])","array('d', [1.5502534723517036, 1.5143242235268932, 1.4780916597354592, 1.4415826150863162, 1.4050767299312015, 1.3695207771381632, 1.3359827541872544, 1.3050313645616478, 1.2768655582644663, 1.2514537531388876, 1.2286391087804982, 1.2082067295680752, 1.1899226875263442, 1.1735555432643874, 1.1588880707796516, 1.1457239159459103])",-245.02924485540598,-271.2214666295407,-51.46348605039385,0.7251032332641631,0.006152495636220486,1.3695207771381632,25.0000002462694,-1.0,"[-273.2155135831381, -261.91506835533204, 51.058175458714096]","[-294.2170916216958, -236.21849531269874, 73.38797289968932]","[-254.2732113055507, -236.52633574926796, 75.48360157745941]",10000000000.0,0.016388893127441406
9,-271.82415771484375,-251.94171142578125,51.423194885253906,0.7340715527534482,-0.039868142455816255,1.5042633573201043,23.243878589446652,"array('d', [-251.94171142578125, -249.45211369770044, -246.9708672259729, -244.50168603067877, -242.04803541182704, -239.61282304376147, -237.1980306860889, -234.80468494455576, -232.43301351473033, -230.08264680341495, -227.75280664650035, -225.44245975400008, -223.15043337470078, -220.8754982168788, -218.6164250376104, -216.3720263342531])","array('d', [-271.82415771484375, -271.6137949939651, -271.31448766940895, -270.9258404381188, -270.44803319039795, -269.8833708773334, -269.23675389649713, -268.5146844435667, -267.7242592978212, -266.87252221757666, -265.96610689050067, -265.0110718686687, -264.0128483438929, -262.97624932423764, -261.9055104443046, -260.80434944945074])","array('d', [-51.423194885253906, -51.50628173283012, -51.5621300013592, -51.599490436511275, -51.62426027960611, -51.64043186288417, -51.65072385681843, -51.65700147138603, -51.66055659088485, -51.66229433874884, -51.662856595801344, -51.66270267910809, -51.66216062517949, -51.66145810695347, -51.66073922505176, -51.66007177797373])","array('d', [0.7340715527534482, 0.7389559221162072, 0.7433754825316462, 0.7473744656526355, 0.7386197978393902, 0.7128904088619655, 0.6757881883706665, 0.6319212834389678, 0.5848110588593534, 0.5370093440192915, 0.49028519915225693, 0.44580507836892697, 0.4042788650344546, 0.36606852999694184, 0.3312650572955199, 0.29974104627050824])","array('d', [0.039868142455816255, 0.026831528279247376, 0.01799830505975376, 0.01199140762008511, 0.007893171587220181, 0.005090936260228664, 0.0031746507899518073, 0.001869223577170421, 0.0009895477888523644, 0.00041031340328930694, 4.5576773932580815e-05, -0.0001651940505745186, -0.0002667548552506284, -0.0002947920120626254, -0.00028055107922476664, -0.00025385336377513156])","array('d', [1.5042633573201043, 1.4686807432882907, 1.4327643759608686, 1.396543558228685, 1.360502529176603, 1.325696406358171, 1.2930371114038133, 1.2629824112651569, 1.2356675106040993, 1.2110314686739305, 1.1889087745327596, 1.1690867518467676, 1.1513386910981498, 1.1354421409999893, 1.1211889388220067, 1.1083909718104596])",-239.61282304376147,-269.8833708773334,-51.64043186288417,0.7128904088619655,0.005090936260228664,1.325696406358171,25.000000246406337,-1.0,"[-271.7245111187051, -250.44621948480557, 51.48298125790466]","[-289.36316410086863, -223.32523673723196, 75.00595334437]","[-249.4833790081835, -226.36534126490727, 74.4055323070517]",10000000000.0,0.022185325622558594
10,-270.70343017578125,-246.03428649902344,51.634071350097656,0.7227435111999508,-0.038770303130149834,1.4547864208605625,23.23738582776262,"array('d', [-246.03428649902344, -243.5579182686132, -241.09398342529175, -238.6461032954987, -236.21759721639935, -233.81096783131494, -231.42768748892257, -229.0682948345347, -226.73259367272095, -224.41986379797126, -222.12904325764424, -219.8588704990896, -217.60798877645743, -215.37501949875758, -213.1586111954724, -210.9574756296428])","array('d', [-270.70343017578125, -270.37114463861553, -269.95223189931977, -269.4463002029885, -268.8536966651375, -268.1774379733868, -267.42286779462324, -266.5965486973525, -265.7054071387062, -264.75620407284174, -263.7552524235743, -262.70829292247544, -261.62046166392054, -260.496307133095, -259.3398325146433, -258.1545537923978])","array('d', [-51.634071350097656, -51.714496838792876, -51.76790063883463, -51.8030963175583, -51.825974927432085, -51.840495613211836, -51.849337334487444, -51.85432842822591, -51.85673037456989, -51.85742507322544, -51.857037722697015, -51.85601631117008, -51.85468151911101, -51.853256189008846, -51.85188063113018, -51.850618382037396])","array('d', [0.7227435111999508, 0.7287058852777937, 0.7341008647023012, 0.7389824385927921, 0.7251154398927254, 0.6963438499859018, 0.657814223503842, 0.6136716941321289, 0.5670456986829423, 0.520188363968097, 0.4746530798283385, 0.43145757555207603, 0.3912135154424843, 0.3542223452649458, 0.32054319226880057, 0.29003950072480467])","array('d', [0.038770303130149834, 0.0257980477130463, 0.01707391411799086, 0.011181890460309499, 0.00718789282743695, 0.004473997763650471, 0.0026301539295717482, 0.0013835202670306275, 0.0005519100551814577, 1.2841612895042665e-05, -0.0003172160167181003, -0.0004969154758998752, -0.0005697039552530819, -0.0005705461283431064, -0.0005305671493459842, -0.0004800772794762597])","array('d', [1.4547864208605625, 1.4199671550990598, 1.38474795247034, 1.3491633441592574, 1.3139089010520604, 1.280143500642277, 1.2486150585032953, 1.2196730052236529, 1.1933944280382405, 1.169694443954153, 1.1484032743463275, 1.129313904843973, 1.1122095492114548, 1.0968789049098522, 1.0831246260584613, 1.0707682777347522])",-233.81096783131494,-268.1774379733868,-51.840495613211836,0.6963438499859018,0.004473997763650471,1.280143500642277,25.000000246533208,-1.0,"[-271.7245111187051, -250.44621948480557, 51.48298125790466]","[-289.36316410086863, -223.32523673723196, 75.00595334437]","[-249.4833790081835, -226.36534126490727, 74.4055323070517]",10000000000.0,0.017345428466796875
11,-269.3955383300781,-240.55882263183594,51.8302116394043,0.7072693109512328,-0.036534700542688314,1.411807612576757,23.253705574275116,"array('d', [-240.55882263183594, -238.0986300165627, -235.65410263469425, -233.22868655786309, -230.82536173120553, -228.44615983978125, -226.09208630327265, -223.76328005705423, -221.4592253086445, -219.1789549796762, -216.92121909427496, -214.684613231899, -212.46767163591747, -210.26893189979464, -208.08697750712236, -205.92046884011467])","array('d', [-269.3955383300781, -268.9584050830918, -268.43764512419096, -267.8329216277341, -267.1451673592789, -266.3779038159626, -265.53658845283445, -264.627605739954, -263.6575535420564, -262.63281012851724, -261.5593064517453, -260.44242861187877, -259.2869957555711, -258.09727895896793, -256.87704131152617, -255.629591958697])","array('d', [-51.8302116394043, -51.905650291162345, -51.955114738045836, -51.98718197697181, -52.00754666779022, -52.020013539744674, -52.027144328513145, -52.030680739480935, -52.03182165371826, -52.03140467172749, -52.03002431687715, -52.02810783256539, -52.025962169947924, -52.02380109486051, -52.02175848739852, -52.01989231556093])","array('d', [0.7072693109512328, 0.7147042485562151, 0.7214316585092213, 0.7225198710464944, 0.7050884233974547, 0.6745670848138837, 0.635627639419378, 0.5919821865515413, 0.5464164656629461, 0.5009313120021129, 0.4569057793333267, 0.41524152567007383, 0.37647654524177454, 0.34086929932167725, 0.30845857917878405, 0.2791048896284183])","array('d', [0.036534700542688314, 0.024034310077945025, 0.015679323121667872, 0.010068799871149791, 0.006286243163430525, 0.003729942559230018, 0.0020034973922067197, 0.000844959181853615, 8.052454529019135e-05, -0.0004059940405704252, -0.0006934938199858687, -0.000837294877999456, -0.000878547238759322, -0.0008507763046588189, -0.000784416840441742, -0.0007097699991904484])","array('d', [1.411807612576757, 1.3780078120020038, 1.3437214625778386, 1.3091672737566669, 1.2751874317882737, 1.2428251505217527, 1.2126920657377016, 1.1850584348365083, 1.1599659995197986, 1.137321461907069, 1.116960696452367, 1.0986885025908988, 1.0823017808868038, 1.0676026671670176, 1.0544060366411072, 1.042544046276802])",-228.44615983978125,-266.3779038159626,-52.020013539744674,0.6745670848138837,0.003729942559230018,1.2428251505217527,25.000000246627053,-1.0,"[-269.15821716989564, -239.0787291421687, 51.88500149954538]","[-283.4120996034951, -210.3334223051963, 75.77085862080929]","[-243.94293987903535, -216.0845909542636, 72.75266548333977]",10000000000.0,0.018950939178466797
12,-267.71746826171875,-234.69029235839844,52.028106689453125,0.6903341412544247,-0.03203556314110761,1.3655325780299046,23.286573845189416,"array('d', [-234.69029235839844, -232.2523735752233, -229.8334124048778, -227.43662466737786, -225.0645220215982, -222.7185982691693, -220.39937555657397, -218.10659741671174, -215.83944157956685, -213.59671002883016, -211.37698087562947, -209.17872206507508, -207.00037281114334, -204.84039952286446, -202.69733194082528, -200.56978952575588])","array('d', [-267.71746826171875, -267.168279274002, -266.5388114243394, -265.82881184686966, -265.0399488756878, -264.17620328924215, -263.24306034672276, -262.24666352164047, -261.19323682106165, -260.0887413663621, -258.93869789564826, -257.74811346382353, -256.5214686084346, -255.2627376343104, -253.9754262573218, -252.66262166503026])","array('d', [-52.028106689453125, -52.09383435464936, -52.13615410280662, -52.16289543228272, -52.1792216954718, -52.18856259390264, -52.193216480722356, -52.194740916887085, -52.19420657288981, -52.19236218892686, -52.18974107714542, -52.18672868339232, -52.18360373545106, -52.1805611186177, -52.177721988742746, -52.17513522103174])","array('d', [0.6903341412544247, 0.6993806718497186, 0.7075663109125475, 0.7028894502303765, 0.6820252754034114, 0.6499324651919473, 0.6107758939031555, 0.5678226309296824, 0.5235103199183848, 0.4795859315315889, 0.4372517671848297, 0.39729108115847794, 0.3601662470841191, 0.3260914335564724, 0.2950845800580975, 0.26700359369954063])","array('d', [0.03203556314110761, 0.020741320007526633, 0.013241290658286699, 0.008235706295894428, 0.004881360305531618, 0.002628952001092283, 0.0011193432061703, 0.00011692812083750568, -0.0005335520210012609, -0.0009352540882404534, -0.0011579211744994346, -0.0012504508099849953, -0.0012495236370147573, -0.0011856361779710276, -0.001087308492409439, -0.0009838377241400945])","array('d', [1.3655325780299046, 1.3328192587121344, 1.2995292528370586, 1.2661281574156567, 1.2335890533610563, 1.2027697024505344, 1.1741519551843294, 1.1479328747869604, 1.1241224643539978, 1.1026207871342937, 1.0832702083844636, 1.0658878344070741, 1.050284683827766, 1.0362767963578887, 1.0236917754263892, 1.0123728889842956])",-222.7185982691693,-264.17620328924215,-52.18856259390264,0.6499324651919473,0.002628952001092283,1.2027697024505344,25.000000246717647,-1.0,"[-269.15821716989564, -239.0787291421687, 51.88500149954538]","[-283.4120996034951, -210.3334223051963, 75.77085862080929]","[-243.94293987903535, -216.0845909542636, 72.75266548333977]",10000000000.0,0.020084381103515625
13,-265.93560791015625,-229.33889770507812,52.212093353271484,0.6705594062805172,-0.029802443459630065,1.3225460509446003,23.309019870540357,"array('d', [-229.33889770507812, -226.92629446830546, -224.53523025118017, -222.16872785706028, -219.82885111293479, -217.51660812406482, -215.23210963769694, -212.97477714145154, -210.74354799691898, -208.5370496590636, -206.3537354679346, -204.19198496286563, -202.05017507478667, -199.9267285276775, -197.8201445686083, -195.72901910086844])","array('d', [-265.93560791015625, -265.28363331901005, -264.5550995425714, -263.74977383908634, -262.8698465580753, -261.9195695562913, -260.9043497758253, -259.8300468594411, -258.70250656164774, -257.5272877271379, -256.3095233127699, -255.05386516293987, -253.7644775997968, -252.4450580292503, -251.09887193026873, -249.7287975321658])","array('d', [-52.212093353271484, -52.272909704997275, -52.31145944096065, -52.33526946966846, -52.349274785340036, -52.356737157099516, -52.35983377266466, -52.360036174556555, -52.35835488710351, -52.35549727905093, -52.35196876589461, -52.34813643461703, -52.344267216065134, -52.340548415906916, -52.337095868726195, -52.333953652769424])","array('d', [0.6705594062805172, 0.6814877502601447, 0.6911944968451624, 0.6817693772688284, 0.6582438124713765, 0.6251098408587036, 0.586069244033547, 0.5439974863191548, 0.5010310365172443, 0.45869860575698157, 0.41805073519114083, 0.3797690107002155, 0.34425097534791077, 0.3116731183406156, 0.2820361741483997, 0.2551969067229858])","array('d', [0.029802443459630065, 0.019035291658886688, 0.011924408229438362, 0.007202688046299025, 0.00405415150995397, 0.00195084318518391, 0.0005498219057162865, -0.0003725139879688162, -0.00096267108634262, -0.0013174966459189494, -0.0015022330217356486, -0.0015626257010176476, -0.0015332405486598135, -0.0014433010173732742, -0.0013207814506841554, -0.0011950926678711607])","array('d', [1.3225460509446003, 1.2910650289812446, 1.2589137563327455, 1.2267637383547831, 1.1956854522076714, 1.1663798505183631, 1.1392248657520694, 1.1143614850795276, 1.0917770421868227, 1.0713687284522002, 1.0529862783801889, 1.0364586383496301, 1.0216099733998232, 1.0082691606736278, 0.9962755519993662, 0.9854827179820062])",-217.51660812406482,-261.9195695562913,-52.356737157099516,0.6251098408587036,0.00195084318518391,1.1663798505183631,25.000000248836155,-1.0,"[-265.56720919603924, -227.88552763474476, 52.25679040122925]","[-276.43767292990174, -197.52570404925953, 75.92352084861034]","[-237.68113772101205, -205.9439289345615, 70.72116865151949]",10000000000.0,0.020146846771240234
14,-263.7764892578125,-223.66839599609375,52.430267333984375,0.6445992588996886,-0.027321910485625295,1.2774067680027823,23.32384014332215,"array('d', [-223.66839599609375, -221.28693756681216, -218.92913036620212, -216.59747442343522, -214.29346300134637, -212.01762336030203, -209.76970035905006, -207.54885741759114, -205.35386072366748, -203.1832308858739, -201.03535969557186, -198.90859604632922, -196.80130680829595, -194.71191803778203, -192.63894078739528, -190.58098793013338])","array('d', [-263.7764892578125, -263.018156396584, -262.18806279562773, -261.28669006841574, -260.3166601088849, -259.2821864332618, -258.18833663315104, -257.04047954858606, -255.84392199618765, -254.6036957222039, -253.32444792907822, -252.01039726927408, -250.66532884590603, -249.29261149525993, -247.89522746560965, -246.47581124999297])","array('d', [-52.430267333984375, -52.48565144629725, -52.520063641582205, -52.54066714416092, -52.55213177485635, -52.557529460948125, -52.55890352139002, -52.557632366059075, -52.55466261374099, -52.5506585035328, -52.54609697578525, -52.541326843949214, -52.536603639356535, -52.53210752444986, -52.527949244685324, -52.52416787582093])","array('d', [0.6445992588996886, 0.6579980352045689, 0.6615110729327813, 0.6485119190764612, 0.6235250557012966, 0.5904842883406407, 0.552589273096106, 0.5123152263438261, 0.47150319287722964, 0.43147493389264946, 0.3931418811709023, 0.3570960947755475, 0.3236811443107769, 0.2930450808589642, 0.2651789002869591, 0.23994381318559535])","array('d', [0.027321910485625295, 0.017158738007254797, 0.010483298496382734, 0.006073271489227956, 0.0031472797911342937, 0.0012033024938425626, -8.260256152442447e-05, -0.0009203465287969756, -0.0014466756700508194, -0.0017515282977591997, -0.0018952975348940277, -0.0019203915929135373, -0.0018591951705622435, -0.0017396922079966435, -0.0015894396210241473, -0.0014381846550174545])","array('d', [1.2774067680027823, 1.247488215374154, 1.2170473964983506, 1.18691157614612, 1.1579480998061573, 1.1307094486543945, 1.1054859244367754, 1.0823786220547067, 1.0613655604041814, 1.042351391624707, 1.0252010929620623, 1.0097614792258487, 0.9958745309239727, 0.9833856277986327, 0.9721487920119846, 0.9620302617873957])",-212.01762336030203,-259.2821864332618,-52.557529460948125,0.5904842883406407,0.0012033024938425626,1.1307094486543945,25.000000248860367,-1.0,"[-265.56720919603924, -227.88552763474476, 52.25679040122925]","[-276.43767292990174, -197.52570404925953, 75.92352084861034]","[-237.68113772101205, -205.9439289345615, 70.72116865151949]",10000000000.0,0.019022703170776367
15,-261.5980224609375,-218.5476837158203,52.64264678955078,0.6170227527618405,-0.021516958251595577,1.2405293742802481,23.318473868067677,"array('d', [-218.5476837158203, -216.1948795239444, -213.86697235124524, -211.56599100480855, -209.29297928345176, -207.04811952777695, -204.83091312362345, -202.6403647562021, -200.4751460553943, -198.33372866021128, -196.2144863765699, -194.11577043867575, -192.03596291152022, -189.97351278480753, -187.9269583507412, -185.89494336122425])","array('d', [-261.5980224609375, -260.7542195463365, -259.84331803634495, -258.8661505919664, -257.82548478995466, -256.72536583066085, -255.5705051855858, -254.36583035496335, -253.11618938971208, -251.82617599519915, -250.5000380685514, -249.1416397744146, -247.75445627500088, -246.34158771387052, -244.9057843729483, -243.44948185210106])","array('d', [-52.64264678955078, -52.68571111428637, -52.71139304900141, -52.72568750409201, -52.732486584069584, -52.73434298522271, -52.73295226338861, -52.729459156875826, -52.724652842385865, -52.71909133135549, -52.71317997062697, -52.7072195431915, -52.701433609727964, -52.69598119836875, -52.69095896186507, -52.686396011873114])","array('d', [0.6170227527618405, 0.6330457768630795, 0.6325331190328777, 0.6174975123197003, 0.5920222964375902, 0.5596002545151146, 0.5230529141731307, 0.4845614737456376, 0.4457528354133231, 0.40780002957796546, 0.37151536185162193, 0.3374279210080554, 0.3058442394734924, 0.2768939698663064, 0.2505633439294874, 0.2267191097101692])","array('d', [0.021516958251595577, 0.013077101834026678, 0.007560855342615105, 0.003935259404655514, 0.0015439050900428104, -3.248653748753808e-05, -0.0010629016488205047, -0.0017206125654288182, -0.0021178152505018275, -0.0023278926974125602, -0.0023999973963332167, -0.002368868317463694, -0.002261670809962841, -0.0021029101413109377, -0.0019179669518053313, -0.0017354485036086284])","array('d', [1.2405293742802481, 1.2122073806818179, 1.1834291872835159, 1.1551238926006093, 1.1280134112079558, 1.1025507760626103, 1.0789710359596374, 1.057352668666997, 1.0376713623282225, 1.019840340231465, 1.003738047939235, 0.9892262348866541, 0.9761614979043252, 0.9644026763287953, 0.9538157548186639, 0.9442773262364168])",-207.04811952777695,-256.72536583066085,-52.73434298522271,0.5596002545151146,-3.248653748753808e-05,1.1025507760626103,25.000000248877576,-1.0,"[-261.11169171539785, -217.12907846317336, 52.67491973650822]","[-268.79510094325724, -185.01702022027536, 75.25324868357538]","[-230.96562753933833, -196.06794658468053, 68.4116137568428]",10000000000.0,0.0187380313873291
16,-259.05511474609375,-213.09359741210938,52.86265563964844,0.5821710824966427,-0.01490227226167918,1.200855151810918,23.31371867344909,"array('d', [-213.09359741210938, -210.77493994899902, -208.4816601509677, -206.21525995477344, -203.97636427021493, -201.76486271190558, -199.58007325669166, -197.4209020992122, -195.2859832339326, -193.17379167760544, -191.08273081017435, -189.0111971980485, -186.95762690297434, -184.92052687872544, -182.8984943240709, -180.89022977190618])","array('d', [-259.05511474609375, -258.1209826442767, -257.1258736715563, -256.0708744499581, -254.95865978048656, -253.79290968023525, -252.5778244103413, -251.3177689093598, -250.01703654372025, -248.67970565488025, -247.30956138496933, -245.9100605700966, -244.48432388944315, -243.0351448559599, -241.56500917452144, -240.07612333150513])","array('d', [-52.86265563964844, -52.89173735463872, -52.90760316795226, -52.914863408194826, -52.91650004947518, -52.914464743453465, -52.910054192829904, -52.90414718077471, -52.89735479099288, -52.8901154416662, -52.882754148288534, -52.87551791215222, -52.86859453336714, -52.86211942737789, -52.85617356684258, -52.85077511504951])","array('d', [0.5821710824966427, 0.595310736539218, 0.5919253078273974, 0.575996066481492, 0.5511009515538289, 0.5202665876874116, 0.48593309481496627, 0.4499940786443539, 0.413872018594618, 0.37860143517685557, 0.34490518111030233, 0.3132581509156926, 0.28393760701713433, 0.25706150646657294, 0.2326169044613344, 0.2104804982881167])","array('d', [0.01490227226167918, 0.008470951888126355, 0.004291514496635395, 0.0015622177313001939, -0.0002231214357742626, -0.0013857290264946847, -0.0021302925469211817, -0.002587691168721001, -0.002841985172431104, -0.0029477381576220054, -0.0029414105529890376, -0.0028491258764393582, -0.0026922019853255967, -0.0024912409852829564, -0.0022691566995224066, -0.0020532181568784233])","array('d', [1.200855151810918, 1.1746465186326385, 1.1481686132495643, 1.122243794128112, 1.0974574875780254, 1.0741766432573399, 1.0525933893365491, 1.0327733068103737, 1.0146970684008159, 0.9982920101924501, 0.9834543576748819, 0.9700642441012145, 0.9579957019182983, 0.9471233702304314, 0.9373271636499936, 0.9284957214857038])",-201.76486271190558,-253.79290968023525,-52.914464743453465,0.5202665876874116,-0.0013857290264946847,1.0741766432573399,25.000000248893723,-1.0,"[-261.11169171539785, -217.12907846317336, 52.67491973650822]","[-268.79510094325724, -185.01702022027536, 75.25324868357538]","[-230.96562753933833, -196.06794658468053, 68.4116137568428]",10000000000.0,0.017817020416259766
17,-256.5364074707031,-208.13876342773438,53.05976867675781,0.5504299998283384,-0.011424975469708377,1.1623986820366716,23.317514795432615,"array('d', [-208.13876342773438, -205.85671444723368, -203.6001985356655, -201.37028495559662, -199.16726832696096, -196.9908103529348, -194.8400896421242, -192.71394203054263, -190.61098102063673, -188.5296950811437, -186.46852288792226, -184.42590943223107, -182.4003462648035, -180.39039878544284, -178.39472290494348, -176.412076409246])","array('d', [-256.5364074707031, -255.51588821673474, -254.43991969640717, -253.30979726958373, -252.12808401331904, -250.89813510365755, -249.62371100912335, -248.30869463812363, -246.95690136043592, -245.57196116796834, -244.15725230064916, -242.71586964222342, -241.2506158230051, -239.76400691107494, -238.25828751355849, -236.73545487327866])","array('d', [-53.05976867675781, -53.08144280542937, -53.09200093207784, -53.09535824022643, -53.09403909154792, -53.089692950124096, -53.08341641705282, -53.07595554144756, -53.06783339375078, -53.05943026976175, -53.05103316326067, -53.042864584931195, -53.035096831549374, -53.02785550020656, -53.02121486251612, -53.01518735624902])","array('d', [0.5504299998283384, 0.5590538285768952, 0.5533082891533146, 0.5367452346461286, 0.5124969652846421, 0.483189773108039, 0.45093750664545734, 0.41738542238907717, 0.38377629764850196, 0.3510199799625196, 0.3197564598291854, 0.29040862901797077, 0.2632242583791344, 0.23830827366530047, 0.21564692102403438, 0.19512542089986432])","array('d', [0.011424975469708377, 0.006004982199979313, 0.0025000182881688483, 0.00022380143078193642, -0.001254460159327498, -0.002206571711021336, -0.002804682369135361, -0.0031581307243409287, -0.003336621230753747, -0.003385082128581415, -0.003333476522001204, -0.003203564893977283, -0.0030138131944644026, -0.0027831085492931213, -0.0025335706028795763, -0.0022924697720983042])","array('d', [1.1623986820366716, 1.138079552376483, 1.1136888272305547, 1.0899049378430243, 1.0672052962933938, 1.0458885795344843, 1.0261118152580024, 1.007928764145383, 0.9913226043170504, 0.9762309438865314, 0.962563809932989, 0.950216165320122, 0.9390765330791013, 0.9290330147084158, 0.9199776445817993, 0.9118097149082215])",-196.9908103529348,-250.89813510365755,-53.089692950124096,0.483189773108039,-0.002206571711021336,1.0458885795344843,25.000000248908403,-1.0,"[-255.9407374539418, -206.7622157346758, 53.07690576713911]","[-260.53829691370913, -172.86872500664944, 73.81560710746163]","[-223.83035843214762, -186.6273634699244, 65.86405882610246]",10000000000.0,0.017075300216674805
18,-253.6276092529297,-202.85745239257812,53.283992767333984,0.5120909214019772,-0.007960185408592219,1.1261998573925829,23.32302683051997,"array('d', [-202.85745239257812, -200.6126276235469, -198.3927986216105, -196.19869686402086, -194.0303805223395, -191.887366407967, -189.7687626723753, -187.67339025787376, -185.59988642569763, -183.54678856664506, -181.51259942500138, -179.49583610822074, -177.4950654694757, -175.5089281732965, -173.53615331210474, -171.57556901537887])","array('d', [-253.6276092529297, -252.52747712457432, -251.37766353235696, -250.17946793370803, -248.9352156387722, -247.64787353261536, -246.32074057457012, -244.95721993444587, -243.560663072721, -242.13427017722339, -240.681031637028, -239.20369804338623, -237.70476948781473, -236.1864977844728, -234.65089743379812, -233.09976586171572])","array('d', [-53.283992767333984, -53.29828158858941, -53.303532819961504, -53.30296263659878, -53.29864040309759, -53.29191811246237, -53.28369717523137, -53.274595309117956, -53.265051303661174, -53.25539044191198, -53.2458642820698, -53.236672986711746, -53.22797507930392, -53.21988762914042, -53.21247897420973, -53.205755942305835])","array('d', [0.5120909214019772, 0.5178583538170053, 0.5110768901098168, 0.49488524899106506, 0.47201804833005634, 0.44475920312134626, 0.414950452928994, 0.38403329181644513, 0.3531050157614582, 0.32297605838358573, 0.29422178991945613, 0.267226080902952, 0.24221628528812683, 0.21929042305408755, 0.19843774741712125, 0.17955391527651257])","array('d', [0.007960185408592219, 0.0035446037904687073, 0.0007037764444549505, -0.0011293431095822388, -0.0023087703839944685, -0.003056593497960607, -0.003512561674210551, -0.0037647404061537135, -0.003868747389338541, -0.0038601053356620996, -0.0037624696651986514, -0.0035934034827878993, -0.003368685176307466, -0.0031056737489136878, -0.0028259255895323595, -0.0025570035272685756])","array('d', [1.1261998573925829, 1.1039910496442227, 1.0818138910783341, 1.0602311313021007, 1.039638295972348, 1.0202851716786863, 1.0023059647225576, 0.9857494179755485, 0.970604463030511, 0.9568201808086272, 0.9443205359168038, 0.9330149644217338, 0.9228059393135808, 0.9135944559231305, 0.9052841488633091, 0.8977845308976741])",-191.887366407967,-247.64787353261536,-53.29191811246237,0.44475920312134626,-0.003056593497960607,1.0202851716786863,25.000000248920447,-1.0,"[-255.9407374539418, -206.7622157346758, 53.07690576713911]","[-260.53829691370913, -172.86872500664944, 73.81560710746163]","[-223.83035843214762, -186.6273634699244, 65.86405882610246]",10000000000.0,0.01775979995727539
19,-250.78175354003906,-198.03065490722656,53.4979362487793,0.4729281365871426,-0.0036575815174728537,1.0935786823418476,23.332004123887497,"array('d', [-198.03065490722656, -195.82168653023047, -193.63679235223853, -191.47645895643913, -189.34058784491558, -187.22861366267645, -185.13962066083025, -183.07244826120106, -181.0257809785702, -178.99822156278134, -176.9883483414497, -174.9947586501215, -173.01610040028888, -171.0510936332455, -169.09854357362593, -167.1573503146805])","array('d', [-250.78175354003906, -249.61119179026147, -248.39627469546022, -247.1382078177545, -245.8390497531477, -244.50139683900846, -243.1281302531299, -241.72222799566845, -240.28663365913013, -238.8241701692433, -237.33748695920994, -235.8290310313749, -234.30103471624903, -232.75551504194533, -231.19428128453686, -229.61895167978886])","array('d', [-53.4979362487793, -53.50312147990538, -53.501949387113136, -53.4967175064119, -53.48890414172826, -53.47947833697721, -53.46909180203453, -53.458198601538925, -53.44712996522851, -53.43614054918009, -53.425435822419836, -53.415186230701224, -53.405531407393774, -53.39657640517073, -53.38838140656093, -53.38094647894393])","array('d', [0.4729281365871426, 0.4770128229923024, 0.47000893422552226, 0.45469941964879673, 0.4334908625560368, 0.4083908914322298, 0.38102380989581636, 0.3526688261328868, 0.3243074464600729, 0.29667107971285456, 0.2702840064247439, 0.24549973657668173, 0.2225304676861066, 0.20147019926898546, 0.1823123890330636, 0.16496308630985526])","array('d', [0.0036575815174728537, 0.0005425725714541619, -0.001447056013490725, -0.002717262272180141, -0.0035200476970078634, -0.004012400544712431, -0.004292183914330621, -0.004420267291462549, -0.004434434265297389, -0.004358395282885483, -0.0042079224047974475, -0.003995320498613768, -0.0037329344153874174, -0.0034360355042093375, -0.0031251610923195864, -0.002827763031454298])","array('d', [1.0935786823418476, 1.0733983834495902, 1.0532949667116256, 1.0337441452391924, 1.0150816796416653, 0.9975226212873244, 0.9811857880173016, 0.9661177176598045, 0.952313183671484, 0.939731449324347, 0.9283085736396304, 0.9179665230474469, 0.9086198986860609, 0.900180979420299, 0.8925636256262581, 0.8856864289712284])",-187.22861366267645,-244.50139683900846,-53.47947833697721,0.4083908914322298,-0.004012400544712431,0.9975226212873244,25.00000024893029,-1.0,"[-250.09279396440516, -196.69824933721574, 53.503422608822824]","[-251.9473617064292, -161.1239203085093, 71.69758905435089]","[-216.41654650614095, -177.53891105028745, 63.44475619827639]",10000000000.0,0.01678943634033203
20,-247.54112243652344,-192.84893798828125,53.72781753540039,0.4336001873016354,0.0014321262715384167,1.064131693043981,23.366852361944105,"array('d', [-192.84893798828125, -190.67419806836907, -188.52232799852558, -186.39365431501142, -184.2879889606317, -182.20473462000922, -180.1429875426917, -178.10163041488474, -176.0794116421605, -174.07501021782727, -172.08708697064694, -170.1143236889699, -168.15545176015146, -166.2092718207406, -164.2746656594636, -162.35060526739005])","array('d', [-247.54112243652344, -246.30811762158754, -245.0356369098123, -243.72473197800835, -242.37718453562056, -240.99524312118217, -239.5814118914015, -238.1382916979757, -236.6684668632221, -235.1744286131186, -233.6585263387008, -232.1229392701746, -230.56966286128423, -229.00050575388818, -227.41709446758577, -225.8208871547159])","array('d', [-53.72781753540039, -53.72226433869227, -53.713566138358225, -53.702907249164745, -53.691055027247096, -53.678520669764936, -53.66565874247659, -53.65272920194192, -53.63993593076754, -53.627449972456745, -53.61542212589584, -53.60398743369534, -53.59326287681467, -53.58333901078063, -53.57426622049877, -53.56603668458275])","array('d', [0.4336001873016354, 0.4369860899899526, 0.4304262915603813, 0.4164059907556456, 0.3970657875993016, 0.3741931255682293, 0.34924059100493093, 0.3233598897426084, 0.2974419777289061, 0.27215692448380374, 0.2479899482070184, 0.22527210872759976, 0.20420539110702182, 0.18488256617098395, 0.16730249020151483, 0.1513815669760259])","array('d', [-0.0014321262715384167, -0.0029845378330261574, -0.003957800716303628, -0.004559302272981714, -0.004916551114295012, -0.005107786609660423, -0.005180586073104966, -0.005163379405213054, -0.005072793262501373, -0.0049185872864413414, -0.004707252491586794, -0.004444909503973761, -0.004139851243307057, -0.003804850866597566, -0.0034591640030475625, -0.0031299813901142694])","array('d', [1.064131693043981, 1.045882031431985, 1.0277119502794125, 1.0100325858235442, 0.9931365987890378, 0.9772148310677159, 0.9623762706929547, 0.9486674105363699, 0.9360889853616912, 0.924609484954157, 0.9141756374628349, 0.90472038996071, 0.8961689764803935, 0.8884436013192906, 0.8814671614947059, 0.8751663153650164])",-182.20473462000922,-240.99524312118217,-53.678520669764936,0.3741931255682293,-0.005107786609660423,0.9772148310677159,25.000000248938246,-1.0,"[-250.09279396440516, -196.69824933721574, 53.503422608822824]","[-251.9473617064292, -161.1239203085093, 71.69758905435089]","[-216.41654650614095, -177.53891105028745, 63.44475619827639]",10000000000.0,0.01988077163696289
21,-244.42697143554688,-188.11846923828125,53.942020416259766,0.3999771773815153,0.005595458205789337,1.0373803536084032,23.408575639202418,"array('d', [-188.11846923828125, -185.9764875454062, -183.8562624151486, -181.75800756475059, -179.6814736235146, -177.6260454651488, -175.5908354677957, -173.5747670546959, -171.57664590550075, -169.59521836621195, -167.62921780030035, -165.67740014990682, -163.7385700785983, -161.81159895024462, -159.89543569371892, -157.98911527061094])","array('d', [-244.42697143554688, -243.1379546820978, -241.81346203151045, -240.45443239722354, -239.0624370655092, -237.63945606328258, -236.18769856187487, -234.70946648085487, -233.20705578019644, -231.6826882716985, -230.13846697484044, -228.5763491013838, -226.9981320496825, -225.40544900245226, -223.79977172622785, -222.18242222526158])","array('d', [-53.942020416259766, -53.92767173729812, -53.912783091110576, -53.897630338259724, -53.88240339538807, -53.867243205146735, -53.85226506301226, -53.837573353782254, -53.823270484921615, -53.80946139906948, -53.79625416213095, -53.783756585509124, -53.77206858381213, -53.761269987940395, -53.75140385475885, -53.74245598600905])","array('d', [0.3999771773815153, 0.40273496738629333, 0.3965048815602999, 0.3835278516147969, 0.36572770717453273, 0.3447115370163176, 0.3217893980638754, 0.2980050804855493, 0.27417094996740143, 0.25090213563972086, 0.22864740135025566, 0.20771554290594063, 0.18829709310346884, 0.17048162536907344, 0.15427117328776563, 0.13959034275821997])","array('d', [-0.005595458205789337, -0.005878820857554792, -0.006029650259777346, -0.006091592800437874, -0.006090062227432451, -0.006039015735956089, -0.005945135650351662, -0.00581054452583239, -0.005634745562009484, -0.005416224574320638, -0.0051539886665154825, -0.004849198716949823, -0.0045069461121810305, -0.0041381103285339105, -0.0037611058610429954, -0.003403189705979787])","array('d', [1.0373803536084032, 1.0207261099474998, 1.0041556209101257, 0.9880297747816039, 0.9726069888873046, 0.9580579295218469, 0.9444823141880011, 0.9319250357834281, 0.9203901796852175, 0.9098524980702246, 0.900266479466576, 0.8915734034932303, 0.8837068287499767, 0.87659692423691, 0.8701739818187733, 0.8643713586779972])",-177.6260454651488,-237.63945606328258,-53.867243205146735,0.3447115370163176,-0.006039015735956089,0.9580579295218469,25.000000248945142,-1.0,"[-243.66426680783303, -186.82687673055838, 53.933627272748275]","[-243.2715913592273, -149.985001277398, 69.50674574933738]","[-208.8291244866173, -168.6436955294976, 61.40923968044001]",10000000000.0,0.018807172775268555
22,-240.93649291992188,-183.0631561279297,54.18203353881836,0.36741343140602073,0.007392845582216904,1.0099619785931444,23.448729112065003,"array('d', [-183.0631561279297, -180.95632700319237, -178.87010478299229, -176.80460706133732, -174.75953435895184, -172.73426082795078, -170.72791915897264, -168.7394758272286, -166.76779501754316, -164.8116910988228, -162.8699703825212, -160.94146326811767, -159.02504793845202, -157.11966666483895, -155.2243356122836, -153.3381527034137])","array('d', [-240.93649291992188, -239.59082641884058, -238.21342299779747, -236.80512573582646, -235.36732162965535, -233.90175249105252, -232.41036287121875, -230.89518360064275, -229.35824634827944, -227.8015235042605, -226.22688787823174, -224.63608750907272, -223.0307318656331, -221.41228665095454, -219.78207520890706, -218.1412884827332])","array('d', [-54.18203353881836, -54.16377782192948, -54.14592875395432, -54.12843208209921, -54.11126957458897, -54.09445029733667, -54.07800596492483, -54.06198839477263, -54.046467645148695, -54.031529667294336, -54.01727239541775, -54.003799246383046, -53.99120910161118, -53.979582091394185, -53.968960984143116, -53.95932878606577])","array('d', [0.36741343140602073, 0.36951960629841146, 0.3635565636899737, 0.3515352928614798, 0.3351767537043132, 0.3159186093791897, 0.29493559202052966, 0.27316739214773705, 0.2513490070066277, 0.23004011129298885, 0.20965150186902948, 0.19046776215026034, 0.1726659880458986, 0.1563308048068205, 0.1414660834005354, 0.12800381723751775])","array('d', [-0.007392845582216904, -0.007214827299401935, -0.007067014085378426, -0.006932678525035516, -0.006799654312770813, -0.006658228141925282, -0.006499972555802208, -0.006317219807226207, -0.006103032624486235, -0.005851614832963195, -0.005559143427815101, -0.005225002062968587, -0.004853356083376654, -0.004454932098758566, -0.004048755081046516, -0.003663465507020878])","array('d', [1.0099619785931444, 0.9948106148209004, 0.979749125305634, 0.9650931991444309, 0.9510699029023231, 0.9378307010464898, 0.9254656639424583, 0.9140169432354882, 0.9034905240530314, 0.893865955621287, 0.8851041685825186, 0.8771536725617104, 0.8699554754290167, 0.8634470428357618, 0.8575655653862906, 0.8522507336114543])",-172.73426082795078,-233.90175249105252,-54.09445029733667,0.3159186093791897,-0.006658228141925282,0.9378307010464898,25.000000248951785,-1.0,"[-243.66426680783303, -186.82687673055838, 53.933627272748275]","[-243.2715913592273, -149.985001277398, 69.50674574933738]","[-208.8291244866173, -168.6436955294976, 61.40923968044001]",10000000000.0,0.016505956649780273
