,current_time,x_pos,y_pos,z_pos,roll,pitch,yaw,vel,x_traj,y_traj,z_traj,roll_traj,pitch_traj,yaw_traj,x_cmd,y_cmd,z_cmd,roll_cmd,pitch_cmd,yaw_cmd,vel_cmd,effector_dmg,effector_x,effector_y,effector_z,cost,time_solution
0,20.40135645866394,-23.891618728637695,-239.87139892578125,45.03224563598633,0.6311811208724973,0.03874497860670083,0.5644963542607168,23.057206973109338,"array('d', [-242.24636840820312, -240.8456425095186, -239.48876351707105, -238.1644482476766, -236.86410642565662, -235.58134834397336, -234.31142826814326, -233.05085791463947, -231.79712184708714, -230.54845138795815, -229.30363825410868, -228.0618797413065, -226.82265184085122, -225.5856085671686, -224.35050656891525, -223.5870712004976])","array('d', [-27.892406463623047, -25.823214744415694, -23.724002674486755, -21.603728355438854, -19.468550492241377, -17.322740880315013, -15.169318775706353, -13.010427250996482, -10.84757432472962, -8.681802294003477, -6.513814691041015, -4.3440750507406865, -2.1728844984598936, -0.0004416888292723352, 2.173113086916119, 3.5198978036978827])","array('d', [-45.047847747802734, -44.970667382156385, -44.92643933100103, -44.903890744793856, -44.8957320155348, -44.8971595167948, -44.904941067905206, -44.91684944517337, -44.931307633949814, -44.947165733323125, -44.96356194893269, -44.9798391465739, -44.99549960817441, -45.010187055922174, -45.02368844993043, -45.03128117791275])","array('d', [0.6285582184791564, 0.49400259397525315, 0.3722516260630662, 0.2767998281593217, 0.20386878739902345, 0.14893554445028717, 0.10835679128594211, 0.0790940231207307, 0.05857513166905994, 0.04462114892978333, 0.035405103917942514, 0.029427095029154415, 0.025498017621193806, 0.02272850933299925, 0.020521640553310565, 0.018568749937055085])","array('d', [-0.03900584951043112, -0.023015665849174475, -0.012543480590619759, -0.005611311635323462, -0.0009927362154002136, 0.002083421274387425, 0.004108055732087142, 0.0053971775570023925, 0.006156766648597772, 0.00652367707988339, 0.006592245463092539, 0.006432273198655448, 0.0061016926985970575, 0.005655771929316303, 0.005153770194426598, 0.004663324232273997])","array('d', [0.608032421269689, 0.583369914724829, 0.5652458538235218, 0.5520682967145878, 0.542472470312843, 0.5354944725414906, 0.5304311553778436, 0.5267519589914426, 0.5240532680170332, 0.5220313044698399, 0.520463360989866, 0.5191928623818324, 0.5181162462528243, 0.5171707647512447, 0.5163227868183519, 0.5150851507426076])",-235.58134834397336,-17.322740880315013,-44.8971595167948,0.14893554445028717,0.002083421274387425,0.5354944725414906,25.000000245601623,-1.0,"[-23.033572166626197, -239.29361921864142, 44.975908533188914]","[-13.831330129026167, -224.7486653679985, 55.162323946085365]","[-3.0689255702866483, -238.10866978492643, 44.88220088779035]",10000000000.0,0.09535002708435059
1,20.45426034927368,-23.079376220703125,-239.4182891845703,45.02869415283203,0.6314726471900937,0.03875197097659088,0.5559718171742302,23.06047910667057,"array('d', [-241.0375518798828, -239.68350857689117, -238.37412066538025, -237.09784315394478, -235.84577750349902, -234.6112997315578, -233.38951027006252, -232.17682345097225, -230.9706678019065, -229.76924895369805, -228.57135455538477, -227.37619235324365, -226.18325757569843, -224.99222780525093, -223.80288435379435, -223.06703798426753])","array('d', [-25.908105850219727, -23.808048905164206, -21.678883938464217, -19.529348992691983, -17.365507694115408, -15.191563804745435, -13.010474319616444, -10.824328053381311, -8.634586446110298, -6.442251836621257, -4.247993277776283, -2.0522443015419136, 0.1447203062344919, 2.3427252031100068, 4.541650872287101, 5.9050467246529506])","array('d', [-45.04073715209961, -44.964108554168, -44.92020700874616, -44.89789512134374, -44.88995021102693, -44.891598062304844, -44.8996159502969, -44.91177601177767, -44.92649596481237, -44.94261901178601, -44.95927646213562, -44.97580516565922, -44.99170273535588, -45.006609802195825, -45.02031189665889, -45.02802320603772])","array('d', [0.6299882531166073, 0.49529654285455793, 0.3734224350524389, 0.2756852036488308, 0.20119304170014965, 0.14524988356636842, 0.10408486139929828, 0.07455761563173516, 0.05401146691175318, 0.040196531692913234, 0.0312269622042931, 0.025555199666353435, 0.021955179501327818, 0.019510876624260903, 0.017608678933667108, 0.01593299302770532])","array('d', [-0.038720484822988406, -0.02285727404428316, -0.012439713098478864, -0.005525413795155587, -0.000907565728123936, 0.0021744334536826244, 0.0042059984253857725, 0.005500494924107824, 0.0062628186401165456, 0.0066295898266676145, 0.0066953715599193525, 0.006530438887559482, 0.0061933262358330205, 0.0057399609365203705, 0.005230272166846326, 0.004732546085658262])","array('d', [0.5856741825726368, 0.5609368518103847, 0.5427539866819903, 0.5295754895927834, 0.5200588244398173, 0.5132098197967545, 0.5083053465268651, 0.5048005134038007, 0.5022811705126251, 0.5004359434175258, 0.4990369484998871, 0.49792443793196306, 0.49699328686329186, 0.4961804062159539, 0.49545265949181133, 0.494391544451777])",-234.6112997315578,-15.191563804745435,-44.891598062304844,0.14524988356636842,0.0021744334536826244,0.5132098197967545,25.000000245524273,-1.0,"[-22.216170692143933, -238.84741055022934, 44.972383596410204]","[-12.86451260409971, -224.36506997487686, 55.11182650338572]","[-2.244578078511715, -237.79926395893239, 44.78034922900767]",10000000000.0,0.05152606964111328
2,20.496145963668823,-21.84891700744629,-238.74961853027344,45.02234649658203,0.6316979527473447,0.03925528749823555,0.5429082671788076,23.071292223569046,"array('d', [-240.56532287597656, -239.2293839873248, -237.93842740558893, -236.68080631442035, -235.447501436762, -234.23179689004365, -233.02873256736865, -231.83468422005802, -230.64705787550727, -229.46404847695618, -228.2844414199439, -227.10744787774232, -225.93256996334617, -224.75949387178102, -223.58800999790378, -222.86293742505146])","array('d', [-25.10394287109375, -22.992327163046454, -20.85193891062407, -18.691436451169427, -16.5168476648716, -14.332349992051004, -12.140876357283698, -9.944494766312893, -7.744649009525322, -5.5423264980601745, -3.338183591988054, -1.1326429289986564, 1.0740301593744088, 3.281668627023792, 5.490160311013392, 6.859861220650796])","array('d', [-45.037479400634766, -44.96073534476847, -44.91673569785824, -44.89436086895665, -44.88639155827564, -44.88805003520118, -44.8961072127106, -44.90832812698232, -44.92312369728726, -44.93933110331206, -44.95607659709292, -44.97269299122058, -44.988674877954324, -45.00366085517929, -45.01743536591988, -45.02518982023493])","array('d', [0.630789041519165, 0.4960211262030857, 0.3740780646575371, 0.27544029745796095, 0.20032948790486702, 0.1439818378232909, 0.1025769254628345, 0.07293497177644978, 0.052366616324060505, 0.03859457863119091, 0.029710256799475733, 0.024147660849018298, 0.02066641681044523, 0.018340158891306045, 0.016548781733929888, 0.014973958295298628])","array('d', [-0.03876737132668484, -0.02290282080586363, -0.01247286713225931, -0.005542876990548926, -0.0009098757630954932, 0.0021850287298000766, 0.004226666900677694, 0.005528388737917171, 0.006295342463159449, 0.006664514603447498, 0.0067308734716036035, 0.006565104943906081, 0.006226145980801713, 0.005770311814608024, 0.005257900602869261, 0.0047575453306072275])","array('d', [0.5770998756077629, 0.5523205881658573, 0.5341047642893737, 0.5209174009488936, 0.5114239074053298, 0.5046181121154747, 0.4997690243717149, 0.49632613503218975, 0.4938711673362156, 0.49208976570262214, 0.49075200593202234, 0.4896968773200907, 0.4888186170381778, 0.4880539723081746, 0.4873699681683901, 0.48637304449682994])",-234.23179689004365,-14.332349992051004,-44.88805003520118,0.1439818378232909,0.0021850287298000766,0.5046181121154747,25.000000245492718,-1.0,"[-20.980968213617686, -238.19101649513408, 44.96600966233779]","[-11.403231776697638, -223.80524399647018, 55.03162014365384]","[-1.0019168810897057, -237.34531800050294, 44.61629276484712]",10000000000.0,0.03349566459655762
3,20.561195850372314,-21.022613525390625,-238.31259155273438,45.01780700683594,0.6272625923156736,0.03869168087840065,0.5337320129063466,23.0850457986031,"array('d', [-239.87139892578125, -238.56220176733316, -237.2983859481241, -236.0681693273685, -234.862366481988, -233.67413493795385, -232.49843205364806, -231.33158199565955, -230.17096192108733, -229.0147545863764, -227.86174507294274, -226.71115217301224, -225.56249036531307, -224.41546047925786, -223.26986801559505, -222.56040082501042])","array('d', [-23.891618728637695, -21.763319039403985, -19.606794324678084, -17.430570815425366, -15.240612427642414, -13.041050259650142, -10.834776905373742, -8.62382644094989, -6.4096143871923354, -4.193104555919001, -1.9749334433083112, 0.24449322819417066, 2.464924720449547, 4.68620674252803, 6.908238412221349, 8.286903040981702])","array('d', [-45.03224563598633, -44.95552267812055, -44.911509458101555, -44.889133626620755, -44.881194141047054, -44.88291660094921, -44.891068076228535, -44.90340678656505, -44.91833607166563, -44.93468589226652, -44.951576189376226, -44.96833462377069, -44.98445189756936, -44.9995640055519, -45.013454054769966, -45.02127715536712])","array('d', [0.6311811208724973, 0.4963758942701916, 0.37439907157523594, 0.2745319000857736, 0.198586940760292, 0.14170598070314933, 0.09999909425164873, 0.07023086579813505, 0.04966558401353806, 0.03598699380584948, 0.027254080624147452, 0.02187460382810498, 0.018587841074523593, 0.016452771824110875, 0.014840157446091292, 0.01342793096634464])","array('d', [-0.03874497860670083, -0.022907867008540257, -0.012478668527115905, -0.005538055022961108, -0.0008910708021139754, 0.0022171874195483408, 0.00426976436721837, 0.005579397301488924, 0.006351226302536598, 0.006722529293939559, 0.006788707085161111, 0.006620939424334579, 0.006278678468946599, 0.005818753997167184, 0.005301963672007733, 0.004797415247880197])","array('d', [0.5644963542607168, 0.5396965092312187, 0.5214645404364008, 0.5082901604362043, 0.4988519158005955, 0.4921274718867258, 0.48737514314082364, 0.48403670647575137, 0.48168818773596156, 0.4800111148757239, 0.47877276452184997, 0.47781042525245904, 0.4770175192437367, 0.4763306508331118, 0.47571716126418184, 0.4748236006976844])",-233.67413493795385,-13.041050259650142,-44.88291660094921,0.14170598070314933,0.0022171874195483408,0.4921274718867258,25.000000245444696,-1.0,"[-19.73220841218099, -237.5500379674391, 44.959783965242615]","[-9.915584191311163, -223.22234877193736, 54.877001882750264]","[0.2517969459592635, -236.9319058131219, 44.452396060754644]",10000000000.0,0.0583186149597168
4,20.6218204498291,-19.360158920288086,-237.462890625,45.01089096069336,0.5861123800277709,0.03279878944158543,0.5148973027851922,23.11725887850801,"array('d', [-239.4182891845703, -238.1272997859028, -236.88196005709182, -235.67039706283688, -234.483313388331, -233.31378124106166, -232.15670238158245, -231.00836623174305, -229.86613050648916, -228.72816976296832, -227.59326888656432, -226.4606518217736, -225.32984139928413, -224.20054832856718, -223.07258830622138, -222.37375430902028])","array('d', [-23.079376220703125, -20.939984272027083, -18.77273850399536, -16.58607535618, -14.385913786519767, -12.176352129760872, -9.96025482038971, -7.739632498016636, -5.515881365521997, -3.2899492856105548, -1.0624594766317812, 1.1661935309369462, 3.3957685716193073, 5.626119667622073, 7.857153259620911, 9.241800609141961])","array('d', [-45.02869415283203, -44.95193843324654, -44.907882795419624, -44.885482751838246, -44.877546806096774, -44.87930084948465, -44.887507954073186, -44.8999207157534, -44.914936604991624, -44.9313801523005, -44.94836662688315, -44.96521991132888, -44.981427868167316, -44.996624590792585, -45.010592196409455, -45.0184614934018])","array('d', [0.6314726471900937, 0.4966396781937178, 0.3746377529127834, 0.2739434614672344, 0.1974368541548361, 0.14019622012458888, 0.09828500217953048, 0.06843047914786905, 0.04786585125065168, 0.03424870809928828, 0.025616272726043342, 0.020358672979938392, 0.017201515815362105, 0.015193932732776706, 0.01370054489794989, 0.012396766797377551])","array('d', [-0.03875197097659088, -0.022926894884690626, -0.012493647977755767, -0.0055426199133617226, -0.0008838703284061387, 0.0022350754642166595, 0.004296236820114708, 0.005612063338531306, 0.00638777996888398, 0.006760927831106288, 0.006827249885170858, 0.006658298132545106, 0.006313903306443852, 0.005851267351816861, 0.005331545308080286, 0.004824181821477208])","array('d', [0.5559718171742302, 0.531156680416296, 0.5129127039231608, 0.4997460630493502, 0.4903440353973366, 0.4836734104545343, 0.4789853194607355, 0.47571635786110805, 0.4734387212250106, 0.4718311670684736, 0.470659085849892, 0.46975861814296765, 0.46902263368610814, 0.4683876364402438, 0.4678211761312462, 0.466996509620721])",-233.31378124106166,-12.176352129760872,-44.87930084948465,0.14019622012458888,0.0022350754642166595,0.4836734104545343,25.000000245411023,-1.0,"[-18.476011922803025, -236.92764877663666, 44.95954670889928]","[-8.415659424920714, -222.47391946112103, 54.44000115434424]","[1.5116293475281104, -236.59599404016797, 44.339706742187374]",10000000000.0,0.05318021774291992
5,20.71163034439087,-17.67741584777832,-236.64463806152344,45.01744079589844,0.5029441118240353,0.02118509262800204,0.49483783642319235,23.15234625866208,"array('d', [-238.5301055908203, -237.27703326142756, -236.0699821922623, -234.89692899089337, -233.74837237228058, -232.6172278196771, -231.49829646748873, -230.3878069733342, -229.28308576765673, -228.18229782561485, -227.08423383352647, -225.98813368617618, -224.89354206027224, -223.80019409816748, -222.70793012547153, -222.03060437428675])","array('d', [-21.43604850769043, -19.274256879347682, -17.085466704448862, -14.877909283780665, -12.657392802804113, -10.427935161602603, -8.192334075929125, -5.952545824314069, -3.7099224608948793, -1.46537581189982, 0.78050063068042, 3.0273372087366024, 5.274913911411507, 7.523103061851102, 9.771827187078673, 11.168283113160705])","array('d', [-45.02005386352539, -44.942531119649956, -44.897905896865936, -44.87511997817546, -44.86695483649083, -44.86860588231023, -44.87680697369632, -44.88928476825553, -44.904414697223864, -44.92100312776092, -44.93815076644512, -44.95517020192417, -44.97154096488156, -44.98689151921891, -45.00100083487533, -45.00895535341862])","array('d', [0.630435526371002, 0.4957012523487807, 0.37378862967321785, 0.2715869883701837, 0.19407956217719097, 0.13622513742788886, 0.09399820093079782, 0.06405399412879194, 0.04356515136398747, 0.030138036917910567, 0.021767156902119146, 0.016808040476531203, 0.013959538197642235, 0.012251615947581005, 0.011037094520506212, 0.009986777016613532])","array('d', [-0.039099536836147135, -0.02319458628353284, -0.012683007501536187, -0.005663123105282732, -0.0009476710639286784, 0.002215736398517803, 0.00431020962650202, 0.005649722375964925, 0.006441093243768039, 0.006823371360813591, 0.006893674232487555, 0.006724796427546556, 0.006377697777228345, 0.00591061473603293, 0.005385655119343646, 0.004873142407766177])","array('d', [0.5383184711125235, 0.513557710854584, 0.49535643957330655, 0.48225997587599795, 0.4729766876866426, 0.4664541174932132, 0.4619303976500694, 0.45883256964918895, 0.4567256927509487, 0.4552833600732993, 0.4542674871431502, 0.4535121700796844, 0.4529093946936636, 0.45239566138393716, 0.4519391137467447, 0.45127522692978755])",-232.6172278196771,-10.427935161602603,-44.86860588231023,0.13622513742788886,0.002215736398517803,0.4664541174932132,25.000000245338796,-1.0,"[-16.784563913674663, -236.1280341506614, 44.97688614134106]","[-6.376602763872617, -221.23819075261991, 53.34150856473903]","[3.20371012314223, -236.29470070603637, 44.31271501246594]",10000000000.0,0.08486032485961914
6,20.76639437675476,-16.828697204589844,-236.24685668945312,45.03031539916992,0.45108705759048445,0.014027675613760815,0.4849576512959341,23.16607615061125,"array('d', [-237.6721954345703, -236.4576009332898, -235.28659874302608, -234.14748499309627, -233.03094290130193, -231.9300195021938, -230.83963234960697, -229.75612271243548, -228.67692945090263, -227.60032977833197, -226.52522487277372, -225.45096142492534, -224.37718546664945, -223.30372677791064, -222.23051287030964, -221.56407338335535])","array('d', [-19.777128219604492, -17.593181277285918, -15.384775537055477, -13.159472438564633, -10.922675681236441, -8.678142133422988, -6.428486900068864, -4.175530390461776, -1.920518403553504, 0.3357237579705117, 2.5926753559827946, 4.850029430794751, 7.107620988750147, 9.365371242252884, 11.62324651996403, 13.02577948577949])","array('d', [-45.01195526123047, -44.9431164006636, -44.90444501178937, -44.88583940587041, -44.88068269097737, -44.884554386937396, -44.894437297716294, -44.9082219076469, -44.924393163784636, -44.94183183022771, -44.959689964176256, -44.9773161000348, -44.994215148481395, -45.010033427924995, -45.02456211406331, -45.03275579806144])","array('d', [0.6008726358413695, 0.4689516403855026, 0.34958457757716194, 0.2489886351773076, 0.17299488212135358, 0.11661638974710083, 0.07584192350007848, 0.04732182606692675, 0.02821558517008742, 0.016114346364642738, 0.008998769397642202, 0.005213660418035029, 0.0034509906761835693, 0.0027378378344096233, 0.002428005748134885, 0.0021969506548770177])","array('d', [-0.03494614735245695, -0.020375461328989385, -0.010724009891727847, -0.004268331784589289, 7.057212663242654e-05, 0.0029782805610559467, 0.0048960771230672625, 0.0061113933771588585, 0.0068139813266294095, 0.007131763647226659, 0.0071544858230721585, 0.006949951617502043, 0.006575634404868485, 0.00608722130324327, 0.005544841062266639, 0.00501717981823819])","array('d', [0.5197552005436754, 0.4965165271490817, 0.47951796484789183, 0.46743508443881854, 0.45905244313100263, 0.45334750799322915, 0.4495727149812964, 0.4471623877080699, 0.4456858556640393, 0.444819911980027, 0.4443294939689802, 0.44405188000170975, 0.44388245537485876, 0.4437612635854907, 0.4436600109179531, 0.4435140425061608])",-231.9300195021938,-8.678142133422988,-44.884554386937396,0.11661638974710083,0.0029782805610559467,0.45334750799322915,25.000000245268723,-1.0,"[-15.501785729797973, -235.54766914535756, 45.00927457581886]","[-4.841182080530533, -220.25377936516898, 52.25140583841475]","[4.481318507410183, -236.12080566905678, 44.420156955919886]",10000000000.0,0.051267385482788086
7,20.799257278442383,-15.551365852355957,-235.663818359375,45.06614685058594,0.36645641922950734,0.0032209781929848965,0.470633582272802,23.183893221859147,"array('d', [-237.2556915283203, -236.06080533134988, -234.90664018899344, -233.78191444618253, -232.67762202417032, -231.58704056328384, -230.50527241548517, -229.42881813464436, -228.35525950707097, -227.28300429617303, -226.21107349661057, -225.13892359772012, -224.0663008759365, -222.99312629058602, -221.9194100532098, -221.25200179273378])","array('d', [-18.942241668701172, -16.747158785048057, -14.529795454318226, -12.297148342309525, -10.05427142420863, -7.804698912735759, -5.550894244283319, -3.294566363483967, -1.0368738039468925, 1.221429975944588, 3.479885641395422, 5.738240086257831, 7.996376333367306, 10.254258815161108, 12.511892942801717, 13.91418189354986])","array('d', [-45.01063919067383, -44.95131321705694, -44.91919883552217, -44.90519422731221, -44.90332316108087, -44.909582599969035, -44.92123189757691, -44.9363477836873, -44.95354269092398, -44.971786024749456, -44.99029233339498, -45.008454625786776, -45.025809479980516, -45.04202538573758, -45.05690826986459, -45.06530140033657])","array('d', [0.5686703920364377, 0.43981384262042744, 0.32321960554511653, 0.2252516715839358, 0.15150700472562262, 0.09711988778695096, 0.058142186504213975, 0.03125814142036707, 0.013646391839908968, 0.0029101759419330043, -0.002960746042232834, -0.00561345255496096, -0.006347999678275378, -0.006129255284260387, -0.005595342097911775, -0.0050628753514776696])","array('d', [-0.030410982668399707, -0.01727375062888124, -0.008563841541409727, -0.0027371208534947063, 0.0011750047014953034, 0.0037889472439680684, 0.00550194933098666, 0.0065729669937979514, 0.007173056637637198, 0.0074176593899517775, 0.0073880170929155825, 0.00714598215666607, 0.006744706748444673, 0.006236585324626217, 0.005679092452775184, 0.0051386555106670406])","array('d', [0.5098636905339099, 0.48822574672145536, 0.47250719254083373, 0.4614930726348313, 0.45403385103807087, 0.4491473524815514, 0.4461074204657103, 0.44436092726020565, 0.4434854966160333, 0.4431641604176582, 0.4431670741628796, 0.4433361693160603, 0.44357109624181024, 0.4438158315609588, 0.44404569604426664, 0.44438204038021184])",-231.58704056328384,-7.804698912735759,-44.909582599969035,0.09711988778695096,0.0037889472439680684,0.4491473524815514,25.000000245235807,-1.0,"[-14.643838147121672, -235.17026076055998, 45.041687142717954]","[-3.817665098841049, -219.6210106319281, 51.445966771678854]","[5.33227606244232, -236.01154598337916, 44.54459534000785]",10000000000.0,0.028897523880004883
8,20.841336011886597,-14.697924613952637,-235.2826385498047,45.10187911987305,0.3096730411052703,-0.003279320895671998,0.46213646332291175,23.18904808966236,"array('d', [-236.64463806152344, -235.47911190084713, -234.34848661670551, -233.24230897393014, -232.152210066559, -231.0719521453047, -229.9970288204581, -228.92427731736177, -227.85157927472838, -226.7776135414597, -225.70164717950325, -224.62335983440627, -223.54269970844354, -222.45977015544526, -221.3747460321154, -220.69914422029194])","array('d', [-17.67741584777832, -15.466145742225121, -13.236522847495564, -10.994582540071884, -8.744773825784929, -6.490242422311961, -4.233185345484472, -1.9751135239326971, 0.28297196645966965, 2.5404496230001423, 4.7969748825217, 7.052396875034294, 9.306690950745304, 11.559905478758951, 13.812122342958812, 15.210581277830368])","array('d', [-45.01744079589844, -44.97749137604366, -44.958757329649416, -44.95413977771379, -44.95895519374748, -44.970048992608014, -44.985246670915295, -45.0030089257906, -45.02221280426594, -45.042012871577754, -45.061754948161834, -45.08092588448897, -45.099129245739434, -45.11608039144573, -45.13161622835694, -45.14037538210163])","array('d', [0.5029441118240353, 0.3803422395829471, 0.26940746909761026, 0.17706692725520348, 0.1081174064534948, 0.05793970481402688, 0.02272011617351244, -0.000779750448099852, -0.015333030971582437, -0.023302597223947744, -0.02667144365358154, -0.02706240052498894, -0.025752875362664192, -0.02368644933583286, -0.021481595951004403, -0.01943735357170484])","array('d', [-0.02118509262800204, -0.010946740177110977, -0.004153982902491809, 0.000384229625156642, 0.0034175059209021414, 0.005424089880570739, 0.0067126329105838805, 0.0074844158811401265, 0.007872366153385863, 0.007966286375858112, 0.007829815510328403, 0.007512379252544011, 0.007058018069610703, 0.006512109298021683, 0.005926410918568056, 0.005362438532717158])","array('d', [0.49483783642319235, 0.47630602748542655, 0.46311490205504563, 0.45423168560935945, 0.4486188788770352, 0.4453691748672277, 0.4437971521656304, 0.4433743374902965, 0.44369524631596163, 0.44445598509210926, 0.44543778411912743, 0.44649242393699845, 0.44752847182634636, 0.4484979925838049, 0.44938361866316884, 0.4506750015439494])",-231.0719521453047,-6.490242422311961,-44.970048992608014,0.05793970481402688,0.005424089880570739,0.4453691748672277,25.000000245189412,-1.0,"[-13.784896909379324, -234.7982323333078, 45.083074790468295]","[-2.8090460614972343, -219.02493555187056, 50.626882760604644]","[6.1822555751280355, -235.88026592791456, 44.70621279905241]",10000000000.0,0.039491891860961914
9,20.927730798721313,-12.995649337768555,-234.53363037109375,45.20209503173828,0.2058500200510023,-0.01260738074779525,0.44747610489395667,23.190240458323736,"array('d', [-236.24685668945312, -235.10047061994234, -233.98448706618896, -232.88905715794903, -231.8062875445897, -230.73031174172382, -229.65692946724192, -228.5832447870707, -227.50737851040333, -226.42822604941364, -225.34525075499928, -224.25830973559349, -223.1675111823194, -222.07310244991757, -220.9753879957489, -220.31438021824985])","array('d', [-16.828697204589844, -14.607210022472549, -12.370152070565132, -10.122933547437494, -7.869603242070247, -5.613045509190975, -3.3552747628266446, -1.0976632386906362, 1.1589009087363158, 3.4138930113391703, 5.667054451855526, 7.918312193176969, 10.167712781406413, 12.415369942266034, 14.661425542775893, 16.007905036746273])","array('d', [-45.03031539916992, -45.00541051312948, -44.9970755929711, -44.99974988754168, -45.00974804176687, -45.02457399531306, -45.04249476608503, -45.062271829069566, -45.08299036417857, -45.10395111776987, -45.12460388874742, -45.14451005576172, -45.16332647282822, -45.180805779770495, -45.19680942922519, -45.20552177038857])","array('d', [0.45108705759048445, 0.33342003197934533, 0.22695049513168547, 0.13904342420023552, 0.0738970576901128, 0.027067543480227343, -0.0051617546914318035, -0.025972246031553337, -0.03810032850841102, -0.043881827427411646, -0.045277028098133026, -0.043888011705958095, -0.04097265492709063, -0.03745629591780293, -0.033940850717561984, -0.030710954506873105])","array('d', [-0.014027675613760815, -0.00603003281491322, -0.0007263987174322091, 0.0028068934983959378, 0.005152523181620545, 0.006682782448522565, 0.0076380220574553195, 0.008174838228567079, 0.008396482004679592, 0.008372713674510972, 0.008153350329808299, 0.007778012875517642, 0.007283512169139146, 0.006709621019915114, 0.006103497412301207, 0.005522673228677917])","array('d', [0.4849576512959341, 0.46874740165652723, 0.45748200885286266, 0.45024485714119533, 0.4460711648546283, 0.44410355654359807, 0.443684260393238, 0.44430199393331626, 0.4455635171830507, 0.44717480855303715, 0.44892572285495796, 0.4506758456418007, 0.45234085705870264, 0.4538792712261332, 0.4552795279691969, 0.4573926096940016])",-230.73031174172382,-5.613045509190975,-45.02457399531306,0.027067543480227343,0.006682782448522565,0.44410355654359807,25.000000248244213,-1.0,"[-12.321907908896485, -234.17346567451906, 45.171617470103]","[-1.1239890681796485, -218.12425982266706, 49.29831168722138]","[7.627248207377026, -235.5896389196488, 45.01154377355721]",10000000000.0,0.06511425971984863
10,21.004570722579956,-11.299232482910156,-233.79391479492188,45.33290481567383,0.12178299576044062,-0.0175002645701171,0.43611140648392216,23.18259530831615,"array('d', [-235.4725799560547, -234.36232642107848, -233.27291509938905, -232.1956912116056, -231.1237601683089, -230.0520754659264, -228.97713568499648, -227.89666502653057, -226.80934276559944, -225.71456734330843, -224.6122522355582, -223.5026538292305, -222.38623143690103, -221.263538758106, -220.58366665110253, -219.9003912556873])","array('d', [-15.124768257141113, -12.88484955357716, -10.63473831205052, -8.378793512341469, -6.120352891437093, -3.8618131379433325, -1.6048318399606487, 0.6495020802087206, 2.900539768270062, 5.147966956699388, 7.391714042720229, 9.631879171117541, 11.868663813182936, 14.102321024059536, 15.443683113747134, 16.778997628395572])","array('d', [-45.08283996582031, -45.087761677944435, -45.10004244214289, -45.11714323954661, -45.137350653094735, -45.15947579370099, -45.182665411600986, -45.20628179107114, -45.229826211759466, -45.25289124772547, -45.27513333973219, -45.296260707990136, -45.31603373148853, -45.33427591942305, -45.344281518664474, -45.35332474935438])","array('d', [0.3378791809082029, 0.23098529988727692, 0.13426370842873678, 0.056525308573912275, 0.00021543771105725118, -0.03879136796952152, -0.0640368248887325, -0.07859966842012943, -0.08514815819868478, -0.08596490383997621, -0.08296269505261615, -0.0776985117404058, -0.07138724107523624, -0.06491438834869273, -0.05878527238745702, -0.05319111889929632])","array('d', [0.0001565497659613858, 0.003721356426205691, 0.006064213079959301, 0.0075910618486687035, 0.00855890003046603, 0.009131885054267224, 0.009415346488396493, 0.009477009251954488, 0.009360745085943478, 0.009095962440970634, 0.008704476613546782, 0.008205935846126307, 0.007622382776772686, 0.0069821770944339945, 0.006335308251813835, 0.00573242436910559])","array('d', [0.46627839008835376, 0.4548322586886694, 0.44761218826720656, 0.4438812705100411, 0.44278586775314266, 0.44355568962908787, 0.4455833510961528, 0.4483914742275163, 0.4516135739241776, 0.4549792972729313, 0.45830057383717965, 0.4614578177981518, 0.46438624276949547, 0.46706250961205376, 0.47109893565361627, 0.4747613310946846])",-230.0520754659264,-3.8618131379433325,-45.15947579370099,-0.03879136796952152,0.009131885054267224,0.44355568962908787,25.00000024822524,-1.0,"[-10.365497318389568, -233.34132590214105, 45.32335306585607]","[1.0645170144529317, -217.11961333422593, 47.81550348566611]","[9.559769634343084, -235.06613694533198, 45.41696784901971]",10000000000.0,0.06451058387756348
11,21.047901153564453,-10.451653480529785,-233.42498779296875,45.40506362915039,0.0877504646778105,-0.017836097627878307,0.4311135570195061,23.178435885306087,"array('d', [-234.71949768066406, -233.63912689741974, -232.57074276494137, -231.50666825757952, -230.44079712758716, -229.3687519601845, -228.28763207875187, -227.19571685775816, -226.0922007616043, -224.9769567452988, -223.8503306101105, -222.71296878180144, -221.5656800799934, -220.40933037593604, -219.70719973813038, -218.99948686050294])","array('d', [-13.419791221618652, -11.165454407492662, -8.905413134635166, -6.643340073537178, -4.382112348466944, -2.1238026597062265, 0.13018153253027015, 2.378962956283252, 4.622083690085781, 6.859407903391808, 9.091035138119418, 11.317224168237304, 13.538328363300275, 15.754743476505299, 17.084633558587424, 18.407158123106594])","array('d', [-45.173343658447266, -45.20047321872023, -45.22806468094748, -45.255818079625605, -45.28349270515514, -45.310883132192075, -45.33780287122477, -45.36407321620601, -45.38951635279001, -45.41395259587612, -45.43720210759361, -45.45909169262798, -45.47946728601362, -45.49821251138328, -45.5084837459346, -45.51776514356369])","array('d', [0.2302017062902449, 0.13355468295945389, 0.0461048326489372, -0.02314994390428109, -0.07190905327818696, -0.10409020943828272, -0.12312816537726845, -0.13204308013008234, -0.13346409550547653, -0.12963935678775929, -0.12244568745336117, -0.11340139207418314, -0.10368122363849805, -0.09413126059318457, -0.08522113198303194, -0.07711127600576621])","array('d', [0.010723221115768088, 0.010976625652861232, 0.011095017050662114, 0.011107942124962328, 0.011033452909390175, 0.010881855872077082, 0.010658084332422766, 0.01036349268776759, 0.009997473806829771, 0.009559144138615545, 0.009049239589855996, 0.008472277153505644, 0.007838943406029813, 0.0071685608633509515, 0.006502151773749099, 0.005883390644328525])","array('d', [0.45082517067459615, 0.44363538108221995, 0.44012752137566863, 0.43969961634961685, 0.44158244713831474, 0.4450554113286876, 0.4495391651952324, 0.4545759681515404, 0.4598165122244222, 0.46500732033644643, 0.46997721737308834, 0.4746231366435472, 0.47889591777312635, 0.48278657740935677, 0.4886470854366736, 0.49396259517727237])",-229.3687519601845,-2.1238026597062265,-45.310883132192075,-0.10409020943828272,0.010881855872077082,0.4450554113286876,25.000000248209048,-1.0,"[-9.51437347805702, -232.9794004888732, 45.39542426146708]","[2.0007443078304146, -216.73829005100163, 47.30025866949253]","[10.4014217087919, -234.8050903712608, 45.56263230204227]",10000000000.0,0.03202223777770996
12,21.085347414016724,-9.604654312133789,-233.05587768554688,45.479881286621094,0.05839835479855521,-0.017312847077846638,0.42668850819138093,23.17544532157385,"array('d', [-234.34823608398438, -233.2803808691305, -232.22066246636578, -231.16181601367904, -230.0981539430234, -229.02568454738486, -227.9418548930764, -226.84525844203245, -225.73536905080164, -224.6123024361717, -223.47660952683242, -222.32910453449546, -221.1707280076193, -220.46422059356456, -219.75057803547406, -219.03072475818382])","array('d', [-12.571465492248535, -10.311273199077977, -8.047223051057506, -5.7827441087172105, -3.5205080038805265, -1.2624213496401064, 0.9902465200718865, 3.236739324539969, 5.476707426988577, 7.710111784730662, 9.937137003925352, 12.158114480144562, 14.373456989242392, 15.705424260515649, 17.029202851029897, 18.34516013127332])","array('d', [-45.23255157470703, -45.26718239527098, -45.2999057212337, -45.331182283182315, -45.36127404919833, -45.39031209485999, -45.41833783585671, -45.44532845652211, -45.47121352567367, -45.49588748902167, -45.51922137250707, -45.54107617422417, -45.561319772085916, -45.57250885779135, -45.582659780850335, -45.591832089837])","array('d', [0.1828389912843702, 0.09069912275378608, 0.007327516985919793, -0.05694493479267758, -0.10128282957664315, -0.12953373509602065, -0.1450994296720398, -0.15098221806194292, -0.14979736807710922, -0.143778557495761, -0.13478666177957613, -0.12432341493395052, -0.11354779590943237, -0.10311192732509268, -0.09334671946777927, -0.0844636122692406])","array('d', [0.014301010407507527, 0.013419242420868893, 0.012770980443719559, 0.012259455152156064, 0.011821839260966234, 0.011415891596586576, 0.011011909980545704, 0.010588076379888862, 0.010128023542372204, 0.009619943421000329, 0.009056828357538101, 0.00843756634979592, 0.007768647965110936, 0.007084623231584551, 0.006425724327069324, 0.005814236028336241])","array('d', [0.4443699876454213, 0.43899626804197184, 0.43709767410534006, 0.438092754504145, 0.4412187947980521, 0.44577730796465687, 0.451205039029487, 0.45705895958762005, 0.46300475527359497, 0.4688044489014833, 0.47430255453549924, 0.4794114940310476, 0.4840971274858114, 0.4911673427151759, 0.4975901555293206, 0.5034150461468215])",-229.02568454738486,-1.2624213496401064,-45.39031209485999,-0.12953373509602065,0.011415891596586576,0.44577730796465687,25.000000245048636,-1.0,"[-9.08911877317813, -232.79826340154108, 45.43181635708149]","[2.4659142186977743, -216.55618046903015, 47.06765087502527]","[10.8222394377334, -234.6693523065386, 45.62375516597976]",10000000000.0,0.033545732498168945
13,21.166221857070923,-8.341983795166016,-232.5013885498047,45.593746185302734,0.022331826388835734,-0.015312355011701702,0.42071755329636146,23.16861480838522,"array('d', [-233.9784698486328, -232.9214866178032, -231.86923026517923, -230.81476500060063, -229.75267006136255, -228.67919510411338, -227.59201814268604, -226.48995468694497, -225.3726890942277, -224.24053276125485, -223.09421522206756, -221.93471143632001, -220.7631053482765, -220.04772962548537, -219.32426108413685, -218.59373484548172])","array('d', [-11.723220825195312, -9.458008021837193, -7.190533614346136, -4.924046107111726, -2.6610969071660895, -0.4035034540820708, 1.8475407246929088, 4.091350059704602, 6.327644008948449, 8.556451879093876, 10.77802551532319, 12.99276164872377, 15.20113568465329, 16.52839289986718, 17.846846929883284, 19.156906015471172])","array('d', [-45.29816436767578, -45.33800621729157, -45.37426549545225, -45.40793891587392, -45.43964489445649, -45.469755061564115, -45.49847568127191, -45.525898758136236, -45.552035225074576, -45.57683819833744, -45.600221671641854, -45.622078403248466, -45.64229963559461, -45.65347016165985, -45.66360203725869, -45.67275657906082])","array('d', [0.14074181020259843, 0.05260801425004892, -0.027138748472728704, -0.08834202987907051, -0.12986398851364123, -0.15550969878807364, -0.16866588508271158, -0.17233057124856643, -0.16911627835847912, -0.1612512188447476, -0.15058696118742948, -0.13861266655664425, -0.12647276490431994, -0.11480503506596616, -0.10392680715986909, -0.09403687236835073])","array('d', [0.016793254762888062, 0.01510966340720006, 0.013918646178781907, 0.013035635763068827, 0.012341408463464064, 0.011757055898807385, 0.01122875839763403, 0.010718652672114066, 0.010199561293495753, 0.00965227276031054, 0.009064582585163313, 0.008431585233443045, 0.007756833395840478, 0.007071557764681345, 0.006413288114388351, 0.005802983472966209])","array('d', [0.43876583973434957, 0.4349870717178523, 0.43451317757925273, 0.4368022449169497, 0.44111489652759356, 0.44676112204248164, 0.4531822556496339, 0.4599394403850717, 0.46670340401745813, 0.4732422074157672, 0.4794070227648392, 0.4851170674785235, 0.490344736971049, 0.49822558635197395, 0.5053820329674239, 0.5118712529591839])",-228.67919510411338,-0.4035034540820708,-45.469755061564115,-0.15550969878807364,0.011757055898807385,0.44676112204248164,25.000000248197516,-1.0,"[-6.972950135167263, -231.88883706173644, 45.616713820265666]","[4.751612320309839, -215.6949603781175, 46.15800226773112]","[12.91896549455318, -233.94912350164574, 45.87538806639256]",10000000000.0,0.07722330093383789
14,21.215415954589844,-7.079511642456055,-231.94508361816406,45.7071647644043,-0.008379041217267688,-0.011706595309078806,0.41579182545212306,23.161090286931273,"array('d', [-233.42498779296875, -232.38307898123583, -231.34161551103924, -230.29407766050414, -229.23549742246107, -228.16256011386915, -227.07334480063204, -225.96702998209847, -224.8436188556624, -223.7036927739842, -222.54820014929436, -221.37828379753674, -220.66035188680792, -219.93225357261355, -219.19522722115804, -218.4504074856818])","array('d', [-10.451653480529785, -8.179504711128555, -5.907074629302785, -3.637389836144767, -1.3728014687825978, 0.885044252873568, 3.135102178854547, 5.376819646781792, 7.610035264070667, 9.834882849159996, 12.051702367956501, 14.260960486011191, 15.591215811208421, 16.91159665595031, 18.222554259785497, 19.524541646952542])","array('d', [-45.40506362915039, -45.44703027343173, -45.4846164919862, -45.51906485067554, -45.55115918378354, -45.58138354744135, -45.61002113003279, -45.637216624893384, -45.66301672895145, -45.68739817479373, -45.71028957737094, -45.7315914468838, -45.74346360563632, -45.75429522079425, -45.76411998930847, -45.772996970370244])","array('d', [0.0877504646778105, 0.004659457663776544, -0.07052440001932594, -0.12610659225983606, -0.16260170376637856, -0.18377940327500478, -0.19301936115124946, -0.1933198667905553, -0.1872913315140133, -0.17715474146736895, -0.16475024494316787, -0.15155373231669358, -0.13833896964156583, -0.12553844551710905, -0.11363830950228161, -0.10282420386898217])","array('d', [0.017836097627878307, 0.015773213441251432, 0.014321120452097526, 0.01325620462031375, 0.012433688842148499, 0.0117576687268653, 0.011162821754284886, 0.010603336643115342, 0.010046403805665355, 0.00946869941861282, 0.008854917764197062, 0.008197747119047024, 0.007520986385991333, 0.006857013850329149, 0.006218837345664673, 0.00562703712556544])","array('d', [0.4311135570195061, 0.42932538584383395, 0.4306433713705059, 0.43453313017332235, 0.4402501100353507, 0.44712229036904605, 0.4546069989732172, 0.46228278652805516, 0.4698398303402922, 0.4770671055972596, 0.4838373115333557, 0.49009112354013434, 0.49955666582456093, 0.5081836450584063, 0.5160150055601901, 0.523115174838531])",-228.16256011386915,0.885044252873568,-45.58138354744135,-0.18377940327500478,0.0117576687268653,0.44712229036904605,25.000000248190947,-1.0,"[-6.00526239109619, -231.46884867494413, 45.69951696439002]","[5.781611806350444, -215.3117078992967, 45.82757401994746]","[13.879406346409555, -233.5985895843426, 45.952801110155875]",10000000000.0,0.04397702217102051
15,21.251848936080933,-6.6587419509887695,-231.75918579101562,45.744232177734375,-0.01831625960767286,-0.010363716632127875,0.4141013185170034,23.158899156813415,"array('d', [-232.87123107910156, -231.84209851034245, -230.8099870628562, -229.76866580769183, -228.71339738100284, -227.6410904276217, -226.5500527851966, -225.43969189605755, -224.3102327094658, -223.16246483631866, -221.99752747307778, -220.81673513818347, -220.09120100870197, -219.35438271238144, -218.60765017926988, -217.85225347661992])","array('d', [-9.183746337890625, -6.905743226541524, -4.629024207656034, -2.3564621866290336, -0.09031506056132038, 2.1678407008753666, 4.417024209458767, 6.656747681665047, 8.88691694273791, 11.10773482342741, 13.319610659079027, 15.523079290823798, 16.84923016004617, 18.16479261361041, 19.470264378265398, 20.766145128526784])","array('d', [-45.517791748046875, -45.55760956783375, -45.5935417984992, -45.626664417800235, -45.65765435696297, -45.68692688019764, -45.714721088618276, -45.74115381701904, -45.766254680098314, -45.78999052005509, -45.812284819474996, -45.83303597679513, -45.844602794140755, -45.85515644650823, -45.864729264309524, -45.87337855911253])","array('d', [0.04541464895009977, -0.03364757600719885, -0.10518604085453413, -0.15799208819479324, -0.1918413711402158, -0.21049710454708637, -0.2173516502861149, -0.2154200065338497, -0.20732512964512104, -0.1952932236119395, -0.18116229352252403, -0.1664002605561111, -0.15176951958138737, -0.1376895681006156, -0.12463289121912413, -0.11277251370304346])","array('d', [0.01685473322868358, 0.015031292260264064, 0.013737073949297228, 0.012777800140761636, 0.012027306226844343, 0.011401684270020983, 0.010843453029060191, 0.010311989609195315, 0.009777947185387052, 0.009220312587085219, 0.0086252896095865, 0.007986483557049274, 0.0073277360864427935, 0.0066810673665044186, 0.006059326237717068, 0.00548270549345656])","array('d', [0.4246860305455069, 0.4244809157832358, 0.42723391874804756, 0.4324463054429075, 0.43939301681345116, 0.4474017388713663, 0.45592895680291484, 0.46455433056916334, 0.47297163977074524, 0.4809754777718275, 0.48844535427758273, 0.4953291662538861, 0.5057328574876452, 0.5152072948735995, 0.5238048063000158, 0.5315981326747709])",-227.6410904276217,2.1678407008753666,-45.68692688019764,-0.21049710454708637,0.011401684270020983,0.4474017388713663,25.0000002481823,-1.0,"[-5.285598261301773, -231.15566714902988, 45.75977747440111]","[6.5466417029963555, -215.03213557391643, 45.5870726001613]","[14.593556929473033, -233.33710269762213, 46.005801555395486]",10000000000.0,0.031337738037109375
16,21.30090832710266,-4.977449417114258,-231.01318359375,45.88536834716797,-0.05837178602814693,-0.004954596515745041,0.40825887123611965,23.157798582508153,"array('d', [-232.5013885498047, -231.48028328886224, -230.45432648109832, -229.4174362655373, -228.36499078424356, -227.29401399397028, -226.2029362881976, -225.09129057787092, -223.95942501168506, -222.80824583379305, -221.63899956217753, -220.45309750081438, -219.72390325162283, -218.98279829960617, -218.23122681612858, -217.47050431724324])","array('d', [-8.341983795166016, -6.060315722620964, -3.78078034239778, -1.5061684462047185, 0.761308622596481, 3.02010845904023, 5.269282408088179, 7.508376275219612, 9.73733156832771, 11.956388380437165, 14.165993910123841, 16.366720462989505, 17.69087057019416, 19.004034215769064, 20.30673454674815, 21.599496194458833])","array('d', [-45.593746185302734, -45.63025544480752, -45.663775090776, -45.695089410857065, -45.72468366253234, -45.75284602878511, -45.77973077402513, -45.805397845604084, -45.82983865722048, -45.85299445582979, -45.874771681799366, -45.895057487978654, -45.90636982005891, -45.91669351589506, -45.92605858390709, -45.934520301874976])","array('d', [0.022331826388835734, -0.05453377947222401, -0.12408466112793616, -0.1754761692422707, -0.2079466450936404, -0.2252640719303024, -0.23083487333356814, -0.22768912854963294, -0.21846141210209813, -0.20538443838525583, -0.19029775310191963, -0.17466686572975842, -0.1592489261546145, -0.1444568301833895, -0.1307560924865993, -0.11831301582981502])","array('d', [0.015312355011701702, 0.013919331350112774, 0.012913961376765475, 0.012150879884317985, 0.011535342955993923, 0.011003892275020374, 0.010512515632782464, 0.010029559056100798, 0.00953170688735006, 0.009002032933958463, 0.008429518916317118, 0.007809644953972861, 0.007167539903455531, 0.006535921168711382, 0.005927918816865793, 0.005363803131317033])","array('d', [0.42071755329636146, 0.42137488848437077, 0.4249131119714692, 0.43085338812594093, 0.43848140660167445, 0.4471226411571941, 0.45623167504524265, 0.46538784137693234, 0.47428635400033226, 0.48272462759350054, 0.49058583084855695, 0.49782185490332326, 0.5087498111813058, 0.5186975770047073, 0.5277227870102222, 0.5359028991949366])",-227.29401399397028,3.02010845904023,-45.75284602878511,-0.2252640719303024,0.011003892275020374,0.4471226411571941,25.000000248176327,-1.0,"[-4.020503742078577, -230.60276803008287, 45.86104038965021]","[7.886029478228351, -214.5484471240315, 45.1587249909518]","[15.849081720352757, -232.8708598464279, 46.09627020018884]",10000000000.0,0.042912960052490234
17,21.360429763793945,-4.139242172241211,-230.6386260986328,45.95101547241211,-0.07852379977703111,-0.0027006075251848663,0.4063417474415637,23.15689295124755,"array('d', [-231.94508361816406, -230.93385504061308, -229.915273509353, -228.88348883345893, -227.83420634300356, -226.76477855648895, -225.67392879085415, -224.56143868697797, -223.42785438600805, -222.2742260703806, -221.10188952030347, -220.37749487008747, -219.63916300490263, -218.88849286546912, -218.12698457313567, -217.35600221753046])","array('d', [-7.079511642456055, -4.793339192593805, -2.5104248702598992, -0.23344119368297855, 2.035538223292569, 4.295099415935172, 6.544405304540239, 8.783096987590351, 11.011193087736347, 13.228990126572786, 15.436968751515163, 16.76800851540243, 18.087150077708152, 19.394917029997504, 20.69186049611563, 21.978532147820104])","array('d', [-45.7071647644043, -45.73597332984266, -45.76394579980294, -45.79116801838805, -45.81766165145067, -45.84340295567448, -45.868333017261264, -45.89236328309671, -45.915379168828224, -45.937243888245696, -45.957804283087455, -45.96940022668478, -45.980070915685324, -45.989819269428814, -45.99866631123578, -46.00666066925961])","array('d', [-0.008379041217267688, -0.08232212411563498, -0.14922859649093273, -0.19639666600145123, -0.22517207306233294, -0.2393343909843598, -0.24230708196803472, -0.23713269043873775, -0.2264513097901974, -0.21249589713846062, -0.19710404555183053, -0.181141336801872, -0.1650987556736327, -0.1497472085534629, -0.13554265325924428, -0.12264407551287479])","array('d', [0.011706595309078806, 0.011346769638980198, 0.011036843339995168, 0.010746210109841243, 0.010453968122890896, 0.010144599902792975, 0.00980543772355005, 0.009425410522172776, 0.008994742533892531, 0.008505418895195014, 0.007952309417978417, 0.007361363304210695, 0.006765636015372973, 0.006173715916158071, 0.005600503687410151, 0.00506754564419613])","array('d', [0.41579182545212306, 0.4175976727963409, 0.4221850349739383, 0.4290517471596332, 0.43745809695408966, 0.44674425508849763, 0.4563821188545659, 0.4659713810769858, 0.4752297734619498, 0.483978268212672, 0.4921238063705577, 0.5045057793610386, 0.5158446789461895, 0.5261630643725843, 0.5355230546793532, 0.5440059117067819])",-226.76477855648895,4.295099415935172,-45.84340295567448,-0.2393343909843598,0.010144599902792975,0.44674425508849763,25.000000248172952,-1.0,"[-2.7613878522900634, -230.04575084771608, 45.95506637877582]","[9.196201725489315, -214.06093025296278, 44.72968397196028]","[17.10120507104591, -232.3741035577189, 46.192081187735354]",10000000000.0,0.05561256408691406
18,21.398359298706055,-3.300846815109253,-230.26271057128906,46.01417922973633,-0.09904234856367128,-0.0008865012787283506,0.4045357267048697,23.155401249907,"array('d', [-231.5730438232422, -230.56868794278742, -229.55534276446045, -228.52728290475346, -227.4803101512823, -226.41187687906205, -225.32081527315265, -224.20701945456452, -223.07114610862573, -221.9143497590767, -220.7380617655101, -220.01071809855736, -219.2688236214118, -218.51405191507067, -217.7479683685893, -216.97199413498413])","array('d', [-6.2379841804504395, -3.948719538434488, -1.6634302437161925, 0.6152705130754194, 2.885340606664546, 5.145390024384496, 7.3946066693674295, 9.632659505304234, 11.85959785842759, 14.075750850159766, 16.281632437822147, 17.611063740187323, 18.928214006386497, 20.233629152775944, 21.527883449050517, 22.81155176906839])","array('d', [-45.780723571777344, -45.80380262849609, -45.82766774743913, -45.851883580809314, -45.87612601200942, -45.900139606463426, -45.92370880375795, -45.94663827170682, -45.968740098031, -45.98982680881101, -46.0097100133176, -46.02094232914569, -46.03128839542867, -46.04074531418601, -46.04932982140122, -46.05708731340346])","array('d', [-0.028310954570770434, -0.10035726677187229, -0.16554747023395414, -0.21154685386575706, -0.23915860528653762, -0.2521754802392723, -0.2540398983060514, -0.2478122085595965, -0.2361456373930283, -0.22128061639035862, -0.2050570834707467, -0.18833822212377044, -0.17161026586152517, -0.15563870872150368, -0.14087343766371532, -0.12746756914637788])","array('d', [0.009019700810313332, 0.00943684792908602, 0.009651948741970106, 0.00971988736675752, 0.009675108357657617, 0.009538343957965243, 0.009320920115830219, 0.009027801127444803, 0.008660025422100294, 0.008216934838672928, 0.007698445915064267, 0.007134873919732339, 0.006562208907837354, 0.0059901994121402, 0.005434564027376129, 0.004917397217094921])","array('d', [0.412398056187902, 0.41495079838422916, 0.42022242810446786, 0.42772693585041344, 0.4367326892705725, 0.446576070972772, 0.4567263421658736, 0.46678253834263445, 0.47646363089724, 0.48559321618636037, 0.4940816457006497, 0.5069722848194463, 0.5187697009325177, 0.5295017133685711, 0.5392352051752934, 0.5480556507598289])",-226.41187687906205,5.145390024384496,-45.900139606463426,-0.2521754802392723,0.009538343957965243,0.446576070972772,25.000000248167627,-1.0,"[-2.7613878522900634, -230.04575084771608, 45.95506637877582]","[9.196201725489315, -214.06093025296278, 44.72968397196028]","[17.10120507104591, -232.3741035577189, 46.192081187735354]",10000000000.0,0.033444881439208984
19,21.450235843658447,-2.0431625843048096,-229.69610595703125,46.10464859008789,-0.13027301430702223,0.0013323927996679071,0.40227039257553593,23.156679660905,"array('d', [-231.01318359375, -230.016971551276, -229.00928368116539, -227.98462749503986, -226.93914838970517, -225.87063748256668, -224.7782150979866, -223.66200311565737, -222.52281941911605, -221.36191088325904, -220.64034212181258, -219.9018646460093, -219.14828392985456, -218.3813494898196, -217.60269168192127, -216.81378762827336])","array('d', [-4.977449417114258, -2.6845592590118725, -0.39671469258254966, 1.8835609629168486, 4.154351941835073, 6.414390110370528, 8.66296651027334, 10.89983206396376, 13.125093139520486, 15.339107388158284, 16.6757948599651, 17.999176508472896, 19.309760647202285, 20.60812898253131, 21.89489119262202, 23.170656390941733])","array('d', [-45.88536834716797, -45.89977162397413, -45.91740255759665, -45.93703762249812, -45.957826127213686, -45.97915574349902, -46.00056476159339, -46.02168421336394, -46.04220002283929, -46.061829542450354, -46.07308393725082, -46.08356808735205, -46.093249272260024, -46.102110939276706, -46.11015985624223, -46.11743421186055])","array('d', [-0.05837178602814693, -0.12755743432260327, -0.19015919695751354, -0.23179407731825083, -0.25570361079213716, -0.26570354274566443, -0.26525842370904235, -0.2574426269780141, -0.24491552610492917, -0.22991940029209965, -0.21339111324030097, -0.19585443596035249, -0.17839967955569497, -0.16177830146582864, -0.14642827323947571, -0.13249379268159378])","array('d', [0.004954596515745041, 0.00654161513997315, 0.007546485889017856, 0.00815163256303379, 0.008473985295521295, 0.008588012398040619, 0.008540208715032669, 0.008358583394235791, 0.008059241917309078, 0.007651339708036682, 0.007174270931794669, 0.006669871896892059, 0.006146171772823581, 0.00561565359473808, 0.005096096782715901, 0.004611139361687987])","array('d', [0.40825887123611965, 0.4119416695488257, 0.4182513740055904, 0.42667068399687536, 0.4364382309232546, 0.44691008356029177, 0.4575792450762224, 0.46807201198871495, 0.4781366981631278, 0.487627035096651, 0.5021714625254268, 0.5155951511599465, 0.5278717585519968, 0.5390355310838563, 0.5491587665001698, 0.558331482738436])",-225.87063748256668,6.414390110370528,-45.97915574349902,-0.26570354274566443,0.008588012398040619,0.44691008356029177,25.000000248167005,-1.0,"[-0.6662775204425992, -229.11035912493702, 46.102419920397914]","[11.356433489259533, -213.26475529503023, 44.01166425728711]","[19.18669229890739, -231.51381030384218, 46.39053757448736]",10000000000.0,0.04606747627258301
20,21.538459300994873,0.04831100255250931,-228.74266052246094,46.24480056762695,-0.1808853000402452,0.004261490888893494,0.4001204530384876,23.164704969477032,"array('d', [-230.6386260986328, -229.64591740917, -228.64005481762698, -227.61567829441915, -226.5690437363597, -225.49805681708241, -224.4019591788014, -223.28099458784837, -222.1360977505744, -220.96862345911407, -220.24245797973404, -219.49872692934824, -218.7393205340706, -217.9660617979934, -217.18064470137045, -216.38460156195023])","array('d', [-4.139242172241211, -1.844808849834688, 0.4438617300820006, 2.7242822519116503, 4.994556288818567, 7.253434339255806, 9.500231127467519, 11.734726525472395, 13.957059896714002, 16.167624194562194, 17.501838167397427, 18.82230127261843, 20.129546421298024, 21.424181563675635, 22.706843138129894, 23.978166733197725])","array('d', [-45.95101547241211, -45.9606018898884, -45.97476167090476, -45.991841443505436, -46.01070418752315, -46.03054510257278, -46.05077199868005, -46.07092673364054, -46.09063379588629, -46.10956786184302, -46.12045135906765, -46.13060650417732, -46.13999365936953, -46.14859119065191, -46.15640209153555, -46.16346167327402])","array('d', [-0.07852379977703111, -0.14579173207056753, -0.20665827555162242, -0.24702331873867542, -0.2696855910985745, -0.2784761160635792, -0.27687814591831056, -0.26798173781664325, -0.25445613713352877, -0.23854739720859852, -0.2211909228209826, -0.20290608253915696, -0.18477689839675954, -0.1675474117712002, -0.15164820177624017, -0.13721697976890507])","array('d', [0.0027006075251848663, 0.004931333806079842, 0.006372510741861953, 0.007276336353386216, 0.007805179904356332, 0.008063410846710079, 0.008117382079358472, 0.008008398464549857, 0.007761532709734492, 0.007392028863257349, 0.006944616434606602, 0.0064647351260677674, 0.005961793523955054, 0.005449267761361684, 0.00494563442579824, 0.004474995378843383])","array('d', [0.4063417474415637, 0.4107853588018926, 0.41779570221728657, 0.42686803736549966, 0.4372460243432497, 0.4482817890232369, 0.4594662371311818, 0.4704258891112789, 0.48091123573976874, 0.4907794476983118, 0.505881712190081, 0.5198069428807575, 0.5325348787636621, 0.5441053380221564, 0.5545955375775112, 0.5640997629758542])",-225.49805681708241,7.253434339255806,-46.03054510257278,-0.2784761160635792,0.008063410846710079,0.4482817890232369,25.000000248164543,-1.0,"[1.0119511685324825, -228.34954934637312, 46.212042058428565]","[13.062846748058742, -212.62871845071288, 43.44954469527883]","[20.860481439646257, -230.78217430295214, 46.555817998990406]",10000000000.0,0.07617568969726562
21,21.62850022315979,1.718827724456787,-227.97027587890625,46.34868240356445,-0.21707871556282063,0.005088328383862862,0.3996616164830069,23.173817202267838,"array('d', [-229.69610595703125, -228.71044610877175, -227.70728535002073, -226.6816909942795, -225.63040447271865, -224.5517932296948, -223.44549760871402, -222.31207941942074, -221.15269959129074, -220.42704248922868, -219.68035379082303, -218.9147208401802, -218.13222982908232, -217.33487016462016, -216.52447758672236, -215.70270593982792])","array('d', [-2.0431625843048096, 0.2543243573059839, 2.5442073322266157, 4.824107262220611, 7.092254798034213, 9.347522819859007, 11.58933365251169, 13.817553688108699, 16.03238000853329, 17.370858600150108, 18.693898373144155, 20.00197161243784, 21.295688158052535, 22.575734991090624, 23.84282691283415, 25.09767540195882])","array('d', [-46.10464859008789, -46.10557262737974, -46.113403450978346, -46.12573475958525, -46.14092315336719, -46.15781813005037, -46.17558673140572, -46.19359839514159, -46.21134932502139, -46.22177471316247, -46.23166118042207, -46.240931469118735, -46.24952764728933, -46.257414540285524, -46.26458501764666, -46.27106665175172])","array('d', [-0.13027301430702223, -0.19261636193763537, -0.24830776907127056, -0.28297077645774826, -0.300784117416358, -0.30563153554022343, -0.3010428388231417, -0.2901387795596159, -0.2756044966998768, -0.2584162260752243, -0.23909049340977312, -0.21905593831908085, -0.19936792454556992, -0.18074275073400067, -0.16358687309429873, -0.14801953727750944])","array('d', [-0.0013323927996679071, 0.002015768959038549, 0.004212259522223578, 0.005629190858162141, 0.006506956310329623, 0.007000888155268155, 0.0072106138536176005, 0.00719903481458452, 0.007005064113560035, 0.006694529649546563, 0.0063266108015035665, 0.005912637720896875, 0.005465584816835862, 0.005001515259822014, 0.004540746936961998, 0.00410863799576108])","array('d', [0.40227039257553593, 0.4086841844111132, 0.4174995930603779, 0.428188920130455, 0.43998561236048334, 0.4522637924661386, 0.4645441521380989, 0.4764894211200376, 0.48789021419504713, 0.5055050222395143, 0.5218965123031596, 0.5369766379563203, 0.5507415283304394, 0.5632452420887901, 0.5745770339627708, 0.584841298373377])",-224.5517932296948,9.347522819859007,-46.15781813005037,-0.30563153554022343,0.007000888155268155,0.4522637924661386,25.000000248167165,-1.0,"[2.683082934568581, -227.58068384388758, 46.31569492113146]","[14.748614136228571, -211.98893765584378, 42.95111357579429]","[22.529234173456636, -230.0216061600196, 46.73063979673663]",10000000000.0,0.08574056625366211
