,x_pos,y_pos,z_pos,roll,pitch,yaw,vel,x_traj,y_traj,z_traj,roll_traj,pitch_traj,yaw_traj,x_cmd,y_cmd,z_cmd,roll_cmd,pitch_cmd,yaw_cmd,vel_cmd,effector_dmg,effector_x,effector_y,effector_z,cost,time_solution
0,-272.8462219238281,-285.9886169433594,49.94883728027344,0.6374866366386414,0.03638508170843122,1.7815676788475854,23.13900347670575,"array('d', [-285.9886169433594, -283.53782591988715, -281.0729951343803, -278.5963337405305, -276.11012838442605, -273.6168074827561, -271.11897143017393, -268.6192045800832, -266.1197805968676, -263.622508451632, -261.1287143421973, -258.6392967664801, -256.15480845539753, -253.67553931881173, -251.20158871736544, -248.73292706784966])","array('d', [-272.8462219238281, -273.33305919731987, -273.7464543243177, -274.0839866182243, -274.34347311786775, -274.52321986237644, -274.6233041579763, -274.64652904531533, -274.5976970949816, -274.4826328449552, -274.3074743833393, -274.0782277444618, -273.8005188796072, -273.47947615311665, -273.11969397714773, -272.72524715516624])","array('d', [-49.94883728027344, -49.87068798054177, -49.81404824491918, -49.772778025262745, -49.742510429245264, -49.720134168274264, -49.70342682993451, -49.69079603891514, -49.681097070802146, -49.673504258081785, -49.66742051066311, -49.66241415617396, -49.65817545153094, -49.65448721962303, -49.65120549692694, -49.64824704142746])","array('d', [0.6374866366386414, 0.6515622682158462, 0.6642984274838015, 0.6758225819505413, 0.6862500688593941, 0.68609363594477, 0.6670804098056367, 0.6350469285320445, 0.5949667090365477, 0.5507584524446465, 0.5053329270519791, 0.460743290301776, 0.41835068268160397, 0.37896572795662475, 0.3429555991561122, 0.31031908694757837])","array('d', [-0.03638508170843122, -0.026312835113817736, -0.019122871309141816, -0.013980623386810699, -0.01029553320372939, -0.007649854852068464, -0.0057478464927462475, -0.0043796541762873035, -0.0033959501579211436, -0.002690084665299022, -0.0021853382523570916, -0.0018257467010956978, -0.0015694934287919762, -0.0013841844658041569, -0.0012435406412594358, -0.0011252022868668888])","array('d', [1.7815676788475854, 1.752066912274142, 1.721735162558848, 1.6906365418774745, 1.658831221805986, 1.6266968655635352, 1.5951945556539253, 1.5653107336884629, 1.537605763930868, 1.5123100136556868, 1.4894361520395245, 1.4688698550880346, 1.4504316915249935, 1.4339159648251458, 1.419114492703139, 1.4058316442461987])",-273.6168074827561,-274.52321986237644,-49.720134168274264,0.68609363594477,-0.007649854852068464,1.6266968655635352,25.000000248227824,-1.0,"[-273.15983558260893, -284.5227830269856, 49.89427169923116]","[-299.946885013671, -261.24432070420454, 68.34873388767485]","[-260.8579805770373, -253.67251978921868, 72.1861002824223]",10000000000.0,0.018120765686035156
1,-273.5621643066406,-280.06103515625,49.952171325683594,0.6516798734664914,0.018370158970356012,1.7301145950939991,23.176543037046045,"array('d', [-280.06103515625, -277.5873908220841, -275.10373235353495, -272.61232591909084, -270.11558932680987, -267.6160963882045, -265.1164959780562, -262.6192322736597, -260.1263008587713, -257.63916642006313, -255.15879479235886, -252.68573712737043, -250.22022607000147, -247.7622639989359, -245.31169567359643, -242.868270205046])","array('d', [-273.5621643066406, -273.9213953534729, -274.2044776796854, -274.40929540295735, -274.5339472517279, -274.5771112233255, -274.5395858408944, -274.42482640893684, -274.2380854347287, -273.98546391897236, -273.6732497163291, -273.3075152478067, -272.89390225460915, -272.43752670972754, -271.9429567812733, -271.4142363853692])","array('d', [-49.952171325683594, -49.91288297674972, -49.884698320923505, -49.864365754665634, -49.849599897642214, -49.83879042106166, -49.830798931019594, -49.82481761211942, -49.82027086127222, -49.81674675370256, -49.81394939894848, -49.811666072653196, -49.80974484449872, -49.80807965030449, -49.80660058514111, -49.805267744673294])","array('d', [0.6516798734664914, 0.6644048410676562, 0.6759188688794094, 0.6863371928706943, 0.695764082191215, 0.691399380021958, 0.6693408046987428, 0.6352684084280638, 0.5939418868061982, 0.5490645150965726, 0.503360454181506, 0.4587350252273169, 0.4164395907316934, 0.3772086434554665, 0.3413622200877907, 0.30887733780816384])","array('d', [-0.018370158970356012, -0.013148949853350186, -0.009460790943125297, -0.006849015498271283, -0.0049946744895043565, -0.003674949900340597, -0.0027339509323451856, -0.002062313053704578, -0.0015830841215645729, -0.001241894575136691, -0.001000024552444711, -0.0008294817164093583, -0.000709502437956727, -0.0006240780527029119, -0.0005602390977522011, -0.0005069255708033233])","array('d', [1.7301145950939991, 1.699775830217861, 1.6686707403795933, 1.6368594629614404, 1.6043983015521017, 1.5717774545477918, 1.5400313637243583, 1.5100710431604587, 1.4823899485019285, 1.457169790106033, 1.4343922834014258, 1.4139254683334668, 1.3955810883459738, 1.379149988580405, 1.3644235230149864, 1.35120696270384])",-267.6160963882045,-274.5771112233255,-49.83879042106166,0.691399380021958,-0.003674949900340597,1.5717774545477918,25.00000024543743,-1.0,"[-273.80009187341426, -278.58028154163014, 49.92461763701296]","[-299.0381751906544, -254.1910855245328, 69.11331921141998]","[-259.55141213412435, -248.70574291221385, 72.38540719051402]",10000000000.0,0.01778125762939453
2,-273.84326171875,-274.5336608886719,50.01423645019531,0.6843556761741634,-0.020391544327139872,1.681727984049592,23.23188776890673,"array('d', [-274.5336608886719, -272.04537838762485, -269.55051447860933, -267.051777927084, -264.55197933569144, -262.0540162169287, -259.5606732720359, -257.0742990839543, -254.59663218493884, -252.12879720462504, -249.6713926685474, -247.22460849873664, -244.78833936559224, -242.36228012484432, -239.9460000206596, -237.53900065217857])","array('d', [-273.84326171875, -274.07989989297664, -274.2352088307534, -274.30755318502776, -274.2955115224174, -274.1983382807075, -274.0177623803386, -273.75812687583726, -273.425369693165, -273.0260784592778, -272.5668665384237, -272.05401461406177, -271.4932930172348, -270.8898948848056, -270.2484338174919, -269.572979958547])","array('d', [-50.01423645019531, -50.057713328008084, -50.08868786806196, -50.1108988222923, -50.12694835937055, -50.13865249987868, -50.147283110057884, -50.153734607126715, -50.15863883771906, -50.162444348585005, -50.165470964005394, -50.16794710021722, -50.17003497212479, -50.171847321176614, -50.173458266114714, -50.174910201038315])","array('d', [0.6843556761741634, 0.6939711327724598, 0.702671558458097, 0.7105440298206568, 0.7176673365492604, 0.7082783614233045, 0.6822329118313061, 0.6451519687876616, 0.6016465694835659, 0.5552392247624252, 0.5084799416935575, 0.4631251496419884, 0.42030857749153944, 0.3806784167814139, 0.34449786346079403, 0.3117145855253436])","array('d', [0.020391544327139872, 0.014490207863514225, 0.010358992583550183, 0.0074583983427132395, 0.005415402868728269, 0.003972022918584967, 0.002949536286523381, 0.0022237743146303604, 0.00170821326530759, 0.0013423007396082085, 0.0010833126087394596, 0.0009006439448521283, 0.0007718030822272892, 0.0006796141672370467, 0.00061029818890892, 0.0005522206051427941])","array('d', [1.681727984049592, 1.6493912436111837, 1.6164470811671414, 1.582945200509137, 1.5489318354838746, 1.515005506197176, 1.4822823967349406, 1.4516090721721742, 1.4234082391443728, 1.3978017421985593, 1.3747271431520232, 1.3540225085303579, 1.3354803753810385, 1.318879858388222, 1.304005429937042, 1.2906583406577827])",-262.0540162169287,-274.1983382807075,-50.13865249987868,0.7082783614233045,0.003972022918584967,1.515005506197176,25.000000248445524,-1.0,"[-273.99754965040665, -273.3554660968118, 50.03810365375188]","[-297.7945213866113, -248.13374095766173, 69.97722894026941]","[-258.0593942194848, -245.06946076951894, 73.40211666701943]",10000000000.0,0.018661975860595703
3,-273.7488098144531,-268.5044250488281,50.19932174682617,0.7011715173721311,-0.03742245584726337,1.6252989257362227,23.24461537487007,"array('d', [-268.5044250488281, -266.00760268834676, -263.50837311091806, -261.00993458038727, -258.51543600062473, -256.02798354821493, -253.55029874989805, -251.08443397064565, -248.63171289368802, -246.1928097793077, -243.76788519663415, -241.3567261957291, -238.958867509863, -236.57368722199158, -234.20047771363693, -231.83849894349748])","array('d', [-273.7488098144531, -273.84334536861854, -273.85378238307914, -273.77883196742323, -273.61743366237033, -273.36933997260695, -273.0372310404529, -272.62625235367744, -272.1428448281922, -271.59386731970824, -270.98604793571013, -270.3256862236264, -269.6185177566204, -268.8696745280608, -268.0836991402151, -267.2645902924001])","array('d', [-50.19932174682617, -50.27866655951641, -50.33445621763294, -50.37390650515678, -50.40198440351836, -50.422119804765764, -50.4366910265273, -50.44735524825573, -50.45527362300686, -50.46126484080983, -50.46590958236924, -50.46962102806905, -50.472691816589084, -50.475324658463926, -50.47765169330211, -50.47974631595643])","array('d', [0.7011715173721311, 0.709186736478167, 0.7164392072667978, 0.7230015147163033, 0.7289393288889842, 0.7142185010645479, 0.6843827804767997, 0.6448108502339721, 0.5998158040831065, 0.5526361835310383, 0.5055839836024694, 0.46023078725333944, 0.4175747246055552, 0.3781706963444937, 0.3422245095387969, 0.3096575696459814])","array('d', [0.03742245584726337, 0.0262507536035681, 0.01851385659198733, 0.013137411144465042, 0.009387941438702408, 0.006764325350013324, 0.0049234294108938285, 0.0036295586989193284, 0.002720319766325085, 0.0020832860881005214, 0.0016399057577216169, 0.0013343491674189327, 0.0011257618976370006, 0.0009828952725648105, 0.0008804419748060348, 0.0007966568329326558])","array('d', [1.6252989257362227, 1.591893761284496, 1.5579690533247061, 1.5235683010665024, 1.4887318131457925, 1.4542133373932298, 1.421221299913999, 1.390491274611026, 1.362355295631556, 1.336872826673388, 1.3139432845993109, 1.293383694958954, 1.274976451832508, 1.2584970066259742, 1.2437297143067771, 1.2304772952704237])",-256.02798354821493,-273.36933997260695,-50.422119804765764,0.7142185010645479,0.006764325350013324,1.4542133373932298,25.00000024854091,-1.0,"[-273.8304660327219, -267.00770104547473, 50.25544232953656]","[-295.6725556613733, -240.88318630441316, 71.24193441844977]","[-255.75991557194874, -240.1822318628435, 73.78944770848456]",10000000000.0,0.02004528045654297
4,-273.3558349609375,-262.90679931640625,50.402549743652344,0.7102295160293575,-0.03872889280319211,1.5831675138932204,23.270180384028073,"array('d', [-262.90679931640625, -260.408297795093, -257.91095793346943, -255.4181519596781, -252.93314884339588, -250.45904663895988, -247.99836645448067, -245.55283989796936, -243.12342923860734, -240.71045482241578, -238.31375370899704, -235.93282738559625, -233.56696278787177, -231.21532452549195, -228.87702137287422, -226.5511547387743])","array('d', [-273.3558349609375, -273.3443784137211, -273.24739250453035, -273.063847064492, -272.7930516977435, -272.43555324353355, -271.99476491905705, -271.4762907799685, -270.8867930489944, -270.23319084477214, -269.52217698631233, -268.7599659806449, -267.95218728276416, -267.1038623820856, -266.21942799003574, -265.3027857139791])","array('d', [-50.402549743652344, -50.484310074087325, -50.541184974149836, -50.58092507477458, -50.60882419427172, -50.6285112990137, -50.6424856894577, -50.65247821097873, -50.65969538871275, -50.66498456582369, -50.66894523400063, -50.67200346543139, -50.67446091919511, -50.67652628497514, -50.678334662323415, -50.6799588824018])","array('d', [0.7102295160293575, 0.7173827533338257, 0.7238552706582609, 0.7297118469308238, 0.7311254120488511, 0.7127426129581163, 0.6805151519975557, 0.6395624137334245, 0.5939265775816606, 0.5466100010436967, 0.49973817575954477, 0.4547441884098668, 0.4125282941435788, 0.37358040419803484, 0.33806803050120116, 0.30589663154486046])","array('d', [0.03872889280319211, 0.026888934984337694, 0.018750797098848155, 0.013136324736646469, 0.009248307941301851, 0.00654661295402863, 0.004664358915044636, 0.0033515798544738774, 0.0024374204959270963, 0.0018044830357350561, 0.00137127952204437, 0.0010801626267589056, 0.0008889898274307654, 0.000765365273162985, 0.0006827154812671327, 0.0006177464868736158])","array('d', [1.5831675138932204, 1.5491747102461193, 1.5147116015796385, 1.4798180692527787, 1.4446710672009426, 1.4101293716554273, 1.3773165445442617, 1.3468743739283116, 1.319068145510066, 1.2939168817256288, 1.271298767215733, 1.2510217030446238, 1.2328659144372973, 1.2166083570983803, 1.2020365660280758, 1.1889568807439408])",-250.45904663895988,-272.43555324353355,-50.6285112990137,0.7127426129581163,0.00654661295402863,1.4101293716554273,25.000000248600408,-1.0,"[-273.3743773534325, -261.40803881832153, 50.4606285613169]","[-293.7860688731664, -234.81671631727852, 72.28411171476303]","[-253.8191222575731, -235.45125832994754, 73.78095327634244]",10000000000.0,0.017590999603271484
5,-272.65447998046875,-256.8390808105469,50.6115608215332,0.7138476371765133,-0.037350874394178446,1.5382005843010285,23.309613756764154,"array('d', [-256.8390808105469, -254.34353142687834, -251.8530855968845, -249.37117716595654, -246.90109767875478, -244.4457953288065, -242.00747165201162, -239.58746290583093, -237.1863311304833, -234.80402834561224, -232.44006846994358, -230.0936759400049, -227.76390240969684, -225.44971309814437, -223.15004745731005, -220.8638648853961])","array('d', [-272.65447998046875, -272.5304176379815, -272.32039962768823, -272.02360157855884, -271.63968065532856, -271.17004352447503, -270.6187917131721, -269.9918806730567, -269.29607691390044, -268.5382514737214, -267.724968594239, -266.86227991883595, -265.95564459168503, -265.00992068526153, -264.02939518816066, -263.01783718813454])","array('d', [-50.6115608215332, -50.69005207986576, -50.74402305739885, -50.7812369993066, -50.80695405378578, -50.824753571919786, -50.837084118434475, -50.84563140236262, -50.851564883607814, -50.85570312355505, -50.85862424522086, -50.860739054443734, -50.86233859793192, -50.86362413372982, -50.86472503753866, -50.865708656212156])","array('d', [0.7138476371765133, 0.7206565649174284, 0.7268175379488246, 0.732392216830115, 0.7285588600884443, 0.706603753965413, 0.6722191458340632, 0.630192538675789, 0.5842483672751497, 0.5371258834007864, 0.4907499788310795, 0.4464087195413807, 0.4049022338407628, 0.36665552114100997, 0.33179908000572045, 0.3002242500445287])","array('d', [0.037350874394178446, 0.025648039929682696, 0.017665378297581757, 0.012198116630247821, 0.008438617736508848, 0.0058443977128521864, 0.004050014612451696, 0.002808536552238755, 0.0019525328459931233, 0.0013678148983918203, 0.0009756254590828643, 0.0007204784690552531, 0.0005618034137319538, 0.00046818696929675434, 0.00041344923296225846, 0.00037410414333198104])","array('d', [1.5382005843010285, 1.5039705979021665, 1.4692903661310357, 1.43419826685395, 1.399050267928027, 1.3648119124183589, 1.3324780550019488, 1.3025876560212128, 1.2753392647687023, 1.2507153038976266, 1.2285775020362726, 1.2087291239539333, 1.1909520465007128, 1.1750278506899607, 1.1607497590611777, 1.1479297200486835])",-244.4457953288065,-271.17004352447503,-50.824753571919786,0.706603753965413,0.0058443977128521864,1.3648119124183589,25.000000246293325,-1.0,"[-272.60562911980816, -255.3409232403116, 50.66757410709566]","[-291.4529010875103, -228.21768743032106, 73.23104942831145]","[-251.50203254790338, -230.1804780676697, 73.5059236631553]",10000000000.0,0.017527103424072266
6,-271.7493896484375,-251.26673889160156,50.79632568359375,0.7123119235038755,-0.037508346140384626,1.493644000091825,23.340456702021946,"array('d', [-251.26673889160156, -248.77918066539027, -246.3005018537728, -243.83416842184505, -241.3834438100603, -238.95103206462693, -236.53875148992418, -234.14752277917805, -231.7775162871291, -229.4283398169107, -227.0992149727144, -224.7891215853419, -222.49690744208257, -220.2213675254982, -217.96129840439414, -215.7155387272838])","array('d', [-271.7493896484375, -271.5144213192427, -271.19404720351923, -270.78757494735856, -270.2949373655179, -269.71831556399434, -269.06238313814487, -268.3333281745714, -267.53791980627693, -266.68290052260437, -265.77464411120127, -264.81899192113883, -263.82119607457525, -262.78592236291684, -261.7172849444209, -260.61890060455903])","array('d', [-50.79632568359375, -50.87482983258923, -50.92825950100057, -50.96467156943392, -50.98948382557215, -51.0063573796621, -51.017781081733155, -51.025459097080706, -51.03056857583608, -51.0339309918353, -51.03612564806183, -51.03756415178222, -51.03853833768672, -51.03924999672567, -51.03982814612373, -51.04033799138497])","array('d', [0.7123119235038755, 0.7192669935715659, 0.7255602016152647, 0.7312545310011568, 0.7224128292838529, 0.697200853385419, 0.6609884230561123, 0.6181974801862865, 0.5722221486547967, 0.5255371678950463, 0.47987004485045576, 0.4363683554342909, 0.3957365269704973, 0.35833843342761895, 0.3242705299653716, 0.29341213564768415])","array('d', [0.037508346140384626, 0.025505902678933264, 0.017376814091355944, 0.01184616989808214, 0.00806701640738701, 0.005475170182494378, 0.003693545453446752, 0.0024692996641652925, 0.001632249922345581, 0.0010671113347086425, 0.0006948243532724962, 0.00045989772205048724, 0.0003217555017114581, 0.0002487889591174258, 0.00021430580699816418, 0.0001939117037531456])","array('d', [1.493644000091825, 1.4595148596247909, 1.4249269316039332, 1.3899192362826034, 1.3550305671247385, 1.321327064693585, 1.2896677386711546, 1.2604914617419947, 1.2339360651613782, 1.2099532395883263, 1.1883929330693395, 1.1690572456280663, 1.1517322376347379, 1.1362059732728838, 1.1222787508505265, 1.1097692075764445])",-238.95103206462693,-269.71831556399434,-51.0063573796621,0.697200853385419,0.005475170182494378,1.321327064693585,25.000000246424857,-1.0,"[-271.7586592811913, -250.48731364362231, 50.82880818829747]","[-289.22309288262085, -222.83217026172272, 73.8545894672863]","[-249.35311971016182, -225.9698941511466, 73.11979152149758]",10000000000.0,0.019551753997802734
7,-270.5008239746094,-245.3246612548828,51.00511932373047,0.7030241489410395,-0.03650490567088128,1.4454514096167421,23.348544885356546,"array('d', [-245.3246612548828, -242.85112274999742, -240.3903166322384, -237.94565527546771, -235.52028877985083, -233.1165540457905, -230.7358006407517, -228.37849586104568, -226.0444116934692, -223.7328226491049, -221.44267766670208, -219.172735145173, -216.9216628565733, -214.68810860324655, -212.47074763758621, -210.26831513159937])","array('d', [-270.5008239746094, -270.1470402519648, -269.7098000806776, -269.18844267454784, -268.583091810816, -267.89660733778123, -267.13409797987225, -266.3018375691793, -265.4064650240178, -264.45448242711524, -263.4519814532705, -262.40451854243065, -261.3170778770416, -260.19408287635656, -259.03943331114465, -257.8565575165315])","array('d', [-51.00511932373047, -51.08117961240537, -51.132343936247004, -51.16673123462999, -51.18975839553802, -51.205060284946185, -51.215092674634136, -51.22152842181982, -51.225518602349666, -51.22786466543985, -51.2291314983119, -51.229720919897275, -51.22991840610503, -51.229921524506935, -51.22985584679606, -51.229782507896125])","array('d', [0.7030241489410395, 0.7108630669598701, 0.7179560138457518, 0.724259903106221, 0.7105079558285124, 0.6823251033343114, 0.6446625851553992, 0.6015162935167918, 0.5559166494371834, 0.5100570863569234, 0.46546015037491023, 0.4231302801399855, 0.38367615929788557, 0.34740184754418624, 0.31437172847545686, 0.2844553288609705])","array('d', [0.03650490567088128, 0.024552470907998506, 0.016516020529849816, 0.011085314470369687, 0.007398193590389477, 0.004885317274671081, 0.0031692444411009235, 0.0019988831950149975, 0.0012064814751984907, 0.0006791659487445902, 0.000339959033929883, 0.00013499740305248953, 2.482938377386674e-05, -2.1560781927691707e-05, -3.082681046110973e-05, -2.7893336369008783e-05])","array('d', [1.4454514096167421, 1.4119267612071011, 1.3778925281399834, 1.343395527963609, 1.3091675626300547, 1.276367785905418, 1.2457071430644597, 1.2175246807343694, 1.1919027212540463, 1.1687683584172843, 1.1479653094586553, 1.129299120499231, 1.112563759146314, 1.0975567608935115, 1.0840879033660322, 1.0719844716041596])",-233.1165540457905,-267.89660733778123,-51.205060284946185,0.6823251033343114,0.004885317274671081,1.276367785905418,25.000000248747373,-1.0,"[-270.3134234817173, -243.83742085111484, 51.05986452136351]","[-285.8154665312554, -215.34393401185966, 74.46516026893863]","[-246.15572243077628, -220.0953465638917, 72.33706801414755]",10000000000.0,0.017983198165893555
8,-269.11676025390625,-239.9331512451172,51.19424819946289,0.6912547945976254,-0.03535304218530653,1.4031788269665577,23.341315288085625,"array('d', [-239.9331512451172, -237.4765138937867, -235.03573796637804, -232.614116045825, -230.2144579154184, -227.83865217166397, -225.4876094120626, -223.1614166412917, -220.85953790589775, -218.5810068246818, -216.3245866213874, -214.08889293543714, -211.87248339121584, -209.67392017118462, -207.49181134618777, -205.32484128254634])","array('d', [-269.11676025390625, -268.6596833956874, -268.12152182859023, -267.5017680824147, -266.801332458641, -266.02362102367607, -265.1738739985308, -264.2582217930309, -263.2830133808984, -262.25440368403235, -261.17813221838657, -260.0594247195414, -258.9029672620412, -257.7129206369914, -256.49295618945735, -255.24630625864023])","array('d', [-51.19424819946289, -51.26761181556147, -51.31643718520124, -51.348823107486496, -51.37013823027789, -51.38396428306346, -51.392709084272695, -51.3980063273211, -51.40097710528939, -51.4024010540173, -51.40282793177081, -51.40264956359461, -51.40214508483549, -51.40150796670707, -51.40086055729022, -51.40026028362396])","array('d', [0.6912547945976254, 0.7002137135935532, 0.708320078973323, 0.7089909330737456, 0.6917284500184763, 0.6617754185099245, 0.6236363156659854, 0.5808979689074818, 0.5362631926531669, 0.4916831705342059, 0.4485102923967593, 0.40763422017002204, 0.3695897592006189, 0.33463713587048854, 0.3028194159802617, 0.27400236329798205])","array('d', [0.03535304218530653, 0.023543625138347648, 0.015650921820688373, 0.010347050173734338, 0.006765019085095975, 0.004336396418383601, 0.0026869751759757868, 0.0015694649108627114, 0.0008196661916126204, 0.00032769983129370746, 1.8952885094156774e-05, -0.00015868408655228162, -0.00024348428355856137, -0.00026583732660676263, -0.0002523157744549276, -0.00022830500118431872])","array('d', [1.4031788269665577, 1.3704071992428957, 1.3370636669387168, 1.30342700846811, 1.2703597307958396, 1.2388503421022594, 1.2094829680629693, 1.1825211588978064, 1.158011807129746, 1.1358718059778248, 1.1159483124658207, 1.0980566360945085, 1.0820027396202767, 1.0675962777047467, 1.054658247994063, 1.0430257579456392])",-227.83865217166397,-266.02362102367607,-51.38396428306346,0.6617754185099245,0.004336396418383601,1.2388503421022594,25.00000024663986,-1.0,"[-268.86666605103517, -238.4550978203439, 51.247266717040866]","[-282.79836683399736, -209.25523833885399, 74.7690846645392]","[-243.38360884004243, -215.28538674837517, 71.58880756385875]",10000000000.0,0.0173187255859375
9,-267.3744201660156,-234.175537109375,51.40301513671875,0.6750058531761166,-0.033629741519689546,1.3581739077952244,23.327016854239194,"array('d', [-234.175537109375, -231.74154302796006, -229.32642344888546, -226.93331371458052, -224.5646086883009, -222.2217054155909, -219.90506833012782, -217.6144161947166, -215.3489252508627, -213.10741055554837, -210.88847147003784, -208.69060118639896, -206.51226561430622, -204.35195783871694, -202.2082334591838, -200.0797366241561])","array('d', [-267.3744201660156, -266.8085106404384, -266.1646662480879, -265.4424668101976, -264.64350626665913, -263.77162032563734, -262.83208229822657, -261.83080635720034, -260.7737993475201, -259.66683050955703, -258.51525717733324, -257.32394977176574, -256.0972753807193, -254.8391141133343, -253.55289313768066, -252.2416337095103])","array('d', [-51.40301513671875, -51.47248322132309, -51.51814318299306, -51.54794662999766, -51.567130684805804, -51.579169520579214, -51.586387507442026, -51.59035601523503, -51.59215102199026, -51.5925204571286, -51.591992496410704, -51.59094478876963, -51.58964744737551, -51.58828814140519, -51.58698489013933, -51.5857906215107])","array('d', [0.6750058531761166, 0.6855110619529861, 0.6950165673292912, 0.690227732844858, 0.6697076558371878, 0.638253888211171, 0.5998965613591244, 0.5578057907962759, 0.5143567946610524, 0.4712601759444482, 0.42969952877361156, 0.3904505408082668, 0.3539746287782771, 0.32048864028899504, 0.29001493484375773, 0.2624163885980915])","array('d', [0.033629741519689546, 0.022143796035109804, 0.014513580462255921, 0.009414825095848197, 0.0059897144436467965, 0.003679925341945959, 0.002120487236452284, 0.0010718143979570557, 0.0003758020172955054, -7.277081775876295e-05, -0.00034505550605324015, -0.0004906812957613089, -0.0005462646157821375, -0.0005412636301623365, -0.0005019925404656101, -0.00045422190180287406])","array('d', [1.3581739077952244, 1.3264190837757541, 1.2940098429255558, 1.2614528379940284, 1.2297323204598374, 1.1996670605867457, 1.171721753218404, 1.146091556260454, 1.1227927257513428, 1.1017347547985576, 1.0827698436991497, 1.0657240727304125, 1.050416145088938, 1.0366684715318326, 1.0243138556986615, 1.0131997887436268])",-222.2217054155909,-263.77162032563734,-51.579169520579214,0.638253888211171,0.003679925341945959,1.1996670605867457,25.00000024672704,-1.0,"[-267.05806316339306, -232.71014482498796, 51.45345024106692]","[-279.29067493025406, -202.7226931658286, 74.92930916786305]","[-240.2135473465997, -210.13410488478326, 70.68088873869875]",10000000000.0,0.017192363739013672
10,-265.5459289550781,-228.93191528320312,51.6063346862793,0.6561556458473203,-0.03210477158427239,1.316042945781026,23.316006106283492,"array('d', [-228.93191528320312, -226.52343011722354, -224.13625094194137, -221.7732953081388, -219.43652301317056, -217.12687374211487, -214.84442598627533, -212.58859709941524, -210.35833890844347, -208.15230412649674, -205.96897672635316, -203.80676885024224, -201.6640900156746, -199.53939443974886, -197.43121124219618, -195.33816437781078])","array('d', [-265.5459289550781, -264.87937995375637, -264.1384342430574, -263.32286000397875, -262.4347645208302, -261.47821691954687, -260.45839799464943, -259.38093804694796, -258.25147226000325, -257.0753763036465, -255.8576283387275, -254.60275121045362, -253.3148022344682, -251.99738993271032, -250.65370557287721, -249.28656496782767])","array('d', [-51.6063346862793, -51.6723563997336, -51.71521445787854, -51.74272504103304, -51.760006920335236, -51.77043909498531, -51.77627320442067, -51.77902708936252, -51.77973857551491, -51.77912926784461, -51.77770985071552, -51.7758468640399, -51.77380366161495, -51.77176373831384, -51.769841902265654, -51.76808727862058])","array('d', [0.6561556458473203, 0.6684546876565111, 0.6778123538209533, 0.6685686288657609, 0.645598228154392, 0.6132445895434671, 0.5750926230708248, 0.5339371899540831, 0.49186480252972603, 0.4503764798612853, 0.41050981282469806, 0.3729425453892979, 0.3380736263579404, 0.30608367360387156, 0.2769786605817055, 0.2506206787911461])","array('d', [0.03210477158427239, 0.020905838408479697, 0.013505813339794498, 0.0085852050749594, 0.00529529684425625, 0.0030873024649942745, 0.0016047220970814811, 0.0006148985979612225, -3.487022590361913e-05, -0.0004457220865454882, -0.0006858065817263571, -0.0008026339693350917, -0.0008314474699440161, -0.0008009992726578618, -0.0007375285213045514, -0.0006673435455042869])","array('d', [1.316042945781026, 1.285436293694952, 1.2541422193884377, 1.2228544566418837, 1.1925929278857552, 1.1640295977070985, 1.1375321429388632, 1.1132433236437322, 1.091158216031774, 1.0711837566702673, 1.053179313339506, 1.036982433932656, 1.0224245817972433, 1.0093406649500158, 0.9975749576718912, 0.9869850379991576])",-217.12687374211487,-261.47821691954687,-51.77043909498531,0.6132445895434671,0.0030873024649942745,1.1640295977070985,25.000000248838756,-1.0,"[-265.2834216785612, -227.8000789356586, 51.6421823498387]","[-276.00174241473036, -197.08290860669504, 74.91390440855292]","[-237.28697761894134, -205.74536702609268, 69.80227052700974]",10000000000.0,0.016952991485595703
11,-263.34423828125,-223.3258819580078,51.823490142822266,0.6309182643890378,-0.023522987961769076,1.2754436294224596,23.31617573116981,"array('d', [-223.3258819580078, -220.94545221775584, -218.58823907420697, -216.25661369801023, -213.9520051339416, -211.67492489461262, -209.42513272135798, -207.20182425269064, -205.00380611725697, -202.82964192305667, -200.67776582770932, -198.54656685768137, -196.4344491265355, -194.3398729079822, -192.26138056845193, -190.1976139829586])","array('d', [-263.34423828125, -262.58214673018796, -261.7501821979664, -260.8486688619652, -259.8800386367329, -258.8482912806503, -257.7582863684844, -256.61520713148394, -255.42420318721557, -254.1901770755687, -252.9176714028897, -251.61082057217757, -250.27334167220803, -248.90854821632797, -247.51937695299767, -246.10842470938303])","array('d', [-51.823490142822266, -51.87135318316113, -51.90144725518085, -51.9198360685623, -51.93047067498005, -51.93594898489919, -51.937997961557755, -51.93778139955276, -51.9360971051401, -51.9335032950742, -51.93039914562075, -51.92707512603477, -51.92374295284531, -51.920551447575676, -51.91759250694297, -51.91490033058783])","array('d', [0.6309182643890378, 0.6456189582971663, 0.6497666014362813, 0.6375970199327874, 0.6135318931561583, 0.581424803513476, 0.5444230169206209, 0.5049733652901282, 0.46490569224805295, 0.42554136372331836, 0.3877974261408549, 0.3522743309232472, 0.31932476366121854, 0.28910535327200104, 0.26161436416372386, 0.23671848723123118])","array('d', [0.023522987961769076, 0.014913525573118218, 0.009256712519114245, 0.005516867398987079, 0.0030322931608463533, 0.0013779563748070216, 0.0002795488279861815, -0.00044078188330457223, -0.000899009596393745, -0.00117149324456167, -0.0013095243007528433, -0.0013490330409247839, -0.0013172367000248472, -0.0012373016604498252, -0.0011316144498509397, -0.0010239272717848915])","array('d', [1.2754436294224596, 1.2463249199945035, 1.2166349046541212, 1.1871994790461498, 1.1588646324340857, 1.132176119602459, 1.1074274581250974, 1.0847279624026522, 1.0640653989780064, 1.0453537870390837, 1.0284662715846276, 1.0132564277820821, 0.999571670876044, 0.9872616842875286, 0.9761838849010251, 0.9662072095265449])",-211.67492489461262,-258.8482912806503,-51.93594898489919,0.581424803513476,0.0013779563748070216,1.132176119602459,25.00000024886005,-1.0,"[-262.90774313178713, -221.8912296588622, 51.85877137085555]","[-271.95601677203496, -190.30390071069058, 74.67037793530422]","[-233.69862212815136, -200.2364897971529, 68.5290890557907]",10000000000.0,0.017500877380371094
12,-261.091552734375,-218.15142822265625,52.00162887573242,0.605558395385742,-0.019880771636962873,1.2379858056691033,23.343454574733226,"array('d', [-218.15142822265625, -215.8004484858232, -213.47397898523576, -211.17397413516133, -208.9014397659526, -206.65655099835672, -204.43882215131438, -202.24728262646266, -200.08063459463784, -197.9373822245879, -195.81593159031507, -193.71466474045255, -191.631992560837, -189.56639070362922, -187.516421999426, -185.48075159868367])","array('d', [-261.091552734375, -260.2425184885164, -259.32790725742336, -258.34843413226344, -257.30672420280314, -256.20666163034934, -255.05279949878252, -253.84992174904036, -252.60275253564492, -251.31578163612446, -249.9931710581141, -248.6387143826667, -247.25582871543907, -245.8475661839038, -244.41663701718034, -242.96544224750656])","array('d', [-52.00162887573242, -52.04171262078303, -52.06620770364135, -52.08048139675546, -52.08801624811132, -52.09109465998463, -52.09123087681384, -52.089445145109984, -52.08643840316995, -52.08270363553288, -52.07859632733068, -52.074377959557076, -52.070241235394356, -52.06632254787643, -52.06270538447903, -52.059417487030025])","array('d', [0.605558395385742, 0.6226723953035166, 0.6226156906370149, 0.608208151027094, 0.5834507178472041, 0.5517717521156251, 0.5159493070730703, 0.4781391774605553, 0.4399561269206866, 0.40256977298721275, 0.3667942241651441, 0.33316313489241245, 0.30198874459085906, 0.2734065130256883, 0.24740791677497442, 0.22386396089228539])","array('d', [0.019880771636962873, 0.012313905635478435, 0.007365050912437258, 0.00410829968844949, 0.0019555045469279776, 0.0005309895079564593, -0.00040637886991957647, -0.0010121019549492784, -0.0013870374957160835, -0.0015972705943882344, -0.0016870792272288306, -0.0016876077429113271, -0.0016228532984288748, -0.0015139152736434209, -0.0013820167580546828, -0.0012505006702786244])","array('d', [1.2379858056691033, 1.2103097604753486, 1.1821390716188844, 1.1544025413277894, 1.1278064163220272, 1.102798481102705, 1.0796156015163352, 1.058341767940816, 1.0389594844221681, 1.0213887256639547, 1.0055139864421967, 0.9912021536521259, 0.9783140582031596, 0.9667119740038188, 0.9562646569610167, 0.9468509528871073])",-206.65655099835672,-256.20666163034934,-52.09109465998463,0.5517717521156251,0.0005309895079564593,1.102798481102705,25.000000248877928,-1.0,"[-260.8629557089761, -217.31844352168307, 52.01180482561259]","[-268.61352624465917, -185.02938493030976, 74.31304585956096]","[-230.76097375917612, -196.05840411850286, 67.56434182988116]",10000000000.0,0.01707291603088379
13,-258.4457092285156,-212.63131713867188,52.198848724365234,0.5739845037460325,-0.01709298044443132,1.1985793272641043,23.37537219805292,"array('d', [-212.63131713867188, -210.31463374571382, -208.02296990273194, -205.7578095906146, -203.51977037127364, -201.30874641027668, -199.124069551804, -196.96466576915586, -194.8291918464432, -192.71614655073984, -190.62395668985653, -188.5510412166665, -186.49585719042327, -184.45693105200152, -182.43287798312784, -180.42241507197298])","array('d', [-258.4457092285156, -257.5068552591816, -256.50810128015786, -255.45046957032852, -254.3365382159047, -253.16987780684673, -251.95458037019017, -250.69491167629576, -249.3950782845205, -248.05908455910694, -246.6906535055629, -245.29319008601698, -243.86977168149642, -242.4231555199204, -240.95579669082542, -239.46987563253114])","array('d', [-52.198848724365234, -52.23293781273026, -52.25304244527154, -52.26401899652677, -52.26900580584443, -52.27005364695506, -52.26852109162542, -52.26532398097014, -52.26109353011561, -52.25627654849186, -52.25119837872911, -52.24610123579313, -52.24116577579503, -52.23652082257175, -52.23224456481513, -52.228359811170634])","array('d', [0.5739845037460325, 0.5873048376407132, 0.5842799580080871, 0.5688287698135223, 0.5444730615271026, 0.514196059304068, 0.4804082745432238, 0.4449854519066717, 0.4093409418056752, 0.37450604031799595, 0.34120405567164763, 0.3099124202901174, 0.28091192710778407, 0.25432433306584745, 0.2301402875273771, 0.20823956241316602])","array('d', [0.01709298044443132, 0.010292631451680953, 0.00586512072260583, 0.002964538992530318, 0.0010567376054270788, -0.00019754078307798343, -0.0010148689182397342, -0.0015341575381899342, -0.001845018953178722, -0.002005885127989905, -0.0020558204159922865, -0.0020224533468856764, -0.001927501170210127, -0.0017907448800883628, -0.001632896194457536, -0.0014775057922599031])","array('d', [1.1985793272641043, 1.1728275634535235, 1.1467940512106938, 1.1212845207263498, 1.0968750887965304, 1.0739297043849567, 1.0526417318601202, 1.0330802547982005, 1.0152303111128602, 0.9990236355625315, 0.9843604743095165, 0.9711244469973649, 0.959192519687951, 0.9484417597957074, 0.9387540789786887, 0.9300197634798383])",-201.30874641027668,-253.16987780684673,-52.27005364695506,0.514196059304068,-0.00019754078307798343,1.0739297043849567,25.000000248894217,-1.0,"[-257.90026665287894, -211.2342362253935, 52.22448694653618]","[-263.9315554484046, -177.9726324993283, 73.60881001356768]","[-226.6760644276479, -190.5344179069202, 66.24471222932229]",10000000000.0,0.01728081703186035
14,-255.82937622070312,-207.61451721191406,52.386749267578125,0.5426092743873594,-0.012380763888359007,1.1650845865395405,23.407079444751528,"array('d', [-207.61451721191406, -205.3295515680241, -203.0695667018089, -200.83566803874217, -198.6281946990193, -196.44685568394198, -194.29087568396548, -192.15913305260892, -190.050279217973, -187.96283581822394, -185.89527025960464, -183.84605236253444, -181.8136952055692, -179.79678298811626, -177.79398819183274, -175.80408336575547])","array('d', [-255.82937622070312, -254.8154545450653, -253.74681552452205, -252.62459853859193, -251.45122933994253, -250.2299499931303, -248.9644324567781, -247.65849303652425, -246.31589847037222, -244.94024406614997, -243.53488377065202, -242.10289565446865, -240.64707074331622, -239.16991700127525, -237.67367319975259, -236.16033216927136])","array('d', [-52.386749267578125, -52.41086864008609, -52.42395275116939, -52.42986934201962, -52.43111113422018, -52.42930496949, -52.42552953568527, -52.42051496293064, -52.41476876096724, -52.408655192134944, -52.402444602305145, -52.396342771431705, -52.390506422364346, -52.38504872047294, -52.380037368649624, -52.3754874385438])","array('d', [0.5426092743873594, 0.5524615387175832, 0.5478061865939987, 0.5321807354881475, 0.508716804743711, 0.48005076298181315, 0.4483131005090956, 0.4151685700547968, 0.381879686805563, 0.3493747059230226, 0.31830987556656665, 0.2891218384220238, 0.262069501709895, 0.2372663183961249, 0.21470449392011512, 0.19427267751523247])","array('d', [0.012380763888359007, 0.007004739488149864, 0.003520722737843511, 0.0012504283724512752, -0.00023226028819648713, -0.0011965848095491297, -0.0018134724852589478, -0.0021918758705740437, -0.0024015912405361025, -0.0024878300183418423, -0.002480764769067255, -0.002402018375883885, -0.002269279426484, -0.0020997142027283835, -0.0019124931284203114, -0.0017304955829315633])","array('d', [1.1650845865395405, 1.141154511593881, 1.1170910721193037, 1.093576101085662, 1.071094211979556, 1.0499528129357327, 1.030317517256799, 1.0122496193535895, 0.9957384590953453, 0.9807264527451106, 0.9671272526273256, 0.9548384795012325, 0.9437505570171211, 0.9337529169558726, 0.9247385155524945, 0.916607299703497])",-196.44685568394198,-250.2299499931303,-52.42930496949,0.48005076298181315,-0.0011965848095491297,1.0499528129357327,25.00000024890659,-1.0,"[-257.90026665287894, -211.2342362253935, 52.22448694653618]","[-263.9315554484046, -177.9726324993283, 73.60881001356768]","[-226.6760644276479, -190.5344179069202, 66.24471222932229]",10000000000.0,0.01747751235961914
15,-252.85423278808594,-202.30137634277344,52.60162353515625,0.50369256734848,-0.008562372997403155,1.1303194622185568,23.42411988970083,"array('d', [-202.30137634277344, -200.0518253167979, -197.82664760879797, -195.62663115744326, -193.45189513773366, -191.3020161245437, -189.17615734259965, -187.07318851857295, -184.99178906587014, -182.93053228377673, -180.8879513253136, -178.8625890689807, -176.85303434566384, -174.8579467591643, -172.87607193281698, -170.9062526593095])","array('d', [-252.85423278808594, -251.76381686785038, -250.62439678121453, -249.43709476676236, -248.20408956865975, -246.9282333578, -245.61273943776166, -244.26094961583942, -242.87617308314, -241.46158207706966, -240.02014935469447, -238.5546150208131, -237.06747340374304, -235.5609734911813, -234.0371286347792, -232.49773597343307])","array('d', [-52.60162353515625, -52.61762870323526, -52.62492806612712, -52.62660394033116, -52.62463868671233, -52.620325727455, -52.61452486741321, -52.60782202445929, -52.6006295754453, -52.59324919347839, -52.585910381937396, -52.57879264477953, -52.57203606529663, -52.56574324343793, -52.55997463269005, -52.55473907791579])","array('d', [0.50369256734848, 0.5110382466687258, 0.5056007253373331, 0.49052229113151014, 0.4685539102042036, 0.4420042806886184, 0.4127438341193055, 0.3822431758342855, 0.3516269122829122, 0.321729798432775, 0.29314803235645326, 0.2662827028971171, 0.24137484194005052, 0.21853273900294845, 0.19775263769940615, 0.17893400231231715])","array('d', [0.008562372997403155, 0.00431275068832372, 0.0015724631637440264, -0.00020215929673270244, -0.00135088086706665, -0.0020872049420895575, -0.0025458363647240774, -0.0028120041762661105, -0.00293983052127718, -0.0029640790561141404, -0.002907915471755944, -0.0027882776907924085, -0.002619802923405525, -0.00241782916339571, -0.0022006858771834517, -0.0019912631891765855])","array('d', [1.1303194622185568, 1.1085024784560065, 1.0866419985823663, 1.0653096212678204, 1.044911971240152, 1.0257101133922946, 1.0078484069158833, 0.9913840482582038, 0.9763126386594224, 0.9625883135715356, 0.9501387407310103, 0.9388759820008554, 0.9287043078310028, 0.919525897795287, 0.9112451419726078, 0.9037720407409674])",-191.3020161245437,-246.9282333578,-52.620325727455,0.4420042806886184,-0.0020872049420895575,1.0257101133922946,25.000000248918177,-1.0,"[-252.21469994127324, -200.94460341230265, 52.61446693771698]","[-255.5356272303667, -166.01958133668379, 71.8294161949513]","[-219.3550157511457, -181.1058409668095, 63.86900644657168]",10000000000.0,0.018752574920654297
16,-249.9917755126953,-197.50526428222656,52.80990219116211,0.4710744321346281,-0.00469628907740114,1.0987670580532884,23.421057923455887,"array('d', [-197.50526428222656, -195.29021582518448, -193.09895719374506, -190.93203207165433, -188.7893925236305, -186.6705156554524, -184.57451990959845, -182.50027133005332, -180.44647459525132, -178.41174737427986, -176.39467881625822, -174.39387398196, -172.40798624344055, -170.43573950085354, -168.4759417413905, -166.5274951329878])","array('d', [-249.9917755126953, -248.83277433660874, -247.62937447546864, -246.38268742740811, -245.0947097533116, -243.76800229634304, -242.4054309706466, -241.00997286511202, -239.58458015245554, -238.13209010291322, -236.6551695437977, -235.1562840194924, -233.6376842674709, -232.1014047666803, -230.54927081538173, -228.9829150511655])","array('d', [-52.80990219116211, -52.81771374488023, -52.81920712145515, -52.81664879700065, -52.81149563179706, -52.80470020355814, -52.79689985341258, -52.78853459170908, -52.77992087290452, -52.77129741393532, -52.76285269835095, -52.75473985947076, -52.74708228624791, -52.739971988754746, -52.73346218529291, -52.7275555636722])","array('d', [0.4710744321346281, 0.47626960733483964, 0.4701055477098129, 0.45540073309528367, 0.43460098176949175, 0.40975277687209105, 0.3825161194063375, 0.3542013378096226, 0.32581606293198545, 0.29811300335102386, 0.27163335654606785, 0.2467436795102844, 0.22366582402352092, 0.20250044672063972, 0.18324496769328932, 0.16580691845331708])","array('d', [0.00469628907740114, 0.0016045430022670237, -0.0003767889200032609, -0.0016486538773068272, -0.0024603407240962193, -0.002967547349145864, -0.0032677351239861962, -0.003421914645613242, -0.0034683001616522395, -0.0034311011792650136, -0.0033264301922032668, -0.003166519868683067, -0.0029629442851428897, -0.002729200644683968, -0.002482759108676293, -0.002246493626714641])","array('d', [1.0987670580532884, 1.078650662822034, 1.0585629361901572, 1.038992358712149, 1.0202861618031673, 1.0026687784117296, 0.9862661567822355, 0.9711299317778352, 0.957258312394991, 0.9446127220078507, 0.9331304405602143, 0.9227339856558289, 0.9133380480559915, 0.9048546951155431, 0.8971974012471324, 0.8902843022454725])",-186.6705156554524,-243.76800229634304,-52.80470020355814,0.40975277687209105,-0.002967547349145864,1.0026687784117296,25.000000248928202,-1.0,"[-249.31841109982773, -196.1835590068111, 52.81633993874195]","[-251.38402353159358, -160.5852254672172, 70.94068529203844]","[-215.75680512097264, -176.86432857446988, 62.83561833701896]",10000000000.0,0.017795801162719727
17,-246.76051330566406,-192.4017791748047,53.048030853271484,0.43299502134323103,-0.002000628504902185,1.0656539360669,23.41329997354797,"array('d', [-192.4017791748047, -190.22514551752712, -188.0712939306674, -185.94057027648307, -183.8328010687625, -181.74740047155052, -179.68347384881278, -177.63991107126873, -175.61546614233976, -173.60882236746983, -171.61864386672622, -169.64361492559613, -167.68246882185767, -165.7340076256737, -163.79711421846724, -161.87076144913078])","array('d', [-246.76051330566406, -245.530844227283, -244.26169369346036, -242.95409267676646, -241.60980800647997, -240.23107892863214, -238.8204049070345, -237.38038555465022, -235.91360636689055, -234.4225613032594, -232.9096033942953, -231.3769159322009, -229.82649850986036, -228.26016374945556, -226.67954184433432, -225.0860942475508])","array('d', [-53.048030853271484, -53.050065567530616, -53.04734285522806, -53.041595197331965, -53.03393679201885, -53.025099081525155, -53.01557615140328, -53.00571516628406, -52.99577272396346, -52.98594950598466, -52.97641049094379, -52.967294919704926, -52.95871839419977, -52.950768530600385, -52.943495245647874, -52.93689691868244])","array('d', [0.43299502134323103, 0.43666589695385183, 0.43032425342428554, 0.41646415741033893, 0.3972356859622622, 0.3744355672446046, 0.3495249296806251, 0.32366298743228866, 0.29774707511908777, 0.27245253477554426, 0.24826883301350983, 0.22553035451267603, 0.20444158200225032, 0.18509703827894639, 0.16749664891378685, 0.15155724905983925])","array('d', [0.002000628504902185, -0.0003339117740822376, -0.001819476497853249, -0.002762915552376378, -0.003353958534941811, -0.003710280394771807, -0.0039048364795526546, -0.003982673518587999, -0.003971487825685804, -0.003888491251608064, -0.003745130767322422, -0.0035505876879796425, -0.003314583148508938, -0.0030497365741433808, -0.0027735076079113997, -0.0025095737718274142])","array('d', [1.0656539360669, 1.0474262351503372, 1.0292661319840268, 1.0115877478927742, 0.9946864200413058, 0.9787552065061621, 0.9639048181816119, 0.9501830180334758, 0.9375914312411205, 0.9260991372787657, 0.9156532248219296, 0.9061868320671984, 0.8976252629506182, 0.8898907091815044, 0.8829060045079116, 0.876597720447143])",-181.74740047155052,-240.23107892863214,-53.025099081525155,0.3744355672446046,-0.003710280394771807,0.9787552065061621,25.000000248937763,-1.0,"[-246.03461668014816, -191.08912343797982, 53.051031794026954]","[-246.77282868532848, -154.78616209408588, 69.83048472608496]","[-211.76867570333224, -172.3864055023553, 61.771905075633356]",10000000000.0,0.016899585723876953
18,-243.65951538085938,-187.76516723632812,53.28007507324219,0.4009383618831632,-0.0009222846128978131,1.0371229211476187,23.409230075460098,"array('d', [-187.76516723632812, -185.6235092088924, -183.50366475087506, -181.40584172932842, -179.32978279818997, -177.27486521119317, -175.24019486370977, -173.22468996053783, -171.2271521113853, -169.2463245474635, -167.28093826821936, -165.32974741305884, -163.39155523921644, -161.4652319641992, -159.54972552492725, -157.64406996790464])","array('d', [-243.65951538085938, -242.3698823258565, -241.0447056544198, -239.68494548887662, -238.29218843094904, -236.86842562560045, -235.41587419550248, -233.93684160145435, -232.4336275359363, -230.90845621767625, -229.36343212926693, -227.80051329574007, -226.22149749842006, -224.62801803069513, -223.02154660572072, -221.40340507726512])","array('d', [-53.28007507324219, -53.2796963022732, -53.27502031085529, -53.26762621713221, -53.25852974297198, -53.24839935540614, -53.23768937330534, -53.22672257170342, -53.21574149970217, -53.20493982136257, -53.194480248135065, -53.184502787467004, -53.17512537609148, -53.16643811237589, -53.15849204736038, -53.151283743377604])","array('d', [0.4009383618831632, 0.4034802733979793, 0.3970737994281525, 0.383955912157421, 0.3660458690050091, 0.34494597663371057, 0.3219616304928112, 0.2981323021286396, 0.2742665053774223, 0.2509760367877178, 0.22870685520995004, 0.20776546435393278, 0.18834059430180258, 0.17052048121090052, 0.15430626687637827, 0.13962209675320592])","array('d', [0.0009222846128978131, -0.0011900632675339068, -0.0025284060662681576, -0.003372791620831513, -0.0038956809404440598, -0.004203515941670498, -0.004361854468382059, -0.004410798383338647, -0.004374689743366802, -0.00426845199040355, -0.004102007554915993, -0.00388362515916485, -0.0036226746543997716, -0.003331999304619207, -0.0030299029430144557, -0.0027415698857982122])","array('d', [1.0371229211476187, 1.0204292360465699, 1.00382841967087, 0.9876797523850038, 0.9722400965935626, 0.9576787292231639, 0.94409419807722, 0.9315304558171474, 0.9199908604174915, 0.9094496206885455, 0.8998608338119692, 0.8911655094304785, 0.8832970300039139, 0.8761854580080679, 0.8697610269838845, 0.8639570646594046])",-177.27486521119317,-236.86842562560045,-53.24839935540614,0.34494597663371057,-0.004203515941670498,0.9576787292231639,25.000000248945398,-1.0,"[-246.03461668014816, -191.08912343797982, 53.051031794026954]","[-246.77282868532848, -154.78616209408588, 69.83048472608496]","[-211.76867570333224, -172.3864055023553, 61.771905075633356]",10000000000.0,0.017100095748901367
19,-240.18421936035156,-182.81410217285156,53.531517028808594,0.36618000268936124,0.004637959413230348,1.0117988149311878,23.403482959206478,"array('d', [-182.81410217285156, -180.70473960969275, -178.6158762689484, -176.54764536034918, -174.49976172204296, -172.47161210528904, -170.46233993781973, -168.47092062546258, -166.49622565089044, -164.53707527650502, -162.59228054337575, -160.66067564357903, -158.741141815135, -156.8326238137275, -154.93413985057978, -153.04478954079988])","array('d', [-240.18421936035156, -238.8424576326161, -237.46900692825804, -236.06468048887945, -234.63084347073203, -233.16922262911535, -231.68175291359432, -230.17045974226792, -228.6373724531148, -227.0844632685977, -225.51360626106077, -223.92655159351494, -222.32491129035796, -220.71015372824607, -219.08360482926508, -217.4464578681477])","array('d', [-53.531517028808594, -53.519422122617556, -53.506556332626964, -53.49326590249582, -53.47978417088089, -53.46627841117084, -53.45287906937565, -53.43969808754741, -53.426840079539886, -53.41440834776771, -53.402506630581215, -53.39123680754355, -53.38069245312453, -53.37094808484876, -53.36204420742397, -53.353968842799105])","array('d', [0.36618000268936124, 0.3686479288969968, 0.36297120283172923, 0.35117043051956853, 0.3349765506630948, 0.31583696743016126, 0.29493547715677687, 0.27321989782971184, 0.2514323027040754, 0.23013837363393322, 0.20975388312839763, 0.19056741980057687, 0.17275917940613522, 0.1564160398488518, 0.14154332364898248, 0.12807370711082117])","array('d', [-0.004637959413230348, -0.00503143922489775, -0.0052574675181052835, -0.005372999269054044, -0.005411791067530397, -0.005393179624860476, -0.0053274416697955155, -0.005219198263392651, -0.005069746552867021, -0.004878864069295521, -0.004646423150299152, -0.004374010146005983, -0.004066626127263436, -0.0037344298865286648, -0.0033943601191762287, -0.003071344405850937])","array('d', [1.0117988149311878, 0.9966947534535516, 0.9816659509306099, 0.9670311905095176, 0.9530203421496056, 0.9397872618794639, 0.9274239627225149, 0.9159741102414257, 0.9054448251901213, 0.895816475406403, 0.8870505539417253, 0.8790959318276019, 0.8718938255424938, 0.8653817983118081, 0.8594970639371446, 0.8541792948538081])",-172.47161210528904,-233.16922262911535,-53.46627841117084,0.31583696743016126,-0.005393179624860476,0.9397872618794639,25.000000248951327,-1.0,"[-240.4441017149579, -183.02606095309412, 53.45127684156603]","[-239.33388628568022, -145.8431032164467, 68.15485040907971]","[-205.26148546662196, -165.28971920861107, 60.35096491025703]",10000000000.0,0.020444154739379883
20,-236.8689727783203,-178.27581787109375,53.755496978759766,0.34058594703674294,0.00985015090554945,0.9881733218815665,23.417369727549328,"array('d', [-178.27581787109375, -176.1980007442527, -174.13972692997902, -172.10105991584456, -170.08167826518692, -168.08096209698823, -166.098072138759, -164.13201901847924, -162.1817218920092, -160.24605655298612, -158.32389377526317, -156.41412888914007, -154.51570361807984, -152.62762110639105, -150.74895492144734, -148.87885644920456])","array('d', [-236.8689727783203, -235.47899356462636, -234.06019542071812, -232.61334035630023, -231.1396704337063, -229.64074383769164, -228.11830250080004, -226.5741699040227, -225.0101752254536, -223.42809917500188, -221.82963700409164, -220.21637480880315, -218.58977602359954, -216.95117575149592, -215.3017812175884, -213.64268049287406])","array('d', [-53.755496978759766, -53.732435544639834, -53.711930556776444, -53.693158864680285, -53.67561410756004, -53.65899100197249, -53.64311531035247, -53.62790098163975, -53.61332325791671, -53.59940075219901, -53.586181941544474, -53.573732964858316, -53.56212454584314, -53.551416591109586, -53.54163975415441, -53.53277416491269])","array('d', [0.34058594703674294, 0.342339510888622, 0.3367145315215777, 0.32554679998618946, 0.3104042735988437, 0.2925972242549989, 0.27319844580595554, 0.25306881357924677, 0.23288433088312335, 0.21316203671215556, 0.19428327780678376, 0.17651368597837552, 0.16001974312953457, 0.14488212413713417, 0.13110615443994825, 0.11862976501675009])","array('d', [-0.00985015090554945, -0.008619784003692848, -0.007798097876901832, -0.007228892451104178, -0.006813950480064335, -0.006490035458425658, -0.006215188114254266, -0.0059605969866521015, -0.00570589690184302, -0.005436656631999957, -0.005143334301959079, -0.004821260974937154, -0.004471344862602961, -0.004101219509980738, -0.0037265206842026256, -0.0033718957410324166])","array('d', [0.9881733218815665, 0.9742274233563727, 0.96036969641976, 0.9468833586253126, 0.9339729617960927, 0.9217760897114977, 0.910375737630718, 0.8998119587006849, 0.8900920495464683, 0.8811990594925518, 0.8730987132352972, 0.8657449799349649, 0.8590845618650346, 0.8530605610213344, 0.8476155440247252, 0.8426941722238211])",-168.08096209698823,-229.64074383769164,-53.65899100197249,0.2925972242549989,-0.006490035458425658,0.9217760897114977,25.00000024895677,-1.0,"[-239.38872306433208, -181.542435060607, 53.52456011463012]","[-237.97308453507793, -144.21540524727655, 67.83150992474798]","[-204.06196154189, -163.96614175448153, 60.08914951180918]",10000000000.0,0.017106056213378906
21,-233.15899658203125,-173.39276123046875,53.98602294921875,0.31180173158645613,0.01076178159564728,0.9652999798443654,23.452864092348864,"array('d', [-173.39276123046875, -171.3463860683102, -169.31834362370716, -167.30865585255933, -165.3169924751514, -163.34275188054053, -161.3851339078248, -159.44320317288484, -157.51594253078667, -155.60229697978434, -153.7012087294629, -151.81164432360788, -149.9326147118197, -148.06318907635335, -146.20250309449406, -144.34976594570298])","array('d', [-233.15899658203125, -231.72315794108675, -230.26149226371487, -228.77466161664896, -227.26375205422556, -225.73013210553785, -224.17533797898227, -222.60098415993346, -221.00869624521806, -219.4000622397182, -217.7765986605848, -216.1397282800991, -214.4907669449816, -212.83091750168373, -211.16126937207375, -209.48280613608102])","array('d', [-53.98602294921875, -53.96089481498545, -53.938665030160095, -53.918390782870695, -53.8994921795501, -53.88161899083592, -53.864570098929434, -53.84824425815979, -53.83260926405159, -53.81768151268363, -53.803510760006745, -53.79016656351882, -53.777723959108414, -53.7662467509579, -53.75576761254617, -53.74626518773045])","array('d', [0.31180173158645613, 0.31344263101599357, 0.30835825996161625, 0.29821431232669754, 0.2844316916167872, 0.26819881834036324, 0.2504911085302433, 0.23209409242077267, 0.2136272873427264, 0.19556685652836137, 0.1782659234780164, 0.16197204123644451, 0.14684173039167087, 0.13295224067009626, 0.12031080968031363, 0.10886173225291533])","array('d', [-0.01076178159564728, -0.009364377221936688, -0.008435186218003599, -0.007795067966416057, -0.007331688761919032, -0.006972968126206599, -0.0066712837313275455, -0.006394105512159707, -0.006118567746227718, -0.0058285424369377056, -0.005513377918606233, -0.005167794924076874, -0.004792588844920843, -0.004395828649097767, -0.0039942064632234545, -0.0036141078720482935])","array('d', [0.9652999798443654, 0.9526161843446281, 0.9400093687151105, 0.9277331059323466, 0.9159715410929082, 0.9048497646996697, 0.894444508574531, 0.8847941449151134, 0.8759074640958882, 0.8677710781824906, 0.8603555227289124, 0.8536202387092648, 0.8475176498931977, 0.841996542481543, 0.8370049263950786, 0.832492515724492])",-163.34275188054053,-225.73013210553785,-53.88161899083592,0.26819881834036324,-0.006972968126206599,0.9048497646996697,25.00000024896148,-1.0,"[-234.05308187013165, -174.43344900696124, 53.86261742662338]","[-231.20763564332998, -136.61732785768535, 66.58442614211936]","[-198.0789861055503, -157.74551168117694, 59.094938300903415]",10000000000.0,0.017187118530273438
22,-229.6407470703125,-168.9307403564453,54.21266174316406,0.2880200445652006,0.011251839809119637,0.944473520913396,23.48730593179617,"array('d', [-168.9307403564453, -166.9139589708546, -164.91447993095318, -162.93228477619655, -160.9670320063523, -159.01813284630882, -157.08481856306872, -155.1661986574071, -153.26130985694337, -151.3691563306538, -149.48874183147785, -147.61909458038795, -145.7592856901202, -143.9084418432425, -142.06575282680734, -140.2304781434776])","array('d', [-229.6407470703125, -228.1636457297763, -226.66315675812095, -225.13987777936413, -223.59478183205098, -222.02909374199146, -220.44418961010896, -218.84151808906176, -217.22254073978397, -215.5886883135553, -213.9413299220997, -212.2817524542007, -210.61114808761613, -208.93060822536776, -207.24112260739682, -205.54358613643936])","array('d', [-54.21266174316406, -54.186340320235395, -54.162968534891014, -54.14158673184436, -54.1216064579062, -54.10267407052371, -54.084588438347964, -54.06725071689706, -54.05063292765428, -54.03475709366129, -54.01967958496666, -54.0054770396078, -53.99223132322554, -53.98001184360427, -53.96885439566997, -53.958736761391194])","array('d', [0.2880200445652006, 0.28934627271267155, 0.2845414256136458, 0.2751235516876886, 0.2623855441936139, 0.24740880383779787, 0.23108204001417898, 0.2141224845177853, 0.19709731535830552, 0.1804437942900089, 0.16448726149443893, 0.14945661377293235, 0.1354972136455749, 0.12268136601761423, 0.11101659387562397, 0.1004519772598344])","array('d', [-0.011251839809119637, -0.009829417988581064, -0.008884053723410706, -0.008232467156702472, -0.007759807062587206, -0.007392377015408895, -0.007081441860279504, -0.006793647379951874, -0.00650548888668867, -0.0062003538551860795, -0.005867282454087712, -0.005500926449145323, -0.005102345327426206, -0.004680317534826788, -0.004252802233193766, -0.00384809502200193])","array('d', [0.944473520913396, 0.9328195813184237, 0.9212420328963608, 0.90996876399217, 0.8991656991005182, 0.8889461598248344, 0.8793802890002995, 0.8705037918133205, 0.8623256162965469, 0.8548344712206999, 0.8480042481028706, 0.841798497010308, 0.836174132061265, 0.8310845366280911, 0.8264822173270808, 0.8223211218760188])",-159.01813284630882,-222.02909374199146,-54.10267407052371,0.24740880383779787,-0.007392377015408895,0.8889461598248344,25.00000024896555,-1.0,"[-232.30529064191143, -172.15950310988248, 53.96988058841995]","[-229.03323807625, -134.20500938142555, 66.16619469654592]","[-196.14635486061613, -155.76548024093566, 58.845060311938965]",10000000000.0,0.020525455474853516
