,x_pos,y_pos,z_pos,roll,pitch,yaw,vel,x_traj,y_traj,z_traj,roll_traj,pitch_traj,yaw_traj,x_cmd,y_cmd,z_cmd,roll_cmd,pitch_cmd,yaw_cmd,vel_cmd,effector_dmg,effector_x,effector_y,effector_z,cost,time_solution
0,-119.70838928222656,-335.9013366699219,50.00630569458008,0.6651625037193298,0.02911638468503954,-2.2007367491682595,23.430602537771264,"array('d', [-333.707275390625, -335.6861854037519, -337.6239384981183, -339.52003883944326, -341.37490918593386, -343.18971853956776, -344.96620316022666, -346.706498572438, -348.4129928074017, -350.08820475863666, -351.7355766374283, -353.35938423359363, -354.96342518071395, -356.5506450020467, -358.12320628324676, -359.682664422961])","array('d', [-117.97589874267578, -119.37783644355504, -120.84090261332449, -122.36118637195487, -123.93433577370047, -125.55581017954513, -127.22108780935311, -128.9258185973577, -130.6659251046804, -132.43766066115936, -134.23861301545557, -136.06779829632242, -137.92429510138084, -139.80676028672283, -141.71342250449436, -143.64221499794706])","array('d', [-49.98646926879883, -49.88664797349405, -49.735582227213044, -49.537957649780054, -49.2980298164589, -49.01966328138594, -48.70636695380147, -48.361325994081014, -47.987430633175194, -47.58730234701513, -47.17102190046266, -46.755863882176754, -46.356448728533785, -45.9824501859248, -45.638803587617296, -45.326243705391924])","array('d', [0.6573654413223265, 0.6459452508574791, 0.6271544340677048, 0.6022008122533163, 0.5724167924617564, 0.5391444515291622, 0.5036510944977177, 0.4670763152676981, 0.4304047817959177, 0.39445672098844253, 0.35988872783505826, 0.32719962044439055, 0.2967373931859695, 0.268704476987819, 0.2431602206508696, 0.22002048615064124])","array('d', [-0.029918204993009664, -0.051984598915512194, -0.07195109962573723, -0.0900175382065282, -0.1063647293145547, -0.12115628082899288, -0.13454023128725845, -0.14665053148911983, -0.15760838505183808, -0.16752345955935063, -0.17028469499644036, -0.1660442906751217, -0.1568669193635498, -0.1448076512052828, -0.13172531697822293, -0.11919000652266071])","array('d', [-2.1716937899550026, -2.202516756891116, -2.2323145896979932, -2.2607030424254106, -2.2874101423933104, -2.312270676092457, -2.335210533080249, -2.356227260610826, -2.375371205196773, -2.3927294246789352, -2.4084130247587896, -2.4225473587298496, -2.435264562674937, -2.446697855212311, -2.456976785057356, -2.466222887089255])",-343.18971853956776,-125.55581017954513,-49.01966328138594,0.5391444515291622,-0.12115628082899288,-2.312270676092457,24.551074788027854,-1.0,[],[],[],10000000000.0,0.02176380157470703
1,-120.00392150878906,-336.262451171875,50.009681701660156,0.6662900447845459,0.028776930645108285,-2.2055468440016335,23.43377665358801,"array('d', [-334.0760803222656, -336.0479368546872, -337.97808194527954, -339.86592668496723, -341.7118385290882, -343.5169647973387, -345.2830469427958, -347.0122451633587, -348.7069848885232, -350.3698296212458, -352.0042692836361, -353.61461565133993, -355.2046918449046, -356.77747237910904, -358.3351527752025, -359.87932404755094])","array('d', [-118.25984954833984, -119.67156596162411, -121.14456009597994, -122.67502142053137, -124.25864243773353, -125.89088697301298, -127.56721263363491, -129.28323556134052, -131.03483972874983, -132.81824035797365, -134.63100481795942, -136.47213711825344, -138.34069547288087, -140.23531721269032, -142.1542131501791, -144.09530095950967])","array('d', [-49.989681243896484, -49.88991036371658, -49.73889118220685, -49.541308782122655, -49.30141830527401, -49.02308410636945, -48.709815180729024, -48.36479704408239, -47.99092049575675, -47.5908077229418, -47.17460343488369, -46.759619230863336, -46.360430689374816, -45.986675762053316, -45.643266096138184, -45.33092569059961])","array('d', [0.6587502956390381, 0.6488379128099238, 0.6311207882529826, 0.6068642986121072, 0.5774655372208463, 0.5443319902062208, 0.5087919265657391, 0.47203831932220675, 0.4351003638754606, 0.3988340026335825, 0.3639234909091677, 0.33088829105881506, 0.300091059197611, 0.27174377674211775, 0.24591089620389195, 0.2225094005413164])","array('d', [-0.0298976767808199, -0.05196602421912998, -0.07193429254370308, -0.09000233052821027, -0.10635096883663821, -0.12114382983216229, -0.1345289651578029, -0.14664033747154834, -0.1575991611189808, -0.1675151132748189, -0.17022634870022205, -0.16595627351442202, -0.15676657593745305, -0.14470748438087988, -0.13163232815770762, -0.11910586675089546])","array('d', [-2.1766040205915993, -2.2075655438818607, -2.237578868006402, -2.266228873071032, -2.293218483067687, -2.318363995803467, -2.3415789501511264, -2.362853516630677, -2.382234319625913, -2.3998071803743075, -2.4156835477723595, -2.42999004807956, -2.4428605806492993, -2.4544303292610303, -2.4648308157796106, -2.474185418078732])",-343.5169647973387,-125.89088697301298,-49.02308410636945,0.5443319902062208,-0.12114382983216229,-2.318363995803467,24.551188444010954,-1.0,[],[],[],10000000000.0,0.022757291793823242
2,-120.30055236816406,-336.6214599609375,50.01328659057617,0.6674348115921022,0.02838731557130813,-2.210402715202195,23.436340174753813,"array('d', [-334.4436950683594, -336.4084670026334, -338.3309721507477, -340.21052554751526, -342.047437130692, -343.8428312720213, -345.59845420861393, -347.31649103175266, -348.99940517207204, -350.649805524958, -352.2712303576957, -353.8680281197569, -355.44404828122225, -357.00229502994114, -358.5449973358829, -360.0737821508921])","array('d', [-118.54570770263672, -119.96713905202064, -121.44998936054672, -122.99055096025178, -124.58456243574449, -126.22749279078727, -127.9147790755021, -129.6420033552824, -131.40501064028115, -133.19997772844673, -135.02445142646437, -136.8774235879971, -138.757932093925, -140.66459482157506, -142.59560484471987, -144.54886433099657])","array('d', [-49.99314498901367, -49.89332624888119, -49.74226460288268, -49.54464374625305, -49.304717597323155, -49.026349588317245, -48.713048146090955, -48.36799855267893, -47.99409164654614, -47.59394985020754, -47.17778036179161, -46.76293090810996, -46.363932667353026, -45.99038798942277, -45.64718483286866, -45.33503629005669])","array('d', [0.660078227519989, 0.6516924293705075, 0.6350656557777545, 0.6115194479639279, 0.5825152808505956, 0.549526466138182, 0.5139429833161747, 0.4770119739661986, 0.439807836865211, 0.40322273778079726, 0.3679689371631114, 0.3345867545919606, 0.30345362587937613, 0.274791138484903, 0.24866886725398027, 0.22500491617131774])","array('d', [-0.029919706284999906, -0.051985957340468285, -0.071952328779213, -0.09001865039025407, -0.10636573565954537, -0.12115719140691222, -0.13454105521110823, -0.14665127700402433, -0.15760905961474977, -0.1675240696718585, -0.17018447265005957, -0.1658836345189531, -0.1566803909487692, -0.1446202277075922, -0.1315510438540264, -0.119032317664866])","array('d', [-2.1815020918806622, -2.212599584253439, -2.242827636782978, -2.271739902982002, -2.2990136592250745, -2.3244462071412775, -2.347938367833433, -2.369472719753994, -2.3890920687267547, -2.4068809794992605, -2.4229512655064585, -2.4374308645316023, -2.4504554809252603, -2.4621623014967318, -2.472684852546831, -2.4821483796224366])",-343.8428312720213,-126.22749279078727,-49.026349588317245,0.549526466138182,-0.12115719140691222,-2.3244462071412775,24.551310238234823,-1.0,[],[],[],10000000000.0,0.025811433792114258
3,-120.89970397949219,-337.33544921875,50.02049255371094,0.6695682406425475,0.027603898197412557,-2.2203786253889626,23.440786980041246,"array('d', [-334.8100280761719, -336.76776317203496, -338.68267163354085, -340.55396823118684, -342.3819024112023, -344.1675739599206, -345.912733411961, -347.6195910988321, -349.29064931048475, -350.9285634448036, -352.5369216077186, -354.1201099536143, -355.6820046805259, -357.2256402122342, -358.7532796785588, -360.26658676745893])","array('d', [-118.83348846435547, -120.26448189884331, -121.75704515313639, -123.30757366684331, -124.9118515354418, -126.56535158237502, -128.26348847599104, -130.00180827063207, -131.77611522904482, -133.58254622736402, -135.41862690678488, -137.28333611748258, -139.17568983747094, -141.09428547264625, -143.03729786438535, -145.00261360016356])","array('d', [-49.99653244018555, -49.8968508052718, -49.745914289630306, -49.54840679301627, -49.30858245474534, -49.03030510140208, -48.71708379639308, -48.372104692146195, -47.998259676949445, -47.598172331887156, -47.182118771853396, -46.76748660608109, -46.36875910630812, -45.995500592252945, -45.65257399253785, -45.3406811559133])","array('d', [0.661459982395172, 0.65461257198684, 0.639086013191149, 0.6162564817233944, 0.5876495209173455, 0.5548047548603797, 0.519174718604252, 0.48206160322603864, 0.444585754511713, 0.40767610980418784, 0.3720732959649489, 0.338338701342122, 0.3068646456851997, 0.2778823562809905, 0.25146652226935773, 0.2275363393412608])","array('d', [-0.02986158058047298, -0.05193336302306876, -0.07190473946830744, -0.08997558979688146, -0.10632677281956153, -0.12112193636774383, -0.13450915512892184, -0.14662241261211795, -0.15758294202664153, -0.16750043733750894, -0.17010864380683963, -0.16577737678088605, -0.15656216478203056, -0.14450327066360744, -0.13144271213164446, -0.11893429506015171])","array('d', [-2.186335790153367, -2.2175735716684972, -2.2480219404478974, -2.277202941940905, -2.304767648421016, -2.330493869366291, -2.3542693752937107, -2.3760689872847753, -2.39593165346122, -2.413940719825032, -2.4302084393761887, -2.444864147497507, -2.458045436101013, -2.4698915674598947, -2.480538132549947, -2.4901122930212503])",-344.1675739599206,-126.56535158237502,-49.03030510140208,0.5548047548603797,-0.12112193636774383,-2.330493869366291,24.551432414769668,-1.0,[],[],[],10000000000.0,0.022705554962158203
4,-121.20223999023438,-337.6902770996094,50.024078369140625,0.6706230044364929,0.027043253183364948,-2.225150096412522,23.44203741017581,"array('d', [-335.5389099121094, -337.48251807591106, -339.38220635572793, -341.2369756172894, -343.04694380679274, -344.81315446058727, -346.5373627685063, -348.2218279866732, -349.86913011997285, -351.4820184261072, -353.06418321713267, -354.62008703314075, -356.1536582086384, -357.6679913910232, -359.165418632614, -360.64767826960605])","array('d', [-119.41484832763672, -120.86481065088752, -122.37661121424641, -123.94685805651528, -125.57143092252404, -127.24581258646224, -128.96537348778304, -130.72558726350582, -132.52217605784344, -134.35119647089707, -136.21013387818502, -138.09794126695525, -140.01358743514487, -141.95562718177578, -143.9221989005689, -145.91115939642188])","array('d', [-50.00309753417969, -49.90453542000799, -49.754614999911716, -49.55802790060129, -49.319035363756356, -49.04150807396968, -48.72896190582835, -48.38458980719665, -48.01129037534738, -47.61169370548812, -47.1962402311827, -46.78241279480082, -46.384584846618175, -46.01223517806305, -45.67017162346074, -45.35907250760766])","array('d', [0.6638858318328859, 0.6601678010629891, 0.6468926626395962, 0.6255405550649001, 0.5977631406196187, 0.5652330231725842, 0.5295294192939621, 0.49206649431351923, 0.45405814859657423, 0.41650811066170174, 0.3802145707603031, 0.34578155005309047, 0.313631397769728, 0.28401473906592684, 0.25701653819956866, 0.23255820188044596])","array('d', [-0.02937893569469457, -0.051496647830411774, -0.07150958318439966, -0.08961803757203193, -0.10600324615737236, -0.12082919731033873, -0.13424427385028667, -0.1463827380948936, -0.15736607552595153, -0.16730420793444253, -0.1698040964654266, -0.1654148949024578, -0.15618356306705675, -0.14413793478077175, -0.13110645161827225, -0.11863003393830414])","array('d', [-2.195975053306443, -2.2274746357487007, -2.258350562880304, -2.288061045734065, -2.316203315723705, -2.3425147148871632, -2.366855771732335, -2.389185078577088, -2.4095335048449864, -2.4279818269484235, -2.4446431723134654, -2.45964972234418, -2.473142908971704, -2.4852662040579987, -2.4961593723612014, -2.505953436787734])",-344.81315446058727,-127.24581258646224,-49.04150807396968,0.5652330231725842,-0.12082919731033873,-2.3425147148871632,24.551686886018246,-1.0,[],[],[],10000000000.0,0.023591041564941406
5,-121.50680541992188,-338.0435791015625,50.027957916259766,0.6713520288467406,0.026475895196199417,-2.229438769813401,23.444601257907266,"array('d', [-335.9013366699219, -337.8378947671344, -339.7299750026863, -341.5764647712786, -343.37741163611804, -345.13382855862216, -346.847472537565, -348.5206281799174, -350.1559160897109, -351.7561345978026, -353.3250273483189, -354.86709695904165, -356.3862993970974, -357.8857609132714, -359.3678494290766, -360.83434188018344])","array('d', [-119.70838928222656, -121.16767817925519, -122.68894981387716, -124.26892073750302, -125.90351897584641, -127.58823103974873, -129.3184029210184, -131.08946929860258, -132.89710860025116, -134.737335006485, -136.60761244522325, -138.50687976302552, -140.43408057765163, -142.38774729738475, -144.36599947545162, -146.36667874326776])","array('d', [-50.00630569458008, -49.908352269570074, -49.75898427895836, -49.56289762118913, -49.32435743957702, -49.047238163779404, -48.73505937108998, -48.39101769160783, -48.018015349307895, -47.61868595426517, -47.203555705293724, -46.790157145010845, -46.392806529206084, -46.02093817457299, -45.67933131209897, -45.368652104136444])","array('d', [0.6651625037193298, 0.663040601660466, 0.6509168242284732, 0.6303209994612268, 0.6029675956987058, 0.5705968414513359, 0.5348530535457289, 0.49720818873758243, 0.4589244567683254, 0.42104413464890195, 0.3843949837900385, 0.3496028361293268, 0.31710533273981933, 0.28716292499021856, 0.2598657440154412, 0.23513627014783087])","array('d', [-0.02911638468503954, -0.05125908183076951, -0.07129462455878348, -0.08942353494619272, -0.10582725288716424, -0.12066995199906348, -0.13410018271999652, -0.14625235903504324, -0.15724810365813685, -0.1671974622663704, -0.1696413211082143, -0.16522234726814694, -0.15598299595608828, -0.1439446116050552, -0.13092856555972512, -0.11846907596202434])","array('d', [-2.2007367491682595, -2.2323730743197294, -2.26347141146726, -2.2934572853363795, -2.321899925153622, -2.3485154641306862, -2.3731501366025447, -2.3957540636223005, -2.416353960503657, -2.435029354885769, -2.4518939239272446, -2.4670814116229742, -2.480735308579352, -2.4930013158672892, -2.5040213904856183, -2.5139285721950126])",-345.13382855862216,-127.58823103974873,-49.047238163779404,0.5705968414513359,-0.12066995199906348,-2.3485154641306862,24.551817777346333,-1.0,[],[],[],10000000000.0,0.021938085556030273
6,-121.81338500976562,-338.3953857421875,50.03169250488281,0.6714632511138916,0.02591057680547234,-2.233321177955491,23.44670812852261,"array('d', [-336.6214599609375, -338.5436002805235, -340.4201476371361, -342.249745200683, -344.03228665472534, -345.7687157057791, -347.46078943890853, -349.11084308551915, -350.7215805833711, -352.2959017172573, -353.83766102338234, -355.35144418127095, -356.841263840917, -358.3103114199595, -359.7610289440321, -361.19527338309854])","array('d', [-120.30055236816406, -121.77866379969427, -123.31901698466646, -124.91855730959445, -126.57331694590842, -128.2787930303545, -130.0302825632059, -131.8231404717424, -133.65295538953492, -135.51565451152717, -137.4086592236335, -139.3308796059414, -141.2812058967823, -143.25812399424794, -145.25971532418333, -147.28379213330064])","array('d', [-50.01328659057617, -49.91702103389042, -49.769184232428145, -49.57448467160767, -49.33719895021095, -49.06121231238805, -48.7500547884638, -48.40693317615136, -48.03475952986437, -47.636176852502274, -47.22190131139241, -46.80957557103349, -46.413391064792535, -46.04268581607175, -45.70217768954547, -45.39250727769629])","array('d', [0.6674348115921022, 0.6686225166557732, 0.6589005770991451, 0.6398937912520598, 0.613442045413649, 0.5814236572796774, 0.5456174133263298, 0.507615261939937, 0.46877984761055536, 0.43023350409605776, 0.3928652566545855, 0.3573459845087023, 0.3241448100017364, 0.29354235316275634, 0.2656393278885258, 0.24036042534552224])","array('d', [-0.02838731557130813, -0.05059939275545632, -0.07069771314407655, -0.08888342711293988, -0.10533854306440373, -0.12022774902330383, -0.133700060882718, -0.1458903137880842, -0.15692051152985612, -0.1669010437527201, -0.1692277320175437, -0.16474911069416007, -0.1554973439896911, -0.14347940490428418, -0.13050119784268566, -0.11808237762588346])","array('d', [-2.210402715202195, -2.242299399337032, -2.2738388082301078, -2.304379325120622, -2.333431539744862, -2.360666656214635, -2.3859004452110537, -2.4090649325479276, -2.4301779557932206, -2.4493163619838736, -2.466594963159705, -2.482150766089173, -2.496131549421936, -2.508687640217302, -2.51996552761612, -2.5301024049744907])",-345.7687157057791,-128.2787930303545,-49.06121231238805,0.5814236572796774,-0.12022774902330383,-2.360666656214635,24.552097762962063,-1.0,[],[],[],10000000000.0,0.020134687423706055
7,-122.74478912353516,-339.4419860839844,50.041351318359375,0.6664829254150388,0.025128435343504046,-2.241878259178025,23.455524417293866,"array('d', [-337.33544921875, -339.24252938700647, -341.1028585713058, -342.9148070305165, -344.67809360643145, -346.393580913153, -348.0630225411082, -349.68880693734445, -351.273727847152, -352.8207949550701, -354.33398252653205, -355.81796651281405, -357.2768221730857, -358.71381201681953, -360.13145805379554, -361.53170302786344])","array('d', [-120.89970397949219, -122.39708618670466, -123.95695513357117, -125.57650572822833, -127.2518858612944, -128.9786061331334, -130.75191124785658, -132.56706993369104, -134.41957378532888, -136.30525638512418, -138.2214936385459, -140.16716441807304, -142.14110113135885, -144.1417400523063, -146.16712270466934, -148.2150313863904])","array('d', [-50.02049255371094, -49.92604014585529, -49.77984822489268, -49.586638866580394, -49.350700962265655, -49.07593132524009, -48.76587116806071, -48.42373818148698, -48.05245496909785, -47.65467462626549, -47.24131793554186, -46.83014610886727, -46.435216043734805, -46.065762047343675, -45.72643591988595, -45.41785072713473])","array('d', [0.6695682406425475, 0.6742965187271508, 0.6671617005559297, 0.6498784158385386, 0.6244140502789036, 0.5927922042531268, 0.5569355746559395, 0.5185654900737007, 0.47915307439108384, 0.43990697625198694, 0.4017820207226819, 0.3654972324517839, 0.3315552004775284, 0.30025786824172235, 0.27171707316708194, 0.24585979718893247])","array('d', [-0.027603898197412557, -0.04989052733616933, -0.07005630512912399, -0.08830305708705533, -0.10481340249979577, -0.11975258214601041, -0.13327011207094744, -0.14550127997562612, -0.15656849913374632, -0.1665825282274154, -0.16878295489080775, -0.16424008018349665, -0.15497493007351126, -0.1429789786666031, -0.130041474997498, -0.11766640315650889])","array('d', [-2.2203786253889626, -2.2525360099635616, -2.2845335393372377, -2.3156584308660295, -2.345357430284122, -2.3732520725621185, -2.3991242246254854, -2.4228857747754686, -2.4445447472434427, -2.4641750983864674, -2.481892971088309, -2.497839017693336, -2.5121657441265643, -2.5250285301342528, -2.536578778582206, -2.546958159658844])",-346.393580913153,-128.9786061331334,-49.07593132524009,0.5927922042531268,-0.11975258214601041,-2.3732520725621185,24.552408093094602,-1.0,[],[],[],10000000000.0,0.05359363555908203
8,-123.37383270263672,-340.13238525390625,50.046409606933594,0.6581456661224366,0.025599636137485605,-2.2448348879774636,23.461001207018587,"array('d', [-337.6902770996094, -339.5900946197962, -341.44259596642195, -343.2460095233047, -344.999962119044, -346.7052727071905, -348.36369152325625, -349.977633168032, -351.5499365364666, -353.08366682814744, -354.58285919835953, -356.0522353499908, -357.49590183565454, -358.9171569044458, -360.3185628498102, -361.70210548160844])","array('d', [-121.20223999023438, -122.7087987925794, -124.27797306767762, -125.90708124513779, -127.59232805619389, -129.3292293271828, -131.11300168932286, -132.9388687862473, -134.80227196463352, -136.6989966893104, -138.62639582416347, -140.58333157456178, -142.56860530459127, -144.58062735917576, -146.61741910152014, -148.6767481410857])","array('d', [-50.024078369140625, -49.930922200580994, -49.78590580696612, -49.593761447337315, -49.35878722790192, -49.08488853118229, -48.77561469588229, -48.434191171140775, -48.06354794319454, -47.66634507410732, -47.25361590891055, -46.843186952278025, -46.4490427785391, -46.08036257633867, -45.74176351822883, -45.43384479109402])","array('d', [0.6706230044364929, 0.6771056370752905, 0.6712579461102695, 0.654834553887178, 0.6298636359870804, 0.5984401598916815, 0.5625585273826026, 0.5240049199361843, 0.48430490206716065, 0.44471036497352856, 0.4062089844933262, 0.369543715602503, 0.33523369871082515, 0.30359136410965093, 0.27473397896433244, 0.24858960668821442])","array('d', [-0.027043253183364948, -0.04938323470247054, -0.06959728772996635, -0.08788772093043244, -0.10443759076938586, -0.11941253359840981, -0.13296242339183684, -0.14522287171785112, -0.1563165848937873, -0.16635458546345802, -0.1684916489125543, -0.16391892806679595, -0.15465108249316198, -0.14267107846383206, -0.1297591725533513, -0.11741096531904213])","array('d', [-2.225150096412522, -2.257437130804428, -2.2896635877329743, -2.3210815020709066, -2.3511054045564315, -2.379331494031386, -2.405524283018307, -2.4295853846254607, -2.4515178771097186, -2.4713943315684843, -2.4893316563461996, -2.505472428604275, -2.519971603546264, -2.5329871508788666, -2.54467297306345, -2.5551730059012217])",-346.7052727071905,-129.3292293271828,-49.08488853118229,0.5984401598916815,-0.11941253359840981,-2.379331494031386,24.55255507139091,-1.0,[],[],[],10000000000.0,0.023028135299682617
9,-123.37383270263672,-340.13238525390625,50.046409606933594,0.6581456661224366,0.025599636137485605,-2.2448348879774636,23.461001207018587,"array('d', [-338.3953857421875, -340.28273457951684, -342.12190265719545, -343.9108759034258, -345.6491206785044, -347.3373763707355, -348.9773818284669, -350.57159051877846, -352.12291270763023, -353.6345028089615, -355.1104946591845, -356.5556832951259, -357.9742244910887, -359.3694737268364, -360.74405846848134, -362.1000338126567])","array('d', [-121.81338500976562, -123.33553304488046, -124.92039120313135, -126.56549351689951, -128.26715143474695, -130.0209012684203, -131.82192339415343, -133.66537544739253, -135.54662293954232, -137.46137804986333, -139.40696201696764, -141.3822139421098, -143.38588581169918, -145.4163474585293, -147.4715897383215, -149.54935802657562])","array('d', [-50.03169250488281, -49.94115371769471, -49.79851046819987, -49.6085160234659, -49.375487505062374, -49.103347887830516, -48.79566305586563, -48.4556741156463, -48.08632583543096, -47.69029214077743, -47.2788056901438, -46.86980859539098, -46.47715908884958, -46.109940869069455, -45.77271171473573, -45.466047786124776])","array('d', [0.6714632511138916, 0.6808956234260843, 0.6772347722690351, 0.6622952614060084, 0.638201364479334, 0.6071637043908963, 0.5712944302946197, 0.532486959175961, 0.4923571650214691, 0.4522287498474641, 0.4131439422344859, 0.37588542486121457, 0.3409998218796157, 0.3088170125321816, 0.2794633748822146, 0.2528689414670017])","array('d', [-0.02591057680547234, -0.04835834663881658, -0.06866993057528832, -0.08704861339962404, -0.10367833480748236, -0.1187255303301378, -0.1323407970694464, -0.14466040090557972, -0.15580764019524532, -0.16589406877872992, -0.1679255245593719, -0.16330596381793874, -0.15403845312701767, -0.1420908800424871, -0.1292277581737662, -0.11693012166098476])","array('d', [-2.233321177955491, -2.265764953016743, -2.2983176753071737, -2.3301745237298563, -2.3606966085908385, -2.389437339407946, -2.416131486440151, -2.4406627730530674, -2.46302541953614, -2.483289214451966, -2.5015719708610273, -2.5180191709031945, -2.5327895940341794, -2.5460453008598067, -2.557944159708949, -2.5686337109450443])",-347.3373763707355,-130.0209012684203,-49.103347887830516,0.6071637043908963,-0.1187255303301378,-2.389437339407946,24.552831069803315,-1.0,[],[],[],10000000000.0,0.021478652954101562
10,-124.32719421386719,-341.1593322753906,50.048484802246094,0.6410613059997559,0.028699936345219612,-2.2466120600660866,23.4739399688971,"array('d', [-339.09454345703125, -340.9723806719528, -342.80174415120285, -344.5804864953297, -346.30797786520355, -347.984902413587, -349.6129795545267, -351.19467065710114, -352.73291232148506, -354.23089609216845, -355.69279865907293, -357.1234444427861, -358.5270067457934, -359.9068645966405, -361.2656746557866, -362.6055252797645])","array('d', [-122.43246459960938, -123.96637354390528, -125.56262328193111, -127.21890217996027, -128.931625961938, -130.69638801394734, -132.50839145211108, -134.36279545304737, -136.25495634798256, -138.1805734583214, -140.13697479712673, -142.12300682722403, -144.1374096853439, -146.17854347254598, -148.2443927439755, -150.33270084375954])","array('d', [-50.03847122192383, -49.9493987263016, -49.808084310398634, -49.6192932398998, -49.38735348465719, -49.116198036653046, -48.8094021662004, -48.47021582711094, -48.10159211130897, -47.70621273312808, -47.295425083408524, -46.88723747402102, -46.49543480407506, -46.129045606188825, -45.79259348256485, -45.486641158497214])","array('d', [0.669134318828583, 0.6801982555745523, 0.6779496905120349, 0.6640329164262, 0.6406221410588382, 0.6099883092509437, 0.5743057878259397, 0.5355254967057209, 0.49531246471157225, 0.4550300825637474, 0.4157512287300526, 0.37828133168325573, 0.34318313134869133, 0.3107971109013853, 0.28125561426878987, 0.2544906268729293])","array('d', [-0.025275582447648107, -0.04778377993063966, -0.06815004107066061, -0.08657819787917244, -0.10325268520310706, -0.11834038660514194, -0.1319923045826088, -0.14434507183215414, -0.1555223186156731, -0.16563589298672185, -0.16760575790304652, -0.16295875506724689, -0.1536910700583724, -0.14176178576423937, -0.1289263208219112, -0.11665736984147923])","array('d', [-2.239617812629563, -2.27196256236516, -2.3045169102068033, -2.3364546906395787, -2.3671089090741195, -2.3960089955801696, -2.4228718355357386, -2.4475693046309637, -2.4700886725622273, -2.4904962727597177, -2.5089087380985653, -2.5254717357222503, -2.540344981993131, -2.5536918336435424, -2.5656715623676383, -2.576433048475135])",-347.984902413587,-130.69638801394734,-49.116198036653046,0.6099883092509437,-0.11834038660514194,-2.3960089955801696,24.55314020638715,-1.0,[],[],[],10000000000.0,0.022136688232421875
11,-124.64730072021484,-341.50006103515625,50.047462463378906,0.6347107291221618,0.030307566747069394,-2.2467419981916965,23.477012221635277,"array('d', [-339.4419860839844, -341.31650593307836, -343.1426745496556, -344.9183320396856, -346.6428340435194, -348.31685070358697, -349.9420888210956, -351.5209990305624, -353.0565091614383, -354.55180377152624, -356.01105396070466, -357.4390772639782, -358.84003954380114, -360.21731476929705, -361.5735565741566, -362.9108517041025])","array('d', [-122.74478912353516, -124.28280016453563, -125.88276132950236, -127.542407335478, -129.2582017908533, -131.02578201574863, -132.84038954143355, -134.69721605674778, -136.59164489403463, -138.51939762000708, -140.4778239148536, -142.46578821914855, -144.48204210305022, -146.52495502851275, -148.59251957725044, -150.68248615186593])","array('d', [-50.041351318359375, -49.95261770382355, -49.81160982269544, -49.62309595469971, -49.39140683154539, -49.12047797510757, -48.81388696634863, -48.474885867304494, -48.1064296919438, -47.71120190691722, -47.30057031217004, -46.8925547727207, -46.50092730460671, -46.13470717029894, -45.79841251025027, -45.492604137515094])","array('d', [0.6664829254150388, 0.6777991834397817, 0.675868397134899, 0.6622261893403508, 0.6390510608106522, 0.6086178974496051, 0.5731051449393167, 0.5344679570200304, 0.49437555939405076, 0.4541952872866771, 0.41500355351556667, 0.3776088251373542, 0.34257635233908007, 0.3102485975442593, 0.2807593656042482, 0.2540416024719333])","array('d', [-0.025128435343504046, -0.04765063571258465, -0.06802956718907481, -0.0864691885931671, -0.10315404951309222, -0.11825113733375123, -0.13191154849469133, -0.1442720006948949, -0.15545620110878577, -0.16557606555544824, -0.1675365653688467, -0.16288629393110246, -0.15361998054497802, -0.14169505643385827, -0.12886535622895529, -0.11660220679167192])","array('d', [-2.241878259178025, -2.2740558282671754, -2.3064611439495737, -2.3382714844177825, -2.368818353099754, -2.397628802827229, -2.424416979936899, -2.4490520788114067, -2.4715189920574643, -2.4918820752995843, -2.5102563819356565, -2.5267863503217423, -2.541630756231871, -2.5549522419018995, -2.566909535085025, -2.5776510956665684])",-348.31685070358697,-131.02578201574863,-49.12047797510757,0.6086178974496051,-0.11825113733375123,-2.397628802827229,24.553303640023547,-1.0,[],[],[],10000000000.0,0.033264875411987305
12,-124.96836853027344,-341.8401184082031,50.045318603515625,0.6283178329467772,0.03224019333720208,-2.2466370940168923,23.481252269496032,"array('d', [-340.13238525390625, -342.0028121734489, -343.8255768482345, -345.5985822891704, -347.321215161514, -348.9941435311635, -350.61904657908684, -352.19833065271905, -353.73487048143835, -355.2317945609421, -356.693216523382, -358.1239045382617, -359.5279852709461, -360.9087956887241, -362.2689539303749, -363.6105127493981])","array('d', [-123.37383270263672, -124.91690632431609, -126.5207962110014, -128.1832936329749, -129.90095162344937, -131.66952105185487, -133.48436515083574, -135.34079335155107, -137.2342955389612, -139.16068552002554, -141.11738446914146, -143.10331661457988, -145.11728924178072, -147.1577164720173, -149.22262614892904, -151.30979636404228])","array('d', [-50.046409606933594, -49.95658527230352, -49.814587116288344, -49.625174795167815, -49.39267135775879, -49.12100525330174, -48.81374742376494, -48.4741436531972, -48.10514303098636, -47.7094234652953, -47.29830066596081, -46.889763338583506, -46.49761326507602, -46.13089217963744, -45.79413202152471, -45.48789844145662])","array('d', [0.6581456661224366, 0.6695869514152952, 0.6676367998786469, 0.6541424506399797, 0.6312568441227114, 0.6012192264965297, 0.5661711238182695, 0.5280351013435564, 0.4884545310757905, 0.4487778410594527, 0.41006859265524515, 0.37312721709641405, 0.3385145692240966, 0.30657141476008853, 0.2774318747612761, 0.2510307639763476])","array('d', [-0.025599636137485605, -0.04807699586154751, -0.06841535384080835, -0.08681826282307196, -0.10346990496703008, -0.11853693519357061, -0.1321701491163934, -0.14450599223621638, -0.15566792543409402, -0.16576764557786286, -0.16774747704234091, -0.16310260556364498, -0.15383051242336188, -0.14189222965601203, -0.12904544303408377, -0.11676515608599822])","array('d', [-2.2448348879774636, -2.276468433214472, -2.308330469032491, -2.339609856713905, -2.369655769966488, -2.398006543385566, -2.424381349893007, -2.4486496384917427, -2.4707935750561485, -2.4908732980967545, -2.5089991641921823, -2.525311026214955, -2.539963476934706, -2.5531154857076874, -2.5649226307575175, -2.5755307165201966])",-348.9941435311635,-131.66952105185487,-49.12100525330174,0.6012192264965297,-0.11853693519357061,-2.398006543385566,24.553645043655596,-1.0,[],[],[],10000000000.0,0.02391505241394043
13,-125.93627166748047,-342.8572998046875,50.031131744384766,0.6102731823921201,0.04006876796484005,-2.2458867907484596,23.4963804924452,"array('d', [-340.8179016113281, -342.68676922643266, -344.5091061716183, -346.28297525839895, -348.0078522221974, -349.6844279983389, -351.3143518255521, -352.89996371626114, -354.444050770422, -355.94964430013795, -357.420753070431, -358.86206105864557, -360.277635068742, -361.67074998858936, -363.04395925433704, -364.3992499563823])","array('d', [-124.00814819335938, -125.55310248242613, -127.15736263555998, -128.81873332103999, -130.53385957665319, -132.2986369284984, -134.10859820828676, -135.95922501762269, -137.846167489657, -139.76538040071134, -141.714383133978, -143.69218458941657, -145.69768580780976, -147.7293748293129, -149.78533549107195, -151.8633872239397])","array('d', [-50.048702239990234, -49.95474224405485, -49.808993897548035, -49.61618271416094, -49.380600751887926, -49.10614802355548, -48.79636916299751, -48.45448553772396, -48.08342360235477, -47.68584034970321, -47.27287221408844, -46.86240230936382, -46.468334717289565, -46.09978576203401, -45.76133144511954, -45.45355154998126])","array('d', [0.6471894979476928, 0.6575726948616784, 0.65500292443507, 0.6413019334906616, 0.6185623474667247, 0.5889451546984147, 0.5545114663611928, 0.517111806999431, 0.47833074315499857, 0.4394719106034983, 0.40156667884279296, 0.36539367076257945, 0.3315001191706261, 0.3002195447338055, 0.2716838509178312, 0.24582973645197648])","array('d', [-0.027389431372284966, -0.04969646970934248, -0.0698807145102551, -0.08814417610939479, -0.10466964103188917, -0.11962250137708313, -0.1331524101105918, -0.14539477882312776, -0.15647213288132525, -0.16649532915601545, -0.16853392335969725, -0.1638993325454991, -0.15460004704375324, -0.14261012861169792, -0.12970038133575715, -0.11735776882076539])","array('d', [-2.2462079405745095, -2.2770969819788927, -2.308157388842759, -2.3386209510968374, -2.367873618741073, -2.395479716099178, -2.4211730778406446, -2.444828582583378, -2.466427545063578, -2.486025628127492, -2.5037270175189, -2.519664926221107, -2.5339875223960755, -2.5468478986803413, -2.558396443298736, -2.5687744974840374])",-349.6844279983389,-132.2986369284984,-49.10614802355548,0.5889451546984147,-0.11962250137708313,-2.395479716099178,24.55400953192037,-1.0,[],[],[],10000000000.0,0.026781320571899414
14,-126.26014709472656,-343.1957092285156,50.02375411987305,0.6049829721450805,0.043196152895689115,-2.245559203620774,23.50324829266459,"array('d', [-341.1593322753906, -343.02786255734657, -344.8505042577216, -346.6254131497747, -348.3521173377287, -350.03132242243765, -351.66466220602433, -353.2544403539867, -354.80339516881514, -356.3145033429563, -357.7917132985786, -359.2396617872625, -360.6623840286802, -362.063120740744, -363.44438854510247, -364.8081363321773])","array('d', [-124.32719421386719, -125.87250464958731, -127.4762909675154, -129.13636371578198, -130.84941746084553, -132.61142659644347, -134.41801696534066, -136.26476501700094, -138.14740951483844, -140.06198347243452, -142.0060587153536, -143.97869053183894, -145.9788346959901, -148.00502203612209, -150.05536823305732, -152.12771557349146])","array('d', [-50.048484802246094, -49.95149745745597, -49.80300457938759, -49.60770643465016, -49.369872104230744, -49.09338053378237, -48.78175693163954, -48.438204716670285, -48.065633777486546, -47.66668585920963, -47.25237449003949, -46.840510480758354, -46.445067124493754, -46.07521062260734, -45.735545991477935, -45.42666185045733])","array('d', [0.6410613059997559, 0.6508017368399392, 0.647848991314311, 0.6340074475656213, 0.6113336306648013, 0.5819429733427305, 0.5478501613854355, 0.5108641455899328, 0.4725354264789199, 0.43414152083314744, 0.39669486213373295, 0.3609611021166525, 0.32747925019658214, 0.29657834347196743, 0.26838878551195733, 0.24284823770783])","array('d', [-0.028699936345219612, -0.05088226375420445, -0.07095366543050685, -0.08911502233880374, -0.10554809910813753, -0.12041736318798177, -0.13387163088620835, -0.1460455567547762, -0.15706098116721653, -0.16702814324700746, -0.1691031347323389, -0.16447197372530545, -0.15515094763876203, -0.14312309535706322, -0.13016811646890256, -0.11778099310874081])","array('d', [-2.2466120600660866, -2.277088732112074, -2.307702984133892, -2.337710831577584, -2.3665189363576697, -2.3937063587494896, -2.419015416857418, -2.442324349319392, -2.4636143018046583, -2.4829386870329664, -2.5003984249309, -2.5161231362451, -2.5302574643956914, -2.5429512440490125, -2.5543519628534326, -2.5645984528576284])",-350.03132242243765,-132.61142659644347,-49.09338053378237,0.5819429733427305,-0.12041736318798177,-2.3937063587494896,24.55419610563998,-1.0,[],[],[],10000000000.0,0.024507999420166016
15,-126.58332061767578,-343.53448486328125,50.01435089111328,0.600155532360077,0.04662958905100833,-2.245167958732468,23.50957321321737,"array('d', [-341.50006103515625, -343.36866491187175, -345.19205285069245, -346.96847992890594, -348.69753063611586, -350.37992731376806, -352.0172888343757, -353.6118818073601, -355.166394140073, -356.6837457130368, -358.1678209649971, -359.62320756302466, -361.05390962242063, -362.46313296566854, -363.85335559649184, -365.2264850994909])","array('d', [-124.64730072021484, -126.19242626549078, -127.79517813269915, -129.45337157175925, -131.16375095079297, -132.92237085832798, -134.72495217587863, -136.56716861608984, -138.4448501101044, -140.3541103643643, -142.29257356936233, -144.2593423346545, -146.25343110481202, -148.27341630064737, -150.31744709704947, -152.38338850551582])","array('d', [-50.047462463378906, -49.94676193208003, -49.79490319315621, -49.596555376867734, -49.3559591925904, -49.07696758368392, -48.763081823073335, -48.41748326394378, -48.04306147472255, -47.64243953446817, -47.22648510858728, -46.812923259926094, -46.415808846965504, -46.044366475174485, -45.70323484826458, -45.39301266066913])","array('d', [0.6347107291221618, 0.643742751458133, 0.6403628622809853, 0.6263549180523117, 0.6037360830611546, 0.5745730836798765, 0.5408312704193708, 0.5042754324777786, 0.4664197860788351, 0.42851389721634486, 0.39154980828532177, 0.3562790926091759, 0.3232317408479906, 0.2927317892287451, 0.26490787356036727, 0.2396985780398761])","array('d', [-0.030307566747069394, -0.052336908029607526, -0.07226988212145492, -0.09030598456021119, -0.10662572638850784, -0.1213924407638567, -0.13475391764438197, -0.14684388290292877, -0.15778333661378263, -0.16768175907925875, -0.16979751801220216, -0.16516816122007408, -0.15581939078764404, -0.14374492936936195, -0.13073497270049206, -0.11829390588349953])","array('d', [-2.2467419981916965, -2.2767942096699394, -2.306947454866908, -2.3364830761996718, -2.3648293529219453, -2.3915807981634147, -2.416488754222268, -2.439435196884887, -2.460401334911813, -2.4794384441782213, -2.4966442023567588, -2.5121445998475815, -2.5260806785070398, -2.538598916980064, -2.549843796463892, -2.559951540414311])",-350.37992731376806,-132.92237085832798,-49.07696758368392,0.5745730836798765,-0.1213924407638567,-2.3915807981634147,24.55437580198439,-1.0,[],[],[],10000000000.0,0.022078752517700195
16,-127.23103332519531,-344.2116394042969,49.99058151245117,0.5918785333633422,0.05392376333475122,-2.244449841972214,23.52537089607099,"array('d', [-341.8401184082031, -343.70912959187103, -345.5336023999255, -347.31189383372396, -349.04364663337435, -350.7296013176243, -352.3713629349603, -353.97116180223463, -355.5316358338162, -357.0556481547048, -358.5470177073891, -360.01028310182886, -361.4494196023259, -362.86759905764313, -364.267260605765, -365.6502706085428])","array('d', [-124.96836853027344, -126.51284757966367, -128.1141063160205, -129.76996508661392, -131.4772179224698, -133.231999084482, -135.03012385452095, -136.86736266971155, -138.7396362899896, -140.64313897830513, -142.57554524791036, -144.53600455636806, -146.52359272451528, -148.53693347856876, -150.57421017716305, -152.6333121474354])","array('d', [-50.045318603515625, -49.94015490339644, -49.78425096764342, -49.582238293499714, -49.33832326572554, -49.056327387008636, -48.739723038391865, -48.391664997534605, -48.01501841377397, -47.6123839782897, -47.19446084727099, -46.77887505891326, -46.37977481551868, -46.00645106390369, -45.66358038260372, -45.351772078312685])","array('d', [0.6283178329467772, 0.6366133363983604, 0.6327873491286543, 0.6186008813938301, 0.5960301052658701, 0.5670919371257606, 0.5337015803877925, 0.497578971049636, 0.46020139397605575, 0.4227898528505544, 0.38631544232201537, 0.35151517785348235, 0.3189096462311854, 0.28881760302676074, 0.2613657471549125, 0.2364935292385239])","array('d', [-0.03224019333720208, -0.05408562104377162, -0.07385218323502518, -0.09173770994557442, -0.10792120520845039, -0.1225646385824021, -0.13581456619043158, -0.14780359748578906, -0.1586517223692651, -0.16846750821515535, -0.17062686193423957, -0.1659963576476197, -0.15661277095986068, -0.14448219193332817, -0.13140685242834022, -0.1189018478559099])","array('d', [-2.2466370940168923, -2.2762655510950793, -2.3059578119334696, -2.3350205925886574, -2.362903755218922, -2.389217277528974, -2.413721623263794, -2.436302663619181, -2.456941845959284, -2.4756884675686983, -2.4926370872344967, -2.5079101500187804, -2.5216451468076957, -2.533985223486052, -2.54507185885074, -2.5550386518231187])",-350.7296013176243,-133.231999084482,-49.056327387008636,0.5670919371257606,-0.1225646385824021,-2.389217277528974,24.554547520200032,-1.0,[],[],[],10000000000.0,0.025658130645751953
17,-127.88020324707031,-344.8885498046875,49.95966720581055,0.5852164030075072,0.06156954169273392,-2.244217145439011,23.542432950343468,"array('d', [-342.5186462402344, -344.3887852717719, -346.2156563885717, -347.9978137663459, -349.73501370764086, -351.4280345132424, -353.07845864944454, -354.68845123741755, -356.26055862941195, -357.7975389305709, -359.30308343688466, -360.7816395818378, -362.23713815464197, -363.6726920115837, -365.09066785931884, -366.4928515489243])","array('d', [-125.61296081542969, -127.15552846479788, -128.7532557247756, -130.4039831139131, -132.10460487341163, -133.85140882860537, -135.64038959065635, -137.46750039202638, -139.3288334506276, -141.22073521758824, -143.1409685232051, -145.08877099423182, -147.06334552566693, -149.0634119842893, -151.08722080254927, -153.1327054130925])","array('d', [-50.03724670410156, -49.920620168829196, -49.75432865581559, -49.54290618144624, -49.29047013931494, -49.00076060798571, -48.67717534009122, -48.322800692492095, -47.94043914854142, -47.53263410742715, -47.10968174981959, -46.68897129012699, -46.284869914899836, -45.90682209835521, -45.559590368391625, -45.24380631256594])","array('d', [0.615996241569519, 0.622912168132753, 0.6182594188603548, 0.6037515344234171, 0.5812854480387585, 0.5527839215413786, 0.520068143902357, 0.4847741081882191, 0.4483098547258231, 0.4118426205047338, 0.37630385654730875, 0.3424028516266834, 0.3106421495522075, 0.28133027968311347, 0.25459011263877357, 0.23036268104210944])","array('d', [-0.03720503300428403, -0.058577994160540534, -0.07791705089890343, -0.09541575464398559, -0.11124923798195907, -0.12557596744136043, -0.1385393294724809, -0.1502690654913713, -0.16088257030152753, -0.17048606459117607, -0.1727337220484118, -0.16808588221875528, -0.15860657751221896, -0.14633152291473847, -0.13309131839558624, -0.12042601582837102])","array('d', [-2.246127116676194, -2.274951858005796, -2.303773041762589, -2.331944165964511, -2.3589545470750837, -2.384442375964812, -2.4081848299073583, -2.4300750332804113, -2.4500950311773586, -2.468290636586378, -2.484750779662452, -2.4995914333620757, -2.5129435509134614, -2.524944098182497, -2.5357289532264162, -2.5454268006866334])",-351.4280345132424,-133.85140882860537,-49.00076060798571,0.5527839215413786,-0.12557596744136043,-2.384442375964812,24.554883550273097,-1.0,[],[],[],10000000000.0,0.029248476028442383
18,-128.21885681152344,-345.2410583496094,49.94063186645508,0.5823588967323302,0.0655517727136613,-2.2443163275679177,23.551233503092877,"array('d', [-343.1957092285156, -345.06683515232373, -346.89577356154405, -348.6812527341161, -350.4231300285716, -352.1222196357752, -353.7800882160456, -355.3988483944639, -356.9809709635072, -358.52912626915315, -360.0469864134189, -361.53891220503357, -363.0087057941399, -364.4594302929449, -365.893390625256, -367.31230316140585])","array('d', [-126.26014709472656, -127.8006597760774, -129.39489153596423, -131.04071660210636, -132.73512646737385, -134.4745477375734, -136.25513304621833, -138.07299501907517, -139.9243747945438, -141.8057509222037, -143.71507612809148, -145.6516582067346, -147.61469326273993, -149.6029832785394, -151.61483640539717, -153.6482240047215])","array('d', [-50.02375411987305, -49.89329942185044, -49.71447899112071, -49.49170825120429, -49.22899630586401, -48.92998427462311, -48.597979422835394, -48.23598538134539, -47.84672907567104, -47.43268499555474, -47.00458534502149, -46.579503843829144, -46.171141990231355, -45.78907224719521, -45.4381284829295, -45.118960433139485])","array('d', [0.6049829721450805, 0.6107673313920262, 0.6054543001202275, 0.590713158901572, 0.568371905578253, 0.5402733254974806, 0.5081594963517895, 0.47359594402473987, 0.43793249253208, 0.40229100374888793, 0.3675693053611533, 0.33445308283554215, 0.30342947532959386, 0.2747982418076306, 0.2486789605011594, 0.22501404891986207])","array('d', [-0.043196152895689115, -0.06399898410963699, -0.0828221658955894, -0.09985408663803508, -0.11526520721069894, -0.1292097670014488, -0.1418273275851317, -0.15324416948681305, -0.16357455596299852, -0.17292187347164145, -0.17453292882918728, -0.16986741752265516, -0.16030494333979955, -0.14790612671142137, -0.13452537023124794, -0.12172359970426688])","array('d', [-2.245559203620774, -2.273681278467983, -2.301747166047317, -2.3291489820311226, -2.355408212090852, -2.380185918325252, -2.4032728112560906, -2.424567897776322, -2.444053702390303, -2.461773170129847, -2.477810581315734, -2.492276512848607, -2.5052964315645423, -2.5170020950020477, -2.527524635339699, -2.5369885555945366])",-352.1222196357752,-134.4745477375734,-48.92998427462311,0.5402733254974806,-0.1292097670014488,-2.380185918325252,24.555209723231837,-1.0,[],[],[],10000000000.0,0.02266240119934082
19,-128.21885681152344,-345.2410583496094,49.94063186645508,0.5823588967323302,0.0655517727136613,-2.2443163275679177,23.551233503092877,"array('d', [-343.53448486328125, -345.40616066046607, -347.2361108612754, -349.02314437363947, -350.7671661482617, -352.46900879981126, -354.13023430918, -355.7529341272388, -357.3395473499612, -358.89270989684013, -360.41623225856796, -361.91441913730716, -363.39086186181976, -364.84859537165556, -366.28989637627467, -367.7164529569242])","array('d', [-126.58332061767578, -128.12258805323737, -129.71493991123555, -131.35826902434866, -133.0496119095427, -134.7854572870762, -136.56202763301536, -138.37550565185248, -140.222197823003, -142.09864428539012, -144.0030638832763, -145.9347805481135, -147.89279280713058, -149.87592703793703, -151.88251243466257, -153.91053793973668])","array('d', [-50.01435089111328, -49.87597355819963, -49.689975699899556, -49.46070439911698, -49.1921063695641, -48.887765770171, -48.55093785883044, -48.184578800220734, -47.791372237727074, -47.37378097541075, -46.9440370262068, -46.518945474271064, -46.11055343413482, -45.72844432915572, -45.37745958682237, -45.05825263472932])","array('d', [0.600155532360077, 0.605439206593979, 0.5998345158063645, 0.584989913060929, 0.562702507220879, 0.5347798570004019, 0.5029294160281665, 0.46868590291771034, 0.4333736402710354, 0.39809453593239746, 0.36373156082393315, 0.3309599822820867, 0.30026016133103683, 0.27192797363327936, 0.24608151360527888, 0.2226637815642418])","array('d', [-0.04662958905100833, -0.0671056858985136, -0.08563322617669362, -0.10239763939593902, -0.11756670912958671, -0.13129225224346233, -0.14371163832291314, -0.15494916449570953, -0.16511729934127645, -0.17429541054752107, -0.1745329330515043, -0.16987809385852196, -0.16032100382226086, -0.14792357538614742, -0.13454188913851853, -0.12173854663098929])","array('d', [-2.245167958732468, -2.2729854555284152, -2.3007240551000367, -2.3277924806268375, -2.3537259845626837, -2.378195424899297, -2.4009973521665064, -2.422033370149099, -2.4412862955225174, -2.4587979210543005, -2.474650602803301, -2.4889526281548005, -2.5018271145007414, -2.5134035896468334, -2.5238111443396294, -2.5331724776848636])",-352.46900879981126,-134.7854572870762,-48.887765770171,0.5347798570004019,-0.13129225224346233,-2.378195424899297,24.55536617546953,-1.0,[],[],[],10000000000.0,0.022774696350097656
20,-129.19570922851562,-346.2561950683594,49.8751106262207,0.5753286480903624,0.07634070515632632,-2.244909751411301,23.581292303451605,"array('d', [-344.2116394042969, -346.0841234996593, -347.9156477194274, -349.7051639247971, -351.45266246451143, -353.1590110211796, -354.8257668687783, -356.45498824289723, -358.04906264122155, -359.6109380624199, -361.1443660237232, -362.6531984950294, -364.140942466935, -365.6105853332608, -367.0643562089742, -368.5038955578653])","array('d', [-127.23103332519531, -128.76791647435755, -130.35678713932472, -131.99557869490368, -133.68141033694477, -135.4108802842976, -137.180332102129, -138.98606903769, -140.82450952652937, -142.69274275003278, -144.58909131948377, -146.51246099783475, -148.46185632532627, -150.43614436595368, -152.43368965603645, -154.4525110243435])","array('d', [-49.99058151245117, -49.83537788635122, -49.63413790286029, -49.391062773561885, -49.109966108867624, -48.79431065671898, -48.44724095302051, -48.07161223854294, -47.670016241032144, -47.24820914509856, -46.818185997541356, -46.39308114671363, -45.98464708171505, -45.602482701598205, -45.25144014444177, -44.93217806238086])","array('d', [0.5918785333633422, 0.5963326189043179, 0.5902507061583351, 0.5752446474060895, 0.5530589548870267, 0.5254419192744376, 0.49404301583246396, 0.4603454304007101, 0.42563078125168585, 0.3909674948083715, 0.35721374468114825, 0.32502742700044923, 0.2948774680634329, 0.26705315507588145, 0.24167004768880562, 0.21867212177309736])","array('d', [-0.05392376333475122, -0.07370572832500542, -0.09160519206782647, -0.10780129808406518, -0.12245614214764616, -0.13571639458948054, -0.1477147682149294, -0.15857134651230773, -0.16839478528824248, -0.17453293360643432, -0.17453293328828362, -0.16989322555245132, -0.16034378285007206, -0.14794831362759667, -0.13456530050863924, -0.12175973011654209])","array('d', [-2.244449841972214, -2.271750877898961, -2.298936356909329, -2.3254424560741995, -2.3508270551805617, -2.374777077982391, -2.3970986598203297, -2.417697683459595, -2.436557463122891, -2.4537179490599454, -2.469258275844896, -2.4832829198565762, -2.4959111274714263, -2.5072687136697844, -2.5174813579411754, -2.526668735640449])",-353.1590110211796,-135.4108802842976,-48.79431065671898,0.5254419192744376,-0.13571639458948054,-2.374777077982391,24.555672757172715,-1.0,[],[],[],10000000000.0,0.023885488510131836
21,-129.5246124267578,-346.5993957519531,49.84879684448242,0.5732914209365841,0.07967763394117369,-2.2451443552931374,23.594423015308628,"array('d', [-344.55010986328125, -346.4226750758524, -348.25459072089967, -350.04487083756374, -351.79354328888047, -353.50149194143455, -355.1702734596569, -356.80193340492144, -358.39883875115015, -359.9641318066039, -361.50151991073017, -363.0146035470711, -364.5068680288156, -365.98128096948113, -367.44005182901805, -368.88480124980003])","array('d', [-127.55545043945312, -129.09140638069323, -130.67887200032925, -132.31580399557174, -133.9993608517995, -135.7261899140122, -137.49268769028623, -139.29520943076994, -141.1302215121006, -142.99511638037316, -144.88823963691507, -146.80824990317834, -148.7541707097493, -150.72488584081478, -152.71877445961363, -154.73386751324156])","array('d', [-49.97609329223633, -49.81202458918305, -49.60275484969406, -49.35240807143378, -49.06472745359324, -48.743111576618766, -48.39064652315239, -48.010134315331776, -47.6041182659563, -47.18024428802343, -46.75022343657828, -46.325116072861576, -45.916672093569346, -45.53449422708704, -45.183437310429994, -44.86416138564625])","array('d', [0.5883228778839111, 0.5924603520035912, 0.5862032253118853, 0.5711482247745105, 0.5490184902253905, 0.5215384083222834, 0.49033415143618564, 0.45686821971896535, 0.42240509027085266, 0.3879997448892304, 0.35450042948853244, 0.32255811386057776, 0.2926371709882134, 0.26502427937677303, 0.2398340222422896, 0.21701081709376477])","array('d', [-0.05776801705360421, -0.07718415312244747, -0.09475260113015493, -0.11064919168045943, -0.12503302289224233, -0.13804805269757714, -0.14982453959959677, -0.16048034625896726, -0.17012211822092976, -0.17453293247595947, -0.17453292994384423, -0.16989703743105947, -0.1603495441127596, -0.14795456712816174, -0.13457121252425322, -0.12176507956074427])","array('d', [-2.244240510459763, -2.2713227164081062, -2.2982759098873453, -2.3245472089898316, -2.349703431998544, -2.373437799918984, -2.3955601664211317, -2.415978031655621, -2.434674832588059, -2.4516897256686283, -2.467100494318084, -2.4810100333426175, -2.4935359961685153, -2.5048026704328636, -2.514934332234287, -2.524049413724419])",-353.50149194143455,-135.7261899140122,-48.743111576618766,0.5215384083222834,-0.13804805269757714,-2.373437799918984,24.55583242030246,-1.0,[],[],[],10000000000.0,0.02153158187866211
22,-129.85366821289062,-346.9423522949219,49.820892333984375,0.5710926651954649,0.08291423320770265,-2.245453345771652,23.609506724288007,"array('d', [-344.8885498046875, -346.76086383578894, -348.5927829059552, -350.3833744350758, -352.1326986210249, -353.84165362570116, -355.51179626560923, -357.14516209656, -358.74410145324833, -360.3119562832079, -361.8523921648157, -363.368762668335, -364.8645352748797, -366.3426609959876, -367.80533298379754, -369.25415640909324])","array('d', [-127.88020324707031, -129.41558767163244, -131.00205885869798, -132.6375989013074, -134.31940378537203, -136.0441654922035, -137.8083274813233, -139.6082905013388, -141.4405625372895, -143.30283328619595, -145.19346476683097, -147.1108675110274, -149.05408151485966, -151.02200455259714, -153.01302807184766, -155.02519441860977])","array('d', [-49.95966720581055, -49.7868340637181, -49.569626124554915, -49.31209082313429, -49.01790157438884, -48.69039340176365, -48.33259453160675, -47.94725434843246, -47.53686830825868, -47.11095037383156, -46.6809313014732, -46.25582447287794, -45.847378930338394, -45.4651982620843, -45.11413798699914, -44.79485837397766])","array('d', [0.5852164030075072, 0.5891233366261409, 0.5827472821378412, 0.5676728977217642, 0.545606228114518, 0.5182525532524342, 0.487219441990867, 0.45395290197102534, 0.41970376337463866, 0.38551632447213746, 0.352230986408652, 0.3204932913707747, 0.29076407335233856, 0.2633280156877776, 0.23829900139836027, 0.21562187267530625])","array('d', [-0.06156954169273392, -0.08062391530275319, -0.0978650270791335, -0.1134654315469525, -0.12758126250927307, -0.14035379568126605, -0.15191086261447082, -0.1623681300378009, -0.1718302569367335, -0.17453293448095505, -0.17453293329371056, -0.16989800693810922, -0.1603510402966546, -0.1479561876169334, -0.13457273654655616, -0.1217664585224601])","array('d', [-2.244217145439011, -2.2711104131710216, -2.2978653407372933, -2.323937767161167, -2.348901565529854, -2.372454865531469, -2.3944103574705866, -2.4146767027285163, -2.4332373156260636, -2.450130615448208, -2.465433208845076, -2.479246641899827, -2.491687227480509, -2.50287797552012, -2.512941992204937, -2.5219966699675735])",-353.84165362570116,-136.0441654922035,-48.69039340176365,0.5182525532524342,-0.14035379568126605,-2.372454865531469,24.555995053049088,-1.0,[],[],[],10000000000.0,0.035843849182128906
23,-130.8419952392578,-347.9698181152344,49.72824478149414,0.5637155175209043,0.09225185960531246,-2.2468924403151096,23.654761827251125,"array('d', [-345.2410583496094, -347.1128703139867, -348.94450896131866, -350.73509100737124, -352.48470669395584, -354.19426785902664, -355.8653322084378, -357.4999270015425, -359.1003882516045, -360.67027386426537, -362.2132068806757, -363.7322835440081, -365.23095574472916, -366.71215964607853, -368.17807398405785, -369.63028977537704])","array('d', [-128.21885681152344, -129.7538732823343, -131.33958175863305, -132.9739919187255, -134.65433705715895, -136.3773519047084, -138.13952399622394, -139.93729629657722, -141.76721511903133, -143.6272797721084, -145.51586337062716, -147.43111274578112, -149.37208299972997, -151.33768427345396, -153.32631892240994, -155.3360386400651])","array('d', [-49.94063186645508, -49.75862001436065, -49.53309904890277, -49.26803600491187, -48.96703105204765, -48.633352543254695, -48.26996805261592, -47.87957181787085, -47.46460918959747, -47.03655023693753, -46.60653266132073, -46.181428901433364, -45.7729884933144, -45.39081353384835, -45.039758632987564, -44.72048367062078])","array('d', [0.5823588967323302, 0.5860864559520268, 0.5796252362592799, 0.5645496203527312, 0.5425510511594981, 0.5153184908722904, 0.48444363348416386, 0.4513584275730569, 0.41730208409611413, 0.38330982098815114, 0.35021541210683294, 0.31865985593364404, 0.2891010481808514, 0.26182204244159596, 0.23693618874005762, 0.214388748672283])","array('d', [-0.0655517727136613, -0.08422718714190414, -0.10112540242969553, -0.11641554127861571, -0.13025063224499575, -0.1427691412902942, -0.15409635756643358, -0.1643456472149197, -0.17361958485415036, -0.17453293365885175, -0.17453292994088643, -0.16989672127146793, -0.1603491617112807, -0.14795414311195093, -0.13457078875364364, -0.12176469611711661])","array('d', [-2.2443163275679177, -2.2710374612356476, -2.297613383381708, -2.323507360387139, -2.348299222354774, -2.371691197346855, -2.393498296001691, -2.4136300713895285, -2.432069825914652, -2.448855271214414, -2.4640619330730043, -2.477790139068937, -2.490155005241008, -2.5012784065428786, -2.5112824130542064, -2.5202835016550598])",-354.19426785902664,-136.3773519047084,-48.633352543254695,0.5153184908722904,-0.1427691412902942,-2.371691197346855,24.556167771582366,-1.0,[],[],[],10000000000.0,0.03317666053771973
