,x_pos,y_pos,z_pos,roll,pitch,yaw,vel,x_traj,y_traj,z_traj,roll_traj,pitch_traj,yaw_traj,x_cmd,y_cmd,z_cmd,roll_cmd,pitch_cmd,yaw_cmd,vel_cmd,effector_dmg,effector_x,effector_y,effector_z,cost,time_solution
0,-252.39791870117188,-208.46365356445312,49.857200622558594,0.6276630759239193,0.033034648746252046,0.9742476503041128,23.16087808609367,"array('d', [-211.4254913330078, -209.32865031582645, -207.2682958677532, -205.24321389228948, -203.25165794887172, -201.29160095602836, -199.36089180098463, -197.4573557061385, -195.5788590218627, -193.72335054995227, -191.8888869463571, -190.07364710067196, -188.27593875861308, -186.49419961746872, -184.7269944534005, -182.9730122513505])","array('d', [-254.59201049804688, -253.2324794217706, -251.817344473319, -250.3517869589816, -248.84081006476893, -247.28910709845653, -245.7009938980955, -244.0803863486705, -242.43080572794693, -240.75539953641862, -239.05696990987002, -237.3380048979382, -235.6007099550544, -233.84703824987778, -232.07871913594818, -230.2972874165309])","array('d', [-49.844783782958984, -49.77789894192855, -49.73358685196024, -49.70388271755712, -49.68373648030525, -49.66991225393449, -49.66031255193128, -49.653560609599886, -49.64874040003561, -49.6452337181729, -49.64261756665409, -49.64059942076762, -49.6389765903819, -49.63761109874682, -49.63641460724326, -49.63533973982486])","array('d', [0.6281773447990414, 0.5968310445411711, 0.5608664812555881, 0.5225220062688213, 0.48345410674743494, 0.4448483759933216, 0.40752406475451614, 0.372022155155051, 0.3386753692921668, 0.30766211369957774, 0.27904739005747053, 0.2528136103514856, 0.2288837773903601, 0.2071389561416254, 0.18743149010918259, 0.16959504092976216])","array('d', [-0.032362051308155095, -0.021336408940420472, -0.014233681809867152, -0.009607381866785902, -0.006560614636467017, -0.004532655024178245, -0.003169860105755042, -0.0022470940406303878, -0.001619544796376215, -0.001192918582033605, -0.0009048092390707057, -0.0007129089115511751, -0.0005874484072747986, -0.0005062986836712388, -0.00045180363258619585, -0.00040880895147438244])","array('d', [1.009501115479741, 0.9819409542368772, 0.9563094967909757, 0.9327105515533379, 0.9111342116026308, 0.891502239227644, 0.8736989928996781, 0.8575911974233866, 0.8430400352805052, 0.8299082855423624, 0.8180643942548584, 0.8073846930163808, 0.7977545201299967, 0.7890686993458844, 0.7812316449279553, 0.7741572374642857])",-201.29160095602836,-247.28910709845653,-49.66991225393449,0.4448483759933216,-0.004532655024178245,0.891502239227644,25.000000248968533,-1.0,[],[],[],10000000000.0,0.05614948272705078
1,-251.83303833007812,-207.73455810546875,49.86070251464844,0.6278854012489317,0.03305561468005172,0.964788512387548,23.15892251264928,"array('d', [-210.30657958984375, -208.22747021503096, -206.1853157036918, -204.178702868679, -202.20573565311184, -200.26427981376267, -198.35211087534185, -196.4670064959968, -194.60680459481168, -192.76943937179337, -190.95296258004984, -189.15555472619113, -187.37552927537848, -185.61133194728777, -183.86153656037888, -182.12484129980237])","array('d', [-253.7815399169922, -252.39508636745074, -250.9538276826755, -249.4630879986904, -247.92791927718127, -246.35300464893442, -244.74261511258445, -243.10060308422416, -241.43041798815702, -239.7351334716557, -238.01747969714023, -236.27987689219427, -234.52446807580802, -232.75314992184695, -230.9676013171729, -229.16931240182032])","array('d', [-49.84919357299805, -49.781426062744025, -49.73654676904776, -49.706469552195294, -49.68607174702153, -49.672073375407216, -49.662349735634216, -49.65550697408642, -49.65061814382407, -49.64705794045192, -49.64439867757395, -49.64234469509513, -49.640691196150556, -49.63929880201487, -49.6380782757191, -49.636981719634186])","array('d', [0.6276040673255919, 0.59386993010579, 0.5562756294211219, 0.5169041145093694, 0.4772725777622964, 0.4384491973319086, 0.40115769654865824, 0.3658629638483593, 0.33283795301079866, 0.3022146940539697, 0.27402274453404285, 0.24821806857894688, 0.22470475241088383, 0.20335139976695152, 0.18400358023960822, 0.16649333953318865])","array('d', [-0.03279526904225348, -0.0216122201969029, -0.014413313247847934, -0.009727235759461644, -0.006642652775349494, -0.004590341539973761, -0.0032115907430738835, -0.0022781963530135864, -0.0016434590587887255, -0.0012119037966770005, -0.0009203702533823962, -0.0007260574257633843, -0.0005988636594715231, -0.0005164269052663144, -0.00046092012449098347, -0.000417057895216148])","array('d', [0.9965602914479118, 0.9691041985738001, 0.943684037889749, 0.9203572883686223, 0.8990816611714906, 0.8797574441519894, 0.8622553793506268, 0.8464339921184693, 0.8321499166466525, 0.8192638192006345, 0.8076436478433776, 0.7971662953465328, 0.7877183348112052, 0.7791962183388512, 0.7715061650404471, 0.7645638558119165])",-200.26427981376267,-246.35300464893442,-49.672073375407216,0.4384491973319086,-0.004590341539973761,0.8797574441519894,25.00000024897138,-1.0,[],[],[],10000000000.0,0.023656606674194336
2,-251.54928588867188,-207.37359619140625,49.86268997192383,0.628057479858398,0.03306249156594275,0.9599134484913683,23.15617393457925,"array('d', [-209.5660400390625, -207.49939194011793, -205.47004956109384, -203.476456042917, -201.51660807718955, -199.58829464695188, -197.68923851324965, -195.81718283007228, -193.969944553909, -192.1454467298167, -190.34173685688364, -188.55699584715796, -186.7895405212427, -185.03782162784225, -183.3004187754687, -181.57603609276273])","array('d', [-253.23300170898438, -251.82805880041514, -250.36882169121168, -248.860717072555, -247.30883479569752, -245.71785517122973, -244.09202219051227, -242.43514799282272, -240.75063546908464, -239.04150988845453, -237.31045390903188, -235.55984275221286, -233.79177784129624, -232.00811810326417, -230.21050863594482, -228.40040964059568])","array('d', [-49.8523063659668, -49.784165034290396, -49.73905036955756, -49.708820584211274, -49.688320672730676, -49.674251579145576, -49.66447715452142, -49.6575965502523, -49.652678464413285, -49.64909483138682, -49.64641618494173, -49.64434570291296, -49.642677824935156, -49.64127267291261, -49.640040690179035, -49.63893378389909])","array('d', [0.6276344060897825, 0.5922047725205741, 0.553442720906506, 0.5133233555667858, 0.4732676763529117, 0.43426287523572255, 0.39696669662450224, 0.36179131069918263, 0.3289680897876967, 0.29859664170236166, 0.27068161244231564, 0.24516027021961856, 0.22192324151469328, 0.2008301868841449, 0.18172173537655187, 0.16442864073193778])","array('d', [-0.03298036381602281, -0.021727463516715596, -0.014487090318794348, -0.009775940961619128, -0.006675893428410514, -0.004613841871291728, -0.003228823171214363, -0.00229130697842188, -0.0016537991583615427, -0.0012203392137435094, -0.0009274640792387119, -0.0007321794557569987, -0.0006042570142593535, -0.0005212493848028537, -0.0004652706690362558, -0.0004209944310651818])","array('d', [0.987621978917394, 0.9602140689594623, 0.9349193087325562, 0.9117627450270228, 0.8906794408492656, 0.8715545870874503, 0.8542492458690407, 0.8386160039648253, 0.824508095194489, 0.8117844959178478, 0.8003126136027124, 0.7899695666621976, 0.7806426512976956, 0.7722293424075796, 0.7646370264664031, 0.7577825656889544])",-199.58829464695188,-245.71785517122973,-49.674251579145576,0.43426287523572255,-0.004613841871291728,0.8715545870874503,25.000000248973265,-1.0,[],[],[],10000000000.0,0.021955490112304688
3,-250.68763732910156,-206.2976531982422,49.86859130859375,0.6288684606552123,0.03297797590494153,0.9453414241459709,23.151810420113993,"array('d', [-209.1974334716797, -207.13704582920562, -205.11413064129368, -203.12705951090018, -201.1737762464882, -199.25203228582671, -197.35952480831767, -195.4939804290132, -193.6532062433709, -191.83512025492493, -190.03776829950058, -188.25933189496465, -186.49812989190704, -184.75261586297864, -183.02137258477526, -181.3031073970187])","array('d', [-252.95628356933594, -251.54218198381108, -250.07405003203155, -248.55736229259108, -246.99722519803842, -245.398316108277, -243.76486456428685, -242.10066202193272, -240.40908782020855, -238.69314291560758, -236.95548618684796, -235.19847037906848, -233.42417617170176, -231.63444368273224, -229.83090118055563, -228.01499395483768])","array('d', [-49.853981018066406, -49.78570122976132, -49.74050070913506, -49.71021579713526, -49.689679063983235, -49.675584295190966, -49.665791148282345, -49.658896273400174, -49.65396684904553, -49.65037387006354, -49.64768728040551, -49.645609883470556, -49.64393587980574, -49.64252523848232, -49.64128830479949, -49.640176921209864])","array('d', [0.6275622248649596, 0.591301199167015, 0.5519693711936513, 0.5114875659890856, 0.47122884451685726, 0.4321402766954472, 0.3948470331925832, 0.35973530708260265, 0.32701600070556386, 0.29677276714535605, 0.2689979954317817, 0.24361975648717552, 0.22052205831382227, 0.19956016916733452, 0.1805723003040572, 0.16338858877454185])","array('d', [-0.03304937854409216, -0.021769703962741988, -0.014513805283133011, -0.009793483690164972, -0.006687901395285956, -0.004622431431954347, -0.0032352476733326844, -0.0022963225153423195, -0.0016578702077309489, -0.0012237558534080888, -0.0009304098682871036, -0.0007347714947846715, -0.0006065701780902698, -0.0005233315164056262, -0.00046715263642047245, -0.0004226973057278109])","array('d', [0.9831721941616871, 0.9557929643040877, 0.9305643095552529, 0.9074952955622749, 0.886509920824539, 0.8674860435338924, 0.8502800439597555, 0.8347416475220933, 0.8207224583202324, 0.8080806523157085, 0.7966833941206735, 0.7864079314503639, 0.777141931692845, 0.768783386638907, 0.7612402695819765, 0.7544300354132116])",-199.25203228582671,-245.398316108277,-49.675584295190966,0.4321402766954472,-0.004622431431954347,0.8674860435338924,25.000000248974168,-1.0,"[-250.68936977289408, -206.14555481135918, 49.81310526946778]","[-247.20434280319603, -173.83422662043662, 73.13332519894038]","[-214.456572668607, -191.76312573070453, 58.77581399727472]",10000000000.0,0.028111934661865234
4,-250.10438537597656,-205.58644104003906,49.872589111328125,0.6285011768341061,0.03244848549365982,0.9363128701832633,23.15262212020331,"array('d', [-208.0985107421875, -206.05749354817297, -204.05448796383067, -202.08763944707212, -200.15472570999756, -198.25338045762254, -196.381220507161, -194.5359202503579, -192.71525532268802, -190.917127265774, -189.13957598610472, -187.38078416533972, -185.63907628644924, -183.912914061646, -182.20088951191056, -180.50171938854254])","array('d', [-252.11630249023438, -250.67438736487978, -249.17920607296574, -247.63638231787263, -246.05107682667526, -244.4279619325375, -242.77122698810467, -241.084603945717, -239.3714034824138, -237.63455513701385, -235.8766475826537, -234.09996696360625, -232.30653232541172, -230.4981277892512, -228.67633144765136, -226.8425440903435])","array('d', [-49.8587760925293, -49.790412117930344, -49.74517407180801, -49.71487207853511, -49.69432634911143, -49.68022510656461, -49.67042570661349, -49.66352401654629, -49.658587108082884, -49.65498614606019, -49.652291336762815, -49.65020575482966, -49.64852384228889, -49.647105758651556, -49.64586197189717, -49.644744362104475])","array('d', [0.6277976036071774, 0.5889496547324836, 0.5478343294849168, 0.506205776793322, 0.4652905748868276, 0.42591340781423015, 0.3886000421524179, 0.35365724924734265, 0.3212331722427139, 0.29136238413348453, 0.2639994289472317, 0.23904386560678528, 0.21635909138768314, 0.1957866154808626, 0.17715699268546323, 0.16029829036723942])","array('d', [-0.033096253871917655, -0.02179063730333236, -0.014523091865599549, -0.009797943705289568, -0.006690666918034669, -0.0046248507717645, -0.0032378281185740636, -0.0022991894595279718, -0.0016609864041779374, -0.0012270235684780626, -0.0009337172074503959, -0.0007380132504486473, -0.0006096580909667052, -0.0005262010977628429, -0.00046976972501127425, -0.0004250653456252191])","array('d', [0.9695900837567188, 0.9422731476027624, 0.91722442374381, 0.8944036467179058, 0.8737007318713222, 0.854970889154186, 0.8380559346887131, 0.8227965828859957, 0.8090391984903437, 0.7966392750571627, 0.7854630294227618, 0.7753879322438081, 0.7663026451980977, 0.7581066281883097, 0.7507095599960156, 0.7440306371360248])",-198.25338045762254,-244.4279619325375,-49.68022510656461,0.42591340781423015,-0.0046248507717645,0.854970889154186,25.00000024897681,-1.0,"[-249.5136082688441, -204.73009199726513, 49.82134681981295]","[-245.26529890796024, -172.48532401720013, 73.10711082888085]","[-212.96317860065528, -190.91862416635436, 58.38344045551316]",10000000000.0,0.02851414680480957
5,-250.10438537597656,-205.58644104003906,49.872589111328125,0.6285011768341061,0.03244848549365982,0.9363128701832633,23.15262212020331,"array('d', [-207.37359619140625, -205.34660957585348, -203.358019824419, -201.40580781934605, -199.4876315340918, -197.60104032247762, -195.74359369801763, -193.91292899693823, -192.10679969495718, -190.32309591533527, -188.55985367868138, -186.81525684277636, -185.08763424251023, -183.37545370727713, -181.67731413203876, -179.99193922788])","array('d', [-251.54928588867188, -250.0877088488926, -248.5734043162695, -247.01209926357762, -245.40899154602772, -243.76874950669293, -242.095534206659, -240.39303595945685, -238.66451745825077, -236.91285832979304, -235.14059815338607, -233.34997646354185, -231.5429691369031, -229.7213210443046, -227.8865750849401, -226.04010082211227])","array('d', [-49.86268997192383, -49.79440397360302, -49.74922926112191, -49.718974543394026, -49.69846204110599, -49.6843828616173, -49.67459710906887, -49.6677029440075, -49.66276924225833, -49.65916854969795, -49.65647211729358, -49.65438380446296, -49.65269863470532, -49.65127718161832, -49.650030177772116, -49.64890962231499])","array('d', [0.628057479858398, 0.5873580226019689, 0.54496553960114, 0.5025136747720568, 0.46112424463905305, 0.42153490124267456, 0.38420088668578073, 0.3493726333401739, 0.3171537108420308, 0.28754376320106917, 0.26047033490387267, 0.2358125895029024, 0.21341913934829584, 0.19312159199154688, 0.17474496531761888, 0.15811579755381366])","array('d', [-0.03306249156594275, -0.02176191067689484, -0.014501031823086994, -0.009782077123958911, -0.006679866351218578, -0.004617935782012129, -0.003233777318654442, -0.0022971860758367966, -0.0016604007604361297, -0.0012273779603767367, -0.0009346516258632434, -0.0007392583676828696, -0.0006110168519852091, -0.0005275382572451475, -0.0004710078906895453, -0.00042618568436207356])","array('d', [0.9599134484913683, 0.9326356930217172, 0.9077102667869325, 0.8850616420616377, 0.8645555682961239, 0.846031238916717, 0.82932015221582, 0.8142566026299115, 0.8006831836934384, 0.7884534207397854, 0.7774327936291874, 0.7674988740343384, 0.7585409823071548, 0.7504595839931034, 0.7431655415085722, 0.736579268065688])",-197.60104032247762,-243.76874950669293,-49.6843828616173,0.42153490124267456,-0.004617935782012129,0.846031238916717,25.000000248978584,-1.0,"[-249.5136082688441, -204.73009199726513, 49.82134681981295]","[-245.26529890796024, -172.48532401720013, 73.10711082888085]","[-212.96317860065528, -190.91862416635436, 58.38344045551316]",10000000000.0,0.026287078857421875
6,-249.21560668945312,-204.52928161621094,49.878265380859375,0.620708882808685,0.029233332723379184,0.9239535490658621,23.164912381644555,"array('d', [-206.6551055908203, -204.64253520539117, -202.66877159566204, -200.7316239060847, -198.82862569997954, -196.95723876691662, -195.1149630305348, -193.29939712198114, -191.50827116903983, -189.73946303068584, -187.99100424846796, -186.26107944458033, -184.54802151795607, -182.850304205444, -181.16653311021335, -179.49543875398746])","array('d', [-250.97659301757812, -249.49521832907553, -247.9616340821361, -246.38167395690263, -244.76057576680103, -243.10300632518022, -241.41310053825612, -239.69450889713636, -237.9504476178753, -236.18374763864819, -234.39690042239323, -232.59209966681306, -230.77127868863334, -228.93614358970592, -227.0882024601208, -225.2287939442399])","array('d', [-49.86662673950195, -49.79854217183186, -49.75351213353472, -49.72335904133977, -49.702916615546954, -49.68888486580092, -49.67913050635464, -49.672256501290285, -49.66733518507927, -49.66374159092472, -49.66104876445534, -49.658961863790275, -49.6572768469789, -49.655854940524335, -49.65460729443323, -49.65348611055685])","array('d', [0.6286351680755614, 0.5860255007663415, 0.5423086480806601, 0.49899508534645226, 0.45710020124196393, 0.4172734551277115, 0.3798986352025867, 0.34516901179968257, 0.31314282095424373, 0.2837840750980097, 0.25699268317471374, 0.23262685654753656, 0.21051995656962025, 0.1904933229967747, 0.17236617735770218, 0.15596338100315818])","array('d', [-0.03296882286667816, -0.02169394393792461, -0.014452908655050459, -0.009748648580670854, -0.006657054640516535, -0.004602677078657485, -0.0032238326925403994, -0.00229094092652609, -0.001656695095719867, -0.0012253764654302877, -0.0009337500227263489, -0.0007390191874323953, -0.0006111278337906914, -0.0005277876604081661, -0.00047127203755555053, -0.0004264246943521467])","array('d', [0.9501112858441213, 0.9228558836262135, 0.8980404704409948, 0.8755533079201115, 0.8552354177871995, 0.8369095819241112, 0.820396665611115, 0.8055242785248313, 0.7921310200402458, 0.7800682633271852, 0.7692006039273003, 0.7594056004067412, 0.7505731465053, 0.7426046518890977, 0.7354121194113459, 0.7289171485448049])",-196.95723876691662,-243.10300632518022,-49.68888486580092,0.4172734551277115,-0.004602677078657485,0.8369095819241112,25.00000024898029,-1.0,"[-248.61506331213354, -203.6802770423191, 49.83039750634591]","[-243.86172718469703, -171.37849109210822, 72.9388466123843]","[-211.85921914653954, -190.2538049685296, 58.121221791440874]",10000000000.0,0.026484012603759766
7,-248.91551208496094,-204.1795196533203,49.879844665527344,0.6152448654174804,0.027420016005635317,0.9199006120350697,23.1696540138562,"array('d', [-206.2976531982422, -204.29216850974422, -202.32568287724345, -200.39592270874658, -198.5003617348019, -196.6364197580637, -194.8015682534381, -192.99338749982724, -191.20959668901332, -189.44806808969233, -187.7068314010458, -185.98407191927203, -184.27812479155358, -182.5874668714168, -180.91070724209823, -179.24657992953277])","array('d', [-250.68763732910156, -249.19668465571596, -247.65377875910374, -246.06480342606272, -244.43501447850832, -242.7690770172024, -241.07111263707708, -239.34475213973647, -237.59318899131063, -235.8192304125238, -234.02534448893934, -232.21370268134234, -230.38621767632242, -228.54457679118036, -226.6902712530113, -224.82462472612707])","array('d', [-49.86859130859375, -49.800491370615056, -49.75545604866337, -49.725301184120376, -49.70485767882812, -49.69082447301659, -49.68106799055379, -49.67419122816085, -49.66926666899576, -49.66566952172626, -49.66297299859696, -49.66088240270293, -49.659193810903275, -49.65776853940183, -49.65651779464601, -49.65539379557831])","array('d', [0.6288684606552123, 0.5853377128103681, 0.5409840584412408, 0.4972574868625472, 0.45512157153266897, 0.415183049473722, 0.37779118882852064, 0.3431116782052942, 0.3111808858352092, 0.2819456322513761, 0.2552924859410854, 0.23106953861483803, 0.20910278255811324, 0.1892085959351651, 0.17120340179166313, 0.15491125806693484])","array('d', [-0.03297797590494153, -0.02169719061041456, -0.014453926826059288, -0.009749058544452615, -0.006657507588256146, -0.004603384752036527, -0.0032248188003283925, -0.002292156856023512, -0.0016580708679983056, -0.0012268416957063434, -0.0009352416811961394, -0.000740484158351509, -0.0006125240018879589, -0.0005290851759437697, -0.00047245535906394756, -0.0004274954080273234])","array('d', [0.9453414241459709, 0.9180994203901175, 0.8933393864024164, 0.8709320711592674, 0.8507066261728208, 0.8324779886758474, 0.8160619519226667, 0.8012829392168488, 0.7879776464605971, 0.775996422094649, 0.7652034429813471, 0.7554762666410532, 0.7467050677926189, 0.7387917158935677, 0.7316487685520322, 0.7251984022975927])",-196.6364197580637,-242.7690770172024,-49.69082447301659,0.415183049473722,-0.004603384752036527,0.8324779886758474,25.00000024898108,-1.0,"[-248.48717147373478, -203.53365274720161, 49.83209262393123]","[-243.66550140271178, -171.20059614598694, 72.88257957212497]","[-211.70366926721863, -190.1570308764621, 58.08072601077019]",10000000000.0,0.021613121032714844
8,-248.6142578125,-203.8325653076172,49.88170623779297,0.6083671450614926,0.025219894945621414,0.915850357213292,23.174451034410584,"array('d', [-205.94142150878906, -203.94281676151076, -201.9833878888293, -200.06078057655122, -198.17241116319514, -196.3156596861927, -194.4879710016796, -192.68690847526747, -190.91018146687912, -189.15565749108455, -187.421365034571, -185.70549054324582, -184.00637177617207, -182.32248898799006, -180.65245497188215, -178.9950074521006])","array('d', [-250.3969268798828, -248.8967530378061, -247.34488985459564, -245.74726449854737, -244.109146830317, -242.43519802926093, -240.72952528911011, -238.99573933401666, -237.2370109228238, -235.4561238549762, -233.65552327263862, -231.83735889590776, -230.00352329088759, -228.15568548278495, -226.29532029323582, -224.4237368217383])","array('d', [-49.87063217163086, -49.802773484372494, -49.75790268007067, -49.727859985321224, -49.70749297824077, -49.693511938630714, -49.683790994246486, -49.676938392003045, -49.67203021638743, -49.66844416897187, -49.66575520528384, -49.66366985722924, -49.66198506708091, -49.660562746832525, -49.659314483924284, -49.65819269255426])","array('d', [0.6289531588554382, 0.5845519713419167, 0.5396004701098258, 0.4954898020086527, 0.45313354113717774, 0.41309741387202686, 0.37569766414523903, 0.3410736537077389, 0.3092409104111143, 0.28012988978950004, 0.2536144746336707, 0.22953314459394591, 0.20770490340155437, 0.18794143630430052, 0.1700565357016941, 0.15387353062126483])","array('d', [-0.032862816005945206, -0.021618664508132813, -0.0144003996612593, -0.009712559070626339, -0.006632612792011401, -0.004586413725579675, -0.0032132687093667173, -0.002284316860631, -0.001652761777319033, -0.001223242371598304, -0.0009327745613467618, -0.0007387409292651443, -0.0006112186053193441, -0.0005280254710764978, -0.00047152738804542887, -0.0004266557450512456])","array('d', [0.9407314221051081, 0.9135099652331329, 0.8888095314665856, 0.866484231545242, 0.8463520288165652, 0.8282205128808343, 0.8119007530296565, 0.7972142233850427, 0.7839958740380244, 0.7720951302405336, 0.761375812369748, 0.7517155116390983, 0.7430046995552653, 0.7351457085509775, 0.7280516464422307, 0.7216452585661373])",-196.3156596861927,-242.43519802926093,-49.693511938630714,0.41309741387202686,-0.004586413725579675,0.8282205128808343,25.000000248981816,-1.0,"[-248.0070048855465, -202.98665611809855, 49.838719795309785]","[-242.93077697613163, -170.50532061888225, 72.62456527883376]","[-211.12108270355128, -189.79365530069447, 57.92410625581789]",10000000000.0,0.02754974365234375
9,-247.3896484375,-202.45809936523438,49.89537811279297,0.5690653324127195,0.013501511886715828,0.8996773521092278,23.194062902725335,"array('d', [-205.58644104003906, -203.59443394071383, -201.64173698800317, -199.7259190324614, -197.84434420983666, -195.99435777045554, -194.1733822589841, -192.37896769956018, -190.60881652891223, -188.8607938625859, -187.1329288860293, -185.4234107595238, -183.73058115358816, -182.0529248241441, -180.3890592257539, -178.7377266228552])","array('d', [-250.10438537597656, -248.59542246837108, -247.0350797504444, -245.42931111317003, -243.78338956080083, -242.10196518217973, -240.389126061543, -238.64845978394203, -236.8831124481533, -235.09584322587818, -233.2890736073131, -231.4649311889964, -229.62528823947014, -227.771795437651, -225.90591121263878, -224.0289301453266])","array('d', [-49.872589111328125, -49.80558973078649, -49.76129319606662, -49.731638226249466, -49.711535806012094, -49.697737338270066, -49.68814386333085, -49.68138142619895, -49.67653802137303, -49.67299942206427, -49.670346122542526, -49.66828849168979, -49.66662613280935, -49.66522277037933, -49.66399115380964, -49.66288432394069])","array('d', [0.6285011768341061, 0.5833357934842327, 0.5378735997676258, 0.4934487859355097, 0.45092737737880095, 0.4108365947994008, 0.37346197868117553, 0.3389186099019145, 0.30720292890152384, 0.2782304990880386, 0.25186373368080683, 0.22793248376423397, 0.20624953626812623, 0.18662245993817908, 0.16886280949178162, 0.15279340238181596])","array('d', [-0.03244848549365982, -0.021342976021564933, -0.01421508880276944, -0.00958667566998799, -0.006546161729589086, -0.004526364529643862, -0.0031710442142330957, -0.002254206897625599, -0.0016309171261220817, -0.0012070344661809776, -0.0009203873801483942, -0.0007289116702396041, -0.000603074730598729, -0.0005209846870653243, -0.00046523855565786643, -0.0004209653736775774])","array('d', [0.9363128701832633, 0.9091400166026467, 0.8845202496163919, 0.8622927888826556, 0.842265794140783, 0.8242405540038882, 0.8080241862232382, 0.7934357785990467, 0.7803089422032176, 0.7684924706712593, 0.7578500344782529, 0.7482594024051965, 0.7396114405838868, 0.7318090090823175, 0.7247658077552243, 0.7184051784905695])",-195.99435777045554,-242.10196518217973,-49.697737338270066,0.4108365947994008,-0.004526364529643862,0.8242405540038882,25.00000024898248,-1.0,"[-246.97695362574774, -201.84562552197843, 49.86032052338596]","[-241.36329911998808, -168.81897504598268, 71.71729289895468]","[-209.87803935588306, -189.02538838511637, 57.56175414004807]",10000000000.0,0.050728559494018555
10,-247.07867431640625,-202.11790466308594,49.90105438232422,0.5569357275962826,0.010402322746813278,0.8955736915257314,23.19863991637263,"array('d', [-204.1795196533203, -202.21172229319245, -200.28288737412328, -198.39037054736332, -196.5314271644992, -194.70335465316438, -192.9035651115586, -191.12962162259385, -189.3792544523499, -187.65036550898031, -185.94102571718963, -184.24946807917047, -182.57407818738108, -180.91338339208346, -179.26604149767238, -177.63083235650893])","array('d', [-248.91551208496094, -247.3746808361328, -245.7847490625695, -244.15149873295942, -242.48001882648657, -240.77477465847443, -239.03967662105907, -237.27814615695578, -235.49317687670097, -233.6873897551085, -231.86308217030012, -230.02227102802718, -228.1667304293934, -226.2980243955903, -224.4175351349204, -222.52649037013248])","array('d', [-49.879844665527344, -49.82324625655103, -49.78586121950739, -49.760858884251775, -49.74393102810726, -49.732329344921624, -49.72427900105383, -49.71861859817384, -49.71457735458242, -49.71163615684178, -49.709440396168176, -49.70774516190841, -49.70638092512393, -49.70523236457153, -49.7042256731066, -49.70332125226276])","array('d', [0.6152448654174804, 0.5687548675751739, 0.5227333095290407, 0.4782994294493678, 0.4361539105303033, 0.3966987399474181, 0.3601252783077912, 0.32647805857772383, 0.29570091976076185, 0.267670559337957, 0.24222119472950387, 0.21916293953796392, 0.19829571337915577, 0.17941995223437088, 0.16234500590572357, 0.14689584927958582])","array('d', [-0.027420016005635317, -0.018019565619246794, -0.011990205856096453, -0.008077283769282385, -0.005507969522952594, -0.0038018724761449637, -0.0026575043765616774, -0.0018837299631172847, -0.0013580359463535448, -0.0010008808365857085, -0.0007597504500013968, -0.0005991167399260854, -0.0004940258567437138, -0.00042595811415452464, -0.0003801590907771913, -0.00034398228339677447])","array('d', [0.9199006120350697, 0.893528601871646, 0.8697143672336226, 0.8482654249962635, 0.8289729356640896, 0.8116300940602881, 0.7960411862622853, 0.7820255320028743, 0.7694187369684479, 0.7580725857082268, 0.7478542790954966, 0.7386453739824045, 0.7303405966174574, 0.7228466043252619, 0.7160807213293154, 0.7099696417504404])",-194.70335465316438,-240.77477465847443,-49.732329344921624,0.3966987399474181,-0.0038018724761449637,0.8116300940602881,25.000000248984428,-1.0,"[-246.45693944407344, -201.2835169695929, 49.87512646025772]","[-240.57804651540985, -167.91053218924225, 71.12794991465532]","[-209.25584929830447, -188.63705109270856, 57.36817609249497]",10000000000.0,0.025272130966186523
11,-246.45135498046875,-201.44158935546875,49.91632843017578,0.5311274528503414,0.004219146911054769,0.8873775164273119,23.205516704494542,"array('d', [-203.8325653076172, -201.87064135115415, -199.9473240954505, -198.05994460627832, -196.20575992841398, -194.38208164699023, -192.58634189528064, -190.81612633722312, -189.06918858588944, -187.34345366714498, -185.6370148207781, -183.9481262298282, -182.2751933498615, -180.61676199027033, -178.97150699274212, -177.3382246675323])","array('d', [-248.6142578125, -247.06578969446062, -245.46911624924897, -243.829899681852, -242.15312718910246, -240.4431767549359, -238.70388363343503, -236.93860455504137, -235.15027734568093, -233.34147483376455, -231.51445278411816, -229.67119208119536, -227.81343559777295, -225.9427202403698, -224.0604046355511, -222.167696894914])","array('d', [-49.88170623779297, -49.82965606813675, -49.79528923753356, -49.77231710023196, -49.75677419461249, -49.74613124841839, -49.73875502426099, -49.73357681367222, -49.72988732658965, -49.72720881098783, -49.725214847641844, -49.723679931447535, -49.72244791583372, -49.72141255829627, -49.72050587695903, -49.71969147197378])","array('d', [0.6083671450614926, 0.5620230834851626, 0.5162787983573345, 0.47220127525289696, 0.4304547757577964, 0.3914162539713385, 0.3552600761114884, 0.32201942266394706, 0.2916307481774483, 0.2639661754996142, 0.23885735645580744, 0.21611329199807652, 0.1955338529641408, 0.17692021574034114, 0.16008306399520397, 0.14484915941615012])","array('d', [-0.025219894945621414, -0.0165677156625124, -0.011019210168394036, -0.007418829629748259, -0.005055010964070927, -0.003485554169194141, -0.002432992754264146, -0.0017214486973358986, -0.001238203531340581, -0.0009100830514469954, -0.000688779564753536, -0.0005416085621767633, -0.0004456054819647601, -0.0003837130526409915, -0.0003423225029095785, -0.00030974631983231565])","array('d', [0.915850357213292, 0.8898642873463738, 0.8664026795027885, 0.8452725056145697, 0.826266558457601, 0.8091805756349623, 0.7938216433670364, 0.7800118270658972, 0.7675892910058337, 0.7564081477303385, 0.7463376932337008, 0.7372613610142933, 0.7290755545510799, 0.7216884272374258, 0.7150186335175661, 0.7089940408959571])",-194.38208164699023,-240.4431767549359,-49.74613124841839,0.3914162539713385,-0.003485554169194141,0.8091805756349623,25.000000248984772,-1.0,"[-246.14111837315724, -200.9471162990579, 49.88545117960694]","[-240.099702844925, -167.34830676476008, 70.73302409093674]","[-208.8786798041776, -188.40101604129862, 57.24113199209944]",10000000000.0,0.02628946304321289
12,-246.1351318359375,-201.10543823242188,49.92612075805664,0.5178140997886657,0.0014635501429438073,0.8832845250752308,23.208930799684282,"array('d', [-203.1426239013672, -201.1924059782862, -199.27979622347044, -197.40211157932106, -195.55664393148254, -193.74076042257443, -191.95195651786776, -190.1878828150094, -188.4463564326995, -186.72536297726415, -185.023052631393, -183.33773259257285, -181.66785734874165, -180.01201784542073, -178.36893033470636, -176.73742902627328])","array('d', [-248.005859375, -246.44232290124023, -244.832686767013, -243.1823051536016, -241.49591076345672, -239.77766851998484, -238.03123411917977, -236.2598123098733, -234.46621180395235, -232.65289535470853, -230.82202455506973, -228.97549944566774, -227.1149932634995, -225.2419827357785, -223.35777431221697, -221.4635307158182])","array('d', [-49.887020111083984, -49.84636682748815, -49.81955736013805, -49.8016654235776, -49.78958598870192, -49.78133911838908, -49.775646456909, -49.77167148945754, -49.76885891395914, -49.766834534742685, -49.765342504578435, -49.76420590058554, -49.76330208204256, -49.76254753871086, -49.76188887242234, -49.7612976815244])","array('d', [0.5908159017562865, 0.545260360398588, 0.5005035685415254, 0.4575115418263963, 0.41688152122269106, 0.3789469843847533, 0.34385489575591927, 0.31162194232034085, 0.2821754766902364, 0.2553835272161775, 0.23107703691694922, 0.20906657118628577, 0.1891550662468562, 0.17114772071427972, 0.15485980763117482, 0.14012296118591827])","array('d', [-0.019705584272742313, -0.012931542896593724, -0.008588902722001288, -0.005771768744670302, -0.003922664782984135, -0.0026953183660799193, -0.0018725404121580664, -0.001316707301547056, -0.0009396437340100526, -0.0006841224090046104, -0.0005123670050417513, -0.0003988105597211354, -0.00032546778693047886, -0.000278943007681976, -0.0002484979090448693, -0.0002248503089066014])","array('d', [0.9077293435719349, 0.8827010717983179, 0.8600977968774827, 0.8397323626420525, 0.8214062622845163, 0.8049245179040964, 0.7901030547227273, 0.7767719335877545, 0.7647763783609771, 0.7539766681006987, 0.744247464998777, 0.735476871210591, 0.7275653571083507, 0.7204246242034488, 0.7139764258938043, 0.7081513377136459])",-193.74076042257443,-239.77766851998484,-49.78133911838908,0.3789469843847533,-0.0026953183660799193,0.8049245179040964,25.000000248985334,-1.0,"[-245.50419183420243, -200.27847202609433, 49.90999972858565]","[-239.1386269939941, -166.21494210790416, 69.88887641817125]","[-208.1221648773429, -187.92695109166564, 56.982763771235284]",10000000000.0,0.0258328914642334
13,-245.81744384765625,-200.7705841064453,49.93778610229492,0.5044988393783566,-0.0012021923903376966,0.8791963616993761,23.21020483211218,"array('d', [-202.79966735839844, -200.85520773055745, -198.94772441371063, -197.07454745383794, -195.23300194444852, -193.42049558067492, -191.63456602055996, -189.8729051012254, -188.13336906491594, -186.41398004733293, -184.7129220264922, -183.02853329249658, -181.35929684157233, -179.70382970418422, -178.06087197267644, -176.42927959864318])","array('d', [-247.69873046875, -246.1278796528274, -244.51210271698093, -242.8565752818422, -241.1658837624881, -239.44407183974477, -237.69469404821334, -235.92087030462298, -234.12533785607147, -232.31049898018068, -230.47846386155328, -228.63108864183837, -226.77000890183479, -224.8966689227758, -223.0123470745549, -221.11818163523])","array('d', [-49.89083480834961, -49.8565617136815, -49.83398007178754, -49.81892819768713, -49.80878351463245, -49.80187390397525, -49.797119778155846, -49.79381463534413, -49.791489382863595, -49.78982779885568, -49.788613548183406, -49.78769691412401, -49.78697402450453, -49.786374105345466, -49.78585192747413, -49.78538356072287])","array('d', [0.5803642272949217, 0.5354334851612923, 0.4913683518895656, 0.4490874770835563, 0.4091581527497948, 0.37189567076652347, 0.33743663351167136, 0.30579252225437414, 0.2768888546496307, 0.25059400074989313, 0.22674061863699732, 0.2051418156385669, 0.18560351913876394, 0.1679341020224319, 0.15195200280848503, 0.13749187033969842])","array('d', [-0.016617940738797087, -0.010896870151206424, -0.0072298718721068135, -0.004851380862823086, -0.0032904283978556353, -0.002254547908484144, -0.0015603359167524152, -0.001091598573209659, -0.0007739034559829501, -0.0005589496943630848, -0.0004148546648815488, -0.0003200343831941919, -0.00025929064139972193, -0.00022127879900016921, -0.000196870673233815, -0.0001781360499374224])","array('d', [0.903721765675817, 0.8792496528394171, 0.8571391422427923, 0.8372089652465535, 0.8192672267829655, 0.8031253241258575, 0.7886049360519628, 0.7755411537625501, 0.7637835337241431, 0.7531960638077193, 0.7436565767189625, 0.7350558880224245, 0.7272967957492001, 0.7202930040301097, 0.7139679950747334, 0.7082538433315625])",-193.42049558067492,-239.44407183974477,-49.80187390397525,0.37189567076652347,-0.002254547908484144,0.8031253241258575,25.000000248985554,-1.0,"[-244.86078903846573, -199.6152450548226, 49.93958939044606]","[-238.1723132624611, -165.09545965162053, 69.00916483172625]","[-207.36327188585497, -187.44595820824648, 56.71045824424999]",10000000000.0,0.025046825408935547
14,-245.49884033203125,-200.43807983398438,49.95182800292969,0.4913876950740812,-0.0038033556193113795,0.8751380602505542,23.211167180804086,"array('d', [-202.45809936523438, -200.51946682987685, -198.61711141063034, -196.7483877863038, -194.91066223398255, -193.10138907545453, -191.3181530672861, -189.55869138234337, -187.82090287253607, -186.10284920568836, -184.4027507651219, -182.71897922091523, -181.05004809898423, -179.39460231646592, -177.75140742524388, -176.1193418960727])","array('d', [-247.3896484375, -245.8114786025312, -244.18960921485075, -242.5290299389971, -240.83417413237527, -239.10895842426405, -237.35683133362616, -235.58082392943948, -233.78359867904763, -231.96749464117124, -230.13456830950716, -228.28663001250663, -226.42527605379613, -224.55191688077312, -222.66780158168694, -220.77404214260216])","array('d', [-49.89537811279297, -49.86754390815595, -49.849227195341406, -49.83703901553417, -49.82884413618679, -49.82328127956249, -49.8194715369492, -49.8168396540498, -49.81500356304755, -49.81370556683035, -49.81276922287576, -49.81207228817418, -49.811529848254146, -49.8110839960307, -49.81069775373246, -49.81035170080836])","array('d', [0.5690653324127195, 0.5248643258407639, 0.4815821306667399, 0.4400914456439625, 0.40093104435857085, 0.36439939690638873, 0.3306240105064496, 0.2996123201542443, 0.2712890578982021, 0.2455238748451905, 0.22215197420715668, 0.20098972647952018, 0.18184666245006237, 0.16453483163896646, 0.148876228907326, 0.13470879477244077])","array('d', [-0.013501511886715828, -0.00884402803734498, -0.005859270349297922, -0.003923604321673177, -0.0026534991583550575, -0.0018108470174199073, -0.001246364948193848, -0.000865495414355125, -0.0006076784100144531, -0.0004336222054849801, -0.0003173919212828045, -0.00024142315215758812, -0.00019333105497864065, -0.00016384264753301664, -0.0001454578837886545, -0.00013161583008183432])","array('d', [0.8996773521092278, 0.8757971421645764, 0.8542097595735912, 0.8347408644671872, 0.8172059672114486, 0.8014234585628242, 0.7872212609375583, 0.7744398890357047, 0.762933549616134, 0.7525701969741673, 0.743231043374007, 0.734809787278296, 0.7272116917001462, 0.7203525748927534, 0.7141577392503173, 0.7085608370441887])",-193.10138907545453,-239.10895842426405,-49.82328127956249,0.36439939690638873,-0.0018108470174199073,0.8014234585628242,25.000000248985756,-1.0,"[-244.86078903846573, -199.6152450548226, 49.93958939044606]","[-238.1723132624611, -165.09545965162053, 69.00916483172625]","[-207.36327188585497, -187.44595820824648, 56.71045824424999]",10000000000.0,0.029120683670043945
15,-244.5347137451172,-199.44732666015625,50.00272750854492,0.4540045261383055,-0.01080198027193559,0.8634107271817069,23.211138933620855,"array('d', [-202.11790466308594, -200.18520659193362, -198.28802177901946, -196.42374059027665, -194.5897779726811, -192.78364053154706, -191.00296469868042, -189.2455368303497, -187.509301691711, -185.79236335437812, -184.09298112449915, -182.40956227505657, -180.74065283822017, -179.084927387789, -177.44117853105055, -175.80830942541735])","array('d', [-247.07867431640625, -245.49313665614886, -243.86517544340285, -242.19958876913486, -240.50065127691522, -238.7721474322534, -237.0174153110037, -235.23939336837688, -233.440666109982, -231.62350668908059, -229.78991563354566, -227.94165552169244, -226.08028171860647, -224.2071694005176, -222.32353711928346, -220.43047029495338])","array('d', [-49.90105438232422, -49.87962235731255, -49.86554394531843, -49.856199750696106, -49.84993967749188, -49.84571179361269, -49.842836870193956, -49.8408702376556, -49.8395164155676, -49.838575944852536, -49.83791208988333, -49.83742996315326, -49.83706353404111, -49.836767716035496, -49.83651375084761, -49.836286699212785])","array('d', [0.5569357275962826, 0.5135628187496738, 0.47114968083023506, 0.4305243612105038, 0.39219835706791967, 0.35645447684251524, 0.3234122069769074, 0.29307592522061204, 0.2653704820732071, 0.24016762839665798, 0.2173058447671022, 0.1966054089345818, 0.177880008887783, 0.1609458317476029, 0.14562879393588557, 0.1317703938315041])","array('d', [-0.010402322746813278, -0.006803551106362579, -0.004497706497233583, -0.0030026084453082876, -0.0020218170572301897, -0.0013713428891137447, -0.0009358610524105423, -0.0006423416192014827, -0.000444024420928138, -0.0003105783088375535, -0.00022198360376841664, -0.00016467382022274698, -0.00012906351841847542, -0.00010794321305746862, -9.543755492423379e-05, -8.635556077667863e-05])","array('d', [0.8955736915257314, 0.8723189907829239, 0.8512837197776424, 0.8323012866483389, 0.8151952353453094, 0.7997914484879334, 0.7859244967903954, 0.7734406514842888, 0.7621990455272811, 0.7520718286845333, 0.7429437827739256, 0.7347116464343344, 0.7272832776473922, 0.7205767163540031, 0.7145191748236477, 0.7090459568440713])",-192.78364053154706,-238.7721474322534,-49.84571179361269,0.35645447684251524,-0.0013713428891137447,0.7997914484879334,25.00000024898594,-1.0,"[-243.88705229677583, -198.63269096668864, 49.99724384439704]","[-236.72867546365924, -163.50305768078397, 67.73608558541716]","[-206.2273877003564, -186.7384719323163, 56.34367717718851]",10000000000.0,0.033911705017089844
16,-243.88589477539062,-198.79202270507812,50.044517517089844,0.4313099384307858,-0.014271183870732895,0.8563071648266654,23.210999624693763,"array('d', [-201.10543823242188, -199.19068847943169, -197.30894031364298, -195.45773931942762, -193.6346751491343, -191.83743085088108, -190.06381272869177, -188.31176672002434, -186.57938546641836, -184.86490898206125, -183.16672096359093, -181.483342210229, -179.81342224190004, -178.15572994764645, -176.50914392270406, -174.87264563922764])","array('d', [-246.1351318359375, -244.52780874870965, -242.8819577296531, -241.20181062339714, -239.49116548682048, -237.75340622588516, -235.9915342114291, -234.20820441135803, -232.4057619922265, -230.58627732096838, -228.7515784014959, -226.90328037322618, -225.0428119994302, -223.1714392122413, -221.29028583297978, -219.4003545898661])","array('d', [-49.92612075805664, -49.923146176284355, -49.921271224374856, -49.92010291464338, -49.9193935923544, -49.91898514182181, -49.91877512509326, -49.91869604869781, -49.918702563137266, -49.91876351097149, -49.91885698213343, -49.91896727083656, -49.91908306496444, -49.919196456002496, -49.91930250474184, -49.91939917565427])","array('d', [0.5178140997886657, 0.47729146703532216, 0.43779134923542884, 0.4000200534359362, 0.36441616818010036, 0.3312222562724722, 0.3005390446352693, 0.2723660704824463, 0.24663217839845497, 0.22321852788197916, 0.20197610430817325, 0.18273919369299324, 0.1653358810928871, 0.14959634077204303, 0.13535947759867245, 0.12247833131033813])","array('d', [-0.0014635501429438073, -0.0009250982907164997, -0.000580610118713768, -0.00035775535436629577, -0.00021213177064134255, -0.00011622851110566277, -5.2842278862250227e-05, -1.1114932118315322e-05, 1.5876217511433925e-05, 3.2603013124596e-05, 4.2016873761777455e-05, 4.614521888848248e-05, 4.64844239124817e-05, 4.426542302544712e-05, 4.063414461521741e-05, 3.676721561740453e-05])","array('d', [0.8832845250752308, 0.8619855184732838, 0.8426770467568501, 0.8252173316562562, 0.8094549547001578, 0.7952389439357085, 0.7824243716626489, 0.770875278411954, 0.7604660338405081, 0.7510817914406034, 0.7426184157118999, 0.7349820950875487, 0.7280887579678206, 0.7218633547855864, 0.7162390388902318, 0.711156254726555])",-191.83743085088108,-237.75340622588516,-49.91898514182181,0.3312222562724722,-0.00011622851110566277,0.7952389439357085,25.00000024898643,-1.0,"[-243.23197903629065, -197.98279133375416, 50.0419677079777]","[-235.7778013529244, -162.50784272470315, 66.95241584662836]","[-205.47352598220226, -186.26437819127986, 56.122922927718164]",10000000000.0,0.04185914993286133
17,-243.23304748535156,-198.14039611816406,50.09119415283203,0.4106823205947874,-0.016403071582317436,0.8497233549740649,23.20720668476474,"array('d', [-200.43807983398438, -198.5354367787495, -196.66408598121015, -194.82169560250037, -193.00597892182137, -191.21473912409803, -189.44589654945537, -187.69750375553758, -185.96775208948725, -184.25497235300298, -182.55763139872923, -180.87432599844004, -179.20377498937634, -177.5448104780476, -175.89636872340822, -174.25748411235185])","array('d', [-245.49884033203125, -243.87721246571394, -242.21954986167842, -240.52974424440055, -238.81129989862157, -237.06734962218886, -235.3006811224491, -233.51376776090845, -231.70880018538665, -229.8877169825756, -228.05223340967632, -226.20386778151956, -224.34396536604658, -222.4737197786468, -220.59419192583607, -218.70632989444428])","array('d', [-49.95182800292969, -49.95971979976617, -49.965012259367185, -49.968630765391026, -49.97115743865641, -49.97296273707182, -49.97428524432435, -49.97528048867877, -49.976051089504175, -49.9766655428658, -49.977170028456165, -49.97759588803431, -49.97796439468331, -49.97828981524827, -49.978581397472624, -49.978844689110794])","array('d', [0.4913876950740812, 0.45282651522406825, 0.41530850985364887, 0.3794680618618483, 0.345700433813245, 0.31422426399750025, 0.28512930694457317, 0.25841264057995506, 0.23400612873463555, 0.2117973514484207, 0.19164568312896052, 0.17339476610065868, 0.15688229675366788, 0.14194779754043926, 0.1284388712488363, 0.11621630716233987])","array('d', [0.0038033556193113795, 0.002531312906436, 0.0017162548048302866, 0.001187373818133075, 0.000839763953145201, 0.0006083355796667758, 0.0004522736854196965, 0.0003456996782639593, 0.00027201027186584797, 0.00022041316012445916, 0.00018378631956223596, 0.00015734247718200977, 0.00013778903060778972, 0.00012279750798959834, 0.00011067057123196761, 0.00010013880076581651])","array('d', [0.8751380602505542, 0.8551141165556053, 0.8369365994250962, 0.8204785776671327, 0.8056036611745556, 0.7921749014500425, 0.7800599330453442, 0.7691338106403238, 0.7592804530728595, 0.7503932472893862, 0.7423751401165162, 0.7351384087352097, 0.7286042192425587, 0.7227020351886041, 0.7173689108324632, 0.7125486801237986])",-191.21473912409803,-237.06734962218886,-49.97296273707182,0.31422426399750025,0.0006083355796667758,0.7921749014500425,25.000000248986744,-1.0,"[-242.90314745909205, -197.6589960092908, 50.06592356626215]","[-235.31459296517508, -162.0275504804052, 66.58300352050684]","[-205.1005477441795, -186.01681724949086, 56.01765680280385]",10000000000.0,0.04166388511657715
18,-242.57675170898438,-197.49200439453125,50.141658782958984,0.39213469624519315,-0.01733375526964673,0.8432853380825853,23.204148777709776,"array('d', [-199.7764892578125, -197.88571850147383, -196.0245979140666, -194.19092112410894, -192.38252155216637, -190.5973169771003, -188.8333359023884, -187.08873196296824, -185.3617902124267, -183.65092781370123, -181.9546908785723, -180.27174871649285, -178.60088643895557, -176.94099665469335, -175.29107084481538, -173.65019381598884])","array('d', [-244.85739135742188, -243.22200823643422, -241.5528961555045, -239.85364946251005, -238.12750984618933, -236.37738239968814, -234.60585903156115, -232.81524528345324, -231.0075880142523, -229.18470244585404, -227.34819774089328, -225.4995006922531, -223.63987733833113, -221.7704524435141, -219.89222684432565, -218.00609601956916])","array('d', [-49.98429870605469, -50.00214150348717, -50.01398404487045, -50.021964861989545, -50.027429218087626, -50.03123353872488, -50.03392990370168, -50.035878887558276, -50.03731921155607, -50.038411109618785, -50.03926352475465, -50.03995124248121, -50.04052568433382, -50.04102166304497, -50.0414615544222, -50.04185784073228])","array('d', [0.466032952070236, 0.4293507985857251, 0.3937253121813217, 0.35972702701515497, 0.3277121816537542, 0.29787747758482086, 0.2703023174961422, 0.24498116717067267, 0.22184834777360124, 0.20079710937934334, 0.18169440848332405, 0.164392459125674, 0.1487378537654418, 0.13457884539836804, 0.12177123224573491, 0.11018317735593974])","array('d', [0.008630199357867378, 0.005693160456396003, 0.0038122861231670454, 0.0025927234844477253, 0.0017921205991231106, 0.0012602104121892139, 0.0009028435681289268, 0.0006603883000819988, 0.0004946360296944776, 0.0003807817560558991, 0.0003024569726131748, 0.0002486153949194727, 0.000211556306098928, 0.00018565868542765593, 0.0001665728052697584, 0.00015072123843986313])","array('d', [0.8672620813038687, 0.8484307437023237, 0.8313157280874915, 0.8158026702333562, 0.8017680586845259, 0.7890871183710805, 0.7776385266535648, 0.7673071358228345, 0.757985453463066, 0.749574347395963, 0.7419832591820971, 0.7351300964404843, 0.7289409050706437, 0.7233493811510429, 0.718296258007152, 0.7137285817500707])",-190.5973169771003,-236.37738239968814,-50.03123353872488,0.29787747758482086,0.0012602104121892139,0.7890871183710805,25.000000248987046,-1.0,"[-242.26793732240333, -197.0383706557134, 50.11390211145838]","[-234.43101532084037, -161.13880157326886, 65.91907826473839]","[-204.3845323609921, -185.53163317856064, 55.80974455675226]",10000000000.0,0.03176712989807129
19,-242.24822998046875,-197.16943359375,50.16815948486328,0.3835206329822538,-0.01748940907418739,0.8401498357441762,23.20172678277669,"array('d', [-199.11920166015625, -197.23993963116533, -195.38880169192709, -193.56370114017312, -191.76258262780533, -189.9834690474898, -188.22448802619752, -186.48388603514007, -184.76003447025656, -183.05143032835696, -181.35669320395948, -179.67455982060457, -178.0038769978917, -176.34359375248047, -174.6927530925595, -173.050486914486])","array('d', [-244.2108612060547, -242.5623723834702, -240.88223880503273, -239.1738010051895, -237.4400716761023, -235.6837545192095, -233.9072664260035, -232.1127616309475, -230.30215639799542, -228.47715318967684, -226.63926365650624, -224.78983006841972, -222.93004499160244, -221.06096912035926, -219.18354723051047, -217.29862561617475])","array('d', [-50.0229606628418, -50.049126299202, -50.066430569441984, -50.07803346419588, -50.085922514427956, -50.09136303593454, -50.09517087835221, -50.097879190249685, -50.09984132477683, -50.10129488316595, -50.102401846033885, -50.103273808792764, -50.10398781328486, -50.10459616884425, -50.10513241007919, -50.105614808313355])","array('d', [0.4424202442169187, 0.4074623107086866, 0.3735754871907273, 0.34127356757540134, 0.3108773185871463, 0.28256285218851246, 0.2563992533875734, 0.23237766767688423, 0.21043378178800862, 0.19046526340174275, 0.17234537589904617, 0.1559336924219844, 0.14108460483229887, 0.1276541500878941, 0.11550554816153782, 0.10451375143346919])","array('d', [0.012671702541411058, 0.008333573678976842, 0.005556288051180229, 0.0037560930823704423, 0.002574863151714287, 0.0017906399623156546, 0.0012644136573749158, 0.0009081789781912854, 0.000665575895462155, 0.0005000324651942749, 0.0003874165081931388, 0.00031142145512244026, 0.0002606294524838553, 0.00022662230206824542, 0.00020276861209796314, 0.00018347256178847545])","array('d', [0.859732047715459, 0.8419870571572047, 0.8258446100261719, 0.8112004190585572, 0.7979415232840757, 0.7859532991497136, 0.7751237783105426, 0.7653462309699304, 0.7565206398253095, 0.7485544607770539, 0.7413629168955667, 0.7348689772474309, 0.7290031133212324, 0.7237028898968313, 0.7189124255859862, 0.7145817375852691])",-189.9834690474898,-235.6837545192095,-50.09136303593454,0.28256285218851246,0.0017906399623156546,0.7859532991497136,25.00000024898734,-1.0,"[-241.57938232648405, -196.37192477698457, 50.16765811386201]","[-233.48051796838408, -160.22758693721718, 65.26716930574692]","[-203.61172816713946, -185.0068773881696, 55.57995295860143]",10000000000.0,0.024980783462524414
20,-241.589111328125,-196.5260009765625,50.222904205322266,0.3676671981811521,-0.016925338655710373,0.8344936529782158,23.19959396337335,"array('d', [-198.79202270507812, -196.91802047016336, -195.07142395046571, -193.2502044970164, -191.45235999552176, -189.6759632392237, -187.91918868116562, -186.18032650983614, -184.45778869141387, -182.75010967427127, -181.0559434823857, -179.37405839498595, -177.70333009527224, -176.04273397033168, -174.3913371084174, -172.7482943558189])","array('d', [-243.88589477539062, -242.23148238729055, -240.5463802612142, -238.83381430391734, -237.0966932895092, -235.33762924329932, -233.55895919604697, -231.76276820201988, -229.95091271071192, -228.12504345888223, -226.28662730256008, -224.43696763336544, -222.57722318024915, -220.70842509469992, -218.8314922719478, -216.94724935570855])","array('d', [-50.044517517089844, -50.07397236152551, -50.093426392229084, -50.106446705069075, -50.11527673306811, -50.121344691529096, -50.12557153138281, -50.128559201764304, -50.13070680589354, -50.13228287907136, -50.13347066615307, -50.13439657379291, -50.135147993368555, -50.135784321736864, -50.13634360257084, -50.136846389857936])","array('d', [0.4313099384307858, 0.39718555279705947, 0.36413058974725865, 0.332634798681812, 0.3030040828057955, 0.2754061311794768, 0.24990606059802997, 0.22649408519510864, 0.20510699028032775, 0.18564485573516049, 0.1679841575157288, 0.15198810964571452, 0.13751489924035956, 0.12442430738383424, 0.11258308953707048, 0.10186940127788255])","array('d', [0.014271183870732895, 0.009374939450958469, 0.006240733243079004, 0.0042094516398617325, 0.0028768169037119737, 0.001992310077552919, 0.0013990600249191732, 0.0009977711392593928, 0.0007248649818619693, 0.0005390926850593415, 0.0004132365384053064, 0.0003288965423594937, 0.0002731687715364275, 0.00023650553935764427, 0.00021133895597927522, 0.00019122733031641054])","array('d', [0.8563071648266654, 0.8390650214250711, 0.8233730013680483, 0.8091314890537388, 0.7962323585864111, 0.7845656243534238, 0.7740235927833014, 0.7645033870452516, 0.7559084181093313, 0.7481491691890039, 0.7411435244110239, 0.7348167854222523, 0.7291014650837202, 0.7239369137882957, 0.7192688134608383, 0.7150485518519089])",-189.6759632392237,-235.33762924329932,-50.121344691529096,0.2754061311794768,0.001992310077552919,0.7845656243534238,25.00000024898747,-1.0,"[-241.24735620704013, -196.05248975849483, 50.1943922610824]","[-233.02575097655483, -159.8044328302609, 64.9755822118803]","[-203.2405820364166, -184.754183761499, 55.47012905715867]",10000000000.0,0.02440643310546875
21,-240.9275360107422,-195.88450622558594,50.27888107299805,0.35342264175415017,-0.015765542164445027,0.8293578783657888,23.197890393764006,"array('d', [-198.14039611816406, -196.27658464504879, -194.43885872434748, -192.62529121264674, -190.8339749646768, -189.06307290031623, -187.3108447527226, -185.57566081974602, -183.8560077687335, -182.1504892732973, -180.45782319312934, -178.77683645582715, -177.10645848558661, -175.44571382875682, -173.7937144962049, -172.14965636170072])","array('d', [-243.23304748535156, -241.5672422952173, -239.8725020046871, -238.15184689728673, -236.4079988064474, -234.64340408360096, -232.8602546993735, -231.0605094049105, -229.2459149146235, -227.41802664472067, -225.5782285716138, -223.72775189954976, -221.8676923403386, -219.99902588776789, -218.12262301856347, -216.23926574133756])","array('d', [-50.09119415283203, -50.1250200223253, -50.147306063207374, -50.162169979325824, -50.17220115930597, -50.17904802794579, -50.18377367624425, -50.18707321144462, -50.18940782681144, -50.19108820114221, -50.192326713530726, -50.193270213749834, -50.19402049248126, -50.194646862424804, -50.195193644466734, -50.19568441288018])","array('d', [0.4106823205947874, 0.3780722247160252, 0.3465354775129501, 0.31651728376662946, 0.288295345189575, 0.2620207695312327, 0.23775024871494418, 0.2154712251391411, 0.19512156589892332, 0.17660499058018866, 0.15980323382837006, 0.14458569953274386, 0.13081718484342036, 0.1183641149568999, 0.10709962620998958, 0.09690775802972075])","array('d', [0.016403071582317436, 0.010752744436196447, 0.007136657543930309, 0.00479363432282398, 0.003256966587613483, 0.0022375413981343597, 0.0015543760861374731, 0.001092950338111862, 0.0007799634602767486, 0.0005678741664951119, 0.00042531396391625614, 0.0003310585894317535, 0.0002701799753879592, 0.0002315602340001573, 0.00020628700658596573, 0.00018665613705534605])","array('d', [0.8497233549740649, 0.833403226849638, 0.818540266664934, 0.8050424831989527, 0.7928098329662535, 0.7817402190956655, 0.771733322819188, 0.7626929962445256, 0.7545287030987717, 0.7471563242831879, 0.7404985313062757, 0.734484856720791, 0.7290515436327619, 0.7241412268399062, 0.7197024798101065, 0.7156892407823998])",-189.06307290031623,-234.64340408360096,-50.17904802794579,0.2620207695312327,0.0022375413981343597,0.7817402190956655,25.000000248987714,-1.0,"[-240.45372984971925, -195.2922986072026, 50.258775119885726]","[-231.97186220793066, -158.82582908059027, 64.33906352502268]","[-202.36449602193295, -184.1241681310954, 55.20681797346587]",10000000000.0,0.02173471450805664
22,-240.5959014892578,-195.56442260742188,50.3070182800293,0.3467756211757658,-0.015065711922943635,0.8268077532437184,23.196145864632133,"array('d', [-197.49200439453125, -195.63827656636866, -193.80946874368152, -192.00373294257545, -190.21924016017476, -188.45422979381198, -186.70703538382875, -184.97609753782854, -183.25996918750107, -181.5573159286805, -179.8669131003221, -178.18764070893258, -176.51847700055671, -174.85849129677553, -173.20683658828457, -171.56274550564405])","array('d', [-242.57675170898438, -240.89976823416055, -239.1954210020512, -237.46655259272677, -235.71572307564352, -233.94523452374085, -232.157151550627, -230.35332107676757, -228.53539186082742, -226.70483358809884, -224.8629551899921, -223.01092212405064, -221.14977242490826, -219.28043140194015, -217.40372490322548, -215.52039475772528])","array('d', [-50.141658782958984, -50.177371269049836, -50.20083815322212, -50.2164307585621, -50.22689763425374, -50.233988518477936, -50.23883201536458, -50.24216635971681, -50.244481728147036, -50.24610873824046, -50.247273823402324, -50.248133940227724, -50.24879818355364, -50.24934098427254, -50.2498098534438, -50.2502296469951])","array('d', [0.39213469624519315, 0.3608063415243418, 0.3305754520477617, 0.30184472755279723, 0.27486368565634667, 0.2497656686840237, 0.22659710356976343, 0.2053405180838384, 0.1859326400910084, 0.1682786709353392, 0.15226359730989042, 0.13776121294493526, 0.12464136691746001, 0.11277583583895193, 0.10204312649433411, 0.09233244746830757])","array('d', [0.01733375526964673, 0.011337281308933182, 0.007500517991577741, 0.005015111789599404, 0.003385597617368807, 0.002305141744804438, 0.001581726246063764, 0.001093888137733041, 0.0007639115282215537, 0.0005414084230322333, 0.0003931332568413679, 0.00029657106022972933, 0.0002358367704777065, 0.000199018014000373, 0.00017645373864264499, 0.0001596618774771043])","array('d', [0.8432853380825853, 0.8277831314834402, 0.8136606899385108, 0.8008312396086629, 0.789200655596641, 0.7786728659316956, 0.769153361869365, 0.760551432004711, 0.7527815370883186, 0.745764100417083, 0.7394258925646547, 0.7337001260533182, 0.7285263348775575, 0.7238500879178024, 0.719622568935683, 0.7158000380265638])",-188.45422979381198,-233.94523452374085,-50.233988518477936,0.2497656686840237,0.002305141744804438,0.7786728659316956,25.000000248987973,-1.0,"[-239.91463770898494, -194.77839690281985, 50.30252840661637]","[-231.27087772528242, -158.18473017945786, 63.947636287598975]","[-201.77462911818688, -183.69003517874512, 55.03412210957993]",10000000000.0,0.028562068939208984
