,current_time,x_pos,y_pos,z_pos,roll,pitch,yaw,vel,x_traj,y_traj,z_traj,roll_traj,pitch_traj,yaw_traj,x_cmd,y_cmd,z_cmd,roll_cmd,pitch_cmd,yaw_cmd,vel_cmd,effector_dmg,effector_x,effector_y,effector_z,cost,time_solution
0,8.846741676330566,-355.318603515625,81.35067749023438,50.06077575683594,0.6312479972839357,0.03968814760446546,-0.898792191347804,23.089555046972382,"array('d', [83.60330963134766, 81.66724590885939, 79.69739479614218, 77.70367469470662, 75.69383571095271, 73.67405470095922, 71.64878231310212, 69.62107206790387, 67.59295255640794, 65.56569472678827, 63.54001723930547, 61.51625167286673, 59.49447614076623, 57.47462055487226, 55.456544767589556, 54.211444491691616])","array('d', [-356.94512939453125, -355.3656881046348, -353.82764168679483, -352.32011634461446, -350.83382681657145, -349.3608853922892, -347.8953895010623, -346.4331991639825, -344.97153359368014, -343.5086460169072, -342.0435533800373, -340.5758093001682, -339.1053173411669, -337.6321837631351, -336.1566089477951, -335.2434867444467])","array('d', [-50.07304763793945, -49.99146563863606, -49.92900535841159, -49.880571371584324, -49.84256321907197, -49.81238781855283, -49.78814593667028, -49.76842670238986, -49.75217020855656, -49.73857370530703, -49.72702650530167, -49.71706431493858, -49.70833700580132, -49.70058583287643, -49.69362733074891, -49.689745318750774])","array('d', [0.6311693787574767, 0.4963652692466308, 0.3743894559303071, 0.2640211663049733, 0.16415581376250873, 0.09086078416261426, 0.039357260398627004, 0.004852342121877075, -0.016689838646008003, -0.028687651375276613, -0.03400575479537914, -0.03498847096551296, -0.03348150793561089, -0.030848495148481828, -0.027983700403136063, -0.025320701510709146])","array('d', [-0.03715037554502488, -0.028275085427857574, -0.021806337370615367, -0.017023106950552445, -0.013444304116874252, -0.010741694561670729, -0.0086864044530808, -0.007115356248011101, -0.005910038244317363, -0.0049826883108647505, -0.004267043040968831, -0.0037119897663274006, -0.0032771261101721054, -0.0029296192518886628, -0.0026419878863784066, -0.0023905700152130798])","array('d', [-0.8734752376887462, -0.8982744669035554, -0.9165059520565124, -0.9294497027791411, -0.9379545190384847, -0.9429631549380935, -0.9455052909908331, -0.9463616121331618, -0.946122297686009, -0.9452278988865948, -0.9439957059771916, -0.9426411799105971, -0.9412977674133362, -0.940036039258817, -0.938882356203645, -0.9371900381869246])",75.69383571095271,-350.83382681657145,-49.84256321907197,0.16415581376250873,-0.013444304116874252,-0.9379545190384847,25.00000024163616,-1.0,"[-354.5343302424483, 80.39452692197956, 50.0029459316031]","[-335.9231658587373, 74.9470610148318, 45.10910536687774]","[-351.53348927188847, 64.50139911266812, 38.23844671122396]",10000000000.0,0.025750160217285156
1,8.906797170639038,-354.52618408203125,80.20814514160156,50.05206298828125,0.6319832801818849,0.04017122089862816,-0.9119488437983653,23.0946560623567,"array('d', [83.23371887207031, 81.29080753627024, 79.31428896374499, 77.3140356595646, 75.29775820891187, 73.27160080156301, 71.23999379193688, 69.20597705585645, 67.17156959322182, 65.13803589306836, 63.10609048280447, 61.07606245418408, 59.048028524879115, 57.02191787104965, 54.99758995412307, 53.74855384371064])","array('d', [-356.672119140625, -355.10117447348495, -353.5717487929774, -352.0729313133015, -350.59540691678774, -349.13126198203395, -347.6745691742342, -346.2211704911915, -344.7682737809103, -343.31412588485637, -341.8577409943614, -340.39867247625665, -338.936825223087, -337.47230767334736, -336.0053227023373, -335.09743116629386])","array('d', [-50.07212829589844, -49.98929772866114, -49.925795723061995, -49.87649065297048, -49.83775220992876, -49.80696255869731, -49.78220186165298, -49.76204207781273, -49.745409018978535, -49.73148811184253, -49.719658952087435, -49.7094493462777, -49.700502844974125, -49.69255576613167, -49.68542093387922, -49.68144025187506])","array('d', [0.6310248374938964, 0.4962344828904254, 0.3742711155293015, 0.2639140874669886, 0.16405892277990705, 0.09065881773987863, 0.03908940576027348, 0.004548737822047829, -0.01700658043568061, -0.029001338049178916, -0.034305615927801174, -0.03526817985745999, -0.033738211948902454, -0.03108186443161367, -0.02819500151226885, -0.02551189467802418])","array('d', [-0.03769634664058683, -0.02873003535536361, -0.022186287017114305, -0.01734119079017089, -0.013711373348653164, -0.01096676346407263, -0.008876983168339014, -0.007277699508788354, -0.006049337961196858, -0.005103228601673788, -0.004372327524188004, -0.003804846575287764, -0.003359794102230266, -0.0030038180506416433, -0.0027089740696543377, -0.0024511816257669896])","array('d', [-0.8778466423365731, -0.9026382919001701, -0.920863824635108, -0.9338026671062677, -0.9423032918767155, -0.9473059376955293, -0.9498387950484192, -0.9506838862493489, -0.9504323953517766, -0.949525621887662, -0.9482813837004549, -0.9469154794138122, -0.9455615375914012, -0.9442901918084992, -0.9431277839325073, -0.9414227858236183])",75.29775820891187,-350.59540691678774,-49.83775220992876,0.16405892277990705,-0.013711373348653164,-0.9423032918767155,25.000000241534842,-1.0,"[-354.38550544703537, 80.17773854491845, 50.00125916288551]","[-335.79142405665164, 74.69679853412913, 45.07993476330434]","[-351.43060999419725, 64.27862514732847, 38.23321828798322]",10000000000.0,0.053720712661743164
2,8.97613000869751,-353.4903259277344,78.66328430175781,50.03952407836914,0.6281240582466127,0.03979023173451415,-0.9303909977290293,23.11175160060949,"array('d', [82.10704803466797, 80.14436427812014, 78.14857067131307, 76.12941088076464, 74.09448330291437, 72.04983868012349, 69.9998490270467, 67.94751508810766, 65.89482864325953, 63.84303621870347, 61.79284126725912, 59.744566668815544, 57.698286130605084, 55.65392772074933, 53.61135074513606, 52.350806283504305])","array('d', [-355.8551025390625, -354.3090992920931, -352.80502564422886, -351.33185329673216, -349.88017390873625, -348.4419940622391, -347.01131103009965, -345.58391170896095, -344.15696861798654, -342.7287080091965, -341.2981342416997, -339.86479831046205, -338.4286074905106, -336.9896752237281, -335.5482104411349, -334.6558676554213])","array('d', [-50.065757751464844, -49.97986839224926, -49.91376100527687, -49.862241135121074, -49.821621240879836, -49.78923236894602, -49.76310964025792, -49.74178577813845, -49.724152800398095, -49.709367368636364, -49.696784907705506, -49.68591321819051, -49.676379607133036, -49.667907550652764, -49.66030012135015, -49.65605482124956])","array('d', [0.6311248540878296, 0.4963249816533917, 0.374353002199597, 0.26398818158172804, 0.16412596220739434, 0.09038884218555682, 0.038599625950869784, 0.003929184280021213, -0.01768815138993882, -0.0296960054027011, -0.03498030709407687, -0.03590280483853821, -0.03432285144416394, -0.03161402020391057, -0.02867691906557606, -0.025947951752111235])","array('d', [-0.03901977092027658, -0.029858313020876284, -0.023145838532527434, -0.018156254261068722, -0.014403709870953858, -0.011555632730572706, -0.009379241021607065, -0.007707938026421833, -0.006420046568739242, -0.005424968066718366, -0.0046539061806723375, -0.004053489050317893, -0.003581295416272959, -0.0032026788057652215, -0.0028885148964748674, -0.0026136368985037895])","array('d', [-0.8905827244135998, -0.9153796186412507, -0.933609270129778, -0.9465515088687075, -0.9550550338496577, -0.9600535406435267, -0.9625713591100717, -0.9633946313124786, -0.9631175898417983, -0.9621837950909198, -0.960912668993364, -0.959521057345084, -0.9581431809249, -0.956849917372208, -0.9556676120324267, -0.9539337804640817])",74.09448330291437,-349.88017390873625,-49.821621240879836,0.16412596220739434,-0.014403709870953858,-0.9550550338496577,25.00000024122131,-1.0,"[-353.0999404835692, 78.2473531735937, 49.98569150452287]","[-334.6757940586595, 72.43621045010885, 44.81061191472165]","[-350.5908051294935, 62.30084410385347, 38.17835953393694]",10000000000.0,0.062384843826293945
3,9.025644540786743,-352.9817810058594,77.8812484741211,50.03343200683594,0.6141391992568972,0.03842302039265626,-0.9392694671961924,23.129000682264525,"array('d', [80.5900650024414, 78.60172180590745, 76.5809218601305, 74.53723577675882, 72.47811202560298, 70.40947644878842, 68.33562183206898, 66.25949571947696, 64.18305327917135, 62.10751729515113, 60.03357703782764, 57.96154793311974, 55.89150063775184, 53.82336275322935, 51.756994371988654, 50.48141915901292])","array('d', [-354.7886657714844, -353.2759518437764, -351.8057526245925, -350.36687388216586, -348.9497782402295, -347.54636357214787, -346.15052583186497, -344.75797785072444, -343.36584422976983, -341.97232271750994, -340.5764033316173, -339.1776325731021, -337.7759195401656, -336.3713830322638, -334.9642388231741, -334.09282237423906])","array('d', [-50.055057525634766, -49.966643906707986, -49.89822904964775, -49.844640630320896, -49.80218976189644, -49.76819320871544, -49.740665260775714, -49.71811518543296, -49.69941134385068, -49.68368800346695, -49.67028028977064, -49.6586782233075, -49.64849401939011, -49.639438767825226, -49.63130579574666, -49.62676584146535])","array('d', [0.6316681504249573, 0.49681657655048517, 0.37479781569211973, 0.264390665491701, 0.16449014222345448, 0.09029838621939884, 0.03820653990105022, 0.0033501103967989647, -0.018365273509519404, -0.030407373319775517, -0.0356823788092526, -0.03656863022484415, -0.034938495037443944, -0.0321750702466114, -0.02918508882324884, -0.026407762805153556])","array('d', [-0.04007048904895775, -0.03082956794736231, -0.024022807478272973, -0.018936113909910825, -0.015090388113705137, -0.012156642986048545, -0.009903747662131366, -0.00816555585906923, -0.0068201028284882595, -0.005776069419701185, -0.0049637050109594735, -0.004328576754435811, -0.003827173336758237, -0.0034237732639110703, -0.003088213670322927, -0.00279433183761535])","array('d', [-0.9073909958216807, -0.9322163905459064, -0.9504684211791299, -0.9634291117389473, -0.9719483927780556, -0.976952237357214, -0.9794604348831586, -0.9802645631676135, -0.9799628406290093, -0.9790017762116474, -0.9777028916801056, -0.9762844193652617, -0.9748813853747477, -0.9735650274064214, -0.9723617418666481, -0.970597620050886])",72.47811202560298,-348.9497782402295,-49.80218976189644,0.16449014222345448,-0.015090388113705137,-0.9719483927780556,25.000000240765395,-1.0,"[-352.5947546004698, 77.46145588775413, 49.97985447911648]","[-334.2413982362844, 71.48791346959274, 44.738566359995126]","[-350.26577708966687, 61.44358526541851, 38.23235753379694]",10000000000.0,0.04064679145812988
4,9.068962097167969,-352.7303161621094,77.488525390625,50.03073501586914,0.6026259064674377,0.03723943606019008,-0.9437193115565438,23.139373239532475,"array('d', [79.82512664794922, 77.82289019247176, 75.78855213899054, 73.73158652741253, 71.65935852358244, 69.57772454629189, 67.49093266227706, 65.40190036849819, 63.31256238839977, 61.224128503837136, 59.13728050435816, 57.05233021029208, 54.96934719414639, 52.88825943375335, 50.80892808228875, 49.52515299755903])","array('d', [-354.26544189453125, -352.77118636580684, -351.31980029484794, -349.8999902272847, -348.50214316821666, -347.1180944186122, -345.74168269835224, -344.3685789934894, -342.99588050802276, -341.6217682693896, -340.24522335775623, -338.8657887684107, -337.48337360941923, -336.09809869584814, -334.7101827086069, -333.8505032056063])","array('d', [-50.049007415771484, -49.96024643657795, -49.891357619757656, -49.83724499256849, -49.79426496881712, -49.75976003915186, -49.73175788082167, -49.70877345330433, -49.689676141775735, -49.67359855215362, -49.65987275212836, -49.64798513370062, -49.637544228508176, -49.62825769808432, -49.61991587481926, -49.61525854808802])","array('d', [0.6322638392448425, 0.4973555781317952, 0.3752855245327494, 0.2648319627303759, 0.1648894436531693, 0.09043973057394228, 0.03817188655146868, 0.0032022599233089612, -0.018578866448108453, -0.03065205691520329, -0.03593420885151513, -0.03681242620443792, -0.03516596233327211, -0.03238297343608406, -0.02937347380765027, -0.02657822060344433])","array('d', [-0.04017387703061103, -0.031003070303609777, -0.024228085625890752, -0.019150153505820323, -0.015299811896048924, -0.012354157460512645, -0.01008588161928071, -0.008331193331753724, -0.006969520930086022, -0.005910309665884258, -0.00508416743207566, -0.004436763221851477, -0.003924530299023736, -0.003511599625946354, -0.0031676097999306526, -0.002866172432970546])","array('d', [-0.9166218479487558, -0.9414785132866186, -0.9597550924965411, -0.9727360202590802, -0.9812725798685359, -0.9862871404647796, -0.988797386366166, -0.9895978955359783, -0.9892890591775588, -0.9883189875784452, -0.9870103483227706, -0.985582141665264, -0.9841698549334106, -0.9828449517139278, -0.9816338900181568, -0.9798586242790736])",71.65935852358244,-348.50214316821666,-49.79426496881712,0.1648894436531693,-0.015299811896048924,-0.9812725798685359,25.000000240496075,-1.0,"[-351.85075580247945, 76.27474832264039, 49.97488877156898]","[-333.60262047456524, 69.93961786022624, 44.79109874126088]","[-349.78631471435995, 59.92947950796304, 38.63600565330641]",10000000000.0,0.03492474555969238
5,9.106953382492065,-351.98687744140625,76.30339813232422,50.024559020996094,0.5508659482002258,0.03213793784379953,-0.9571077068659922,23.170106568544444,"array('d', [79.44097900390625, 77.43176438744646, 75.3906509903379, 73.32705823316945, 71.24830558532437, 69.16021200613305, 67.06700113963286, 64.9715739671717, 62.87585388577408, 60.781043313855655, 58.68781959792069, 56.59649216407331, 54.50712953209611, 52.41965941833383, 50.333943104356074, 49.046128774595736])","array('d', [-354.0063781738281, -352.5215214323731, -351.07968584148534, -349.6695323783778, -348.2814131921263, -346.9071345997653, -345.54050864520707, -344.1771869931911, -342.81425450547175, -341.4498850339554, -340.0830562381726, -338.7133102908595, -337.34055713170505, -335.96491931965454, -334.5866176470012, -333.7328029126342])","array('d', [-50.04592514038086, -49.957119331475305, -49.88809089240111, -49.83379045379381, -49.79060307420585, -49.7558884483896, -49.72768413693804, -49.704510315776226, -49.68523865791771, -49.66900227561483, -49.65513271585767, -49.643115313852206, -49.63255732198749, -49.623165095196676, -49.6147277493361, -49.61001668798607])","array('d', [0.6322684288024901, 0.49735973093510333, 0.37528928214367696, 0.2648353627533002, 0.16489251977845315, 0.09033609188206082, 0.03799906915594828, 0.0029890873447243394, -0.018810714524129173, -0.030886947780328293, -0.036161601498491354, -0.03702595140183903, -0.03536251789051042, -0.032561838696012084, -0.029535447506464245, -0.026724780480126328])","array('d', [-0.040166556835174554, -0.031045445306536076, -0.024297007470574124, -0.01923131193100163, -0.015384503893944789, -0.01243726496422149, -0.010164580429981302, -0.008404112345923042, -0.007036187412142218, -0.005970783302599986, -0.005138800767270748, -0.004486047177675439, -0.0039689968728242086, -0.0035517625308611037, -0.003203929514987877, -0.002899035873112001])","array('d', [-0.92130724986526, -0.9461641562196024, -0.9644409246130192, -0.9774220083198005, -0.9859587010593329, -0.9909712267823166, -0.9934760040143044, -0.9942689231397774, -0.9939513484393265, -0.9929721126583518, -0.9916543956868938, -0.9902175312390445, -0.9887971937940713, -0.987464922155186, -0.9862471723124333, -0.9844622386970164])",71.24830558532437,-348.2814131921263,-49.79060307420585,0.16489251977845315,-0.015384503893944789,-0.9859587010593329,25.000000240353454,-1.0,"[-351.43655137685755, 75.59651386738928, 49.9748142763079]","[-333.2491422302425, 68.97876621055913, 44.93263573086331]","[-349.52308614091226, 58.93088049736003, 39.08466665717085]",10000000000.0,0.03636455535888672
6,9.148808717727661,-351.5001525878906,75.5077896118164,50.02494812011719,0.504759132862091,0.02782736346125596,-0.9662892063471933,23.186038129539874,"array('d', [78.2728271484375, 76.24398578360079, 74.18448185846643, 72.10342113238713, 70.00789723725676, 67.9035619541376, 65.79452708347938, 63.68361589506683, 61.572695284291186, 59.46292574977709, 57.35495291705048, 55.24906163825245, 53.14530081933993, 51.04358194745471, 48.94375235210277, 47.64707937131501])","array('d', [-353.2351379394531, -351.7770974725406, -350.3615969837166, -348.9773234340351, -347.61464085403753, -346.2653576197631, -344.92327872511316, -343.5840566504235, -342.2447879749223, -340.9036668232432, -339.559696976478, -338.2124500040923, -336.8618663524627, -335.508098553294, -334.1513957265562, -333.3105818453364])","array('d', [-50.03639602661133, -49.94941117851595, -49.881516063666204, -49.82790099376246, -49.785107910076974, -49.750599998247836, -49.72248334498362, -49.699323488156566, -49.68002200664176, -49.66373157243731, -49.64979635847692, -49.63770967441723, -49.627083617175586, -49.617627263732466, -49.60913099174754, -49.60438601334256])","array('d', [0.6225727796554565, 0.48858674400019614, 0.3673511545771143, 0.25765264724536097, 0.15839332888871255, 0.08422611702462815, 0.03228649792897709, -0.002317378095973967, -0.023708108362905714, -0.035380301165219875, -0.04026389175720108, -0.04075681899611452, -0.03874644193050603, -0.035626168157527574, -0.03230847575170562, -0.029233920424850176])","array('d', [-0.03926757723093023, -0.030481149288041375, -0.02395065982142222, -0.019026866519833614, -0.015271932104965625, -0.012383468763945063, -0.010147630786463451, -0.00840951706504604, -0.0070544281767422915, -0.005995674033964899, -0.005166389206873681, -0.004513880933982768, -0.003995635839390709, -0.003576457678626669, -0.0032264124429578437, -0.0029193792694262007])","array('d', [-0.9348730285975595, -0.959223753741723, -0.977102417190752, -0.9897548840428605, -0.9980107356117763, -1.002772018723076, -1.0050440466127755, -1.0056208152331092, -1.0051031444066707, -1.003939655506558, -1.0024532046975763, -1.000862546589903, -0.9993025289909281, -0.9978436869100111, -0.9965113822585883, -0.994559114936406])",70.00789723725676,-347.61464085403753,-49.785107910076974,0.15839332888871255,-0.015271932104965625,-0.9980107356117763,25.0000002399225,-1.0,"[-350.8847811671292, 74.67646365429873, 49.97910205922893]","[-332.7813597151236, 67.62611956200563, 45.22949366365245]","[-349.17667993645307, 57.496835498579564, 39.88243099313075]",10000000000.0,0.035781145095825195
7,9.210039377212524,-350.7782287597656,74.29954528808594,50.03685760498047,0.4252303242683411,0.02013832703232766,-0.980109854540553,23.215157489839363,"array('d', [77.488525390625, 75.44750796899424, 73.3775050184519, 71.2872143158529, 69.18345926699942, 67.07170551326891, 64.95593842689502, 62.83889158330526, 60.7223636844093, 58.60746024578924, 56.49478055863596, 54.384569200694116, 52.27683934425521, 50.17147035424688, 48.06828045515118, 46.76964515948975])","array('d', [-352.7303161621094, -351.28910015472337, -349.88883654590944, -348.5184415548259, -347.16843984298436, -345.8307582669993, -344.4992929773231, -343.1697750527989, -341.8393746471246, -340.506356627859, -339.1697926252647, -337.82931841171325, -336.4849342663997, -335.1368477514361, -333.7853581059693, -332.9473654414906])","array('d', [-50.03073501586914, -49.94814960396862, -49.883537019932035, -49.83240983107494, -49.791530429203405, -49.75851589865368, -49.73158170638662, -49.70937233873622, -49.69084709350099, -49.67520126873752, -49.6618107279356, -49.65019238285222, -49.63997580662143, -49.63088278409221, -49.62271257397275, -49.61814931086254])","array('d', [0.6026259064674377, 0.47053806513440544, 0.3510200331168333, 0.24287563613531027, 0.14502253511378216, 0.07207067310732344, 0.021218169749262, -0.01239266624214911, -0.032868823314414645, -0.04369798364695323, -0.047806623908023586, -0.04759008064121321, -0.04493284071873025, -0.04122483374538618, -0.03737447824140939, -0.03381782945243511])","array('d', [-0.03723943606019008, -0.02897890604317339, -0.022819746173334602, -0.018162584073180867, -0.014601812788967812, -0.011856386641131693, -0.009726911803688143, -0.00806848379022114, -0.006773452630658899, -0.0057601925068016336, -0.004965547799164207, -0.0043396037880939755, -0.003841981296089946, -0.0034391724143894, -0.003102621648829615, -0.002807368716844935])","array('d', [-0.9437193115565438, -0.9670467981547276, -0.9841159253898726, -0.9960973462683124, -1.0037779550019543, -1.0080318992474968, -1.009847271867473, -1.0100094446221546, -1.0091145260774272, -1.0076079866359164, -1.0058100623799093, -1.0039370293464, -1.002121304051517, -1.0004310579706832, -0.998889405326868, -0.9966309469551582])",69.18345926699942,-347.16843984298436,-49.791530429203405,0.14502253511378216,-0.014601812788967812,-1.0037779550019543,25.000000239634492,-1.0,"[-350.17640449556944, 73.46138200749586, 49.997154314204806]","[-332.18901221856726, 65.78606238561008, 45.80869543591354]","[-348.7447716498725, 55.53621101209056, 41.24280270025862]",10000000000.0,0.05332469940185547
8,9.254892587661743,-350.304443359375,73.4905014038086,50.05339431762695,0.36926680803298956,0.01479345187544817,-0.9889077385279798,23.2315305707777,"array('d', [76.30339813232422, 74.24485270663519, 72.16107384008458, 70.05989439776332, 67.94757472441484, 65.82920064844278, 63.70849791582253, 61.588012755180436, 59.46939699243755, 57.35363255235603, 55.241209776387784, 53.13227467072231, 51.02675015761251, 48.92443267258361, 46.825064290540666, 45.529300877616315])","array('d', [-351.98687744140625, -350.5701768198805, -349.1901068225637, -347.83622138335795, -346.49950427950154, -345.17223087769503, -343.84857490424696, -342.5245035708068, -341.19740040597065, -339.8657283209706, -338.5287431570791, -337.1862507058945, -335.8384066641996, -334.4855595549983, -333.12813584069556, -332.2855904351656])","array('d', [-50.024559020996094, -49.95317878997438, -49.89716551695186, -49.85273731650565, -49.81714807013178, -49.7883650681774, -49.76485837860602, -49.74546079023532, -49.72927281800395, -49.715596773839785, -49.70389013051563, -49.693732096950015, -49.68479948938637, -49.67684927504164, -49.6697059474077, -49.66571606958703])","array('d', [0.5508659482002258, 0.4237037139027452, 0.3086425558431895, 0.2045309055587371, 0.11032678535311848, 0.04067067967742169, -0.007261685358374973, -0.03823347543512219, -0.05630446205810335, -0.06493744231582053, -0.06704326429859024, -0.06500449879793957, -0.0606931069935304, -0.055486074820102725, -0.050278664624565234, -0.04549402119843737])","array('d', [-0.03213793784379953, -0.02509167259835881, -0.01981084249630766, -0.015800512847991062, -0.012723192830867416, -0.010343422027035422, -0.008493076701687306, -0.007049237033367776, -0.005920068599535961, -0.005035576645536987, -0.0043413533709120876, -0.003794223095196086, -0.0033591362719518694, -0.0030069215510035623, -0.002712657236978283, -0.0024545142936583777])","array('d', [-0.9571077068659922, -0.9778840699762493, -0.9929072953193967, -1.0031762748031872, -1.0093784672033395, -1.0123249631004796, -1.0129649418403865, -1.0120619586880037, -1.0101997629384671, -1.0078152276949666, -1.005221307682799, -1.0026274287868415, -1.0001594023729719, -0.9978791043011428, -0.9958037680207615, -0.99276462152521])",67.94757472441484,-346.49950427950154,-49.81714807013178,0.11032678535311848,-0.012723192830867416,-1.0093784672033395,25.000000239188687,-1.0,"[-349.71096001685754, 72.64595966383298, 50.018050790051376]","[-331.80138092983765, 64.56332670748822, 46.28736433595349]","[-348.45968323107496, 54.2487970299005, 42.273458261970895]",10000000000.0,0.03678297996520996
9,9.30079698562622,-349.6023864746094,72.27326202392578,50.092857360839844,0.28780058026313776,0.008605732582509436,-1.0007340153071544,23.246500733333647,"array('d', [75.5077896118164, 73.43767424237654, 71.34536601279467, 69.23804446295938, 67.12154207784803, 65.00065629943236, 62.87891508056699, 60.75871921785796, 58.641603051363795, 56.52844633020596, 54.41964660853408, 52.31526395361821, 50.21514126318467, 48.119000599918024, 46.026515257551516, 44.73553309752173])","array('d', [-351.5001525878906, -350.0999414197329, -348.7325442395325, -347.3880537844619, -346.0578508289971, -344.73451794028176, -343.4124769041943, -342.0879088135824, -340.7583918423155, -339.42256968733875, -338.079865849105, -336.73024013099445, -335.37398827899506, -334.011585214355, -332.6435710116212, -331.79373594740395])","array('d', [-50.02494812011719, -49.963079077055625, -49.91443416801309, -49.87579266205767, -49.84480426711321, -49.81972183931549, -49.79922561988773, -49.78230571424327, -49.76818197340054, -49.7562481115302, -49.746031985319725, -49.73716699674166, -49.72937136539332, -49.72243308078333, -49.71619898837751, -49.712716986984525])","array('d', [0.504759132862091, 0.3819845383850148, 0.2708934813729344, 0.17037412740025143, 0.07942045188295675, 0.012680192652018172, -0.03265523022583101, -0.06127319956825871, -0.07719620742051911, -0.0838674754465328, -0.08418509348971849, -0.08052051541267881, -0.07473428753794462, -0.06819139998860185, -0.06177494435370908, -0.05589628620744594])","array('d', [-0.02782736346125596, -0.021773982535798642, -0.017220397096650696, -0.013751915161363705, -0.011083949794496886, -0.009016816401300325, -0.007407196129333062, -0.006149808227564629, -0.005165662417000327, -0.004394330834198781, -0.0037886961254814393, -0.0033112739571456605, -0.002931575342273992, -0.0026241872952007827, -0.0023673759101563285, -0.0021420908013866165])","array('d', [-0.9662892063471933, -0.9849041859163092, -0.9981637257965694, -1.0069379445829676, -1.0118377884589491, -1.0136248666404502, -1.0132180359801752, -1.0113642899746331, -1.0086378762936923, -1.0054687480744293, -1.0021636701535834, -0.9989260248059205, -0.9958756888912663, -0.9930688458721515, -0.9905174109979602, -0.9867818754358186])",67.12154207784803,-346.0578508289971,-49.84480426711321,0.07942045188295675,-0.011083949794496886,-1.0118377884589491,25.00000023886835,-1.0,"[-349.48012952848853, 72.23749927286983, 50.03120494917768]","[-331.608425745716, 63.96386803940039, 46.54563037482232]","[-348.3151208248995, 53.62355337126069, 42.808755732150935]",10000000000.0,0.041146278381347656
10,9.349111318588257,-349.1388244628906,71.46034240722656,50.127906799316406,0.2382647395133972,0.005478232167661114,-1.007360382876124,23.25569449637374,"array('d', [74.29954528808594, 72.2124648112346, 70.1080287476373, 67.99246567271817, 65.87097618462961, 63.74792925449933, 61.62655924452853, 59.5090460579821, 57.39673894497325, 55.290350885266065, 53.1901235973347, 51.09596981469584, 49.00759333032609, 46.924585766955815, 44.84649910099025, 43.565398450997556])","array('d', [-350.7782287597656, -349.4027463396147, -348.05366039386405, -346.72190496664643, -345.39949747066083, -344.0795232842958, -342.7568142553636, -341.42791392745534, -340.090737494174, -338.7442453852716, -337.38815630120854, -336.02270140245787, -334.6484227506028, -333.26601690238914, -331.8762224650562, -331.0116739556736])","array('d', [-50.03685760498047, -49.992002172358404, -49.95660613987322, -49.928404490126525, -49.90573111613061, -49.88733912987873, -49.87228140548614, -49.859829934998714, -49.849420358884544, -49.84061293802902, -49.8330645747171, -49.826508502868435, -49.82073945370325, -49.81560280928076, -49.81098668205261, -49.80840838340581])","array('d', [0.4252303242683411, 0.31002389004749514, 0.20578078824250223, 0.11145772094303538, 0.0261106779528099, -0.03573260089149188, -0.07665601471434677, -0.1012410468342283, -0.113462297946773, -0.1167401343425369, -0.11395759660015407, -0.10747107969611797, -0.0991236123246652, -0.09026043129585111, -0.08174387611237396, -0.0739649244969126])","array('d', [-0.02013832703232766, -0.015820010476612363, -0.012552286205881157, -0.010051240240314336, -0.008119928413329317, -0.006618835776629515, -0.0054469662688502105, -0.004529555795908706, -0.0038101307051723317, -0.003245244018343487, -0.0028008688641710452, -0.0024498502957858363, -0.0021700605584649433, -0.001943044920804365, -0.0017530287926918724, -0.001586206491999262])","array('d', [-0.980109854540553, -0.9951986109089415, -1.0055228025253402, -1.011772891290357, -1.014449838380898, -1.0142407521351624, -1.0120196162809678, -1.0085117525363323, -1.004278915969333, -0.9997412010920643, -0.9951956495617172, -0.9908355143723687, -0.9867703852509151, -0.9830464269833055, -0.979666145066109, -0.9747185862519727])",65.87097618462961,-345.39949747066083,-49.90573111613061,0.0261106779528099,-0.008119928413329317,-1.014449838380898,25.00000023834686,-1.0,"[-348.4651645801563, 70.42160602351566, 50.108153761675084]","[-330.7437107179743, 61.47162548743298, 47.68990617007135]","[-347.6325491580908, 51.070470315047395, 45.12414951294265]",10000000000.0,0.04225969314575195
11,9.408495426177979,-348.4430847167969,70.23548889160156,50.19601058959961,0.1735742837190628,0.002287468640133664,-1.0160605152461193,23.266823347627188,"array('d', [73.4905014038086, 71.39288830165016, 69.28107709336935, 67.1607377706805, 65.03669374915468, 62.91305661045282, 60.79288545439546, 58.678224487268054, 56.57030390970435, 54.46972492543282, 52.37662154444047, 50.290802542869315, 48.211872268791794, 46.13932834013937, 44.072634870437525, 42.799309827643306])","array('d', [-350.304443359375, -348.9447235932005, -347.6069907071177, -346.28271324491556, -344.9643240080586, -343.6452430027231, -342.3205768570242, -340.9871189571435, -339.6430227399855, -338.2874756814487, -336.920409401503, -335.54225103195375, -334.15372023392547, -332.75567286482305, -331.34898968584486, -330.4731361199333])","array('d', [-50.05339431762695, -50.02038697347905, -49.99424468943024, -49.97334381922557, -49.95648377249293, -49.94276215792485, -49.931491133634744, -49.92214054914255, -49.91429859045518, -49.907643916833415, -49.901925557144686, -49.89694822011007, -49.89256149090601, -49.88865187340097, -49.88513693034202, -49.883173575294656])","array('d', [0.36926680803298956, 0.2593860019304134, 0.1599617281576065, 0.06999891716536487, -0.011402802819248999, -0.06991556860025408, -0.10779556540734835, -0.12956908736158154, -0.13919045592276535, -0.14007322035098857, -0.1350959477753566, -0.12660820628582745, -0.11644281259689354, -0.10593212977297227, -0.09592426423702502, -0.08679587143614098])","array('d', [-0.01479345187544817, -0.011665383645817734, -0.009288480972878198, -0.007462867029372146, -0.006048862021745718, -0.004946868646806566, -0.004084369726366973, -0.003407408444260005, -0.002875049615177438, -0.0024556912913443647, -0.0021245249424493404, -0.0018617312147826673, -0.001651166563711209, -0.0014793941997939667, -0.0013349704364172127, -0.0012079316144026973])","array('d', [-0.9889077385279798, -1.0016393586672268, -1.0099629077697643, -1.014468000510557, -1.0155919578186965, -1.0139759698394835, -1.0104671522286817, -1.0057806518890409, -1.0004723700655593, -0.994957032756989, -0.9895255369302018, -0.9843641883092407, -0.9795752473026015, -0.9751976242270436, -0.9712269746827766, -0.9654164743378489])",65.03669374915468,-344.9643240080586,-49.95648377249293,-0.011402802819248999,-0.006048862021745718,-1.0155919578186965,25.000000237982174,-1.0,"[-348.33769521780636, 70.19222395513549, 50.1196894921667]","[-330.6329284977638, 61.175665031328585, 47.82995139308361]","[-347.54117452564486, 50.773693683138376, 45.398859389050266]",10000000000.0,0.04751992225646973
12,9.438555240631104,-347.9811096191406,69.41949462890625,50.246665954589844,0.13684706389904025,0.0014037874061613544,-1.0211192806574965,23.27169801820355,"array('d', [72.27326202392578, 70.16184575265243, 68.04053394702392, 65.91432052602738, 63.78756559860015, 61.664063360612666, 59.54666005502657, 57.43722912013224, 55.336842087709094, 53.24594396596966, 51.16451327269815, 49.0922056178645, 47.02847704574957, 44.972683999470526, 42.92415811151332, 41.66318492180772])","array('d', [-349.6023864746094, -348.26391747166514, -346.94112503115116, -345.62618888422423, -344.3121082096831, -342.99276733755715, -341.6636551633927, -340.32192299187926, -338.96607463509923, -337.59563617703446, -336.21085862950673, -334.8124633242899, -333.40143597027645, -331.97887017592285, -330.54585793618384, -329.65248340231096])","array('d', [-50.092857360839844, -50.07356529228202, -50.05812246332294, -50.04563836296484, -50.0354501466471, -50.02705698665075, -50.02007558156965, -50.01420961982671, -50.009228460570355, -50.004951902815954, -50.00123907895881, -49.99798023326676, -49.995090575828726, -49.992505658969286, -49.99017787840461, -49.98887724094027])","array('d', [0.28780058026313776, 0.18567230406494928, 0.09326281006729809, 0.009647234859138763, -0.06601126911352276, -0.11986147298669693, -0.15341197988150113, -0.17113752181865957, -0.1769838198199878, -0.17436935992237862, -0.16617618875454454, -0.15475018822073955, -0.1419128810265905, -0.1289796767740115, -0.1167786531769271, -0.10566570458779104])","array('d', [-0.008605732582509436, -0.006857245517796751, -0.005519414706235647, -0.004485160853718799, -0.003678885188998015, -0.0030462097565009984, -0.0025472452939485713, -0.0021521198720105233, -0.001838049468875369, -0.0015873800458725, -0.0013862355997181705, -0.001223555500035989, -0.001090392373269274, -0.0009793931555992625, -0.0008844159639037102, -0.0008002530322598751])","array('d', [-1.0007340153071544, -1.0101744635585783, -1.0156561100248926, -1.0176507351174406, -1.0165192655524455, -1.0128432321231347, -1.0074362826997902, -1.0010060024735137, -0.9941040446333749, -0.9871395704930045, -0.9803954591531946, -0.9740480453944644, -0.9681886615106504, -0.9628452427633369, -0.958003041414053, -0.9509193122052878])",63.78756559860015,-344.3121082096831,-50.0354501466471,-0.06601126911352276,-0.003678885188998015,-1.0165192655524455,25.000000237437114,-1.0,"[-347.6596634978817, 68.97240575459534, 50.19184618110137]","[-330.0355459072656, 59.66793139725465, 48.51338376396919]","[-347.03547722499474, 49.28481875691206, 46.72640108625546]",10000000000.0,0.025416135787963867
13,9.469067335128784,-347.9811096191406,69.41949462890625,50.246665954589844,0.13684706389904025,0.0014037874061613544,-1.0211192806574965,23.27169801820355,"array('d', [71.46034240722656, 69.34137871547782, 67.21500303963643, 65.0858642540332, 62.9580833924467, 60.835291074212314, 58.720226786889725, 56.61467452281362, 54.519616823984244, 52.43540651324858, 50.36192733795136, 48.298739787724145, 46.24520683962414, 44.20059584748186, 42.16415459959736, 40.91136623853432])","array('d', [-349.1388244628906, -347.812246728652, -346.4975542097683, -345.1873257909942, -343.8748863008388, -342.5543914999835, -341.22155371158414, -339.87373962720505, -338.5096693317972, -337.12908060216034, -335.73242508043984, -334.32060890010166, -332.89478443038587, -331.456193596454, -330.00605954740433, -329.1013519464661])","array('d', [-50.127906799316406, -50.11554037741413, -50.10548283993292, -50.09721198025678, -50.090338261344165, -50.08456696639694, -50.07967237324599, -50.075479943963764, -50.0718538472911, -50.068688002171676, -50.06589949125702, -50.06342361544817, -50.06121011417033, -50.05922022947152, -50.05742438678511, -50.05642051466994])","array('d', [0.2382647395133972, 0.14085041776170013, 0.05270628651816856, -0.02704982852936968, -0.0992161488386097, -0.15034447475563387, -0.18132451167315647, -0.1966164302786878, -0.20017335427375318, -0.19542590186850375, -0.1852644167700471, -0.1720364113926613, -0.15755874930141373, -0.14313763345565178, -0.12958938804957582, -0.11725733790264975])","array('d', [-0.005478232167661114, -0.0044323927410298055, -0.0036270930903344323, -0.003000066813017623, -0.002507138278511413, -0.002116419729343377, -0.001804461358857899, -0.001553667359689292, -0.0013505985654858894, -0.0011848433142324347, -0.0010482446001243257, -0.0009343562388674943, -0.0008380515542372664, -0.0007552378581846551, -0.0006826473604816414, -0.000617685233734416])","array('d', [-1.007360382876124, -1.0148621633622081, -1.0186450279072226, -1.0191225942542887, -1.0166171574652525, -1.0116771141568757, -1.0050984857346343, -0.9975883996390372, -0.9896983892614508, -0.981835498965078, -0.9742782042329143, -0.9671967814604887, -0.9606756923822088, -0.9547358931294413, -0.9493560072929338, -0.9414873091342081])",62.9580833924467,-343.8748863008388,-50.090338261344165,-0.0992161488386097,-0.002507138278511413,-1.0166171574652525,25.000000237094653,-1.0,"[-347.4251449251445, 68.55034408930321, 50.21837046148226]","[-329.8258543696147, 59.16753637606173, 48.725758201590985]","[-346.85337100442604, 48.79716139841057, 47.13862239324586]",10000000000.0,0.02540445327758789
14,9.503933191299438,-347.2893981933594,68.19684600830078,50.32731628417969,0.09003286808729168,0.0023366019595413754,-1.0282210548731943,23.277030860412285,"array('d', [70.64370727539062, 68.51790058712035, 66.3868478636497, 64.25492164846956, 62.12604977891401, 60.003730850993314, 57.89062099935504, 55.7884320296196, 53.69807069764527, 51.61980842003317, 49.55344347441801, 47.498449579195345, 45.45410430976037, 43.41959303107615, 41.39408626485953, 40.14870616245213])","array('d', [-348.6745300292969, -347.3589021155976, -346.0517774833213, -344.7460733303515, -343.4353951787671, -342.1141351629754, -340.77819923837166, -339.42514530884, -338.05388965930047, -336.66436426273253, -335.25720567246134, -333.83349049056017, -332.3945246111337, -330.9416862310513, -329.47631861502236, -328.5615155470546])","array('d', [-50.172119140625, -50.165036756886224, -50.159056737265765, -50.153943041126844, -50.14952039009511, -50.14565685117415, -50.142251897153706, -50.13922817873536, -50.13652578408982, -50.13409811586675, -50.13190881675956, -50.12992938100888, -50.12813721846251, -50.1265140198149, -50.12504432563954, -50.12422219010654])","array('d', [0.19381201267242426, 0.10062792353875544, 0.0163114653989527, -0.059981227498337175, -0.12901371409721676, -0.1777864273505389, -0.20650897205617663, -0.2196400782121879, -0.22114864707313614, -0.21448299936671916, -0.20254567303484547, -0.18768871932843953, -0.17172665894328065, -0.15595842094715964, -0.1411902206497792, -0.1277542062701038])","array('d', [-0.003085254225879843, -0.002588939859314427, -0.002201542935197578, -0.0018945382550052015, -0.00164770210959463, -0.0014464869037700934, -0.001280250290004447, -0.0011410471985415273, -0.0010228408375805224, -0.0009209930529394735, -0.0008319321544817665, -0.000752934437091253, -0.0006819793824273024, -0.0006176527137901497, -0.0005590798002880007, -0.0005058766715983463])","array('d', [-1.0133990486476083, -1.0191912183677603, -1.021461868108934, -1.0205795298342526, -1.0168360761857136, -1.0107514107349693, -1.0031070473459052, -0.9946125023206387, -0.9858209059547014, -0.9771382837404664, -0.9688394794846917, -0.9610893202196552, -0.9539659251935815, -0.9474837536488546, -0.9416152492576205, -0.9330336770054708])",62.12604977891401,-343.4353951787671,-50.14952039009511,-0.12901371409721676,-0.00164770210959463,-1.0168360761857136,25.000000236753525,-1.0,"[-347.1974925778614, 68.14045596697036, 50.24456027417219]","[-329.6221379704724, 58.68809505795865, 48.917991892852]","[-346.6759867962842, 48.334271755393594, 47.5163559752113]",10000000000.0,0.03162240982055664
15,9.54188060760498,-347.05889892578125,67.78972625732422,50.35482406616211,0.07634503394365307,0.002962253056466524,-1.0304712494227548,23.279174695289196,"array('d', [70.23548889160156, 68.10669938676187, 65.97363159304716, 63.84054264943226, 61.71127943689058, 59.58928550707217, 57.4771833093395, 55.37665452134282, 53.288572716494016, 51.21317258403827, 49.150213197588776, 47.09912812731274, 45.05915526179991, 43.02944178849279, 41.00912222190515, 39.767250106454895])","array('d', [-348.4430847167969, -347.1322787087603, -345.8284390083732, -344.5246319160699, -343.2145881289105, -341.892805943619, -340.5552779498793, -339.1996489484733, -337.82492558742564, -336.4311298360895, -335.0189841114189, -333.5896441392335, -332.144486947883, -330.68495372094503, -329.2124430929232, -328.2929161815787])","array('d', [-50.19601058959961, -50.190680369393704, -50.18603378685457, -50.181934170202254, -50.17828111758438, -50.17499988448073, -50.172034108915334, -50.16934083266498, -50.16688706696155, -50.164647337795074, -50.16260182998758, -50.16073488574871, -50.15903370318307, -50.15748714013981, -50.156084570640616, -50.15529970919475])","array('d', [0.1735742837190628, 0.08231606746662913, -0.0002577886714490242, -0.07497370993594506, -0.14257947465449142, -0.19030589841924928, -0.21801532223050912, -0.2301693827460609, -0.23074699751971847, -0.2232066562786751, -0.21045789956724656, -0.19485576341990204, -0.1782142319259752, -0.16182919270749496, -0.14650236813356865, -0.1325608365187675])","array('d', [-0.002287468640133664, -0.00198180972988967, -0.0017395006135113706, -0.0015434644260657725, -0.001381677609852104, -0.001245579983342249, -0.0011289860239309616, -0.0010273311791469824, -0.0009371854908043028, -0.0008559531827316166, -0.0007816920548550684, -0.0007130092283850382, -0.0006490046416776865, -0.0005892428086164409, -0.000533738761130032, -0.00048294714910489424])","array('d', [-1.0160605152461193, -1.0210818777720398, -1.022666614248059, -1.0211646941743682, -1.0168553335654804, -1.0102457801644766, -1.0021113202398084, -0.9931634238043743, -0.9839564715162739, -0.9748962850409697, -0.9662561361238353, -0.9581983486239932, -0.9507980836180425, -0.9440667579220697, -0.9379739214544361, -0.929065209743947])",61.71127943689058,-343.2145881289105,-50.17828111758438,-0.14257947465449142,-0.001381677609852104,-1.0168553335654804,25.000000236591863,-1.0,"[-346.2872801319992, 66.503419647873, 50.350380693075806]","[-328.80201636962045, 56.826744271827394, 49.55822867062168]","[-345.9527711623034, 46.56454203975352, 48.82418821582256]",10000000000.0,0.03214883804321289
16,9.5969820022583,-346.3681335449219,66.57290649414062,50.437904357910156,0.03835377469658851,0.005593218374997314,-1.0368658741328383,23.282232187544807,"array('d', [69.41949462890625, 67.28501914904015, 65.14799897356639, 63.0124944603513, 60.88221369359422, 58.76050609273466, 56.64993859044308, 54.55214199716781, 52.467931560249596, 50.397475867830494, 48.340462552608564, 46.29625156636306, 44.264007810381216, 42.24280817088332, 40.23172082581872, 38.996103547594174])","array('d', [-347.9811096191406, -346.67957407440576, -345.3822177607632, -344.08236899161227, -342.773980652501, -341.45174042676996, -340.1117943517876, -338.751943776485, -337.37136066477893, -335.97023291980213, -334.549441809147, -333.11028956397445, -331.65428484257535, -330.1829852109327, -328.69789141476514, -327.77001937285326])","array('d', [-50.246665954589844, -50.24324901502309, -50.24000504437175, -50.23692034675039, -50.23398776125543, -50.2312041137009, -50.22856851772841, -50.226081319876116, -50.223743482062595, -50.221556183081915, -50.219520469014725, -50.21763684073126, -50.21590471370837, -50.21432172257005, -50.21288287307798, -50.21207731565955])","array('d', [0.13684706389904025, 0.04908390170168308, -0.030327498465779625, -0.10218191098773666, -0.16719847566333684, -0.2130778794390442, -0.23897868644284653, -0.24937412141474244, -0.24826647483781386, -0.23913668164181986, -0.22490983181213775, -0.20794825812937817, -0.19006612528912403, -0.1725544468051047, -0.15620709701824229, -0.1413420391405849])","array('d', [-0.0014037874061613544, -0.0013309796507999354, -0.0012652933522824825, -0.0012034962465465866, -0.001143572315990471, -0.0010843343739047344, -0.0010251304150729096, -0.0009656209136908348, -0.0009056500264475252, -0.0008451978285446176, -0.0007843880193549269, -0.0007235299702570977, -0.0006631785294440322, -0.0006041983625966441, -0.0005478217618397842, -0.0004956899762581651])","array('d', [-1.0211192806574965, -1.0247511984266764, -1.0250934098350035, -1.0224650111463192, -1.0171239851520784, -1.0095547788377823, -1.000521776660506, -0.9907415106806665, -0.9807715734910263, -0.9710179021256525, -0.9617510822931193, -0.9531288728864863, -0.9452209520945595, -0.9380330703443793, -0.9315293841734733, -0.9220218487830752])",60.88221369359422,-342.773980652501,-50.23398776125543,-0.16719847566333684,-0.001143572315990471,-1.0171239851520784,25.000000236265457,-1.0,"[-346.0595542932106, 66.09483558244858, 50.37678176838317]","[-328.59528166592236, 56.37193872309278, 49.695270020810995]","[-345.7681037827537, 46.13703804800369, 49.111327630905386]",10000000000.0,0.0475001335144043
17,9.654818773269653,-345.6781921386719,65.3635025024414,50.5191650390625,0.0011532690841704453,0.008411877788603243,-1.0422100265833996,23.284313134585936,"array('d', [68.60418701171875, 66.46424444770992, 64.32325845417667, 62.185128105912334, 60.05344690385982, 57.93148684428013, 55.82177181038479, 53.72589197507179, 51.64461343014928, 49.578047380206776, 47.52581849813524, 45.48722137701641, 43.461355897438686, 41.447236226826384, 39.44387132931718, 38.21350639050512])","array('d', [-347.5198974609375, -346.22737200356227, -344.93657359246924, -343.6410521589482, -342.3349508052325, -341.01312017287637, -339.67183672237525, -338.30903794148935, -336.9240425805066, -335.5171874394193, -334.08949700689413, -332.64240580014234, -331.1775412824541, -329.6965659022971, -328.20107222691234, -327.26626155520387])","array('d', [-50.30001449584961, -50.2955719110295, -50.29139390512624, -50.28745332895552, -50.283733112773994, -50.28022263414293, -50.276915281449746, -50.27380691270936, -50.27089492435729, -50.268177638132556, -50.265653780438, -50.263321907214014, -50.261179689272616, -50.25922302065637, -50.25744495049692, -50.25644953564021])","array('d', [0.10456430912017818, 0.019873254572979657, -0.056758387391494636, -0.1260975704617594, -0.1888382615044436, -0.23315513302222288, -0.2575019411859952, -0.2663691655747141, -0.26378559060924117, -0.2532565206048198, -0.23772405964354865, -0.2195591985672464, -0.20057766226121382, -0.18206698155048856, -0.1648145251183759, -0.1491303628638081])","array('d', [-0.0018342849798499716, -0.001721663465423831, -0.0016223987159654633, -0.001531578558053377, -0.0014460227003131709, -0.001363733843731338, -0.0012834877235663887, -0.001204525140005864, -0.0011263698335514407, -0.0010487543358701943, -0.0009716189172800058, -0.0008951554786746055, -0.000819874899809581, -0.0007466811582514712, -0.00067693852693511, -0.00061251966709969])","array('d', [-1.0259532173487802, -1.0283714847840644, -1.0276222693668056, -1.0240002582840024, -1.0177464741789144, -1.009325252823061, -0.9994916781656306, -0.9889684399242471, -0.9783170301139048, -0.9679440453338961, -0.9581179035928636, -0.9489923264505675, -0.9406320410745023, -0.9330376495959914, -0.9261684032505567, -0.9161284392006628])",60.05344690385982,-342.3349508052325,-50.283733112773994,-0.1888382615044436,-0.0014460227003131709,-1.0177464741789144,25.000000235929335,-1.0,"[-345.1499051401155, 64.47253671574181, 50.4810517383709]","[-327.76492245192264, 54.58861778482422, 50.21548913128075]","[-345.01922213395886, 44.47481019216309, 50.20928742861298]",10000000000.0,0.04530954360961914
18,9.734055519104004,-344.75537109375,63.75155258178711,50.62122344970703,-0.04811976104974748,0.012338549830019425,-1.0476071079585214,23.289252057276865,"array('d', [67.38279724121094, 65.23529557804471, 63.08863932225589, 60.94653684055815, 58.81244528408864, 56.68954523763928, 54.580314055673334, 52.48629608840548, 50.40819779643242, 48.346058122755814, 46.2994209995385, 44.26749646594364, 42.249299946130094, 40.24376400376309, 38.24982051473558, 37.0258861554285])","array('d', [-346.8283996582031, -345.54849437904676, -344.2671660311197, -342.97823841282496, -341.67609264271715, -340.3557841396942, -339.0137504823497, -337.64810169493325, -336.25834688012355, -334.8450180973247, -333.4093285554083, -331.9528873056999, -330.4774784470721, -328.9849024509464, -327.4768724176152, -326.53364140615537])","array('d', [-50.38240051269531, -50.37358213114552, -50.365736955784904, -50.358692373460414, -50.352320306630666, -50.34652435690767, -50.3412309117854, -50.336383065480454, -50.33193646668705, -50.32785635426603, -50.32411525483671, -50.32069100713303, -50.31756490895115, -50.31471987152092, -50.31213852942306, -50.31069391180235])","array('d', [0.06326714158058165, -0.017493971263274757, -0.09056965460586157, -0.15669127298204394, -0.21652059116268713, -0.25892679489420434, -0.2813376223008997, -0.28827556142572003, -0.28381183479658584, -0.2714896536223606, -0.2542777597150576, -0.23456148880783567, -0.21416060114642724, -0.19435933779103437, -0.1759373159658795, -0.15919468112685087])","array('d', [-0.0037458383012562383, -0.003316051258233957, -0.002965939858359461, -0.0026745936603593105, -0.0024271924328670012, -0.0022131422477732945, -0.002024759578979455, -0.0018563296112395827, -0.001703500759181974, -0.0015629355076424451, -0.0014321272696715395, -0.0013093203904465224, -0.0011934910507152123, -0.0010843598927526984, -0.000982414788207742, -0.0008889260434245663])","array('d', [-1.032624407610621, -1.033496677353234, -1.0313494628160165, -1.0264495454160347, -1.0190183538528832, -1.0094940791416271, -0.9986201151982349, -0.9871294772634994, -0.9755901974874246, -0.9644105129692145, -0.9538563305783208, -0.9440761514420434, -0.9351281608810375, -0.9270061184520414, -0.9196627517471294, -0.908932848605205])",58.81244528408864,-341.67609264271715,-50.352320306630666,-0.21652059116268713,-0.0024271924328670012,-1.0190183538528832,25.00000023541912,-1.0,"[-344.46462211526415, 63.25997277676233, 50.55562461587008]","[-327.1244825934826, 53.29421629384413, 50.612713041341586]","[-344.42345803743274, 43.265576376662565, 51.0272368658955]",10000000000.0,0.03684091567993164
19,9.77107834815979,-344.5240173339844,63.348724365234375,50.645633697509766,-0.06034117937088015,0.01331938058137888,-1.0487307747218273,23.293047452626837,"array('d', [65.76660919189453, 63.61012152931757, 61.4567051762593, 59.30986700470468, 57.17291984527297, 55.04894964141365, 52.94039318338873, 50.84875019910658, 48.77466043059521, 46.71807695023542, 44.67844511460736, 42.6548704495174, 40.646263421804434, 38.65145498102053, 36.66928097721067, 35.4533686501419])","array('d', [-345.9083557128906, -344.64374049036246, -343.3738731910324, -342.0928996027154, -340.79548478642914, -339.4769296989323, -338.13386125841583, -336.7645979219847, -335.3688841112761, -333.94749559350595, -332.5018817451399, -331.0338698053869, -329.54543910367613, -328.03856146764883, -326.5150989970651, -325.5615130546066])","array('d', [-50.49241638183594, -50.47488099268538, -50.45983033822784, -50.446780589708254, -50.43536314773277, -50.425293750618714, -50.41635075601686, -50.408359888212274, -50.40118345499107, -50.394712465493974, -50.38886056534485, -50.38355910888297, -50.37875294517945, -50.3743966545375, -50.37045107582734, -50.36824381627809])","array('d', [0.013539415784180147, -0.06248948235769052, -0.13128328038517886, -0.19353048837671052, -0.24985409507742845, -0.2900765826654415, -0.3102235498559583, -0.3148700657445794, -0.30815062038594454, -0.2936635272606442, -0.2744162484249425, -0.2528156537437056, -0.2306888572359752, -0.2093174429105131, -0.18947225206134108, -0.1714415988655899])","array('d', [-0.007576501462608514, -0.006470377817552833, -0.00558498881335608, -0.0048668377287966035, -0.004276987526229771, -0.0037867304160113585, -0.00337455639141062, -0.003023996743989365, -0.002722192384137462, -0.0024589956079050564, -0.002226408766288094, -0.002018232348974937, -0.001829843653424343, -0.0016580563544575393, -0.0015010274626245904, -0.0013581862388086213])","array('d', [-1.0406631668421886, -1.0396772093211484, -1.035839191344113, -1.029386654104898, -1.0205202345502737, -1.0096459530835262, -0.9974934684230831, -0.9848118309014865, -0.9721791755227565, -0.9600067745087818, -0.9485577601066557, -0.9379741379733657, -0.9283058089067244, -0.9195378455060739, -0.9116147111939978, -0.9000419767319344])",57.17291984527297,-340.79548478642914,-50.43536314773277,-0.24985409507742845,-0.004276987526229771,-1.0205202345502737,25.00000023472848,-1.0,"[-343.7760762800101, 62.048653197908905, 50.62565521736663]","[-326.47245578750653, 52.026457401124404, 51.000233997230865]","[-343.80673801851276, 42.08510082529432, 51.83215284424646]",10000000000.0,0.0341792106628418
20,9.801427364349365,-343.82904052734375,62.145957946777344,50.71701431274414,-0.09644331037998204,0.01613514684140676,-1.051621838412013,23.296859009174597,"array('d', [65.3635025024414, 63.20537034159143, 61.05086012521531, 58.903435529067835, 56.766378966804986, 54.64275730927805, 52.535000865525156, 50.44460029417882, 48.37217930485226, 46.31766914164899, 44.28048954201446, 42.259718619594906, 40.25423921856151, 38.262855529046114, 36.28437813322563, 35.07095133124564])","array('d', [-345.6781921386719, -344.4164136025554, -343.1484236107075, -341.8684486301939, -340.5712256789437, -339.25211840265274, -337.90780201443226, -336.5366484368591, -335.13846254117834, -333.714082517218, -332.26501792730215, -330.7931512786099, -329.30051104081826, -327.7891119094905, -326.26085305356276, -325.3041087872069])","array('d', [-50.5191650390625, -50.49972370872611, -50.483089125643886, -50.46871311836478, -50.45617681020091, -50.44515629488599, -50.43539843748524, -50.42670382191392, -50.418914651617854, -50.41190587916088, -50.40557837327624, -50.399853377579284, -50.394667796692794, -50.38997001899154, -50.38571609613468, -50.38333646135337])","array('d', [0.0011532690841704453, -0.0736969323734753, -0.14142420144126888, -0.20270637403984587, -0.2581567805958701, -0.29784463360947, -0.3174319504091746, -0.32150871572886275, -0.3142266749880788, -0.2991989120008814, -0.2794431424647458, -0.2573718749070918, -0.2348141180198005, -0.21305074962763992, -0.19285034937206752, -0.1744982279908498])","array('d', [-0.008411877788603243, -0.007162191370857874, -0.00616225465862861, -0.00535212926044945, -0.004688037761119903, -0.004137585710329307, -0.0036764133019238448, -0.0032858092109628733, -0.0029511203557051305, -0.0026607488971962193, -0.002405518927003681, -0.0021782725251390145, -0.0019736093201521594, -0.0017877160971074466, -0.0016182508319252651, -0.0014642543391374624])","array('d', [-1.0422100265833996, -1.0407608947067828, -1.0364997925404038, -1.0296576456741102, -1.0204303457690498, -1.0092159595371826, -0.996740914947547, -0.9837587570056001, -0.9708504097269524, -0.9584279885232124, -0.9467539040754902, -0.9359684581187745, -0.9261193885809555, -0.9171895140533156, -0.909121166819012, -0.8973374175527886])",56.766378966804986,-340.5712256789437,-50.45617681020091,-0.2581567805958701,-0.004688037761119903,-1.0204303457690498,25.000000234577612,-1.0,"[-343.54747402529813, 61.64939097130521, 50.64805845017711]","[-326.25423769453994, 51.61373098594868, 51.12712615610006]","[-343.59835429505654, 41.701830935832774, 52.094523046830766]",10000000000.0,0.02921128273010254
21,9.8339524269104,-343.3641662597656,61.34587860107422,50.761940002441406,-0.11963271349668503,0.017271660268306652,-1.0528589924189706,23.29948300192871,"array('d', [64.5573959350586, 62.396200234914886, 60.239722626327335, 58.09134665222904, 55.95429853121092, 53.831610688749045, 51.72570397123039, 49.63805305509691, 47.569250326725054, 45.51918312029964, 43.48721908340211, 41.472380363728654, 39.47349333324507, 37.48930746914577, 35.51858171369119, 34.31035711293049])","array('d', [-345.2172546386719, -343.96080421996066, -342.6962158012057, -341.4178768667553, -340.12066884781626, -338.80008148035995, -337.4528864726612, -336.07756351221036, -334.6740400969849, -333.243281264807, -331.7869188073274, -330.3069472736143, -328.80549451941556, -327.28466172030596, -325.74642263941183, -324.7831268984763])","array('d', [-50.5710334777832, -50.547354413212965, -50.52721333479469, -50.50991575181426, -50.49492801387686, -50.48183543656331, -50.470312608533966, -50.46010232381704, -50.45100052517658, -50.44284519976437, -50.43550780322896, -50.428886325901665, -50.42289944917039, -50.41748144148392, -50.41257756889395, -50.409834642626805])","array('d', [-0.023603992536664023, -0.0960982310876892, -0.1616937365716238, -0.2210470095475508, -0.27475207551530334, -0.31339163030498646, -0.33187147729844946, -0.3348141670893752, -0.3264083255580144, -0.3102983662696799, -0.2895237025849773, -0.26650882166159784, -0.2430868813273425, -0.2205374967888142, -0.19962476167748258, -0.18062797028497965])","array('d', [-0.010272755287587585, -0.0086970670242356, -0.007436991505789898, -0.0064181815418682215, -0.005585963914748178, -0.004899595908015015, -0.004328230704005315, -0.0038480304762704243, -0.0034402274713928992, -0.003089888750801426, -0.002785121007124604, -0.0025165473600428814, -0.002276955443297538, -0.00206105571002867, -0.001865310283395929, -0.0016878029953654766])","array('d', [-1.0451392372462414, -1.0427630191247976, -1.037653248015224, -1.0300283573569466, -1.0200752325927978, -1.0081758657673165, -0.9950503016106361, -0.9814618058156999, -0.9679973114609572, -0.9550707969415965, -0.9429432370693369, -0.9317514452932396, -0.9215387231222362, -0.9122832724174752, -0.9039230704895074, -0.8917153636727251])",55.95429853121092,-340.12066884781626,-50.49492801387686,-0.27475207551530334,-0.005585963914748178,-1.0200752325927978,25.000000234278183,-1.0,"[-343.11886627722697, 60.902777506774996, 50.689570409144636]","[-325.84373044721804, 50.8473669691221, 51.366623563631556]","[-343.2048479239329, 40.99268547510529, 52.58188181239522]",10000000000.0,0.025558948516845703
