,current_time,x_pos,y_pos,z_pos,roll,pitch,yaw,vel,x_traj,y_traj,z_traj,roll_traj,pitch_traj,yaw_traj,x_cmd,y_cmd,z_cmd,roll_cmd,pitch_cmd,yaw_cmd,vel_cmd,effector_dmg,effector_x,effector_y,effector_z,cost,time_solution
0,21.022533416748047,-358.5282897949219,85.43749237060547,50.03078079223633,0.6303867101669313,0.03264420852065077,-0.8497149189326428,23.107127602586274,"array('d', [88.3037338256836, 86.4625109817145, 84.58537954889515, 82.68280964631566, 80.76302414266576, 78.83255314297713, 76.89607960451963, 74.95682019159263, 73.01691885336737, 71.07772461746049, 69.14000643212458, 67.20412647076178, 65.27018035599141, 63.33810756782068, 61.40777333832108, 60.21775116514423])","array('d', [-360.82562255859375, -359.13602294966313, -357.4857254395461, -355.8644402929026, -354.26336195395487, -352.6750605740292, -351.09401230275466, -349.51634097064647, -347.93943439241895, -346.36164334883046, -344.7820305239064, -343.2001594030478, -341.61592062818124, -340.02939504156166, -338.44075266497345, -337.4587896168482])","array('d', [-50.020896911621094, -49.95165648720579, -49.8996665586994, -49.86011757928161, -49.829660034060154, -49.80591810102688, -49.78717884244427, -49.772189754329446, -49.760024326237, -49.74999107304477, -49.74157111670652, -49.73437498382749, -49.72811260081737, -49.72257248044928, -49.71760733400268, -49.71484054549753])","array('d', [0.6294178962707521, 0.4947804622223716, 0.37295546312801964, 0.2627236359356896, 0.16421702144457406, 0.09259770885665575, 0.04217815834986475, 0.008302537720593795, -0.012952212721312258, -0.024908917129332814, -0.030351818970728438, -0.031559387369218435, -0.030325772713457676, -0.02797702333164042, -0.02538343352778184, -0.022967882532142752])","array('d', [-0.03179877251386625, -0.023735316140599816, -0.017956091930977764, -0.013754525020016846, -0.010663684841423878, -0.008368440353838585, -0.006651746477544403, -0.005361126687964456, -0.004387496578561568, -0.003651407067153989, -0.0030938715651745827, -0.002670111834285538, -0.0023452196392777526, -0.0020911191594382462, -0.0018844482710478798, -0.0017051197641449044])","array('d', [-0.8153428276393078, -0.8400502998555497, -0.8582097031886529, -0.8710940028127736, -0.8795736681779347, -0.8846186315021173, -0.8872509325822144, -0.8882305748014764, -0.888132387817832, -0.887385539972495, -0.8862992628282279, -0.8850837810623905, -0.8838696105738397, -0.8827261544564893, -0.881679822713366, -0.8801436368776319])",80.76302414266576,-354.26336195395487,-49.829660034060154,0.16421702144457406,-0.010663684841423878,-0.8795736681779347,25.000000242769612,-1.0,"[-429.5803147734349, 125.12307392645116, 49.82066705711651]","[-411.9463386679636, 133.11640372534347, 54.8356012977428]","[-412.6111594598128, 116.85641587667199, 43.20930315621124]",10000000000.0,0.02972126007080078
1,21.084332942962646,-357.96990966796875,84.70912170410156,50.032073974609375,0.630353033542633,0.03295601159334176,-0.8581389625880382,23.105144289844297,"array('d', [87.23822021484375, 85.37533097249565, 83.47702148087127, 81.55363198788261, 79.61327968317522, 77.66242568703919, 75.7057037113944, 73.74629403707553, 71.78631454799739, 69.82709614815653, 67.86939554347805, 65.91356683608343, 63.95970037891446, 62.00773213051096, 60.05752478549988, 58.85505778915651])","array('d', [-359.9524841308594, -358.2868234897853, -356.6609497208812, -355.0644337317215, -353.4883544766812, -351.9251646252135, -350.3692520650639, -348.81668189978694, -347.26480495266156, -345.7119512036783, -344.157174298822, -342.60003677992535, -341.04043344025644, -339.4784520165131, -337.91427044968725, -336.94718483435753])","array('d', [-50.025634765625, -49.955913845281295, -49.90335255444893, -49.86321157944981, -49.832179840176096, -49.807900935759235, -49.788670080693265, -49.77323641850867, -49.76067153511056, -49.75028030510746, -49.74153956593762, -49.73405554906444, -49.727534218050366, -49.72176061565981, -49.716584525127864, -49.71369951028929])","array('d', [0.6297048330307006, 0.49504009336038723, 0.37319038711203734, 0.2629362039420289, 0.16388970790976518, 0.09190675534751645, 0.04125908263319162, 0.007259536863328872, -0.014041002583587016, -0.025987563036189907, -0.031383118717754316, -0.03252147755285105, -0.031208778304292292, -0.02877977603636051, -0.026110277007663357, -0.02362555776930595])","array('d', [-0.031963221728801575, -0.023954498142336585, -0.018193791106515526, -0.013990511410816095, -0.010887295149964104, -0.008574716293960123, -0.006839075229081518, -0.005529775442656513, -0.00453870690948242, -0.0037868437229490832, -0.0032152964364991514, -0.002779200938663211, -0.0024434704208650677, -0.0021798138881929424, -0.001964650824343891, -0.0017776900418969151])","array('d', [-0.8282555778834481, -0.8529780688359976, -0.8711492740071037, -0.8840433095201818, -0.8925205111947472, -0.8975450598132386, -0.900145554974721, -0.9010866345755084, -0.9009466048799071, -0.9001572184749649, -0.8990295267024606, -0.8977749185668343, -0.8965245374805556, -0.8953480041170566, -0.8942716645513276, -0.8926917309652183])",79.61327968317522,-353.4883544766812,-49.832179840176096,0.16388970790976518,-0.010887295149964104,-0.8925205111947472,25.000000242547003,-1.0,"[-429.5803147734349, 125.12307392645116, 49.82066705711651]","[-411.9463386679636, 133.11640372534347, 54.8356012977428]","[-412.6111594598128, 116.85641587667199, 43.20930315621124]",10000000000.0,0.055950164794921875
2,21.151201963424683,-356.59979248046875,82.864990234375,50.03240966796875,0.627873420715332,0.0337424986064434,-0.8795942505213877,23.10751726718789,"array('d', [86.52106475830078, 84.6441076539588, 82.73204623744606, 80.7951370269519, 78.84142832156611, 76.87733539887125, 74.90745905658731, 72.93495532920745, 70.96192483150172, 68.98968658281659, 67.01898939657254, 65.05018231055703, 63.08335250452982, 61.1184339317197, 59.15528792379125, 57.94471008399737])","array('d', [-359.377685546875, -357.7279237886421, -356.11826741202856, -354.53819698950883, -352.9787163238267, -351.4322014233318, -349.89298251341364, -348.35708625679996, -346.8218391769451, -345.28555749298243, -343.7472887548538, -342.20659469109273, -340.66337261469465, -339.1177145847031, -337.5698035475597, -336.6126173823412])","array('d', [-50.02827453613281, -49.95784394995436, -49.904605818010246, -49.86384201296419, -49.83224926369771, -49.807471470512745, -49.78780012614018, -49.77197872592499, -49.75907254285683, -49.74838021099168, -49.73937280707139, -49.73165148411178, -49.724917886450996, -49.71895349951575, -49.713605272438095, -49.71062385136277])","array('d', [0.6299643516540526, 0.495274915541152, 0.37340286302337367, 0.26312846009976154, 0.16372930401158134, 0.09150780257904133, 0.04070924030740415, 0.0066261994838085, -0.014707257404601836, -0.026650466987627894, -0.03201846999466227, -0.03311495677887615, -0.031753793596991736, -0.029275352850049025, -0.026559003710030685, -0.024031582516818206])","array('d', [-0.03225081786513313, -0.024234978337147252, -0.01845522395048812, -0.014227811078348418, -0.011099261636448551, -0.008762287180689624, -0.007004279664232549, -0.005675099189519609, -0.0046667153197669335, -0.003899967264868405, -0.003315717939779465, -0.0028688056307605604, -0.0025238338071142835, -0.002252211444430986, -0.0020300790719070152, -0.001836891973797316])","array('d', [-0.8367437561366219, -0.8614798352186552, -0.8796617168574197, -0.8925645591946818, -0.9010423470166032, -0.9060556719928308, -0.9086374203346906, -0.9095552437761563, -0.9093897039339975, -0.9085742293191436, -0.9074210532554791, -0.9061423240689749, -0.9048695984936068, -0.9036726462003889, -0.9025777805303923, -0.9009708602537244])",78.84142832156611,-352.9787163238267,-49.83224926369771,0.16372930401158134,-0.011099261636448551,-0.9010423470166032,25.00000024239158,-1.0,"[-392.91949200994907, 111.28191077701058, 49.87612569322106]","[-373.06015779588034, 113.505791736218, 50.68926655014213]","[-381.0182321107859, 98.49926386601351, 40.13118081080395]",10000000000.0,0.04652094841003418
3,21.19206404685974,-356.0575256347656,82.1109619140625,50.031494140625,0.6183848381042479,0.033348206430673585,-0.8882867534968516,23.12060253403945,"array('d', [84.70912170410156, 82.79732112901671, 80.85124476145087, 78.88092984717841, 76.8942402645988, 74.89745200964325, 72.89507606656863, 70.890206256441, 68.88489934114045, 66.88044468316451, 64.87757196745217, 62.87661854325929, 60.877664841271184, 58.88064106779192, 56.88540640000851, 55.65467848508659])","array('d', [-357.96990966796875, -356.3607329964019, -354.79242970890436, -353.25425950670865, -351.73704839573463, -350.23300684264206, -348.73632638563936, -347.242936735009, -345.75010267911233, -344.2561049219012, -342.7599745836429, -341.2612701511422, -339.75989405774567, -338.2559480531115, -336.74962656590276, -335.81775791831217])","array('d', [-50.032073974609375, -49.95988858464528, -49.90495377151557, -49.8626139854148, -49.82959193611283, -49.80353654712182, -49.782732760370536, -49.76591164668055, -49.75212365694533, -49.7406522847953, -49.7309543398066, -49.72261821200488, -49.71533456883536, -49.70887577550513, -49.70308146706088, -49.6998501098474])","array('d', [0.630353033542633, 0.49562660948580295, 0.3737210888845581, 0.2634164027592462, 0.16360862081960661, 0.09078326191092115, 0.039596283285220996, 0.005290400522127911, -0.016141455413090047, -0.028093507329038175, -0.033410177724808504, -0.03441922110704574, -0.032953338415097476, -0.030366620749262354, -0.027547174968629722, -0.024925716927923055])","array('d', [-0.03295601159334176, -0.024934301011301167, -0.019114239173895157, -0.014830692926380349, -0.011640937250880874, -0.009243746055666401, -0.0074297388198748945, -0.006050266952396764, -0.004997739418007474, -0.004192818354758727, -0.003575849416369646, -0.0031009868387625083, -0.0027320898583081273, -0.0024398260717776133, -0.002199631734931735, -0.0019903095813860417])","array('d', [-0.8581389625880382, -0.88289540066414, -0.9010932766619982, -0.9140093112209203, -0.9224904577479545, -0.9274867587429532, -0.9300321745080297, -0.930901851902231, -0.9306819290494065, -0.9298099733259673, -0.9286011458540727, -0.9272694918352773, -0.9259476220967662, -0.9247057160411312, -0.923570052505932, -0.921903795681991])",76.8942402645988,-351.73704839573463,-49.82959193611283,0.16360862081960661,-0.011640937250880874,-0.9224904577479545,25.000000241967367,-1.0,"[-392.91949200994907, 111.28191077701058, 49.87612569322106]","[-373.06015779588034, 113.505791736218, 50.68926655014213]","[-381.0182321107859, 98.49926386601351, 40.13118081080395]",10000000000.0,0.034465789794921875
4,21.222517728805542,-355.77789306640625,81.71642303466797,50.03105926513672,0.6091233491897582,0.03267806768417356,-0.8929797848078869,23.128172736957705,"array('d', [83.97540283203125, 82.05004923816573, 80.09077715954756, 78.10753024878231, 76.10809333913451, 74.09867804981913, 72.08375624267438, 70.06639568749277, 68.0486348398876, 66.0317507112607, 64.01646504154984, 62.0031103451377, 59.99176428087841, 57.982355535344446, 55.97474242794878, 54.73623052333088])","array('d', [-357.4173889160156, -355.8244921680046, -354.2727343031702, -352.75129496140005, -351.250937182405, -349.7638178078509, -348.28407779923543, -346.8076101336789, -345.33165636679854, -343.8544840265461, -342.37511837376917, -340.8931170823384, -339.40838495985287, -337.921027856524, -336.43124495813254, -335.5094442409228])","array('d', [-50.03242874145508, -49.95938515580055, -49.90364724130353, -49.860576742093805, -49.826901263006626, -49.800267712250886, -49.77895538295313, -49.76168803904829, -49.74750836015402, -49.73569230958925, -49.725689801659115, -49.71708316368345, -49.70955790903831, -49.70288216136107, -49.69689219068137, -49.693551200203764])","array('d', [0.6301465034484862, 0.4954397333104341, 0.3735519963102237, 0.2632634014454114, 0.16347016489041188, 0.09042560489264909, 0.03909974927901905, 0.004716749747581371, -0.016745854609846136, -0.028695386337745987, -0.033987319817851004, -0.0349584645695872, -0.033448603682467735, -0.030816977175510938, -0.027954958395791124, -0.02529469466465827])","array('d', [-0.03330805897712692, -0.025269385462876163, -0.01942224646135795, -0.015107856790849097, -0.011887081640240762, -0.009460644869366132, -0.0076201307858710775, -0.006217257894054853, -0.005144443168943638, -0.004322150141788734, -0.0036904161916505745, -0.003203038230401064, -0.002823505915165249, -0.002522126164509462, -0.002273994280031696, -0.0020575956007257896])","array('d', [-0.8666216572138923, -0.8913672761340825, -0.9095566527413179, -0.9224656771469256, -0.930940835920367, -0.9359271819513262, -0.9384557221289717, -0.9393043654908966, -0.9390613175143718, -0.9381656831529506, -0.9369337089878097, -0.9355801382671468, -0.9342379624710642, -0.9329774991334531, -0.9318249984930976, -0.9301342625381419])",76.10809333913451,-351.250937182405,-49.826901263006626,0.16347016489041188,-0.011887081640240762,-0.930940835920367,25.000000241784576,-1.0,"[-392.91949200994907, 111.28191077701058, 49.87612569322106]","[-373.06015779588034, 113.505791736218, 50.68926655014213]","[-381.0182321107859, 98.49926386601351, 40.13118081080395]",10000000000.0,0.027943134307861328
5,21.29255723953247,-355.2460021972656,80.95506286621094,50.03089141845703,0.5823658108711244,0.030674302950501355,-0.9016970833155772,23.144739784233302,"array('d', [83.60658264160156, 81.67446056891126, 79.70860319093164, 77.71890628864165, 75.7131143953036, 73.6974063196293, 71.67623377332984, 69.65265105976063, 67.62868717952585, 65.60561276502747, 63.584145450462614, 61.564615248473395, 59.54709838014435, 57.531522740173365, 55.51774619776477, 54.27535653336831])","array('d', [-357.14337158203125, -355.5587138384239, -354.0153232384291, -352.5023402513433, -351.010497036198, -349.53192408017645, -348.0607374398137, -346.59281202976, -345.12537803126594, -343.65669658231445, -342.1857901789558, -340.7122162276861, -339.2358808419527, -337.75689202492606, -336.275451431045, -335.35872921396253])","array('d', [-50.03250503540039, -49.95897884090196, -49.90279609000469, -49.859324821231574, -49.82529338133705, -49.798346398055905, -49.77675936521999, -49.75925163050364, -49.74486138160937, -49.732860330098, -49.72269455054408, -49.713943023707756, -49.70628843504342, -49.69949659177413, -49.69340193449847, -49.690002288296476])","array('d', [0.6300006508827208, 0.49530776043882896, 0.37343258230556453, 0.2631553511704212, 0.16337239346344284, 0.09022275095537519, 0.0388310218202884, 0.004412305994579651, -0.01706338945202652, -0.029009811902917484, -0.03428786210340563, -0.03523879642340808, -0.03370587427355916, -0.03105086001102492, -0.028166724300202835, -0.025486308396171657])","array('d', [-0.03350786492228496, -0.025456053316573357, -0.019591822917601705, -0.015259247865700815, -0.012020780713154103, -0.009577979340946893, -0.007722811752164335, -0.006307108303049939, -0.005223235990755304, -0.004391517009219717, -0.0037518008495400655, -0.00325767788181302, -0.0028724293153427733, -0.002566161124212437, -0.002313779732306379, -0.0020935949698651086])","array('d', [-0.8708926876399179, -0.895630667653645, -0.9138140428024104, -0.9267181170550558, -0.9351890476187018, -0.9401693691242367, -0.9426885963331816, -0.9435259762515121, -0.9432707197961941, -0.9423626806980113, -0.9411186333891439, -0.9397536588689583, -0.9384009304224343, -0.9371308282794252, -0.935969583637727, -0.934266135230019])",75.7131143953036,-351.010497036198,-49.82529338133705,0.16337239346344284,-0.012020780713154103,-0.9351890476187018,25.000000241689133,-1.0,"[-389.06180649099934, 109.82461742714337, 49.881800741229924]","[-369.1278081401816, 111.41064936561673, 50.22851739750465]","[-377.8074960235153, 96.6634004747302, 39.87565941537453]",10000000000.0,0.061547279357910156
6,21.3933048248291,-353.4309997558594,78.2478256225586,50.05515670776367,0.42003035545349127,0.016552444547414738,-0.9335266788813734,23.201666913292204,"array('d', [82.864990234375, 80.91925710097559, 78.94029414644132, 76.93786835828472, 74.91962318162639, 72.89165841280666, 70.85837576994962, 68.82279551286521, 66.78692218464622, 64.75200899974469, 62.718761277824726, 60.68750032202664, 58.6582960926786, 56.63107179918928, 54.60568157190958, 53.355998897820776])","array('d', [-356.59979248046875, -355.0319047019016, -353.50537686861514, -352.00929825738393, -350.5343587933152, -349.0726512359793, -347.6182541637987, -346.1670164479978, -344.7161540292174, -343.2639226769016, -341.8093458957854, -340.3519863475021, -338.89175789141046, -337.42877739968145, -335.9632555359541, -335.05619394609516])","array('d', [-50.03240966796875, -49.9582781145574, -49.901477387480085, -49.85741267179496, -49.82283080001741, -49.79538387372583, -49.77334847101427, -49.7554414718607, -49.74069680493438, -49.72838121821779, -49.717935773168776, -49.70893476577521, -49.70105672650897, -49.69406392866056, -49.687787925100984, -49.684286589929755])","array('d', [0.627873420715332, 0.49338296281136085, 0.37169095323003115, 0.26157945986242875, 0.16194646390555056, 0.08871985842212463, 0.03731027776775226, 0.0029195710132031197, -0.018494450746722384, -0.030356524203085034, -0.035537053690072255, -0.03638510793947997, -0.03474997864706505, -0.031997682960575605, -0.02902371039903385, -0.02626174155531869])","array('d', [-0.0337424986064434, -0.025705668861391154, -0.019836792892588533, -0.015489356668260743, -0.012231384601696703, -0.009767702060332907, -0.00789213892877294, -0.006457516353970412, -0.005356650692019081, -0.00450998284045525, -0.003857285869024282, -0.003351965367155484, -0.0029570642004781806, -0.0026424300746262096, -0.0023827106665510337, -0.002155966264021854])","array('d', [-0.8795942505213877, -0.9042209719825706, -0.9223168971090627, -0.9351488167624039, -0.9435581022328438, -0.9484799979847752, -0.9509396439652761, -0.9517178775376268, -0.951405271227882, -0.950442728374441, -0.9491477280578552, -0.9477357286481881, -0.9463400049762404, -0.9450308304378819, -0.9438341924671991, -0.9420790946898436])",74.91962318162639,-350.5343587933152,-49.82283080001741,0.16194646390555056,-0.012231384601696703,-0.9435581022328438,25.000000241489026,-1.0,"[-389.06180649099934, 109.82461742714337, 49.881800741229924]","[-369.1278081401816, 111.41064936561673, 50.22851739750465]","[-377.8074960235153, 96.6634004747302, 39.87565941537453]",10000000000.0,0.0711209774017334
7,21.460183143615723,-352.67071533203125,77.06825256347656,50.08860397338867,0.33663079142570496,0.01031654141843311,-0.9455253322932382,23.218574257154334,"array('d', [80.18885803222656, 78.19807118210676, 76.18081488993181, 74.14529964531044, 72.09813466563439, 70.04470742086743, 67.98893461339293, 65.93348587575042, 63.88009148287089, 61.82977662492118, 59.78304896846199, 57.740054039863814, 55.70070322307788, 53.66477562751509, 51.631994028141456, 50.37844616679835])","array('d', [-354.7205810546875, -353.2096739307602, -351.7337500498949, -350.2827934298359, -348.848131430274, -347.4223344781369, -345.99985429379007, -344.57686503815165, -343.1508876099181, -341.7204697607402, -340.2849132844352, -338.8440424848984, -337.39801365372927, -335.9471655946124, -334.4919103973285, -333.58965507489563])","array('d', [-50.032039642333984, -49.97135140834434, -49.92447621624251, -49.88785354600808, -49.858932646275, -49.83585255376994, -49.81723367419828, -49.80203960989776, -49.78948376880359, -49.77896490725352, -49.77002190963449, -49.76230172286893, -49.7555365017833, -49.74952731139504, -49.74413252324337, -49.7411220050395])","array('d', [0.5451312065124511, 0.4185147045779558, 0.30394734563320713, 0.2002825033420028, 0.10648267897074326, 0.038294235503576184, -0.008594729534797028, -0.03885213319782848, -0.05646063635407534, -0.06481812414987312, -0.066780720057147, -0.06468586229382503, -0.06036976126591161, -0.05518286798250222, -0.05000295007911961, -0.045244544338564424])","array('d', [-0.027518849819898564, -0.02114295195476307, -0.016437923040340082, -0.01291996261436917, -0.010261626226299862, -0.008236496266262333, -0.006684634592801028, -0.005490610981460029, -0.004569470836026113, -0.003857520089782415, -0.0033060922043284665, -0.0028772214346920516, -0.0025405779024551623, -0.0022712715790558866, -0.0020482821816634965, -0.0018533628301023383])","array('d', [-0.9108115871760505, -0.9313137796337744, -0.9461148101190889, -0.9561964068013985, -0.9622359327678659, -0.9650601058863334, -0.9656276099897516, -0.964686547585788, -0.9628092690034725, -0.9604240994055717, -0.9578377513889563, -0.9552553432576777, -0.9527999636664236, -0.9505319932997238, -0.9484680381079739, -0.9454434025457842])",72.09813466563439,-348.848131430274,-49.858932646275,0.10648267897074326,-0.010261626226299862,-0.9622359327678659,25.000000240746473,-1.0,"[-389.06180649099934, 109.82461742714337, 49.881800741229924]","[-369.1278081401816, 111.41064936561673, 50.22851739750465]","[-377.8074960235153, 96.6634004747302, 39.87565941537453]",10000000000.0,0.06466031074523926
8,21.512508153915405,-351.91943359375,75.88470458984375,50.13682556152344,0.25829201936721796,0.005265831947326581,-0.9561967094752449,23.229257193861937,"array('d', [79.03077697753906, 77.0213678444843, 74.99033180376001, 72.94488441475387, 70.89097689000769, 68.83354901799987, 66.77620723397689, 64.72138855505128, 62.670631710073145, 60.62479310240345, 58.58422603677163, 56.54893269436363, 54.518690968907805, 52.4931560397542, 50.47193622137744, 49.2263971738998])","array('d', [-353.9443664550781, -352.4577878341603, -351.00056711132174, -349.5634517477737, -348.1383391234356, -346.71824599421484, -345.2979883402304, -343.8740587839586, -342.4442707039435, -341.0074445429625, -339.56313516579996, -338.11139914031224, -336.65260362639214, -335.18727739802273, -333.7160030046606, -332.8027459463001])","array('d', [-50.04082489013672, -49.99404013384609, -49.95777808309052, -49.92936378624816, -49.90686801483263, -49.888875250102195, -49.87433114548904, -49.86244057564473, -49.85259821495221, -49.84434028440821, -49.83731047029991, -49.83123560275054, -49.825908216791575, -49.82117404634544, -49.816923071067315, -49.814550763464474])","array('d', [0.474017858505249, 0.35416868055943, 0.24572465013657313, 0.1476004251251896, 0.05881396075091941, -0.004903275310731277, -0.047794987087545295, -0.07442173078247077, -0.0887137390945702, -0.09404128472215216, -0.09324196930717625, -0.08863645061291703, -0.08204329548261119, -0.07479424779244058, -0.0677480770807291, -0.06130100069125033])","array('d', [-0.021178284659981762, -0.01633257781984618, -0.012738059253133533, -0.010038901695926496, -0.007992105922175804, -0.006428318554490272, -0.0052270705701226725, -0.004300872254040991, -0.003584979255966768, -0.003030624949963496, -0.0026004105722708757, -0.00226508217439057, -0.0020012313508201277, -0.001789637060323363, -0.0016140735336740595, -0.001460474562937484])","array('d', [-0.9247683723780774, -0.9419926113631599, -0.9541028990339805, -0.9618941582444628, -0.9659317906354593, -0.9669692642938518, -0.9659208772773228, -0.9635111054359315, -0.9602985059012505, -0.9567010720681924, -0.9530160603224854, -0.9494392496565823, -0.9460845212506616, -0.9430034190912032, -0.9402043000039374, -0.9361036440156666])",70.89097689000769,-348.1383391234356,-49.90686801483263,0.05881396075091941,-0.007992105922175804,-0.9659317906354593,25.000000240393625,-1.0,"[-384.81522869400607, 108.22067597029643, 49.88801246108887]","[-364.83538018464196, 109.10222255516533, 49.719106683903725]","[-374.29399757918793, 94.6668849206107, 39.61190210696938]",10000000000.0,0.04664778709411621
9,21.592877864837646,-350.9220275878906,74.30094146728516,50.22307586669922,0.1712940484285354,0.0011642584577202118,-0.9685737331721445,23.241240593955993,"array('d', [77.85521697998047, 75.82938774720103, 73.78699280798304, 71.73432477304765, 69.67671435793001, 67.61867627269383, 65.56352126367729, 63.513456782218825, 61.46982296716834, 59.43329318375364, 57.40404744070815, 55.38192306380007, 53.3665419853841, 51.35741315440474, 49.35400901177234, 48.120566306832615])","array('d', [-353.1763610839844, -351.71181639669817, -350.27030466868166, -348.84336624490027, -347.4235095040799, -346.0042417354401, -344.5807848159926, -343.14999593450983, -341.7100304294046, -340.2600307508788, -338.7998513663726, -337.32982329961504, -335.85056183064654, -334.3628181027844, -332.8673731514196, -331.9379636415667])","array('d', [-50.06465530395508, -50.0327312066611, -50.00786140400687, -49.988278804086946, -49.97270039117404, -49.96017966666011, -49.95000860624519, -49.941651525555095, -49.93469967021324, -49.928839398501445, -49.923829529272005, -49.91948504586521, -49.915665311976944, -49.91226554072922, -49.909210618758166, -49.90750559015346])","array('d', [0.3921730816364289, 0.2801124572776904, 0.17871580221213856, 0.08696830670283037, 0.003951745280518866, -0.05475863751108082, -0.09311718044327946, -0.11558942315880451, -0.1260639841038743, -0.1278915224436737, -0.12389577267564571, -0.11638219455756271, -0.10715095330258692, -0.09751284586894853, -0.08830470403123547, -0.07990140762884636])","array('d', [-0.014417370781302405, -0.011176673466463739, -0.008759819437227492, -0.00693683376606349, -0.005549127803990475, -0.004485241797720094, -0.0036653072733923114, -0.0030309520872257413, -0.0025387502642525693, -0.0021558587762240877, -0.0018570244200396542, -0.0016224767535088257, -0.0014364153977486115, -0.0012859130973554313, -0.0011601234951221305, -0.0010497235453084828])","array('d', [-0.937587424120631, -0.9512730451991878, -0.9604099163297637, -0.9656267188332814, -0.9673856046332961, -0.9663690422450312, -0.9634494363592832, -0.9593320726078571, -0.9545641013916303, -0.9495539324611971, -0.9445889225487425, -0.9398543286239585, -0.9354532824321736, -0.9314268593867565, -0.9277736064975831, -0.9224232432033425])",69.67671435793001,-347.4235095040799,-49.97270039117404,0.003951745280518866,-0.005549127803990475,-0.9673856046332961,25.00000024004192,-1.0,"[-383.0580368107505, 107.55709129156743, 49.890571990578195]","[-363.07039367382055, 108.14671670004722, 49.50786621793605]","[-372.8462467864608, 93.84842800971893, 39.50828440427445]",10000000000.0,0.06578397750854492
10,21.62895178794861,-350.6726379394531,73.90425872802734,50.247833251953125,0.1531625092029571,0.0007417260203509884,-0.9712859829280038,23.244147074082274,"array('d', [76.27953338623047, 74.23486793186709, 72.17980031550464, 70.11966251172525, 68.05912461193482, 66.00224435010864, 63.95201732054401, 61.910394063530724, 59.87847645612121, 57.85670554093405, 55.8450326743933, 53.8430722939037, 51.850232374976784, 49.86581956628222, 47.889117431995615, 46.67371802066147])","array('d', [-352.1690673828125, -350.7306423305238, -349.30707761550127, -347.8908373483025, -346.4751676109134, -345.0541839127556, -343.6236157851216, -342.18079464418565, -340.72433603959087, -339.2538236800727, -337.769525626775, -336.2721520602057, -334.7626599524804, -333.24210507559155, -331.7115387196132, -330.7588446981208])","array('d', [-50.11915969848633, -50.1040305197785, -50.09203554762968, -50.08240966194348, -50.074593507484856, -50.06817236282253, -50.062834946208575, -50.05834530017326, -50.054523286898515, -50.0512307725779, -50.0483616601635, -50.04583459216102, -50.043587544752675, -50.04157377996307, -50.03975877682019, -50.03874515740028])","array('d', [0.2834665477275848, 0.18175070890859985, 0.08971440372652784, 0.00643650379185714, -0.06891645476770836, -0.1212986830646598, -0.15380862397973857, -0.17083780355617878, -0.17625670507039146, -0.17341587665372055, -0.1651378386274818, -0.153718491387095, -0.14093953714937715, -0.12808687174364458, -0.11596926194676593, -0.10493333705074175])","array('d', [-0.006780879572033799, -0.005346467053944799, -0.004267546402714168, -0.0034468718030715687, -0.0028165765740342185, -0.002328487110092453, -0.0019478000286629982, -0.001648904875952309, -0.0014126481459884512, -0.001224502692107011, -0.001073309920802099, -0.0009503952696043241, -0.0008489354362149207, -0.0007635017608583628, -0.0006897315068084179, -0.0006240952349808622])","array('d', [-0.9527377327296395, -0.9620069145854561, -0.9673392007751092, -0.969200915100028, -0.967949387773554, -0.9641879043885947, -0.9587446624191447, -0.952312676775179, -0.9454316339142271, -0.9385012424067591, -0.9317973863456566, -0.9254916409726941, -0.9196724489125698, -0.9143662928404335, -0.9095579671311369, -0.9025188025984175])",68.05912461193482,-346.4751676109134,-50.074593507484856,-0.06891645476770836,-0.0028165765740342185,-0.967949387773554,25.00000023957371,-1.0,"[-382.1962297619823, 107.23166723832362, 49.89182499372439]","[-362.2071592253775, 107.6780782610247, 49.404201900086555]","[-372.1374616789471, 93.44869085071944, 39.458668877262895]",10000000000.0,0.03445911407470703
11,21.66156578063965,-350.1745910644531,73.11135864257812,50.29966354370117,0.12070944905281063,0.0006920016021466991,-0.9765102108332769,23.247964800878858,"array('d', [75.88470458984375, 73.83578439500623, 71.77782226032811, 69.71596159653858, 67.65474067198986, 65.59812552920296, 63.54904967659773, 61.509410972114495, 59.480259556707125, 57.46198387896679, 55.454482159875326, 53.45731624771062, 51.46984321097969, 49.491321350727866, 47.520988987837335, 46.309894918941694])","array('d', [-351.91943359375, -350.4870409134893, -349.06764294250434, -347.65389964013553, -346.2392173795309, -344.8178460928096, -343.38562764255465, -341.9400016382956, -340.47969147663605, -339.0043857420601, -337.5144513858279, -336.01068933716675, -334.494138193506, -332.9659262393359, -331.42716881472006, -330.4690477825768])","array('d', [-50.13682556152344, -50.125025509108646, -50.11557471490574, -50.107905785038525, -50.1016036873923, -50.09636069448872, -50.09194592325534, -50.08818449908159, -50.0849430764039, -50.0821195567857, -50.07963563648114, -50.07743130538484, -50.07546071694801, -50.07368903312482, -50.072089965996376, -50.071196669733865])","array('d', [0.25829201936721796, 0.1589718516040569, 0.06910323942978283, -0.012213250588641013, -0.08579145295747281, -0.13676931420142216, -0.16795866228844544, -0.18374278780974482, -0.18799463500626049, -0.1840695447060687, -0.1747930463952014, -0.1624609245468257, -0.14885183849150252, -0.13524656420134687, -0.12244764389966221, -0.1107952199808085])","array('d', [-0.005265831947326581, -0.004192156445786687, -0.0033820118834955747, -0.002763460342653532, -0.002286185016418059, -0.0019144142420367302, -0.0016222779739526203, -0.0013907252393148956, -0.0012055034765391353, -0.0010558098667694188, -0.000933369240217131, -0.0008317903876655163, -0.0007461098339728183, -0.0006724658600834671, -0.0006078655831918071, -0.0005500198773912447])","array('d', [-0.9561967094752449, -0.9644775266062008, -0.9689451402116455, -0.9700356047038197, -0.9680861962242001, -0.9636835800157808, -0.957647166939107, -0.95066928638713, -0.9432891789055592, -0.9359052062948142, -0.9287908577083971, -0.9221145614625499, -0.9159612587251895, -0.9103539076401521, -0.9052739698225795, -0.8978379625070033])",67.65474067198986,-346.2392173795309,-50.1016036873923,-0.08579145295747281,-0.002286185016418059,-0.9680861962242001,25.000000239456305,-1.0,"[-382.1962297619823, 107.23166723832362, 49.89182499372439]","[-362.2071592253775, 107.6780782610247, 49.404201900086555]","[-372.1374616789471, 93.44869085071944, 39.458668877262895]",10000000000.0,0.031151533126831055
12,21.70081615447998,-349.6771545410156,72.319091796875,50.35390853881836,0.09247059375047681,0.0015244260430335268,-0.9814237793299817,23.25317154402266,"array('d', [75.09461975097656, 73.03766404864835, 70.97412251853679, 68.90881819344725, 66.84606346564284, 64.7896669825557, 62.742457555502504, 60.70624216456417, 58.681978639276174, 56.66995940084441, 54.66998432213976, 52.681517180447656, 50.70381973845111, 48.736059610056685, 46.77739017738612, 45.57419012429499])","array('d', [-351.4218444824219, -350.00097557661746, -348.5896775399644, -347.1809559347415, -345.7685035665383, -344.34681248196034, -342.91192637446704, -341.46148276186415, -339.99440549969484, -338.51057975553687, -337.01055852618214, -335.49531361061986, -333.9660371651803, -332.423993639114, -330.8704183632928, -329.90246166502476])","array('d', [-50.17659378051758, -50.17016476856209, -50.16480015585364, -50.16025427942781, -50.156348297484165, -50.15295042471655, -50.14996250194775, -50.1473108006111, -50.144939639161464, -50.142806832026054, -50.14088033658312, -50.139135687670574, -50.13755395008067, -50.13612001089516, -50.13482109569122, -50.134094901496454])","array('d', [0.21187070012092585, 0.11696810115102456, 0.031096670876921504, -0.04660301907689806, -0.11690860677940265, -0.16536609350629236, -0.194159559976604, -0.20766637921426093, -0.2097712523830257, -0.20384372491588432, -0.19271862110470894, -0.17869395477773026, -0.16354425270409317, -0.14854166029335708, -0.13447761317060627, -0.12168038730056181])","array('d', [-0.0028175748884677193, -0.002333712139196927, -0.001964146396574699, -0.001677341207212415, -0.0014512177846214907, -0.0012701026059438486, -0.0011226952065455937, -0.0010007013423563422, -0.0008979423100332444, -0.0008097744061084202, -0.0007327077128492036, -0.0006641551120025775, -0.0006022674430001671, -0.0005458255226835023, -0.0004941684239062092, -0.0004471424241274978])","array('d', [-0.9627353390071053, -0.9692190636202425, -0.9721029603918082, -0.9717731324105903, -0.9685333611031088, -0.9629407638648427, -0.9557996474053414, -0.94780327049256, -0.9394913812669845, -0.9312605487335793, -0.923380104150594, -0.9160126743651742, -0.9092366168500067, -0.9030682169788267, -0.8974826165656796, -0.8893081594328416])",66.84606346564284,-345.7685035665383,-50.156348297484165,-0.11690860677940265,-0.0014512177846214907,-0.9685333611031088,25.000000239221166,-1.0,"[-382.1962297619823, 107.23166723832362, 49.89182499372439]","[-362.2071592253775, 107.6780782610247, 49.404201900086555]","[-372.1374616789471, 93.44869085071944, 39.458668877262895]",10000000000.0,0.03357076644897461
13,21.75264883041382,-348.93133544921875,71.13204956054688,50.436519622802734,0.055135581642389256,0.0036158021539449,-0.9876169403407238,23.25705016848058,"array('d', [74.30094146728516, 72.23683314885722, 70.16823610272314, 68.09972012803132, 66.0354174702953, 63.979011282909504, 61.93324937764556, 59.899866096924214, 57.87974187651481, 55.873086111315345, 53.879612138224076, 51.89869663020542, 49.92951630068582, 47.971157658424886, 46.02269805350938, 44.82641550409331])","array('d', [-350.9220275878906, -349.51155427718817, -348.1076678369826, -346.70366162416906, -345.2934706831732, -343.87179370196515, -342.4348457518697, -340.9804361712886, -339.5076662895027, -338.01659703891664, -336.5079484275943, -334.98284573197145, -333.44261884302466, -331.88865403430106, -330.32229365769666, -329.3458375625586])","array('d', [-50.22307586669922, -50.22025568705471, -50.2176000164578, -50.215087612610404, -50.21270571786509, -50.210447108227484, -50.20830811213825, -50.20628732846332, -50.204384806179874, -50.202601467869535, -50.20093861706372, -50.19939742254791, -50.19797831405141, -50.196680256990845, -50.195499902404066, -50.19483943409341])","array('d', [0.1712940484285354, 0.08025282507481654, -0.0021246877432549876, -0.07666295017461265, -0.14410796084614066, -0.19043902671028778, -0.21718192036682774, -0.22871884348626592, -0.2289527197722168, -0.2212714742203666, -0.20852223169020168, -0.19300767831898674, -0.17650037440107744, -0.1602658218278058, -0.1450861600604245, -0.13127939834658067])","array('d', [-0.0011642584577202118, -0.0010930732263071175, -0.0010324745373045785, -0.0009783517358824558, -0.0009280042272538682, -0.0008796896941552812, -0.0008322979584192437, -0.0007851162276398309, -0.0007376928482508233, -0.0006897772356721004, -0.0006413119917119466, -0.000592458658855988, -0.0005436425395357095, -0.0004956045170218318, -0.00044944914495433585, -0.00040667874360486453])","array('d', [-0.9685737331721445, -0.9735084991634579, -0.9750160225609494, -0.9734442529749969, -0.9690710243595001, -0.9624284785262524, -0.9543087154429084, -0.9454081721769123, -0.9362684813331149, -0.9272853818713499, -0.9187248285521579, -0.9107443523857879, -0.9034163931160033, -0.8967511938936962, -0.8907181665885915, -0.881890735352089])",66.0354174702953,-345.2934706831732,-50.21270571786509,-0.14410796084614066,-0.0009280042272538682,-0.9690710243595001,25.000000238993216,-1.0,"[-382.1962297619823, 107.23166723832362, 49.89182499372439]","[-362.2071592253775, 107.6780782610247, 49.404201900086555]","[-372.1374616789471, 93.44869085071944, 39.458668877262895]",10000000000.0,0.04968523979187012
14,21.776281356811523,-348.93133544921875,71.13204956054688,50.436519622802734,0.055135581642389256,0.0036158021539449,-0.9876169403407238,23.25705016848058,"array('d', [73.11135864257812, 71.03747792852415, 68.96166916513843, 66.88821439560618, 64.82103899856243, 62.76368218602022, 60.71880339679344, 58.6880550383695, 56.6722253849188, 54.671421675575, 52.68524886636112, 50.712973537734385, 48.75366443309098, 46.80630489932506, 44.869875507654704, 43.68178445651089])","array('d', [-350.1745910644531, -348.77852175381224, -347.3853193484361, -345.9886179186022, -344.58264391993976, -343.1623465626742, -341.72414629075627, -340.2660641054957, -338.78742549414704, -337.2885162724778, -335.77027139276623, -334.2340140150795, -332.68125151175786, -331.1135268192859, -329.5323195229862, -328.54592167711667])","array('d', [-50.29966354370117, -50.29780441518554, -50.29573515584695, -50.293532792984635, -50.29125835180945, -50.28896064341135, -50.28667894823804, -50.28444502696455, -50.28228466902396, -50.280218834675544, -50.27826439509268, -50.27643446870624, -50.274738361877525, -50.273181139191216, -50.271762870077744, -50.27096899775461])","array('d', [0.12070944905281063, 0.03448198263529421, -0.043539862395677024, -0.11413695329553808, -0.17801584527450354, -0.22181649368612555, -0.24607344221996397, -0.2551892267103246, -0.253101286816308, -0.24322956759380082, -0.22844307525922963, -0.21105471907774265, -0.19283736814279473, -0.17504983267256954, -0.15846344972565202, -0.14338367168353153])","array('d', [-0.0006920016021466991, -0.0007936063638665868, -0.0008606823197904348, -0.0009005432218657181, -0.0009187069447947915, -0.000919447658345492, -0.0009061308669836681, -0.0008814186222374529, -0.0008474348462290688, -0.0008059252677100896, -0.0007584190420171346, -0.0007063901305963543, -0.0006514125600698274, -0.0005953017003157703, -0.0005402323111233808, -0.0004888227566642743])","array('d', [-0.9765102108332769, -0.979534711231846, -0.9793313658959687, -0.9762067677070916, -0.9704102316388115, -0.9624430601794549, -0.9530829587420115, -0.9430336951867918, -0.932841354019736, -0.9229017357248159, -0.913476980832732, -0.9047182424906981, -0.8966903486519542, -0.8893957011094324, -0.8827962606721221, -0.8731429229861035])",64.82103899856243,-344.58264391993976,-50.29125835180945,-0.17801584527450354,-0.0009187069447947915,-0.9704102316388115,25.000000238653005,-1.0,"[-382.1962297619823, 107.23166723832362, 49.89182499372439]","[-362.2071592253775, 107.6780782610247, 49.404201900086555]","[-372.1374616789471, 93.44869085071944, 39.458668877262895]",10000000000.0,0.021767139434814453
15,21.805800437927246,-348.4305114746094,70.33890533447266,50.489959716796875,0.0312569737434387,0.00531708961352699,-0.9910184582087656,23.262962361627906,"array('d', [72.319091796875, 70.23912587513186, 68.15863713581629, 66.08175827497817, 64.01230628389757, 61.95374515385477, 59.90869097136487, 57.87875473932727, 55.86467558458273, 53.86650458176379, 51.88378614160804, 49.91572484807222, 47.96132841105582, 46.019521765817075, 44.08923065254987, 42.90534840024326])","array('d', [-349.6771545410156, -348.2901705346532, -346.90397006140324, -345.5123692974026, -344.1097526130226, -342.6912056722742, -341.25325901510115, -339.794050282504, -338.31303161502245, -336.81061753363053, -335.28786675716464, -333.74621664410745, -332.18727699025743, -330.6126810170473, -329.02398722186825, -328.03251740702564])","array('d', [-50.35390853881836, -50.350141703313206, -50.34646686515361, -50.34289486655503, -50.33943782966706, -50.33610797015871, -50.33291686667243, -50.32987511869373, -50.326992256849145, -50.324276713131034, -50.32173568983846, -50.31937481864434, -50.31719754858435, -50.31520424314219, -50.31339100429787, -50.31237631298592])","array('d', [0.09247059375047681, 0.008930407398985095, -0.06665988585822769, -0.13505681754221782, -0.19694492344485945, -0.23939960886164063, -0.26230831278639677, -0.27009234095129053, -0.26671469988495794, -0.2556181701712909, -0.23968759790612057, -0.22124407485046807, -0.20206222612285935, -0.18339806132458247, -0.16601736527334734, -0.15021873774262648])","array('d', [-0.0015244260430335268, -0.0014896240389148808, -0.0014508936197329184, -0.0014074312431231854, -0.0013590069362836934, -0.0013057695387697248, -0.0012480763567685547, -0.0011863522844016657, -0.0011210274297908083, -0.0010525502871613114, -0.000981454694643478, -0.00090846021790863, -0.0008345883649634583, -0.0007612790896427284, -0.0006904929574314486, -0.0006247842241058352])","array('d', [-0.9814237793299817, -0.9833887268224366, -0.9822304549050325, -0.9782351103524426, -0.9716377432526171, -0.9629222372636819, -0.9528584571833286, -0.942156024174222, -0.931364627564106, -0.920880692657299, -0.9109644461267562, -0.9017634693396956, -0.8933382157274972, -0.8856865431015669, -0.87876608563285, -0.8686450883111505])",64.01230628389757,-344.1097526130226,-50.33943782966706,-0.19694492344485945,-0.0013590069362836934,-0.9716377432526171,25.000000238423592,-1.0,"[-378.63615988981695, 105.20863953276923, 49.898733216303114]","[-358.6603433167883, 104.99526597036304, 48.938929088587415]","[-369.286504552408, 91.09605089445542, 39.24890753710081]",10000000000.0,0.02823352813720703
16,21.866071462631226,-347.67926025390625,69.15098571777344,50.56843185424805,-0.004416098818182964,0.008000843226909572,-0.9956723888728279,23.271543131557166,"array('d', [71.92321014404297, 69.84042281209663, 67.75774416137642, 65.67924213480056, 63.6086865752465, 61.54950888589038, 59.50430713686015, 57.47467470913809, 55.46132902606722, 53.464295869387904, 51.4830921127775, 49.51689400442465, 47.564681293906105, 45.62535213117667, 43.69780710537498, 42.515810337730834])","array('d', [-349.42852783203125, -348.04578844126075, -346.6628841046233, -345.27371229402115, -343.87272837019424, -342.455079490722, -341.017345368435, -339.55771643687626, -338.07570283442243, -336.57177834472486, -335.0470588008555, -333.50303428046647, -331.94136183274804, -330.36371628213874, -328.77169243334407, -327.7779598895413])","array('d', [-50.38140106201172, -50.37623736961835, -50.37141130446083, -50.36687867880435, -50.362610598916845, -50.35858834622568, -50.35479992430457, -50.35123781954798, -50.347897574281156, -50.34477679220741, -50.341874290941064, -50.339189213152174, -50.33671998265658, -50.334463050255934, -50.332411422888875, -50.331263499327285])","array('d', [0.07965797185897824, -0.002662933362662944, -0.07714997533196921, -0.14454864388445585, -0.20553348406509644, -0.24739257409370963, -0.26969843273578864, -0.2768825938456332, -0.2729211324180749, -0.2612683431731031, -0.24481709194011336, -0.2258927412552276, -0.20627106118490587, -0.1872069897215933, -0.16946389014272975, -0.15333728268899158])","array('d', [-0.00213966448791317, -0.0019937268578743106, -0.001869204905403499, -0.00175874034222098, -0.001657415495422206, -0.0015619800692651907, -0.001470288202778857, -0.001380887915563483, -0.0012927789024980887, -0.0012053065947045904, -0.0011181488835248251, -0.0010313615276888064, -0.0009454562443882082, -0.0008614906208405756, -0.0007811516605452631, -0.0007068156183158481])","array('d', [-0.9837066372248789, -0.9851919015966097, -0.9835999919204542, -0.979208345210674, -0.9722458990068956, -0.9631885677889841, -0.9528026986287619, -0.9418009852125468, -0.930735015020336, -0.9200016304852416, -0.9098602328101756, -0.9004567720710892, -0.8918496806003516, -0.8840347102449547, -0.8769674893572071, -0.8666327904987285])",63.6086865752465,-343.87272837019424,-50.362610598916845,-0.20553348406509644,-0.001657415495422206,-0.9722458990068956,25.000000238311024,-1.0,"[-378.63615988981695, 105.20863953276923, 49.898733216303114]","[-358.6603433167883, 104.99526597036304, 48.938929088587415]","[-369.286504552408, 91.09605089445542, 39.24890753710081]",10000000000.0,0.045400381088256836
17,21.898383617401123,-347.1781311035156,68.36016845703125,50.61909103393555,-0.029345151036977782,0.009537039324641158,-0.9983054836604256,23.2780794971285,"array('d', [71.13204956054688, 69.04452009895456, 66.95829825374427, 64.8773365979473, 62.80532130562354, 60.745626609278595, 58.700820165740836, 56.67246398282656, 54.661234771965674, 52.6671096705691, 50.68955196131216, 48.727682437787095, 46.780425994713745, 44.846628189216254, 42.92514022918305, 41.74725819357718])","array('d', [-348.93133544921875, -347.5557819764139, -346.17824156126807, -344.7927675683081, -343.3939524165214, -341.97706252064665, -340.5387728977514, -339.07737665189535, -337.59249685607915, -336.0847225405979, -334.55528031882636, -333.0057621966663, -331.4379162748211, -329.85349727897665, -328.2541695373698, -327.25553875675774])","array('d', [-50.436519622802734, -50.428014815027055, -50.4204550548886, -50.41365990634137, -50.40749836556462, -50.401874327575335, -50.39671657303609, -50.39197192556123, -50.387600557619784, -50.38357262511507, -50.3798656543232, -50.3764623054162, -50.37334827531379, -50.370510200162656, -50.367933491337666, -50.36649215965777])","array('d', [0.055135581642389256, -0.024851711622121273, -0.0972272139849132, -0.16271528232949817, -0.22197134011504313, -0.2627016675122527, -0.2838590293326354, -0.2898966215190042, -0.28481720915871767, -0.2720982984547615, -0.25464880697361064, -0.23480261235233002, -0.2143377833821913, -0.19450718990758284, -0.17606949905079508, -0.15931428533908448])","array('d', [-0.0036158021539449, -0.003195075729223016, -0.002858358679633734, -0.0025823708434751427, -0.002350730946898535, -0.0021518214112109546, -0.0019772965358977133, -0.0018210305189824306, -0.001678444209888873, -0.0015461107460334198, -0.0014215449542158978, -0.0013031107083284945, -0.0011900008941639257, -0.0010822570781942752, -0.0009808027935838141, -0.0008874674502542351])","array('d', [-0.9876169403407238, -0.9881852872014489, -0.9857622856185195, -0.9806096258570048, -0.9729451366433739, -0.9632296470565896, -0.952223037835859, -0.9406444339813851, -0.9290493585107069, -0.9178355585096343, -0.9072608363632599, -0.8974679396023284, -0.8885113343504856, -0.8803826502726405, -0.8730336014880701, -0.8622886625661036])",62.80532130562354,-343.3939524165214,-50.40749836556462,-0.22197134011504313,-0.002350730946898535,-0.9729451366433739,25.000000238104995,-1.0,"[-376.7917188551675, 103.74797402122951, 49.903366862909344]","[-356.8383473396697, 103.15151844807588, 48.675683714138685]","[-367.8579343908917, 89.45402850680365, 39.139045389797836]",10000000000.0,0.026627779006958008
18,21.930005073547363,-346.9273681640625,67.96510314941406,50.643951416015625,-0.04205804690718653,0.01045433059334749,-0.9993712147090098,23.280262103536142,"array('d', [70.33890533447266, 68.24734331854847, 66.15824648952844, 64.07546465245682, 62.00260970293954, 59.943005858961, 57.89919582924454, 55.87271380013431, 53.864197760103075, 51.87357714792878, 49.900261975704844, 47.94331757630588, 46.00161384689869, 44.07394357993705, 42.159108453380234, 40.985711970822145])","array('d', [-348.4305114746094, -347.06112663968, -345.6879718313806, -344.30525220789644, -342.90769472207705, -341.49068340392716, -340.05098698004355, -338.5870002003094, -337.09845840008234, -335.58606515574434, -334.05115693804305, -332.4954264952377, -330.9207115811246, -329.3288452965656, -327.7215599227805, -326.71764458053036])","array('d', [-50.489959716796875, -50.47761289618632, -50.46692679505887, -50.45756095953042, -50.44926372597215, -50.44184705479036, -50.435169048694675, -50.42912182676076, -50.423623051652065, -50.41860980406921, -50.41403390508063, -50.40985810295851, -50.40605274973822, -50.402592732496245, -50.39945452424036, -50.397699489628174])","array('d', [0.0312569737434387, -0.04645797149887871, -0.1167773681608498, -0.180404994973776, -0.23797765575681232, -0.27762682723711746, -0.2976750552412541, -0.30259953896537617, -0.29643142848994297, -0.28267256081875547, -0.26424857227753507, -0.24350221847589706, -0.22221405674496508, -0.20163500051472308, -0.18251911466019324, -0.16515013940279977])","array('d', [-0.00531708961352699, -0.004572823011276428, -0.00398587541891013, -0.003514671153740606, -0.0031295524042625495, -0.0028091383579150106, -0.0025377993133655448, -0.0023038850721942075, -0.0020985636975835225, -0.0019150976046564772, -0.0017484043757387032, -0.0015948012542848617, -0.0014518669029263264, -0.0013183746698165692, -0.0011942630089272082, -0.0010806142576910932])","array('d', [-0.9910184582087656, -0.9906946195940286, -0.9874603031071549, -0.9815629609834613, -0.9732103097904327, -0.9628485777935549, -0.951231614508335, -0.9390855636922728, -0.9269702070231851, -0.9152843333472296, -0.9042841770588723, -0.8941092694055757, -0.8848100891388181, -0.8763741321122336, -0.8687492005590594, -0.8576028462976882])",62.00260970293954,-342.90769472207705,-50.44926372597215,-0.23797765575681232,-0.0031295524042625495,-0.9732103097904327,25.000000237911983,-1.0,"[-376.7917188551675, 103.74797402122951, 49.903366862909344]","[-356.8383473396697, 103.15151844807588, 48.675683714138685]","[-367.8579343908917, 89.45402850680365, 39.139045389797836]",10000000000.0,0.030684232711791992
19,21.98163414001465,-346.42535400390625,67.17572784423828,50.692527770996094,-0.06803184002637866,0.012689226306974818,-1.001089974245753,23.28703633894233,"array('d', [69.94269561767578, 67.84922655427097, 65.75879099486822, 63.675190991832125, 61.60200391101226, 59.54253093516235, 57.49930398134833, 55.47384443678256, 53.4667715087133, 51.47799100757211, 49.50688631745802, 47.55249494063437, 45.613659134991245, 43.68914516704607, 41.77772982020801, 40.60663486062133])","array('d', [-348.18011474609375, -346.81366992612215, -345.4425702940843, -344.06109584537086, -342.66404019324625, -341.2468457703473, -339.80632759536667, -338.3409310195906, -336.8504475901951, -335.33563833800923, -333.7978948162334, -332.23896021181247, -330.6607170758416, -329.06503758517937, -327.4536878263732, -326.4470807681972])","array('d', [-50.516395568847656, -50.501753707468296, -50.489210299726004, -50.47832693220237, -50.46877780032332, -50.46031819456721, -50.45276253639228, -50.44596906379118, -50.439829065641035, -50.43425907392816, -50.429194924850776, -50.42458698365037, -50.42039607739392, -50.41658984390347, -50.413139319732345, -50.41120982939205])","array('d', [0.019459718838334063, -0.057132570135136874, -0.12643614530680677, -0.18914461874713787, -0.24588559520575176, -0.28500956808242645, -0.30451476193687316, -0.30889145047114225, -0.30218583974088337, -0.2879125634694977, -0.26900603800863054, -0.24781371698673724, -0.22611755219598212, -0.20516756321945137, -0.18571556245766493, -0.16804240523661831])","array('d', [-0.00633570691570633, -0.005393566257928895, -0.004653547164051205, -0.00406302547729098, -0.0035842849476628975, -0.003189990174379353, -0.0028600496034726117, -0.002579416649150567, -0.0023366368260295746, -0.0021229253311324495, -0.0019315885487959008, -0.0017576678142221915, -0.001597726868779343, -0.0014497299607234937, -0.001312971637678184, -0.0011880262764667785])","array('d', [-0.9926442344996592, -0.9918795639517726, -0.9882434564929667, -0.9819767053570236, -0.9732822742983973, -0.9625991439837945, -0.9506782403398552, -0.9382494858389704, -0.9258749491436173, -0.9139540108289776, -0.9027421371261396, -0.8923772394780933, -0.8829077821207851, -0.8743191737812199, -0.866557245113716, -0.8552116269734893])",61.60200391101226,-342.66404019324625,-50.46877780032332,-0.24588559520575176,-0.0035842849476628975,-0.9732822742983973,25.000000237816064,-1.0,"[-375.6878821800586, 102.87376929675641, 49.9061377931134]","[-355.75318017611926, 102.04820904368829, 48.51829548121624]","[-367.0054171487035, 88.47517358361675, 39.07584497764197]",10000000000.0,0.05060696601867676
20,22.031854391098022,-345.4220275878906,65.60912322998047,50.785606384277344,-0.12079136073589325,0.015587222762405806,-1.0042821606013437,23.29807162766165,"array('d', [69.15098571777344, 67.05402663230272, 64.96124864360648, 62.87636305286398, 60.802881834062, 58.74406314449618, 56.70242016064179, 54.67945010352808, 52.675734586355006, 50.691131112221605, 48.72496816181916, 46.77622566125492, 44.8436886276949, 42.9260683943893, 41.02209021728189, 39.8559829435841])","array('d', [-347.67926025390625, -346.31822353756087, -344.95073484804306, -343.57122549555606, -342.1746247248116, -340.75649421895275, -339.3137432971235, -337.8449209829548, -336.34993437488464, -334.82966260786407, -333.2856102717839, -331.71962379951685, -330.1336771773152, -328.52972210760055, -326.90959328724637, -325.89720376446826])","array('d', [-50.56843185424805, -50.550025705531, -50.5344134990686, -50.52100441420733, -50.509356600675076, -50.49913618404342, -50.490088544906804, -50.482018161156006, -50.47477433866006, -50.468240816545105, -50.46232787154799, -50.45696603281084, -50.452100829838535, -50.44768819681632, -50.44369029346725, -50.44145500054081])","array('d', [-0.004416098818182964, -0.07873630529618407, -0.1459840150256252, -0.2068322643291233, -0.26189004043756087, -0.2999646160854905, -0.3183776436611387, -0.3216480822750551, -0.31385445995686084, -0.2985386411916141, -0.2786536400916023, -0.25655685362457314, -0.2340332312597767, -0.21233101360290257, -0.1921974222253807, -0.17390743502393205])","array('d', [-0.008000843226909572, -0.006745156956535652, -0.005761105715643762, -0.004979256580895741, -0.004349533065781154, -0.003835399794558576, -0.003409826707970959, -0.003052453181899415, -0.0027476968346663586, -0.0024835335433762893, -0.0022507107790731276, -0.0020422411564898174, -0.0018530792469876123, -0.001679917659085006, -0.0015210564862424645, -0.001376309250469899])","array('d', [-0.9956723888728279, -0.9940148735305919, -0.989563222830748, -0.9825454687096439, -0.9731554221015799, -0.9618173943678346, -0.9492765624279728, -0.9362710812141778, -0.9233679729504142, -0.910967929858086, -0.8993248425806193, -0.8885732575761999, -0.8787574566767175, -0.8698585261835333, -0.8618182253596084, -0.8500678308376053])",60.802881834062,-342.1746247248116,-50.509356600675076,-0.26189004043756087,-0.004349533065781154,-0.9731554221015799,25.000000237629493,-1.0,"[-374.94913196078517, 102.28868627366175, 49.90799130653139]","[-355.02911450832727, 101.30989223201126, 48.413044177766714]","[-366.435852234079, 87.82169228075577, 39.03462232060638]",10000000000.0,0.029185056686401367
21,22.058608293533325,-345.1705322265625,65.2186050415039,50.8077507019043,-0.13373403251171118,0.01622682064771645,-1.0048557957026625,23.300263624178882,"array('d', [67.57029724121094, 65.468446715681, 63.37320781419745, 61.28812991123961, 59.2166098332751, 57.16183319258406, 55.12628831717182, 53.11142870021473, 51.11775700659833, 49.1450245622372, 47.192437153306074, 45.25884528458708, 43.34290514642408, 41.44320454358462, 39.55835306684021, 38.40495974231929])","array('d', [-346.6764831542969, -345.3231517002355, -343.95953312410404, -342.58038331559163, -341.18092586134367, -339.75698321195404, -338.3056708280979, -336.8257656808877, -335.3174291061933, -333.7817990003542, -332.22062596912326, -330.6359794081194, -329.0300291653482, -327.4048959613869, -325.7625592715109, -324.73574057314056])","array('d', [-50.66844940185547, -50.6418166765519, -50.61952672715676, -50.600651422685864, -50.584490124503, -50.570508896215394, -50.55829747129563, -50.547538696582144, -50.5379866508864, -50.52945057303095, -50.521782636579566, -50.514868307675144, -50.50861845925668, -50.50296268695818, -50.49784345132464, -50.494981860980396])","array('d', [-0.054969836026430144, -0.12447922249255246, -0.18737392187527058, -0.24428340419979067, -0.2957772365843987, -0.3316708767071688, -0.3477886306920964, -0.3487192205548892, -0.3386169226569487, -0.32108621439206414, -0.29912223063271287, -0.2751045223775975, -0.25082448728137025, -0.2275262304613591, -0.20594678839439806, -0.18634837713434402])","array('d', [-0.01164619065821163, -0.00969297925971924, -0.008164712625910217, -0.006955841573608087, -0.0059894094203249305, -0.005208656211598861, -0.004571157395149744, -0.0040446717901597064, -0.003604329142027933, -0.003230777964975827, -0.0029089495236059534, -0.00262722042244637, -0.0023768403278465657, -0.002151539803937666, -0.0019472593494321206, -0.001761953583363462])","array('d', [-1.0002860267970224, -0.9967313821792974, -0.9905395604712293, -0.9819144757357859, -0.9710324636058939, -0.9582869902064223, -0.9444120119176593, -0.9301655440616293, -0.9161263468978508, -0.9026982029306639, -0.8901314093620636, -0.8785528819436095, -0.8679975024379053, -0.8584367273045104, -0.8498033190372959, -0.8371909386885661])",59.2166098332751,-341.18092586134367,-50.584490124503,-0.2957772365843987,-0.0059894094203249305,-0.9710324636058939,25.000000237308523,-1.0,"[-374.94913196078517, 102.28868627366175, 49.90799130653139]","[-355.02911450832727, 101.30989223201126, 48.413044177766714]","[-366.435852234079, 87.82169228075577, 39.03462232060638]",10000000000.0,0.025009870529174805
