,current_time,x_pos,y_pos,z_pos,roll,pitch,yaw,vel,x_traj,y_traj,z_traj,roll_traj,pitch_traj,yaw_traj,x_cmd,y_cmd,z_cmd,roll_cmd,pitch_cmd,yaw_cmd,vel_cmd,effector_dmg,effector_x,effector_y,effector_z,cost,time_solution
0,27.393494844436646,-310.5346984863281,-222.2715301513672,50.1038818359375,0.6315122246742245,0.030050493776798103,0.3638706962254384,23.099545735659593,"array('d', [-223.2711639404297, -222.33993423968076, -221.4595538924498, -220.61858708961157, -219.80858889294427, -219.023172792621, -218.25746481274504, -217.5077423137443, -216.77117166433976, -216.0456049462323, -215.32941629358135, -214.62136816348578, -213.92050258843943, -213.2260548403916, -212.53738815632093, -212.12064761960147])","array('d', [-313.61102294921875, -311.29178155038676, -308.95231292968265, -306.5981888245917, -304.23313817304717, -301.8597666106716, -299.47994173647623, -297.0950214199208, -294.7060004990236, -292.31361133009784, -289.9183961477338, -287.52076083334316, -285.12101543600716, -282.7194045231883, -280.31612919214916, -278.8460389266033])","array('d', [-50.09149169921875, -50.031908524352836, -49.991844788672005, -49.96444799274451, -49.9453860867603, -49.9318816597165, -49.922128889643545, -49.914937066523855, -49.90951000655493, -49.905308060090704, -49.90196099980856, -49.899212683130465, -49.896885823327096, -49.89485962825793, -49.89305570488043, -49.8920615709709])","array('d', [0.6338652968406676, 0.5041259472863876, 0.40158615904529216, 0.3204861608785243, 0.2566363016648988, 0.20675254310148872, 0.16814204232508978, 0.13854068393850633, 0.1160241287372857, 0.09895685073545576, 0.08596165398167308, 0.07590065655587909, 0.06786303855943578, 0.06115711009967823, 0.05530544398418563, 0.05004243967062194])","array('d', [-0.028679033741354835, -0.0191511451846502, -0.013003815577957434, -0.008981180105714689, -0.006313007283479573, -0.004520490982173599, -0.0033020709473994647, -0.002465353705993718, -0.0018859630869763374, -0.0014823290763548954, -0.0012000292553944886, -0.0010019292155075648, -0.0008618949305016835, -0.0007607486100056785, -0.0006836759310435516, -0.0006186159229809321])","array('d', [0.3949627439167837, 0.36987650318597354, 0.350803687995346, 0.33600820033526174, 0.3243783529326573, 0.3151356048232028, 0.30770492647737585, 0.30164966683989913, 0.2966352311261108, 0.2924065307251571, 0.2887722937252874, 0.28559289096256985, 0.28277000814113185, 0.2802373099447868, 0.2779516436138986, 0.2745696226659286])",-219.023172792621,-301.8597666106716,-49.9318816597165,0.20675254310148872,-0.004520490982173599,0.3151356048232028,25.000000246040067,-1.0,"[-310.03344158306015, -222.00570619317742, 50.05569982887565]","[-297.54723228123544, -209.18697509159625, 58.987368777979256]","[-290.2697992319344, -224.08457604226535, 47.80253734753005]",10000000000.0,0.0341794490814209
1,27.45162606239319,-309.2140808105469,-221.87435913085938,50.108795166015625,0.630469739437103,0.03020427748560888,0.3507326404240467,23.09569430199604,"array('d', [-222.97698974609375, -222.06666960206675, -221.20719853515365, -220.38700468225002, -219.59756226430443, -218.83243682707996, -218.08672858272482, -217.3567049281361, -216.63953380381454, -215.93307708868005, -215.23572425434648, -214.54625643129694, -213.86373588483158, -213.18741830896374, -212.51668657614772, -212.1107457844556])","array('d', [-312.73956298828125, -310.4120550362161, -308.0648334613254, -305.703395966687, -303.331406806891, -300.95141742975636, -298.5652505948555, -296.1742271306092, -293.77931117399993, -291.38120947426427, -288.98044272960345, -286.57739853276047, -284.17237123904385, -281.7655918053883, -279.35724940675766, -277.88405974780227])","array('d', [-50.09489059448242, -50.03452818661111, -49.99390955954296, -49.96611164948776, -49.946755297626176, -49.933031184021225, -49.9231116045076, -49.91579067706672, -49.91026159369469, -49.90597720081034, -49.90256193668821, -49.89975585711498, -49.89737897874009, -49.89530863001439, -49.89346516137569, -49.89244915356869])","array('d', [0.6336860060691832, 0.5025777454493342, 0.3991243721297201, 0.3174361908746805, 0.25324209369102596, 0.20319979176483877, 0.16457114041247553, 0.13505508875335695, 0.11269657197768351, 0.09583448616690984, 0.08307064009059335, 0.07325039788878092, 0.06545018939390004, 0.05896939678471664, 0.05332534705651085, 0.04825077371693544])","array('d', [-0.02904528565704811, -0.01941025303116505, -0.013189898774653907, -0.00911684936500443, -0.006413488871129837, -0.004596174985773489, -0.0033601295769751464, -0.002510789548922997, -0.0019222979866576459, -0.0015120615499749095, -0.0012249403341064863, -0.0010232877447861313, -0.0008805956140181235, -0.0007774049667395245, -0.0006986832998451674, -0.0006321951530377849])","array('d', [0.38594813744095346, 0.3609092792405315, 0.34193373666342003, 0.32726179835941055, 0.3157694880897926, 0.30667055781509583, 0.29938458438333726, 0.29347097811860656, 0.28859229701650085, 0.284491507349304, 0.280976159211188, 0.2779060885643364, 0.2751829633696872, 0.2727408179187759, 0.27053712413807557, 0.26727656781843895])",-218.83243682707996,-300.95141742975636,-49.933031184021225,0.20319979176483877,-0.004596174985773489,0.30667055781509583,25.000000246024992,-1.0,"[-308.24919016360417, -221.48359223412973, 50.06185176636016]","[-295.49183169346543, -208.82050271863466, 58.830886421722035]","[-288.54149409904943, -223.8405945589649, 47.601921712912436]",10000000000.0,0.053375244140625
2,27.488369941711426,-308.3257751464844,-221.61814880371094,50.11076736450195,0.6295329332351683,0.029807036742567863,0.34219046036270656,23.10095886700467,"array('d', [-222.551513671875, -221.67223955276464, -220.84369563515338, -220.05413623122993, -219.2949333703754, -218.55959372595132, -217.84318823849623, -217.14197648320325, -216.45313428972977, -215.77454262373303, -215.10461751271728, -214.44217101714105, -213.78629819808683, -213.13628747437244, -212.4915529972765, -212.10124839270446])","array('d', [-311.4299011230469, -309.09052866955074, -306.73223119973244, -304.36038391166534, -301.9785478404016, -299.5891896928211, -297.1940630891445, -294.7944323775982, -292.3912153219425, -289.98508030645723, -287.57651598739443, -285.1658829039356, -282.75345230043325, -280.3394351549917, -277.924003177376, -276.44647293867905])","array('d', [-50.100364685058594, -50.03844496876944, -49.9967304091926, -49.96814910321625, -49.94822374577535, -49.934079350875415, -49.92384370303388, -49.91628038411194, -49.910561403168586, -49.90612476499313, -49.9025844270077, -49.89967301479202, -49.897205296306524, -49.89505495601713, -49.89313992190981, -49.89208434895341])","array('d', [0.632362902164459, 0.49941076350184244, 0.39474258420241926, 0.3122913771120454, 0.24767407190926174, 0.19746757876150597, 0.15887035122460852, 0.12952926837082188, 0.10744572770055238, 0.09092227338232471, 0.07853084279906981, 0.06909297879976874, 0.06166702920016023, 0.055539786151392455, 0.05022128096926829, 0.04544209831888559])","array('d', [-0.029780972748994754, -0.019924493427159407, -0.013555015012087957, -0.009380188787388376, -0.0066065408880991204, -0.004740171697066006, -0.003469566157803906, -0.0025956765625708153, -0.001989622398437658, -0.0015667444433108354, -0.00127046933342828, -0.0010621363563029262, -0.0009145015778091399, -0.0008075549337139454, -0.000725835728426465, -0.0006567636886139059])","array('d', [0.3725944320347643, 0.3476790221167938, 0.3288860873787563, 0.31442706075757376, 0.3031627888646224, 0.2942972819208864, 0.28724313472229457, 0.2815545723690308, 0.27689037879184736, 0.2729909573955789, 0.2696623507359905, 0.2667637840386659, 0.2641970400089749, 0.26189681123802594, 0.2598215834763387, 0.2567513579857255])",-218.55959372595132,-299.5891896928211,-49.934079350875415,0.19746757876150597,-0.004740171697066006,0.2942972819208864,25.000000246001825,-1.0,"[-307.8060414708379, -221.3592152959737, 50.063495638301326]","[-294.98169586719746, -208.73804408566124, 58.79517343345435]","[-288.1131114020553, -223.78722010887145, 47.554850997347685]",10000000000.0,0.03345990180969238
3,27.517839908599854,-307.8785705566406,-221.49253845214844,50.11122512817383,0.6279383301734924,0.02952658571302886,0.3378499309208729,23.105416566441175,"array('d', [-222.2715301513672, -221.41261914108463, -220.60435892843935, -219.83488985808503, -219.09551729555207, -218.37970963143803, -217.68251884745482, -217.00019955166684, -216.32993285852618, -215.66961232914448, -215.017671463582, -214.372942648827, -213.7345424854412, -213.10178087713558, -212.47409250573807, -212.09200041030232])","array('d', [-310.5346984863281, -308.1877883117815, -305.82246935665523, -303.4440318862183, -301.0559673000593, -298.6606860252969, -296.2598962588471, -293.85482556483856, -291.44636173894605, -289.0351485501591, -286.6216542313903, -284.2062221773254, -281.7891090546965, -279.37051328194616, -276.9505956112352, -275.46241396964086])","array('d', [-50.1038818359375, -50.04138186959243, -49.999242945103816, -49.970347451315455, -49.95018641663035, -49.93586267572237, -49.925488349396815, -49.91781588051698, -49.91200930904085, -49.90750091029556, -49.90390051003572, -49.90093775610116, -49.89842528533826, -49.89623528455096, -49.89428466867248, -49.893203654864095])","array('d', [0.6315122246742245, 0.49735765187544495, 0.391896482108962, 0.3089463101291662, 0.2440514066099219, 0.19373626186364623, 0.1551581421675892, 0.12593003555675839, 0.10402494983500972, 0.08772169023639022, 0.07557266649596753, 0.06638383755208657, 0.059201715723469946, 0.05330484836156456, 0.04819848520935741, 0.04361179686058512])","array('d', [-0.030050493776798103, -0.02012054675561585, -0.01369936538331961, -0.009487818330962926, -0.006687897640131977, -0.004802609732635194, -0.003518300475872397, -0.002634429138010049, -0.002021064392583996, -0.0015928008399532752, -0.0012925294708838494, -0.0010811996159940812, -0.0009312783015195051, -0.0008225365657403776, -0.0007393440985655471, -0.0006689865684678293])","array('d', [0.3638706962254384, 0.3390349280152083, 0.3203601552991573, 0.30603909694184306, 0.29492276768611425, 0.286208848134368, 0.27930537624218077, 0.2737631783564258, 0.2692385552620319, 0.26547021777672675, 0.2622632073687518, 0.25947633706308393, 0.2570114542806573, 0.25480367391368397, 0.25281213817695436, 0.24988154874881274])",-218.37970963143803,-298.6606860252969,-49.93586267572237,0.19373626186364623,-0.004802609732635194,0.286208848134368,25.000000245986023,-1.0,"[-306.91336994000756, -221.11504534424296, 50.06606342967979]","[-293.9583424798431, -208.57544740901653, 58.722029414435625]","[-287.2502963536036, -223.68646535516498, 47.467730067100746]",10000000000.0,0.02670907974243164
4,27.558727025985718,-306.9825439453125,-221.2474365234375,50.11224365234375,0.618491470813751,0.028378784656524617,0.3292482654240465,23.11678551639704,"array('d', [-222.1372528076172, -221.28860151376432, -220.49056223402164, -219.73121788583242, -219.00184027013304, -218.29587848633383, -217.6083749318624, -216.935581659054, -216.27468237942276, -215.6235769282733, -214.9807075350065, -214.3449167544364, -213.71533196839349, -213.09127383786605, -212.47218732532158, -212.1017483796127])","array('d', [-310.0951843261719, -307.74455102814534, -305.37576707504934, -302.99407928889883, -300.60294374366987, -298.20474247145177, -295.80116085375715, -293.3934080563287, -290.9823569487854, -288.56863909193964, -286.1527126310275, -283.7349125240865, -281.315488286497, -278.8946321891072, -276.4724996272513, -275.00828789273316])","array('d', [-50.10560989379883, -50.042868476336274, -50.000549543615016, -49.97151855929282, -49.95125442594793, -49.936851237794265, -49.926414792711846, -49.91869294687159, -49.91284640498188, -49.90830501273629, -49.904676825466616, -49.90169020466497, -49.899156860665514, -49.896948325387854, -49.89498106743475, -49.89390933862711])","array('d', [0.6311064362525937, 0.4963473581104863, 0.39048694679596635, 0.3072849644061139, 0.2422492936918835, 0.19187819182690308, 0.15330830535296983, 0.12413564088427402, 0.10231896836702918, 0.08612517832829732, 0.07409687349759522, 0.065032182637706, 0.05797166865938129, 0.05218973210629061, 0.04718921497304962, 0.04269857130427779])","array('d', [-0.030161662027239692, -0.020203079711211876, -0.01376120538557339, -0.009534628952019515, -0.006723751490269962, -0.004830448458722375, -0.0035402553475398424, -0.0026520483515050514, -0.0020354751210459538, -0.0016048247711883028, -0.00130276500423913, -0.0010900801925437591, -0.0009391137566771225, -0.0008295425449584152, -0.0007456632393765968, -0.0006747041712497592])","array('d', [0.3594862977650502, 0.33468930819220083, 0.3160727969431349, 0.30182005741063606, 0.2907771581382158, 0.2821385938754491, 0.2753101056365616, 0.26984080351664086, 0.26538573191582276, 0.26168274303449335, 0.25853636807137703, 0.25580520663630724, 0.25339113323701384, 0.2512294702534183, 0.24927968564363023, 0.24636095463908875])",-218.29587848633383,-298.20474247145177,-49.936851237794265,0.19187819182690308,-0.004830448458722375,0.2821385938754491,25.00000024854086,-1.0,"[-306.01412715824875, -220.8781217394224, 50.06813003883878]","[-292.9271397261055, -208.38984331359703, 58.59887806641462]","[-286.3826626579876, -223.6104117846457, 47.39601614086194]",10000000000.0,0.032508134841918945
5,27.59179711341858,-306.0843505859375,-221.01048278808594,50.11369323730469,0.5981391072273253,0.026539932936429925,0.320721582570348,23.131661752370665,"array('d', [-221.87435913085938, -221.0462755850678, -220.2688656616981, -219.53009018486333, -218.82112969010268, -218.1353778487864, -217.4678452517727, -216.81476888644724, -216.17332955900818, -215.54143291213876, -214.9175329288116, -214.30048760363195, -213.6894416257236, -213.08373342669364, -212.48282519875883, -212.11891714650673])","array('d', [-309.2140808105469, -306.8561260460579, -304.4804935898249, -302.0923464586411, -299.6950785335153, -297.2910205864943, -294.88181627068604, -292.4686408961643, -290.0523398271341, -287.6335221684489, -285.21262758249355, -282.7899756450873, -280.36580289519003, -277.94029049034464, -275.513584163403, -274.0291223660255])","array('d', [-50.108795166015625, -50.04594373416035, -50.00351472250492, -49.97438288119778, -49.95403019460955, -49.93955081978043, -49.9290493172642, -49.92127188861735, -49.915377591071405, -49.910794812088305, -49.90713039723157, -49.90411174691577, -49.901549833234085, -49.89931563687918, -49.89732522386337, -49.896227869306394])","array('d', [0.630469739437103, 0.49573222044292103, 0.3888732449526466, 0.30500754498808375, 0.2395586506790279, 0.1889654900230361, 0.1503189517899667, 0.12117784087177064, 0.0994699700267122, 0.0834364080387108, 0.07159849972838932, 0.06273734420765645, 0.055880472864173636, 0.05029307789379316, 0.045472480986035714, 0.041145206014318286])","array('d', [-0.03020427748560888, -0.020248457711826914, -0.013803947361656702, -0.009572656765353967, -0.006756654150671885, -0.0048585758352352555, -0.0035642434337663374, -0.0026725843158221965, -0.002053190835975728, -0.0016202566019417545, -0.0013163461476247069, -0.00110214792609131, -0.0009499227790651467, -0.0008392802646203122, -0.0007544651875738703, -0.0006826686968339833])","array('d', [0.3507326404240467, 0.3259700871662373, 0.3074071756130466, 0.2932409439186545, 0.28230329690829087, 0.27378001255910467, 0.2670708060868481, 0.2617204039370421, 0.2573806629056654, 0.25378721536269877, 0.25074318513796207, 0.24810644106606067, 0.24577866986848523, 0.24369541417970278, 0.2418166343827837, 0.23903747464456787])",-218.1353778487864,-297.2910205864943,-49.93955081978043,0.1889654900230361,-0.0048585758352352555,0.27378001255910467,25.000000245961107,-1.0,"[-305.5636869733517, -220.76263416182792, 50.069681188880885]","[-292.41215362335294, -208.27343427873808, 58.49921598174454]","[-285.948122135225, -223.5868466194574, 47.376460055104936]",10000000000.0,0.029055356979370117
6,27.62046504020691,-305.6343994140625,-220.8950653076172,50.114830017089844,0.5836400985717773,0.02522874623537054,0.3164964477207994,23.14006697438613,"array('d', [-221.61814880371094, -220.81016993583557, -220.05289404957932, -219.33416854669804, -218.64508897126956, -217.9789980456542, -217.33087778010648, -216.6969524261294, -216.0744015609652, -215.46113783269573, -214.85562782697943, -214.2567455774659, -213.66365350684995, -213.075708129831, -212.49238911070728, -212.13908926308272])","array('d', [-308.3257751464844, -305.9608340205456, -303.57869767001887, -301.1844358017658, -298.78137575989814, -296.3717952924269, -293.95729575674864, -291.53901861650667, -289.1177820215643, -286.69417304509676, -284.26861334479617, -281.84140760199494, -279.4127798512701, -276.9829005790953, -274.5519062609084, -273.06479786830107])","array('d', [-50.11076736450195, -50.04872096557879, -50.006799531655105, -49.977990720863446, -49.95784536159373, -49.94350000128364, -49.93308559317805, -49.92536497534225, -49.919507836353844, -49.914949459890856, -49.9113012342656, -49.908293592162835, -49.905739539698914, -49.90351139992408, -49.90152606741985, -49.90043141484475])","array('d', [0.6295329332351683, 0.49488455746963333, 0.38709048605740903, 0.3026077731747324, 0.23678011209127592, 0.18599014329725858, 0.14728519626292774, 0.1181885456666844, 0.09659836269694334, 0.08073095121244206, 0.069087252585397, 0.060432021423261685, 0.05378029272467097, 0.04838844666868212, 0.043748548600421926, 0.039585327344448404])","array('d', [-0.029807036742567863, -0.019998997058607866, -0.013645763015959298, -0.009471448221165085, -0.006691395493946115, -0.004816238662364567, -0.0035366583566900753, -0.0026545610108712142, -0.0020413835160943573, -0.0016124747202927521, -0.0013111337657555192, -0.001098527179491484, -0.0009472389190664884, -0.0008371102861088101, -0.0007525662343413978, -0.0006809504527400485])","array('d', [0.34219046036270656, 0.31747696740478576, 0.2989772408318897, 0.28490384674527736, 0.27407574013190483, 0.265670678831396, 0.2590827882964073, 0.2538527014044424, 0.2496292878780671, 0.24614610122216007, 0.24320495648737406, 0.24066305874783936, 0.23842194999607014, 0.23641741829878768, 0.23460992913226936, 0.23193640287353537])",-217.9789980456542,-296.3717952924269,-49.94350000128364,0.18599014329725858,-0.004816238662364567,0.265670678831396,25.000000245944218,-1.0,"[-304.6613396169424, -220.5377721724923, 50.07388801120559]","[-291.38122840071793, -207.98447461609848, 58.20121023598202]","[-285.07842019280304, -223.5751795229293, 47.3751061720834]",10000000000.0,0.027155160903930664
7,27.662967443466187,-304.7327575683594,-220.6702117919922,50.118865966796875,0.5468398332595825,0.021740162745118054,0.30776913563278724,23.156128130050426,"array('d', [-221.49253845214844, -220.6947243020115, -219.94750413075857, -219.238694359511, -218.55936557085556, -217.90284734065295, -217.26411667498687, -216.6393987976061, -216.0258786710417, -215.42147746641405, -214.82467234367286, -214.23434904208295, -213.64968206852234, -213.07003981833915, -212.49491322240283, -212.14653264142413])","array('d', [-307.8785705566406, -305.51016540998296, -303.12484884738154, -300.72762958706085, -298.3217933352794, -295.90958629440064, -293.492585441023, -291.0719131222801, -288.64837231726415, -286.2225379154386, -283.7948216613561, -281.36552005145694, -278.93485025234935, -276.50297688967447, -274.0700313559999, -272.5817206597136])","array('d', [-50.11122512817383, -50.04975176408704, -50.008199787917356, -49.97963244839967, -49.95964709694787, -49.94540925076438, -49.93506813165733, -49.92739825473023, -49.92157688051376, -49.91704427690922, -49.91341516147623, -49.910422217032426, -49.90787997584341, -49.90566178005863, -49.90368516620944, -49.902595274054974])","array('d', [0.6279383301734924, 0.49344169980051494, 0.3853255640138673, 0.3006501611040427, 0.23472804632234423, 0.18391894369203177, 0.14525181604695972, 0.11623457648266486, 0.09475237821152425, 0.07901056317310877, 0.0675010280284181, 0.05898131244681418, 0.05246099390809995, 0.04719268655732207, 0.04266632346914708, 0.03860608946228424])","array('d', [-0.02952658571302886, -0.019819195336485608, -0.01352890569160441, -0.009394450413287805, -0.00663995641863864, -0.0047813882574532654, -0.003512695419880403, -0.002637810703220333, -0.0020294417114284148, -0.0016037446260210488, -0.0013045400508979723, -0.0010933393065030114, -0.0009429625613938587, -0.0008334216443807868, -0.0007492733479182674, -0.0006779709256236534])","array('d', [0.3378499309208729, 0.3132198186757597, 0.294797047969965, 0.2808061131645621, 0.270062674316998, 0.26174221009145127, 0.2552370924685378, 0.2500865874173343, 0.24593854618867095, 0.24252583323751417, 0.2396498780312857, 0.23716776544844012, 0.23498113462241074, 0.23302603380096915, 0.2312632942032382, 0.2286560479106392])",-217.90284734065295,-295.90958629440064,-49.94540925076438,0.18391894369203177,-0.0047813882574532654,0.26174221009145127,25.000000245935624,-1.0,"[-303.3035777588544, -220.21591914225087, 50.08625829140719]","[-289.8294484690348, -207.44140841185015, 57.51994617025332]","[-283.7722131391507, -223.65364225857616, 47.4963054216293]",10000000000.0,0.03642463684082031
8,27.708513259887695,-303.36962890625,-220.34617614746094,50.132484436035156,0.4760309159755704,0.015595098957419227,0.2948981086399893,23.1795744269109,"array('d', [-221.2474365234375, -220.46939610705758, -219.74104728062312, -219.05029075755328, -218.38824753306585, -217.74829114364428, -217.12544117539272, -216.5159660003303, -215.917094663341, -215.32679291445424, -214.7435822027913, -214.16639140699843, -213.59443625018477, -213.02712381981925, -212.4639808258117, -212.12266041627367])","array('d', [-306.9825439453125, -304.6075059356068, -302.2163309018156, -299.8138339143039, -297.40317704043673, -294.98651995289015, -292.56537621810173, -290.1408201521734, -287.7136173903297, -285.2843131246366, -282.85329498675225, -280.42083950641, -277.98714701059185, -275.5523676857801, -273.11662036882825, -271.6266005992888])","array('d', [-50.11224365234375, -50.05313837048998, -50.013151841408686, -49.98563571233848, -49.96636748011525, -49.95262676445555, -49.942636099559024, -49.93521780151022, -49.929580769385865, -49.925186528208656, -49.92166427727066, -49.91875666743891, -49.916285104228194, -49.914127591993434, -49.91220466050895, -49.91114426957797])","array('d', [0.618491470813751, 0.4848938263827104, 0.37698775556325287, 0.29260163946522355, 0.22703840617613033, 0.17664347200742536, 0.13842989328243585, 0.10988974927206661, 0.08889348898347739, 0.07363355452125722, 0.06259113811823913, 0.05451545140460684, 0.048410159736563006, 0.043524339337105145, 0.039346683220942605, 0.035602354479344414])","array('d', [-0.028378784656524617, -0.019065384527615446, -0.013026000427148262, -0.009053628721171767, -0.006405293557307721, -0.004617165223830657, -0.003395763796388762, -0.0025529433928482967, -0.0019664696978882856, -0.0015557762294559042, -0.0012668453776502903, -0.001062649389528845, -0.0009170306939305932, -0.0008107522294122011, -0.0007289575946269463, -0.0006595884702206832])","array('d', [0.3292482654240465, 0.30510885886977723, 0.28708930241643765, 0.27345989122969244, 0.2630477221302995, 0.25503355146217666, 0.2488122019289252, 0.24392412765849644, 0.24001790149657368, 0.23682704804377705, 0.234153782289904, 0.23185616128032632, 0.2298369734230701, 0.2280335459577044, 0.2264080526685045, 0.22400397397102456])",-217.74829114364428,-294.98651995289015,-49.95262676445555,0.17664347200742536,-0.004617165223830657,0.25503355146217666,25.000000245919253,-1.0,"[-302.39236769438, -220.01044723825726, 50.100123275781606]","[-288.79109167538127, -207.0366766742592, 56.93288026017285]","[-282.89685953964477, -223.74741996295882, 47.65877187881181]",10000000000.0,0.04465150833129883
9,27.747073650360107,-302.4570617675781,-220.1386260986328,50.1482048034668,0.4229036569595336,0.011033389717340376,0.28637202183273813,23.193760427587108,"array('d', [-220.8950653076172, -220.1451320379278, -219.4413348028457, -218.77215275622441, -218.1290963286376, -217.50582737215487, -216.89759767213667, -216.30087358016542, -215.71305899428887, -215.13227711201512, -214.55719244259564, -213.9868642368094, -213.42062700142563, -212.85799587832392, -212.29859568689412, -211.95886829387882])","array('d', [-305.6343994140625, -303.250173184349, -300.85158206958494, -298.4429508863327, -296.02714202415274, -293.6061181670073, -291.18125521883434, -288.7535265355562, -286.32362064951855, -283.8920217628515, -281.4590677688479, -279.0249935802225, -276.5899639811957, -274.15409833606935, -271.7174884727856, -270.2270290471068])","array('d', [-50.114830017089844, -50.06225377250766, -50.02663314215786, -50.002083824143845, -49.984864282361336, -49.972561466643434, -49.96359725258008, -49.95692521400425, -49.951841991435586, -49.94786863412612, -49.94467526503711, -49.942032938496816, -49.93978278996326, -49.93781629782869, -49.936062708316875, -49.935095539547035])","array('d', [0.5836400985717773, 0.4533589983441243, 0.34851812044977154, 0.2667539377347374, 0.2035169112754189, 0.15522849744119394, 0.11894250551631799, 0.0921736039854543, 0.07280560936433915, 0.05903998529312049, 0.049365236705674706, 0.04253752187728744, 0.03756768231082238, 0.033712383789160756, 0.03046830042924983, 0.02756886079039739])","array('d', [-0.02522874623537054, -0.01697318949493211, -0.011613719743704985, -0.00808492765121873, -0.005730100966446912, -0.004138739362497581, -0.0030507965926066796, -0.002299375872218957, -0.0017759369944756196, -0.0014088735278539623, -0.0011501386337082115, -0.0009667817329610022, -0.0008355269129067309, -0.0007392726557334224, -0.0006648407299221684, -0.000601573126703671])","array('d', [0.3164964477207994, 0.29412142476147674, 0.277509977705651, 0.2650643033892567, 0.25568225482413076, 0.2485820875690923, 0.24318039545446588, 0.2390314517713435, 0.2357934776837427, 0.2332073972193144, 0.23108156057918422, 0.22927939066394404, 0.22770851159419134, 0.22631066597564406, 0.22505207031214922, 0.2231908988642306])",-217.50582737215487,-293.6061181670073,-49.972561466643434,0.15522849744119394,-0.004138739362497581,0.2485820875690923,25.000000245897663,-1.0,"[-301.4764835450761, -219.81178694514847, 50.119554719606576]","[-287.74906736764814, -206.63489017896703, 56.27808024972212]","[-282.0185313237942, -223.85684721928436, 47.87777356772799]",10000000000.0,0.03250575065612793
10,27.784746885299683,-301.54376220703125,-219.9370880126953,50.170570373535156,0.3684235215187071,0.006476814392954069,0.2783609191563465,23.206126974792827,"array('d', [-220.78164672851562, -220.04105188416457, -219.34485668789762, -218.68183413941162, -218.0436972964608, -217.42425757402734, -216.81888584536875, -216.22414830948526, -215.6375353774847, -215.0572466767473, -214.48201496494121, -213.91096077800572, -213.34347381817793, -212.7791190271365, -212.21756621628631, -211.8762086104534])","array('d', [-305.1838684082031, -302.7966493642895, -300.39580600230414, -297.98545540998634, -295.5683340909942, -293.1463233485452, -290.7207429802673, -288.2925255424624, -285.8623284894365, -283.43061136524756, -280.99769180574737, -278.5637876075356, -276.1290487866098, -273.6935817829084, -271.25746701792497, -269.76736359269836])","array('d', [-50.11649703979492, -50.06722916995125, -50.03382968555578, -50.01079544755384, -49.99462580596376, -49.98306225207989, -49.9746273011726, -49.96834105193469, -49.963544780334125, -49.95978992272049, -49.95676756101829, -49.95426333846868, -49.95212855013216, -49.95026162781994, -49.94859632480246, -49.94767777630015])","array('d', [0.5665308833122252, 0.4378779394547308, 0.33474319258755586, 0.25440743401584853, 0.19240592116803096, 0.14520727464971567, 0.10989348846420606, 0.08399731918994877, 0.06541519270870606, 0.052358194498063705, 0.0433227965085226, 0.03707214431708373, 0.03262338963448581, 0.029238931352519315, 0.02642059796088435, 0.023906347808320984])","array('d', [-0.023635301738977266, -0.015910509021593584, -0.010893593480491204, -0.007589189941636009, -0.0053834127890799695, -0.003892338169530012, -0.002872646081503954, -0.0021681117000297624, -0.0016770990049580564, -0.00133253619479232, -0.0010894095746493858, -0.0009168474629360866, -0.0007930486100947812, -0.000702008102169152, -0.000631412081516499, -0.0005713256320782691])","array('d', [0.312135056653295, 0.2906014958323493, 0.27466342668188914, 0.26277960095438774, 0.25388262700625847, 0.24720962580460595, 0.24218844273193027, 0.23838068230106182, 0.23544977376125648, 0.2331406406004548, 0.23126489729655245, 0.2296887424267375, 0.2283222178567246, 0.22710919953667916, 0.2260177999971006, 0.2244040138982801])",-217.42425757402734,-293.1463233485452,-49.98306225207989,0.14520727464971567,-0.003892338169530012,0.24720962580460595,25.000000245890963,-1.0,"[-301.01823685714777, -219.71494109424862, 50.13165505467806]","[-287.228684565968, -206.44329838366306, 55.93783687850871]","[-281.57955117417873, -223.91299525990385, 48.00707506301872]",10000000000.0,0.028728246688842773
11,27.82551860809326,-300.6300354003906,-219.74053955078125,50.199989318847656,0.3150298297405242,0.002317802747711462,0.27106173435715225,23.214229810191064,"array('d', [-220.4525146484375, -219.73895568254943, -219.0633131809904, -218.41543170390696, -217.78778227198333, -217.1747433443481, -216.57214027666328, -215.9769207766065, -215.38690495954526, -214.80058232327485, -214.21694296814564, -213.63533718405645, -213.05536055513565, -212.47676306269722, -211.89938127836703, -211.54719130686965])","array('d', [-303.82550048828125, -301.42982370126055, -299.0230059350938, -296.60848882533776, -294.18859672111176, -291.7649442432168, -289.33866713323897, -286.91056360807835, -284.48118802024726, -282.0509171924112, -279.61999987355716, -277.1885948165054, -274.7568003966257, -272.32467732145346, -269.89226525471577, -268.4046591658196])","array('d', [-50.126708984375, -50.08972265394027, -50.06458177763975, -50.04718728755286, -50.034928230193415, -50.026118338292555, -50.019653673630124, -50.014801812159014, -50.011070427517105, -50.008124462798634, -50.0057334374343, -50.00373769015001, -50.00202666671296, -50.00052494181372, -49.999183218147365, -49.99844286334763])","array('d', [0.5011906027793883, 0.3787556138120616, 0.2823924188771334, 0.20771679112167993, 0.1505830654691899, 0.10764397361456628, 0.07609622091611294, 0.053549758276630936, 0.03795739631172949, 0.027574780223618322, 0.020935860081738786, 0.016836520970377765, 0.014322914053057025, 0.012682977532537816, 0.01144054704581494, 0.010351835988971153])","array('d', [-0.01772473379969589, -0.011961591674553176, -0.008213977693767074, -0.005742951715503928, -0.004091877702394288, -0.0029746876594591064, -0.002209809599266265, -0.0016805117636087203, -0.0013107651558411976, -0.0010503513686268614, -0.000865552019776029, -0.0007332529745690917, -0.0006371687457382452, -0.0005654083414925574, -0.0005089130874992306, -0.00046048394867669094])","array('d', [0.29920216003921996, 0.28075057258740277, 0.26730826084937276, 0.2575161936463545, 0.25042747254775627, 0.24534620747717795, 0.24174115790604148, 0.23920123672959423, 0.23740968997650105, 0.23612687862856802, 0.23517708386898228, 0.23443724278643818, 0.23382666779015, 0.23329731672791168, 0.23282439687166764, 0.23212573260648767])",-217.1747433443481,-291.7649442432168,-50.026118338292555,0.10764397361456628,-0.0029746876594591064,0.24534620747717795,25.000000245872865,-1.0,"[-299.64317716172116, -219.4314480536801, 50.17791341999342]","[-285.684045557392, -205.91532580374945, 54.91680402623738]","[-280.25992846062667, -224.04659513621885, 48.448726559630124]",10000000000.0,0.03205990791320801
12,27.867669820785522,-300.1731262207031,-219.6437530517578,50.217288970947266,0.28954166173934914,0.0004272722289895774,0.26760096947220374,23.21655042052164,"array('d', [-220.2415771484375, -219.54570971819143, -218.88287559318047, -218.24368237419313, -217.62115088079213, -217.0100815262781, -216.40664411903492, -215.8080790455896, -215.21246116664938, -214.61850471147883, -214.025399473029, -213.4326739209749, -212.84008310232724, -212.24752011957273, -211.65495038098672, -211.2926554074314])","array('d', [-302.9134521484375, -300.5124439563775, -298.1020056045955, -295.68514413149506, -293.2639154085508, -290.83975782867776, -288.41368391622206, -285.98640064301253, -283.558391125776, -281.12997392179705, -278.7013482820482, -276.2726297184621, -273.8438781365364, -271.4151196722019, -268.98636279475807, -267.5014738356864])","array('d', [-50.13959503173828, -50.111680369139584, -50.09264230960229, -50.07941409521443, -50.07004057809717, -50.06325826420382, -50.05823975333308, -50.054436162743045, -50.051478780492715, -50.04911700672248, -50.047178816889826, -50.045545377361655, -50.044134654353854, -50.04289078511102, -50.04177714527153, -50.04116246937535])","array('d', [0.449817657470703, 0.3327711448853464, 0.24165127794231875, 0.17139393941657072, 0.11807470703601125, 0.07847738350499925, 0.049882457340825186, 0.029957910248239062, 0.01670028188783065, 0.008400780889959807, 0.0036239157772924168, 0.0011925967603496786, 0.00017700487271513895, -0.00011383244768981548, -0.00013809874304915518, -0.0001249569196185863])","array('d', [-0.013360605575144156, -0.00904362169411019, -0.006233850614933828, -0.004379702579708675, -0.003139812921854651, -0.002300053809690984, -0.0017243612970822388, -0.001325171618095724, -0.0010454018356544663, -0.0008473218154387361, -0.0007055944863562496, -0.0006028708519344923, -0.0005269737190657406, -0.00046908736682324694, -0.00042260002813050663, -0.000382384655890065])","array('d', [0.2906263629582264, 0.27446021014348115, 0.2628932264159537, 0.2546925201519486, 0.24898958484259145, 0.24513334309439733, 0.2426206839884678, 0.24105986290980813, 0.24014859119776288, 0.23965879651225622, 0.2394244322003298, 0.239330727772775, 0.23930418858652866, 0.23930304433480099, 0.23930799516712248, 0.23931642968787503])",-217.0100815262781,-290.83975782867776,-50.06325826420382,0.07847738350499925,-0.002300053809690984,0.24513334309439733,25.00000024586159,-1.0,"[-298.7265143239592, -219.2471252546541, 50.216648062623285]","[-284.666664278023, -205.61354012410274, 54.27201156960973]","[-279.37829364997356, -224.09818256384204, 48.762825606568384]",10000000000.0,0.040551185607910156
13,27.908784866333008,-299.2569274902344,-219.45144653320312,50.25831604003906,0.24191327393054943,-0.0024833106435836385,0.2612385312702991,23.221093107533406,"array('d', [-220.1386260986328, -219.4515309149544, -218.79499972216203, -218.16001296732952, -217.53985943369295, -216.92954907158278, -216.32542522898478, -215.7248773113313, -215.1261108245806, -214.52795578340923, -213.9297051432637, -213.3309795487866, -212.73161658177366, -212.1315834220572, -211.53091214567584, -211.16752346856455])","array('d', [-302.4570617675781, -300.0534726022361, -297.64128382463997, -295.2233011406156, -292.8014559133359, -290.37710384929164, -287.95119902542996, -285.52440462259085, -283.0971691252909, -280.669782377936, -278.24241891517795, -275.81517239638595, -273.3880830822082, -270.96115929784605, -268.53439332031303, -267.0682620815439])","array('d', [-50.1482048034668, -50.125128489695335, -50.10934564739337, -50.09833877039313, -50.09050222347782, -50.084798148387634, -50.080546907968674, -50.07729778792511, -50.07474824841775, -50.07269293526942, -50.07099116392992, -50.06954600640293, -50.06829074212012, -50.06718001600505, -50.06618400596279, -50.06564051880787])","array('d', [0.4229036569595336, 0.30909792368140865, 0.2206320617207584, 0.15262820013988454, 0.10126483798375177, 0.06338735186446667, 0.03631593299565081, 0.017746382674794673, 0.0056965342455103235, -0.0015247799352188392, -0.005337661491036051, -0.006905415515655973, -0.00714549395193711, -0.006737954454268753, -0.00613164781455408, -0.005548144877544672])","array('d', [-0.011033389717340376, -0.007487092321533866, -0.005177791822014776, -0.0036531726802575366, -0.002633092301916512, -0.0019417054844441607, -0.001467204115831359, -0.0011375912359715044, -0.0009059056841852319, -0.0007410943859207781, -0.0006223044311610616, -0.0005352734931319566, -0.00047002641679072413, -0.00041939906106004953, -0.0003780979707811532, -0.00034211733259238063])","array('d', [0.28637202183273813, 0.2713565056027626, 0.26073673254268437, 0.25334721756311257, 0.24835486443913762, 0.24512916064767898, 0.24318012228845218, 0.24212521287692346, 0.24166918066272772, 0.24158969391981966, 0.2417255836849614, 0.24196630904957253, 0.24224207100931197, 0.2425143352492061, 0.24276664188345887, 0.24314560588107342])",-216.92954907158278,-290.37710384929164,-50.084798148387634,0.06338735186446667,-0.0019417054844441607,0.24512916064767898,25.000000248496647,-1.0,"[-297.8078257063615, -219.0640318398401, 50.2620410021759]","[-283.65780422873826, -205.34981612879074, 53.68215497887424]","[-278.4922749838981, -224.11169335246055, 49.065958420598164]",10000000000.0,0.036897897720336914
14,27.961204290390015,-297.8804016113281,-219.16554260253906,50.33210372924805,0.18012505769729595,-0.004967355169355987,0.25298996368912263,23.228337151771623,"array('d', [-219.8382568359375, -219.1751748036398, -218.53533888837393, -217.9107627085993, -217.29549998553208, -216.68517307245386, -216.0766415337124, -215.46774348313326, -214.8570808343274, -214.24383641527731, -213.62761811739068, -213.0083280733588, -212.3860557797498, -211.76099431031508, -211.13337884281822, -210.74774443016918])","array('d', [-301.0869445800781, -298.67651624677546, -296.2597962409012, -293.83907946686355, -291.41597495427646, -288.99162077652863, -286.5668145841627, -284.14210010933897, -281.71782933228735, -279.29421029693793, -276.8713456322368, -274.4492642426944, -272.02794727465584, -269.60734878159286, -267.18741119259886, -265.7081163458076])","array('d', [-50.18441390991211, -50.17526536044338, -50.168846944187216, -50.164220260427626, -50.16078658913568, -50.15815923652191, -50.15608562375946, -50.15439912348213, -50.1529889189236, -50.1517809083091, -50.150725442892224, -50.14978932027691, -50.148950432334644, -50.14819406155502, -50.147510189283295, -50.147131814178266])","array('d', [0.34144201874732955, 0.23720106312423417, 0.15667257627457576, 0.09546673221692176, 0.05003697237490354, 0.017395399137100895, -0.005028677937210183, -0.0194613792751684, -0.027823508782003865, -0.03175407313774669, -0.032626616790435194, -0.03156210843659471, -0.029439681777918805, -0.0269054531862217, -0.024379279216681798, -0.02205928605561406])","array('d', [-0.004333673510700307, -0.0030073092636138696, -0.0021418667963652035, -0.0015690382591968558, -0.0011843175357194903, -0.0009219418760473096, -0.000739983930975097, -0.0006113620500203691, -0.0005183532185224423, -0.00044920876857080345, -0.0003960503698664825, -0.0003535566132164803, -0.000318144491553923, -0.00028746394836051827, -0.00026009051459682716, -0.0002353399540735603])","array('d', [0.2746482650425773, 0.2629930898049647, 0.25518679247215714, 0.25023221263616097, 0.24738683415412221, 0.2460738871081965, 0.24583857844849097, 0.2463238303084592, 0.24725447659380217, 0.24842502374782463, 0.24968889531315433, 0.2509483620226958, 0.2521448935536102, 0.25324984813958673, 0.25425544835167674, 0.255744473004579])",-216.68517307245386,-288.99162077652863,-50.15815923652191,0.017395399137100895,-0.0009219418760473096,0.2460738871081965,25.000000245841253,-1.0,"[-296.8877821626543, -218.88115419812442, 50.31289377791706]","[-282.65898745111485, -205.11730675000067, 53.15857550320617]","[-277.60167981933637, -224.08793766688544, 49.345597384610386]",10000000000.0,0.04852747917175293
15,28.00870442390442,-296.5059814453125,-218.8820037841797,50.415157318115234,0.12952163815498333,-0.005167188588529936,0.24595148960617577,23.232068679451825,"array('d', [-219.6437530517578, -218.99510413645424, -218.36513331787486, -217.74644312526613, -217.1335401556199, -216.52242064389765, -215.91026674394735, -215.2952016060165, -214.67608165719784, -214.05231769016865, -213.42372175558975, -212.79037868757982, -212.15254148176152, -211.5105497109166, -210.86477012817608, -210.46713731545452])","array('d', [-300.1731262207031, -297.75875179461593, -295.33943041890535, -292.9171969202683, -290.4934915175673, -288.06933554257887, -285.6454406233542, -283.222282934945, -280.80015819507736, -278.37922531089316, -275.9595425448062, -273.5410979407987, -271.12383466512085, -268.70767139808936, -266.29251769886775, -264.81640353555963])","array('d', [-50.217288970947266, -50.216257383605644, -50.215286594762816, -50.21435922262588, -50.2134653095889, -50.21259970590555, -50.211760506071776, -50.21094809774724, -50.210164552467624, -50.209413182140246, -50.20869813901248, -50.20802396909188, -50.207395052256686, -50.206814885013195, -50.20628519011041, -50.20599148060413])","array('d', [0.28954166173934914, 0.1911521515490376, 0.11556293237104016, 0.05863936405660058, 0.01698073223096366, -0.012311805923731406, -0.03175003506605345, -0.04351695729811987, -0.049498300766606114, -0.05130211415912536, -0.05027340140865792, -0.04750654958173538, -0.04385624300157277, -0.03994672356677945, -0.03617906117937486, -0.03273617126688601])","array('d', [-0.0004272722289895774, -0.0003984780045877571, -0.0003784865783281648, -0.0003636585027432605, -0.0003516718955116269, -0.0003409892657196595, -0.0003305448411151394, -0.00031956498937190574, -0.0003074729576220419, -0.0002938505562530165, -0.00027844101012866693, -0.000261182828538452, -0.0002422662070659925, -0.0002222022936337079, -0.00020189243702088406, -0.00018268015110688726])","array('d', [0.26760096947220374, 0.2580097210894883, 0.2519667061474246, 0.24855802406827823, 0.24708708890474979, 0.24700506538417247, 0.2478760911931715, 0.24935740105353538, 0.2511856447287514, 0.25316561756099487, 0.255159907038623, 0.25707897310029254, 0.2588715637591376, 0.2605154611627948, 0.26200853759163145, 0.2642187419956402])",-216.52242064389765,-288.06933554257887,-50.21259970590555,-0.012311805923731406,-0.0003409892657196595,0.24700506538417247,25.000000245832467,-1.0,"[-295.5098648904469, -218.60797162802632, 50.39468354568652]","[-281.17619192838873, -204.81826368544498, 52.48986236265427]","[-276.26408837498974, -224.0051768267926, 49.708926767019754]",10000000000.0,0.04643702507019043
16,28.050718784332275,-295.5909423828125,-218.6932373046875,50.47331619262695,0.10113582015037521,-0.004195958841592199,0.24154479900864156,23.234142597179954,"array('d', [-219.35572814941406, -218.7260121312706, -218.10893777555873, -217.49782155519313, -216.8877389481357, -216.27516967571623, -215.65772226082987, -215.03390234903148, -214.40291125740262, -213.7644704772166, -213.11867113461477, -212.46584807368595, -211.8064779929079, -211.14110073878567, -210.47026272068328, -210.05609765067922])","array('d', [-298.7978515625, -296.3784758183882, -293.95583455567834, -291.5316794494331, -289.1072627285807, -286.68347294780835, -284.2609214545827, -281.84000331559656, -279.42094452134194, -277.00384121654247, -274.58869350894514, -272.17543476297374, -269.7639564988329, -267.3541286963081, -264.9458152141625, -263.47424870488624])","array('d', [-50.28173828125, -50.28893079681027, -50.29344451131142, -50.29620514344189, -50.297807150674494, -50.29863794361905, -50.29895406851317, -50.29892849334862, -50.29868025248034, -50.298293146991, -50.29782752544241, -50.29732758507643, -50.29682568945893, -50.296344640911045, -50.29589852897984, -50.29565031382648])","array('d', [0.2201051265001295, 0.12922200942462456, 0.06006896569773056, 0.008792638937438481, -0.02784696756724823, -0.052651202423235115, -0.06806728658361066, -0.07622995962721284, -0.07898411804988041, -0.07790015752213, -0.07428705673746777, -0.06920472662264278, -0.0634755468423092, -0.057694497320781864, -0.052237310491790465, -0.04726627742856706])","array('d', [0.0035389401018621047, 0.0022368028785552468, 0.0013883250572610639, 0.0008295033617673799, 0.0004582950014517133, 0.00021047351744328375, 4.518375865691246e-05, -6.382540026071069e-05, -0.000133603259151271, -0.00017538414222939008, -0.0001967565606909008, -0.00020309007527002148, -0.0001985029401602108, -0.00018653553707491345, -0.00017061951765182432, -0.00015438324096483897])","array('d', [0.258386925854955, 0.2514882995648203, 0.24778461406042962, 0.24644952021482322, 0.24683541280649293, 0.24842385344679765, 0.25080034218269354, 0.2536390782588415, 0.25669141583409943, 0.2597754574943451, 0.262765960880269, 0.26558444427132283, 0.26818958058652553, 0.2705679574181046, 0.2727252080873168, 0.2759177834201597])",-216.27516967571623,-286.68347294780835,-50.29863794361905,-0.052651202423235115,0.00021047351744328375,0.24842385344679765,25.000000245820782,-1.0,"[-294.59270024230545, -218.4256027732251, 50.45122661121708]","[-280.1979245982504, -204.64017662793688, 52.11028060374484]","[-275.3709192568768, -223.923717344329, 49.90912707125367]",10000000000.0,0.03928351402282715
17,28.106759548187256,-294.2158508300781,-218.40704345703125,50.561279296875,0.06510043889284117,-0.0012231970904396136,0.23547275463608272,23.23848843952843,"array('d', [-219.16554260253906, -218.54700638465164, -217.93765849199355, -217.33119018804874, -216.7229862641372, -216.10979691711432, -215.48947429004602, -214.86074578760588, -214.22301457066445, -213.57618498890886, -212.92051290756305, -212.25648093131406, -211.58469797610056, -210.90582217440829, -210.22050592337408, -209.7967781677215])","array('d', [-297.8804016113281, -295.45815218286407, -293.0335595486804, -290.60823906324924, -288.1833512684204, -285.7597189622065, -283.33790270794304, -280.91825528245965, -278.5009651514072, -276.08609367932803, -273.6736079579699, -271.2634097223086, -268.855360193929, -266.4493004755493, -264.0450671010231, -262.57621600517365])","array('d', [-50.33210372924805, -50.3422417418759, -50.348687152684974, -50.352713909932426, -50.35514042986885, -50.356500059345066, -50.35714575460042, -50.35731512518725, -50.357171254450826, -50.35682848577424, -50.356368708675845, -50.35585150807734, -50.35532024384272, -50.35480535883965, -50.35432577235591, -50.35405867664629])","array('d', [0.18012505769729595, 0.09337132039180986, 0.027813397018089027, -0.020269486124745172, -0.05404286076918002, -0.07626404899862711, -0.08935150982006551, -0.09541805185275115, -0.09628906410605934, -0.09351590974262558, -0.08838849801180003, -0.08194787929437387, -0.07499835705913187, -0.06811827816132823, -0.06166880372395588, -0.05580024618570568])","array('d', [0.004967355169355987, 0.0031730114045754976, 0.002002843924082714, 0.0012314320024385868, 0.0007183435902508592, 0.00037508625490866666, 0.00014530319027559896, -7.261636779371926e-06, -0.00010618471737044832, -0.00016701544446474153, -0.00020025178443327518, -0.0002132911704161553, -0.00021174599307520058, -0.00020035208161238896, -0.00018359661895176908, -0.000166125408862673])","array('d', [0.25298996368912263, 0.2476157273744516, 0.24525584559912214, 0.2451235426717034, 0.24659343110997486, 0.24916108666829412, 0.25242227152165453, 0.25605981311167203, 0.25983295661288286, 0.26356723710138724, 0.26714439118153716, 0.2704923832512449, 0.27357572866688606, 0.2763862274242781, 0.27893411953829406, 0.2827043211745698])",-216.10979691711432,-285.7597189622065,-50.356500059345066,-0.07626404899862711,0.00037508625490866666,0.24916108666829412,25.000000245813595,-1.0,"[-293.21670370084684, -218.15012169213253, 50.535623758108926]","[-278.7340696548722, -204.39976047383936, 51.62230561442025]","[-274.0301665004933, -223.7829183796728, 50.15040727834149]",10000000000.0,0.05438041687011719
18,28.131969213485718,-293.75732421875,-218.3110809326172,50.59027862548828,0.05441779270768151,0.00012045708717766629,0.23364980618027242,23.240459652332525,"array('d', [-218.8820037841797, -218.27816488717284, -217.6791497455866, -217.0790880471253, -216.47373822388124, -215.86018564872862, -215.23659000949525, -214.60196218538138, -213.95596541137695, -213.2987407551114, -212.63075786634488, -211.95269128187428, -211.26532165008732, -210.5694606320148, -209.86589803948664, -209.43009716559718])","array('d', [-296.5059814453125, -294.0800261231568, -291.65285987374045, -289.2259465563103, -286.8003452355689, -284.37680563719715, -281.95583098415756, -279.5377250571214, -277.1226315586608, -274.7105692421521, -272.3014638711968, -269.89517694269335, -267.4915306721159, -265.09032865693365, -262.6913717011123, -261.22603406247595])","array('d', [-50.415157318115234, -50.425659142853945, -50.43224790393452, -50.4362731665286, -50.438603128091515, -50.439804371683415, -50.44025245587708, -50.440200741789795, -50.439823640438995, -50.43924394559479, -50.43855007889024, -50.437806789552816, -50.43706148554025, -50.43634756407117, -50.435685648986144, -50.435317373135995])","array('d', [0.12952163815498333, 0.04777281824464891, -0.013367798890233222, -0.05748205247970897, -0.08766020083649473, -0.10661724058289572, -0.11674491733048842, -0.12013524889019571, -0.11859383283347659, -0.11365128179545493, -0.1065755569987863, -0.09838519794514536, -0.08986240841677232, -0.08156486009593716, -0.07383537348755373, -0.06680901475375725])","array('d', [0.005167188588529936, 0.00326601250567744, 0.002025693735969371, 0.0012081559475280927, 0.0006648765594105676, 0.00030216903078885446, 6.033263606291968e-05, -9.904516641180908e-05, -0.00020093616774829174, -0.0002618043055739268, -0.00029277244951962807, -0.0003017099285065246, -0.00029465104101382623, -0.00027678419136128085, -0.000253142272628285, -0.0002290529242345316])","array('d', [0.24595148960617577, 0.24248883206968488, 0.2418335452250632, 0.24323888484489026, 0.24610173378487682, 0.2499318713234593, 0.25433594284823646, 0.25900651643936623, 0.26371224274426414, 0.26828785400135413, 0.2726239272432013, 0.27665670808479936, 0.28035828024565496, 0.28372722801008815, 0.28677980141145176, 0.2912960120600991])",-215.86018564872862,-284.37680563719715,-50.439804371683415,-0.10661724058289572,0.00030216903078885446,0.2499318713234593,25.000000245803644,-1.0,"[-292.7572456886811, -218.05708963862537, 50.56311409205312]","[-278.24774972418163, -204.32243914438968, 51.47629679960084]","[-273.5816988121031, -223.72969695567954, 50.21680756502204]",10000000000.0,0.024111270904541016
19,28.167657375335693,-293.2991027832031,-218.21498107910156,50.61894989013672,0.04413348063826545,0.0015792641788719898,0.23202665249374896,23.24305625724437,"array('d', [-218.78762817382812, -218.1884236026019, -217.59277407907018, -216.9949282166011, -216.39074857895463, -215.77741599760603, -215.1531791573707, -214.51713188210215, -213.86901406809505, -213.20903689108462, -212.53773349981188, -211.85583552948924, -211.16417475031935, -210.46360852385158, -209.7549675435071, -209.3157895033209])","array('d', [-296.04833984375, -293.6212316588496, -291.19323557702495, -288.7657748800144, -286.33988176698455, -283.9162866797518, -281.4954775779143, -279.0777449590952, -276.66322012346023, -274.2519097804531, -271.843727824706, -269.4385240582206, -267.0361092593317, -264.6362759558937, -262.2388143525784, -260.77447511776444])","array('d', [-50.444087982177734, -50.45372043409927, -50.459684234200736, -50.46324521964183, -50.46521825208982, -50.466135542263146, -50.46635027343637, -50.46610112779174, -50.46555284483387, -50.46482184943702, -50.46399239687438, -50.46312654422323, -50.46226997971662, -50.46145498660378, -50.46070139177561, -50.4602823503679])","array('d', [0.11483844369649872, 0.034479578612693865, -0.02541899052940871, -0.06840523866422953, -0.097552104743363, -0.11556568947053604, -0.12483257216326847, -0.12744069923355475, -0.1251913863164722, -0.1196102874779069, -0.11195974718598062, -0.1032522867547058, -0.09426403019768122, -0.08554684489938422, -0.07743831767616792, -0.07006909376589729])","array('d', [0.004759103991091382, 0.002976613062227296, 0.0018138293160538895, 0.0010477399385736075, 0.0005391701421997779, 0.00020031479127633183, -2.4774909367062063e-05, -0.00017208419270462065, -0.0002649922810438503, -0.00031890467308313253, -0.00034423482540064433, -0.00034837818324031755, -0.00033706220204243704, -0.00031529540723425147, -0.0002880352136279461, -0.00026062536571530006])","array('d', [0.24375982681778474, 0.24084960433256036, 0.24069138654405164, 0.24254795569669735, 0.24582137211608918, 0.25002472025426103, 0.2547672929620147, 0.259744183020064, 0.26472661020431115, 0.26955190822303576, 0.27411320970654485, 0.27834918697632716, 0.28223416095733667, 0.2857687327772807, 0.2889709454573378, 0.29370828602391724])",-215.77741599760603,-283.9162866797518,-50.466135542263146,-0.11556568947053604,0.00020031479127633183,0.25002472025426103,25.000000245800308,-1.0,"[-291.83930105684396, -217.87005600310104, 50.61658099485311]","[-277.28246316997536, -204.16751592932496, 51.19870320022498]","[-272.683462156635, -223.61229017065713, 50.33270990757253]",10000000000.0,0.031847238540649414
20,28.20231795310974,-292.38330078125,-218.02232360839844,50.67531967163086,0.02424706146121011,0.004527543205767752,0.22896869579819226,23.245995303598853,"array('d', [-218.6932373046875, -218.0987723425411, -217.50667523664777, -216.91130117862048, -216.30860741921109, -215.69586267512426, -215.07139836534023, -214.43438597857158, -213.7846375687101, -213.12243054875992, -212.44835821974084, -211.7632064039079, -211.06785544183955, -210.36320613986828, -209.65012805977236, -209.2079784093062])","array('d', [-295.5909423828125, -293.16266418612975, -290.7337974072448, -288.30572862579686, -285.8794658799943, -283.45572232556714, -281.0349722193461, -278.6174940603179, -276.2034078509472, -273.7927092386938, -271.3853011409855, -268.98102248428626, -266.57967336589724, -264.18103594143076, -261.7848904573731, -260.3214339720519])","array('d', [-50.47331619262695, -50.48175561206612, -50.48687459820734, -50.489819779429766, -50.49132985917327, -50.491887818788896, -50.49181467759185, -50.49132791035012, -50.49057817681804, -50.48967251998623, -50.48868894678053, -50.487685372723334, -50.48670475780937, -50.485777581356075, -50.484922424718114, -50.48444716929792])","array('d', [0.10113582015037521, 0.022032960560131664, -0.03673422268208267, -0.07868534106269633, -0.10687960723037529, -0.12401676788033873, -0.13248016439379862, -0.13435522134272704, -0.13144027117082915, -0.1252571258963192, -0.11706348226885288, -0.1078666805236157, -0.09843747511749354, -0.08932251199995475, -0.08085459669729532, -0.07316027113455689])","array('d', [0.004195958841592199, 0.0025825058133611945, 0.0015302400003120282, 0.0008374624558571998, 0.0003782617926912844, 7.319502209550994e-05, -0.00012834587575046138, -0.0002588901776344552, -0.0003395510670578628, -0.0003842290888605638, -0.0004023275696779693, -0.00040056115718515743, -0.0003842036622431549, -0.000357975055934234, -0.00032667245174152816, -0.000295585787633054])","array('d', [0.24154479900864156, 0.23914988407954232, 0.23945764736639422, 0.2417388082287957, 0.2453996289308017, 0.2499558479956786, 0.25501893828039107, 0.26028616094759666, 0.26553102117125643, 0.2705932220686568, 0.27536825971751255, 0.279797073684216, 0.2838560901135491, 0.28754781793761847, 0.2908920025890471, 0.2958391110582607])",-215.69586267512426,-283.45572232556714,-50.491887818788896,-0.12401676788033873,7.319502209550994e-05,0.2499558479956786,25.00000024579675,-1.0,"[-290.9224642669369, -217.68186721352842, 50.66852838002431]","[-276.32388647045633, -204.0139810273042, 50.933883840729045]","[-271.7844678721895, -223.48577708603048, 50.44109886015359]",10000000000.0,0.029919147491455078
21,28.262370347976685,-291.01104736328125,-217.73220825195312,50.75603103637695,-0.004025638103485256,0.009276440367102503,0.22445471684006246,23.253938358919623,"array('d', [-218.50291442871094, -217.917317925899, -217.3319372954772, -216.7413129337019, -216.14156948163392, -215.5301331266375, -214.9054849558819, -214.26693785877367, -213.6144358010467, -212.9483775848676, -212.26946690125627, -211.57858907842387, -210.87671365943729, -210.1648212203932, -209.44385265521012, -208.99640441161506])","array('d', [-294.67462158203125, -292.2441786160105, -289.813680258767, -287.38445059525327, -284.9574570100494, -282.5333837132196, -280.1126818788481, -277.6956094934106, -275.2822669045488, -272.87263021409257, -270.4665827100161, -268.06394370131125, -265.6644938986166, -263.26799654671, -260.8742136754804, -259.412342399629])","array('d', [-50.53205490112305, -50.53666751057188, -50.53911910909813, -50.54015984048196, -50.5402743360787, -50.539780823465684, -50.53889227866468, -50.53775458027444, -50.53647050510876, -50.53511483634346, -50.53374374600608, -50.53240035591262, -50.53111763291687, -50.52991934236374, -50.52881955814812, -50.528209001303644])","array('d', [0.07636725157499297, -0.0005276210953005815, -0.05728996334229094, -0.09739402477497469, -0.12387857693556956, -0.1394352764859142, -0.1464442608548423, -0.14698842485122632, -0.1428622202949729, -0.13558160752785012, -0.1263966475967927, -0.11630583123201906, -0.10607053535922042, -0.09622815587744218, -0.0871029375382019, -0.07881400423997015])","array('d', [0.0023792402353138968, 0.001328379993481337, 0.0006443107974652837, 0.00019575710136145007, -9.92394938447133e-05, -0.0002923491423758273, -0.00041641700780074245, -0.0004924729623282756, -0.0005340929019329124, -0.000550173889991948, -0.0005467554506348611, -0.0005282651210390994, -0.0004984113315289593, -0.0004608477738042205, -0.000419666603556637, -0.000379730383416303])","array('d', [0.23742003838089495, 0.23595581736680427, 0.237109415084785, 0.24016399775871594, 0.24453220121096275, 0.24973376513397214, 0.2553836019883435, 0.2611826010347239, 0.2669082514939306, 0.2724044867074754, 0.2775710796241958, 0.2823531046616999, 0.2867308451577496, 0.2907103152992202, 0.29431439328411124, 0.299645417833383])",-215.5301331266375,-282.5333837132196,-50.539780823465684,-0.1394352764859142,-0.0002923491423758273,0.24973376513397214,25.000000245789863,-1.0,"[-290.0064785707764, -217.49299330485738, 50.71827570343284]","[-275.36763002216657, -203.86572056506645, 50.67889491858403]","[-270.88618658693173, -223.35668017417422, 50.54048157775112]",10000000000.0,0.050087928771972656
