,x_pos,y_pos,z_pos,roll,pitch,yaw,vel,x_traj,y_traj,z_traj,roll_traj,pitch_traj,yaw_traj,x_cmd,y_cmd,z_cmd,roll_cmd,pitch_cmd,yaw_cmd,vel_cmd,effector_dmg,effector_x,effector_y,effector_z,cost,time_solution
0,-250.85830688476562,-205.57313537597656,49.78350067138672,0.6134140491485595,0.03598690405488018,0.913165823617254,23.067795840669746,"array('d', [-205.57313537597656, -203.6160304697213, -201.69776258611438, -199.8157201956025, -197.96714770711446, -196.14932380233205, -194.35964550770282, -192.59566716220684, -190.85511625677935, -189.1358966604372, -187.43608465357676, -185.7539207942538, -184.0877994527612, -182.4362572245165, -180.79796108445473, -179.17169961719682])","array('d', [-250.85830688476562, -249.30466905767875, -247.70231859374164, -246.05714400693242, -244.37426043815876, -242.6581213100989, -240.91260744744545, -239.14110321087946, -237.34656284090212, -235.5315684052299, -233.6983802952139, -231.84898110169874, -229.98511362943074, -228.108313721399, -226.21993846219542, -224.3211933280614])","array('d', [-49.78350067138672, -49.70926761975423, -49.66031486439303, -49.62765141466214, -49.60560703681149, -49.590564936389505, -49.58018947301918, -49.572952084606946, -49.56783796043035, -49.56416318161675, -49.56146006764341, -49.559405150957076, -49.55777416435539, -49.556414376551245, -49.55522814237348, -49.55416359049753])","array('d', [0.6134140491485595, 0.5659781091110686, 0.5193564151534634, 0.47458584218320876, 0.4323004074598314, 0.3928491256044571, 0.3563816255401821, 0.32290970536004465, 0.2923516269124672, 0.2645642395266158, 0.23936656332119796, 0.21655736581384566, 0.1959284858900287, 0.17727511990505707, 0.16040391671811946, 0.14513947899181776])","array('d', [-0.03598690405488018, -0.02361503575453268, -0.015682111546914793, -0.010535279910768608, -0.007156818641304206, -0.0049143456386308145, -0.003411126281629309, -0.0023957315345470576, -0.0017070591279731862, -0.001240547325011695, -0.000927171987120496, -0.0007202140049863196, -0.0005868009523801205, -0.0005024366979872668, -0.00044746766376250314, -0.00040488560428011587])","array('d', [0.913165823617254, 0.886925042928907, 0.8632758609671719, 0.8420073622492851, 0.8228989526969904, 0.805736489309455, 0.7903198088475129, 0.7764656761856075, 0.76400839836527, 0.7527993057315212, 0.7427057181181368, 0.7336096988910867, 0.7254067341916898, 0.7180043907671079, 0.7113209653372012, 0.7052841107780037])",-196.14932380233205,-242.6581213100989,-49.590564936389505,0.3928491256044571,-0.0049143456386308145,0.805736489309455,25.00000024898523,-1.0,"[-249.9420356442523, -204.38673982953003, 49.72953196582534]","[-244.60026503576256, -171.86187981681283, 72.39225395413524]","[-212.96305046385493, -191.1984276917454, 57.38610286828]",10000000000.0,0.01773381233215332
1,-246.86123657226562,-201.146484375,49.794212341308594,0.6141232252120971,0.03537413105368604,0.8564565936711172,23.048941598097954,"array('d', [-201.146484375, -199.28042140340298, -197.45505463035028, -195.66679406715633, -193.91220431326843, -192.18810231831068, -190.49158300239378, -188.82001537991758, -187.17102647274143, -185.54248033518675, -183.93245549375737, -182.33922244187625, -180.7612221260826, -179.19704605446256, -177.64541852009847, -176.10518390773484])","array('d', [-246.86123657226562, -245.19929210096544, -243.4918316319323, -241.74515783253668, -239.96449149895793, -238.15421020064093, -236.31801545688293, -234.45905719888754, -232.58003030996343, -230.6832515829613, -228.7707221991716, -226.8441790558744, -224.90513720473814, -222.95492497816625, -220.9947129168366, -219.02554051792538])","array('d', [-49.794212341308594, -49.72128031750835, -49.67324029622236, -49.641212211788215, -49.61960858599319, -49.60487202987984, -49.59470866336833, -49.587618983595846, -49.58260834150297, -49.57900683475021, -49.576356573411104, -49.57434095645298, -49.57274051859888, -49.57140581381779, -49.570241297425, -49.5691962010264])","array('d', [0.6141232252120971, 0.5563290595416609, 0.5026186929231303, 0.45329163823696483, 0.40838230111056656, 0.36775817370564207, 0.3311838609084088, 0.29836373318768883, 0.2689710786307274, 0.24266860424763245, 0.21912330047110928, 0.19801756596441808, 0.17905780650417447, 0.16198130046477335, 0.14656186187644565, 0.1326146686941609])","array('d', [-0.03537413105368604, -0.02318349446618844, -0.015381144670980933, -0.010326374658186225, -0.007012038600371676, -0.004813945407073934, -0.0033413368991545376, -0.002347002182841262, -0.0016727618825629364, -0.001216063156956425, -0.0009092643144004664, -0.0007066100896151273, -0.0005759204331076481, -0.0004932229903324839, -0.0004392898607292089, -0.0003974860214308756])","array('d', [0.8564565936711172, 0.8304704250502042, 0.8075229169475777, 0.7872112501622152, 0.7691893103498745, 0.7531608957044609, 0.7388724427355721, 0.7261065352439182, 0.7146764701731635, 0.7044217909945407, 0.6952045937210188, 0.6869064049205732, 0.6794254594068457, 0.672674240944859, 0.6665771821871744, 0.6610684378851536])",-192.18810231831068,-238.15421020064093,-49.60487202987984,0.36775817370564207,-0.004813945407073934,0.7531608957044609,25.00000024899096,-1.0,"[-245.87917326885614, -200.0139044212279, 49.74116221020603]","[-238.30045881576194, -167.7610810333384, 72.1536246083467]","[-208.09832671517236, -188.5617723314844, 56.17981923524388]",10000000000.0,0.02501702308654785
2,-242.94302368164062,-197.27191162109375,49.81682586669922,0.5412338376045223,0.017094820737838606,0.8111592690136769,23.098276111850428,"array('d', [-197.27191162109375, -195.478970442736, -193.72240973407708, -191.99854988913134, -190.30406355307016, -188.63596715770095, -186.99159743393824, -185.36858288885404, -183.76481419762396, -182.17841516776653, -180.60771506745684, -179.05122279280548, -177.50760324053846, -175.97565621932958, -174.45429822379162, -172.94255059119558])","array('d', [-242.94302368164062, -241.2012285806973, -239.42253289785023, -237.61203074627534, -235.77396352614684, -233.91189138105602, -232.0288215483067, -230.12730779385822, -228.20952938699781, -226.27735498056524, -224.33239495677606, -222.37604466901536, -220.40952026678468, -218.4338882846277, -216.45008982234648, -214.45896408646414])","array('d', [-49.81682586669922, -49.781643255412106, -49.75859412893655, -49.74334100331051, -49.73315864743887, -49.726313320535496, -49.72168725774042, -49.718549422174696, -49.716414267282154, -49.714954000914844, -49.71394376192582, -49.713227327347674, -49.712695831315266, -49.71227486119629, -49.71191699365887, -49.71159780858289])","array('d', [0.5412338376045223, 0.4853411657701933, 0.43466894519991917, 0.38907408551342443, 0.34828326691612493, 0.3119480150072682, 0.27968054709489937, 0.2510778706292383, 0.22573855490616568, 0.20327483290839546, 0.18332165993317373, 0.16554374641320932, 0.14964121781312043, 0.13535433404831493, 0.1224675663122505, 0.1108132465318434])","array('d', [-0.017094820737838606, -0.011151387177123204, -0.007351574667846171, -0.004892034543099939, -0.003280752869042009, -0.002213322566806248, -0.0014994388258764014, -0.0010188475053699666, -0.0006946842947305933, -0.0004771576341227319, -0.0003334312146531002, -0.0002412541472656317, -0.00018488305971247436, -0.00015243434297981164, -0.0001341644631542984, -0.00012139711958568196])","array('d', [0.8111592690136769, 0.7890568364247137, 0.7696306294194102, 0.7525025366547833, 0.737355321047708, 0.7239212032864679, 0.7119729844958812, 0.7013172243451936, 0.6917889582284761, 0.6832475163275326, 0.6755731052874501, 0.6686639003540712, 0.6624334652793659, 0.6568083698051426, 0.6517259128964364, 0.6471318774288631])",-188.63596715770095,-233.91189138105602,-49.726313320535496,0.3119480150072682,-0.002213322566806248,0.7239212032864679,25.000000248992077,-1.0,"[-245.87917326885614, -200.0139044212279, 49.74116221020603]","[-238.30045881576194, -167.7610810333384, 72.1536246083467]","[-208.09832671517236, -188.5617723314844, 56.17981923524388]",10000000000.0,0.018421649932861328
3,-238.4325714111328,-193.26902770996094,50.00636291503906,0.3495304584503172,-0.012985409237444484,0.7661039392140248,23.13954462715484,"array('d', [-193.26902770996094, -191.54821408325094, -189.8504080556532, -188.17319423627313, -186.5143997695184, -184.87208597034058, -183.24453181895015, -181.630214321354, -180.02778792057768, -178.4360640472343, -176.8539914533426, -175.28063778016926, -173.7151727173766, -172.15685305828794, -170.60500992202958, -169.05904109157697])","array('d', [-238.4325714111328, -236.61929351605784, -234.78433788151514, -232.93048981799515, -231.06011843198797, -229.17524763556344, -227.2776113249144, -225.36869839877534, -223.4497905215598, -221.52199428069468, -219.5862687566002, -217.6434491703893, -215.69426705662224, -213.7393672641326, -211.77932198721234, -209.81464538061343])","array('d', [-50.00636291503906, -50.033175510022474, -50.050911804488436, -50.06281660272485, -50.070926509293415, -50.076535944974154, -50.08047843118038, -50.0832980720908, -50.085355126392166, -50.08689159436122, -50.08807226722961, -50.08901052704016, -50.08978454145679, -50.09044733404844, -50.091032927966715, -50.09156000851611])","array('d', [0.3495304584503172, 0.3113042642590743, 0.2771158683386681, 0.2467111718826118, 0.21979587061649566, 0.19605465504081643, 0.17516513346701515, 0.15680815798726372, 0.14067565459553272, 0.12647669239308387, 0.113942293710585, 0.10282933719581523, 0.09292380828006562, 0.0840435865892111, 0.0760409159262696, 0.06880467226368753])","array('d', [0.012985409237444484, 0.00853926608922948, 0.005697302786863738, 0.003857268489924073, 0.0026507948580944615, 0.0018501144711526227, 0.0013128386386539058, 0.0009489450280384316, 0.0007008375140246174, 0.0005311673638379094, 0.0004153037922443626, 0.00033661672357128766, 0.0002834812195926826, 0.00024735550364993376, 0.00022155011600158973, 0.0002004667708230377])","array('d', [0.7661039392140248, 0.7526571053691488, 0.7407781930015902, 0.7302688606302455, 0.7209550140919638, 0.7126840868084297, 0.7053227459072249, 0.6987549322338492, 0.6928801397838684, 0.6876118531797659, 0.6828760789311114, 0.6786099223779498, 0.67476017558408, 0.6712818916358789, 0.6681369280680755, 0.6652924419995974])",-184.87208597034058,-229.17524763556344,-50.076535944974154,0.19605465504081643,0.0018501144711526227,0.7126840868084297,25.00000024899099,-1.0,"[-237.35173644428124, -192.22911598349765, 50.02584048149715]","[-226.25641176800622, -156.17208308278612, 63.32186051476456]","[-198.52543239565176, -183.37717880494685, 53.788993695275146]",10000000000.0,0.020061969757080078
4,-234.15274047851562,-189.6717529296875,50.34358215332031,0.25316327810287453,-0.007005674764514035,0.7390000383046009,23.15459204037516,"array('d', [-189.6717529296875, -187.99691536124206, -186.3386650703141, -184.6950854311067, -183.06448817530097, -181.4453946718722, -179.8365151019874, -178.2367272683687, -176.64505588651588, -175.06065285259922, -173.48277883084046, -171.9107864279976, -170.34410517863012, -168.7822285354605, -167.2247030383504, -165.6711225351799])","array('d', [-234.15274047851562, -232.2967593610123, -230.42590713300467, -228.5421379424777, -226.64711306043907, -224.74224677845362, -222.8287441338044, -220.9076328890659, -218.97979108022153, -217.04597091435636, -215.10681951283783, -213.16289682690214, -211.21469094376357, -209.26263092689481, -207.30709728073603, -205.34843350531594])","array('d', [-50.34358215332031, -50.35781160123468, -50.36676738443189, -50.37234065800955, -50.37571967047702, -50.37766146641469, -50.37865582066479, -50.37902516181822, -50.37898605190687, -50.378687280172834, -50.37823350490037, -50.3776997813363, -50.377140193757626, -50.37659256697411, -50.37608052403175, -50.375613784137585])","array('d', [0.25316327810287453, 0.22290191106803198, 0.19631004548961087, 0.17306000834616272, 0.152817533713228, 0.13525130136620034, 0.12004004912633186, 0.10687796176454377, 0.09547881716459722, 0.08557922902765744, 0.07694123368583586, 0.06935440741040504, 0.06263765826503179, 0.05664080611704791, 0.051246041898276265, 0.046369340435628854])","array('d', [0.007005674764514035, 0.004421064555042477, 0.002771102722830281, 0.0017052997170283306, 0.001009518130402688, 0.0005515584535057197, 0.00024897269567113433, 4.982244840203594e-05, -7.896199620310442e-05, -0.0001587247871021366, -0.00020354769394663572, -0.00022310490313867394, -0.00022454119884067695, -0.00021374040591204377, -0.00019618677639130468, -0.00017751723446029637])","array('d', [0.7390000383046009, 0.7294888548172451, 0.7211498887887425, 0.7138268452043238, 0.7073825153250136, 0.7016969133680664, 0.6966656765887386, 0.6921986405772197, 0.6882185226660263, 0.6846596648416289, 0.6814668022290075, 0.6785938340629553, 0.6760025815922414, 0.6736615222624458, 0.6715444924515999, 0.6696293492050908])",-181.4453946718722,-224.74224677845362,-50.37766146641469,0.13525130136620034,0.0005515584535057197,0.7016969133680664,25.000000248990375,-1.0,"[-233.0440540087073, -188.66145402112483, 50.35409057950858]","[-220.91068885124673, -151.7823948822925, 59.98302857859389]","[-193.9693846229084, -180.45295990981802, 52.76050634058395]",10000000000.0,0.01783609390258789
5,-229.47149658203125,-185.79505920410156,50.679901123046875,0.17481650412082655,0.008888859301805404,0.7196474830296377,23.206481693233375,"array('d', [-185.79505920410156, -184.15353009555974, -182.52331985917886, -180.90295737482268, -179.29117229158018, -177.68687544355305, -176.08913778562024, -174.49716952824284, -172.91030024247658, -171.32796034251407, -169.7496641945452, -168.1749950235696, -166.60359174784196, -165.03513784620844, -163.46935234959932, -161.90598577545418])","array('d', [-229.47149658203125, -227.5860252581584, -225.69071056997385, -223.78694713126418, -221.8759049704682, -219.95856614946288, -218.03575463229484, -216.10816161878282, -214.17636743336718, -212.2408605594266, -210.30205416576467, -208.3603003410566, -206.41590217445633, -204.46912377028264, -202.52019824944642, -200.56933717153976])","array('d', [-50.679901123046875, -50.661068196024665, -50.64768409869714, -50.63781186357862, -50.63023909691336, -50.62419911189663, -50.61920285223073, -50.614936525082484, -50.61119854858209, -50.6078601884786, -50.604840518056676, -50.602090008369665, -50.59957923937904, -50.597290550404665, -50.595211291514836, -50.59332791878415])","array('d', [0.17481650412082655, 0.1513629987987203, 0.1311700642401321, 0.11387903250032172, 0.09914372975606327, 0.08663504575316779, 0.07604429239960535, 0.06708567377091254, 0.05949810518537376, 0.0530465634173487, 0.04752311153604424, 0.042747713321578, 0.03856892988064545, 0.03486457300148789, 0.031542375078180536, 0.02854072380949431])","array('d', [-0.008888859301805404, -0.006222115754181429, -0.004513714002698805, -0.003402630041188885, -0.0026678502227853516, -0.002172407464679584, -0.0018303097791359268, -0.0015868155393641702, -0.0014065735448796158, -0.001266452800310396, -0.0011512066374822212, -0.0010508752622960561, -0.0009592684330598755, -0.0008731201103586529, -0.0007916463227280757, -0.0007163113615841129])","array('d', [0.7196474830296377, 0.7131980700635404, 0.7076241487386346, 0.7027977036097078, 0.6986071208448207, 0.6949557028447229, 0.6917603356849312, 0.6889502500460509, 0.6864658360791929, 0.684257486583671, 0.6822844521476831, 0.6805136976830188, 0.6789187530865178, 0.6774785524000776, 0.676176256427354, 0.6749980516607693])",-177.68687544355305,-219.95856614946288,-50.62419911189663,0.08663504575316779,-0.002172407464679584,0.6949557028447229,25.000000248989778,-1.0,"[-233.0440540087073, -188.66145402112483, 50.35409057950858]","[-220.91068885124673, -151.7823948822925, 59.98302857859389]","[-193.9693846229084, -180.45295990981802, 52.76050634058395]",10000000000.0,0.018328428268432617
6,-225.1300811767578,-182.22207641601562,50.951717376708984,0.12202855199575405,0.015097353607416054,0.7037263075497486,23.26679916337063,"array('d', [-182.22207641601562, -180.60889197597962, -179.00340302929814, -177.40443390231286, -175.8109877635968, -174.22223198406684, -172.63747820447833, -171.05616147682315, -169.4778202348334, -167.90207783378003, -166.32862598822626, -164.75721026151635, -163.1876176835741, -161.61966653970183, -160.05319836032285, -158.4880752112382])","array('d', [-225.1300811767578, -223.2204738639693, -221.30425555807486, -219.38253088454357, -217.4561939531014, -215.5259713395533, -213.59245327626098, -211.65611841900648, -209.71735448721444, -207.7764758322175, -205.83373845949563, -203.88935279060163, -201.94349433184692, -199.99631235183787, -198.04793662990102, -196.0984861319927])","array('d', [-50.951717376708984, -50.919866144775064, -50.89748510278571, -50.88120481965221, -50.868915033372964, -50.85927987114817, -50.8514455842548, -50.84486250647409, -50.83917539397787, -50.83415502207881, -50.82965479908638, -50.825582545724366, -50.821881382623225, -50.81851596545649, -50.815461748237226, -50.812695923650566])","array('d', [0.12202855199575405, 0.10267525497185803, 0.08644324723406614, 0.07292993936893213, 0.061759894268960086, 0.052586430770324356, 0.04509257582128559, 0.03899154235595162, 0.03402687678948036, 0.029972395840687106, 0.026632012545485233, 0.023839533786566704, 0.02145849579150866, 0.01938208990081561, 0.017533218814468305, 0.015864713878864904])","array('d', [-0.015097353607416054, -0.010461676374497821, -0.007492927472843355, -0.005563578377231947, -0.0042895442433613625, -0.003432895388058641, -0.002844362316637686, -0.002429034475205581, -0.0021257193188894004, -0.0018944390837109678, -0.001708837429170034, -0.001551589874542421, -0.001411675708070161, -0.0012828085743230543, -0.001162571579328085, -0.001051938443372813])","array('d', [0.7037263075497486, 0.6993052489565262, 0.6955889229071912, 0.6924597885234866, 0.6898168165335168, 0.6875738904360601, 0.6856583526804308, 0.6840096448795587, 0.6825780107917493, 0.6813232429728674, 0.6802134610140084, 0.6792239129347957, 0.6783357928960465, 0.677535068820715, 0.6768113133448636, 0.6761565298143242])",-174.22223198406684,-215.5259713395533,-50.85927987114817,0.052586430770324356,-0.003432895388058641,0.6875738904360601,25.000000248989203,-1.0,"[-223.98655701658055, -181.25159215990405, 50.92907220657333]","[-210.51778782994094, -143.84325959243483, 55.31186938630328]","[-184.63820766696574, -174.066362579389, 51.21170153265364]",10000000000.0,0.022419452667236328
7,-220.45298767089844,-178.40115356445312,51.24432373046875,0.0775475949048994,0.014947494491934676,0.6916740695622305,23.302729860578985,"array('d', [-178.40115356445312, -176.80944823889476, -175.22239421913955, -173.63905789608955, -172.05867586450438, -170.4806370793497, -168.90446115238, -167.32977660193657, -165.75630054254177, -164.18382039238523, -162.61217780917275, -161.0412549120884, -159.47096278502914, -157.90123223413664, -156.33200677016117, -154.76324088325245])","array('d', [-220.45298767089844, -218.52543701609048, -216.593925717137, -214.6593052132385, -212.72224065054235, -210.78325093175306, -208.84273783004184, -206.9010090889749, -204.9582976074628, -203.01477767353714, -201.07057873174477, -199.1257969535709, -197.18050477473074, -195.2347585051722, -193.28860408120403, -191.34208483532888])","array('d', [-51.24432373046875, -51.212564793796986, -51.18982518897023, -51.1729023363088, -51.159791870836465, -51.1492268258741, -51.14039984511988, -51.132793969107425, -51.126078377744804, -51.12004324948769, -51.11455823222461, -51.109545086055356, -51.10495866705248, -51.10077262274385, -51.09696758002833, -51.093520595789435])","array('d', [0.0775475949048994, 0.06181422259457009, 0.04903692157926609, 0.03878559959138827, 0.030667951549180308, 0.024329006007498984, 0.019450328591749125, 0.01574899702590129, 0.01297645207165249, 0.010917316709410173, 0.00938826213183595, 0.008236984443624905, 0.0073413414750597705, 0.0066086858419698875, 0.0059754191195199036, 0.005406783297500138])","array('d', [-0.014947494491934676, -0.010533984895013995, -0.007705146402273352, -0.0058639556359388785, -0.004644803254835109, -0.0038210006962215025, -0.003250121998942152, -0.0028414063701775244, -0.002536165179514185, -0.002295949357527018, -0.002095413278307076, -0.0019180648355778048, -0.0017538124496667836, -0.0015976299674371327, -0.0014488866878370602, -0.0013110070903112813])","array('d', [0.6916740695622305, 0.6889404743629322, 0.6867675101558675, 0.6850466705222205, 0.6836860964153134, 0.6826088567368053, 0.6817513648309281, 0.6810618937866495, 0.6804991690039532, 0.6800310248466058, 0.6796331161385819, 0.6792876766567064, 0.678982316865551, 0.6787088526916696, 0.6784621565649388, 0.6782390210200155])",-170.4806370793497,-210.78325093175306,-51.1492268258741,0.024329006007498984,-0.0038210006962215025,0.6826088567368053,25.000000248988695,-1.0,"[-223.98655701658055, -181.25159215990405, 50.92907220657332]","[-210.51778782994094, -143.84325959243483, 55.31186938630327]","[-184.63820766696574, -174.066362579389, 51.211701532653635]",10000000000.0,0.016657352447509766
8,-216.13905334472656,-174.8921356201172,51.518516540527344,0.04508261382579783,0.014324944466352374,0.6848787228253224,23.322573915847116,"array('d', [-174.8921356201172, -173.3123557625319, -171.7350022427173, -170.15933585850166, -168.58477738397232, -167.01088739270224, -165.43734371323538, -163.8639196161898, -162.29046389826604, -160.7168832702276, -159.1431271505788, -157.56917484362523, -155.99502503506866, -154.42068752778445, -152.84617714677012, -151.27151286431842])","array('d', [-216.13905334472656, -214.20169827145887, -212.26225275090334, -210.3213814224094, -208.37958324598944, -206.43722807447944, -204.4945836059902, -202.5518368988313, -200.6091122439082, -198.66648623115026, -196.7240004426109, -194.7816720229085, -192.8395022874986, -190.89748347840987, -188.95560374385323, -187.01385422524092])","array('d', [-51.518516540527344, -51.48783589881263, -51.46540925686831, -51.448312844777845, -51.43471847506999, -51.423472732993325, -51.41384334721574, -51.4053647090184, -51.397742657305955, -51.39079486823628, -51.38441261264712, -51.37853517522629, -51.373131527947926, -51.36818588153777, -51.36368507214007, -51.35960672263447])","array('d', [0.04508261382579783, 0.03225985264088044, 0.022196782394524304, 0.014456893335844908, 0.008647470947641256, 0.004417877607630071, 0.001457644518577539, -0.0005055284285513181, -0.0017077722339359465, -0.002350965862248249, -0.0026045029392546795, -0.0026068555507475534, -0.0024668975376683044, -0.0022649629453237014, -0.0020536261209588066, -0.001858197925202976])","array('d', [-0.014324944466352374, -0.010287553302706523, -0.007697217714925957, -0.006008196302722577, -0.004886072780754141, -0.004123276314962636, -0.0035891614699445993, -0.0032002498858873605, -0.0029023701203336016, -0.002659912917634872, -0.0024494086882390375, -0.00225577572399333, -0.0020702405248545106, -0.0018892976381625869, -0.0017142715781848323, -0.001551137290978195])","array('d', [0.6848787228253224, 0.6833646890180362, 0.6822992727596192, 0.6815825776393319, 0.6811311502515766, 0.6808761884929282, 0.6807618792284376, 0.6807438412514717, 0.6807876597287021, 0.680867502800004, 0.6809648122797747, 0.6810670601337564, 0.6811665615734388, 0.6812593347550503, 0.6813439964327125, 0.6814206827052309])",-167.01088739270224,-206.43722807447944,-51.423472732993325,0.004417877607630071,-0.004123276314962636,0.6808761884929282,25.0000002489884,-1.0,"[-214.9774288846426, -173.94336434302303, 51.49702985870437]","[-200.80114479016197, -136.56911727554333, 52.97980611005205]","[-175.50057740098458, -167.50113621948552, 51.221541671096496]",10000000000.0,0.020238161087036133
9,-211.4646759033203,-171.09072875976562,51.82896041870117,0.018665773794054784,0.011393480002879996,0.6790278712895252,23.33338560243798,"array('d', [-171.09072875976562, -169.521290148079, -167.9524676522701, -166.38366908876398, -164.8144603303172, -163.24453988982785, -161.67371419062366, -160.1018749727659, -158.52897931074133, -156.9550323314018, -155.38007256689116, -153.80415982061012, -152.2273654111645, -150.64976466678593, -149.0714315604498, -147.4924385186728])","array('d', [-211.4646759033203, -209.51884963859203, -207.57246021967734, -205.62601798080112, -203.67988834102863, -201.7343223414449, -199.78948073320086, -197.84545390032773, -195.9022786613709, -193.95995248483217, -192.01844543073128, -190.07771002379243, -188.1376892053744, -186.19832247383397, -184.25955029526773, -182.32132067493103])","array('d', [-51.82896041870117, -51.80409433851421, -51.78505343445438, -51.7697877935795, -51.75701920644927, -51.745945737234855, -51.73606378267608, -51.72705974575439, -51.71874321073232, -51.71100487521649, -51.70378908899745, -51.697074717986816, -51.69086037348361, -51.68515151419693, -51.679947955690366, -51.675231167973536])","array('d', [0.018665773794054784, 0.00813243599134841, 0.00022210035251559647, -0.005511375909664362, -0.009464872703855263, -0.01198878971564459, -0.01338990712794105, -0.01393423093486025, -0.013849734117183456, -0.013328917251852278, -0.012531128176482347, -0.011584597237402279, -0.010588160452522918, -0.009612656417234897, -0.008701993334145173, -0.007873889893399457])","array('d', [-0.011393480002879996, -0.008547200335340906, -0.006716216630732405, -0.005516388107406464, -0.004711945881160966, -0.004156130590201247, -0.0037561264829416943, -0.0034521888682326777, -0.003205172102985948, -0.0029891104839036035, -0.002786899736965666, -0.0025879228161627033, -0.0023869111404418246, -0.002183572317687471, -0.0019826295852113725, -0.0017939576791087513])","array('d', [0.6790278712895252, 0.6785055022562343, 0.6783441735469166, 0.6784498262438236, 0.6787449601700083, 0.6791667235669088, 0.6796651390635876, 0.6802014502083447, 0.6807465790062195, 0.6812796864848766, 0.6817868277147082, 0.6822596913649827, 0.6826944125519234, 0.6830904467694148, 0.6834494921778856, 0.6837744480539563])",-163.24453988982785,-201.7343223414449,-51.745945737234855,-0.01198878971564459,-0.004156130590201247,0.6791667235669088,25.000000248988126,-1.0,"[-210.2974762368369, -170.14873466446605, 51.811870568445315]","[-195.90207584180828, -132.832668121733, 52.344435348664305]","[-170.7822333004865, -163.9492483717256, 51.47728816105924]",10000000000.0,0.02072000503540039
10,-207.14854431152344,-167.57728576660156,52.122833251953125,0.002584358444437186,0.01375166699290266,0.6738352338459828,23.342506493867038,"array('d', [-167.57728576660156, -166.01740552774325, -164.4569825812557, -162.89551520101088, -161.33265500354787, -159.76818221234308, -158.20198074595237, -156.63401526854125, -155.0643109195218, -153.4929358802225, -151.91998671561785, -150.34557634895967, -148.76982450757177, -147.1928504858815, -145.61476809225664, -144.03568579841107])","array('d', [-207.14854431152344, -205.19511925875207, -203.2420306943784, -201.2897282099444, -199.33851429243518, -197.38857804508496, -195.440020752466, -193.4928765262331, -191.54712946025808, -189.60272799484025, -187.6595968794087, -185.71764698011793, -183.7767831044276, -181.83690996955278, -179.8979364095662, -177.95978172913837])","array('d', [-52.122833251953125, -52.09286637767097, -52.07000338785019, -52.051743345595966, -52.03652622640251, -52.023372675122154, -52.01166697940944, -52.0010249261706, -51.991212281971315, -51.98209349611366, -51.97359826583414, -51.96569832132735, -51.95838961894363, -51.951676915584194, -51.945558939943766, -51.940013390646115])","array('d', [0.002584358444437186, -0.006832048733666282, -0.013629904216784654, -0.01827545903437166, -0.021180669721795883, -0.022706746017669276, -0.023167709902741345, -0.02283387122610842, -0.021935130134421086, -0.020664030495045078, -0.01917850653348736, -0.017604283514200705, -0.016036910284821307, -0.01454341564949726, -0.013163591275521499, -0.011910911020635897])","array('d', [-0.01375166699290266, -0.010280327292184387, -0.008047570001385175, -0.006584993542579539, -0.005605123536441764, -0.0049290444797343135, -0.004443643758151053, -0.0040761549534958546, -0.003778938672992435, -0.0035204187639517686, -0.0032797926114077262, -0.0030441051994424084, -0.0028068233264763594, -0.0025673408192088054, -0.0023309873885055195, -0.002109164882872378])","array('d', [0.6738352338459828, 0.6739216562840412, 0.6743253605340651, 0.6749529188734885, 0.6757281003518658, 0.6765898095705315, 0.6774901752340542, 0.6783927761262533, 0.6792709964137511, 0.6801065022448481, 0.6808878299775659, 0.6816090744210055, 0.6822686638810989, 0.6828682078070957, 0.6834114024394803, 0.6839029809181468])",-159.76818221234308,-197.38857804508496,-52.023372675122154,-0.022706746017669276,-0.0049290444797343135,0.6765898095705315,25.000000248987835,-1.0,"[-205.9765037206435, -166.6413929381355, 52.10220640159637]","[-191.3879567410297, -129.3967503356996, 51.99782996547435]","[-166.43081464860168, -160.65313016558198, 51.57382700737218]",10000000000.0,0.02153921127319336
11,-202.4506072998047,-163.7538604736328,52.42298126220703,-0.009629583917558396,0.014731220901012327,0.6718143383648733,23.35435177453156,"array('d', [-163.7538604736328, -162.19749435634708, -160.63972627657128, -159.08013607547383, -157.51845014098333, -155.95451708492448, -154.38828309963793, -152.819769289658, -151.24905173746393, -149.6762444600873, -148.10148517841142, -146.52492373713133, -144.946712994439, -143.36700201039469, -141.78593138578535, -140.2036337657166])","array('d', [-202.4506072998047, -200.4944174360859, -198.53923481225604, -196.5854498497861, -194.63330946152485, -192.68295132554857, -190.73442954182235, -188.7877351646943, -186.84281314655271, -184.8995764411559, -182.95791768189483, -181.0177186975089, -179.07885804879723, -177.14121672194796, -175.2046820801568, -173.2691539844164])","array('d', [-52.42298126220703, -52.39075002423866, -52.365921463065746, -52.34589383761798, -52.329045294447695, -52.3143590405953, -52.30119755153221, -52.28916510072292, -52.27802293293598, -52.267635812446784, -52.25793703561087, -52.24890390195012, -52.24053858516193, -52.232851215441606, -52.225843306180074, -52.21949076284085])","array('d', [-0.009629583917558396, -0.017939678696237187, -0.023707498677589322, -0.027401579056347804, -0.02943384555201631, -0.030163637435724464, -0.029901700109087003, -0.02891404800531941, -0.027425606644522864, -0.025623559364205833, -0.02366034427347605, -0.02165626682492034, -0.01970171097145515, -0.017858946113250257, -0.016163537547449935, -0.01462537490543258])","array('d', [-0.014731220901012327, -0.011114826380569511, -0.008787183129997742, -0.007260557173109179, -0.006235480183499751, -0.005525435564411683, -0.005012363400962175, -0.004620176829847988, -0.004298945635675536, -0.004015502996905712, -0.003748000357857244, -0.003482943914165982, -0.003213811621564696, -0.0029406506736476892, -0.002670195767310319, -0.002416093344256987])","array('d', [0.6718143383648733, 0.6723580050998202, 0.6731771317460429, 0.6741813211885186, 0.6752973985661569, 0.6764672865194126, 0.6776460370703071, 0.6788000113658553, 0.6799052005109842, 0.6809456793551115, 0.6819121826617018, 0.6828007907765593, 0.6836117102345485, 0.6843481338299201, 0.685015164441666, 0.6856187883777207])",-155.95451708492448,-192.68295132554857,-52.3143590405953,-0.030163637435724464,-0.005525435564411683,0.6764672865194126,25.00000024898772,-1.0,"[-205.9765037206435, -166.6413929381355, 52.10220640159637]","[-191.3879567410297, -129.3967503356996, 51.99782996547435]","[-166.43081464860168, -160.65313016558198, 51.57382700737218]",10000000000.0,0.01730632781982422
12,-198.09751892089844,-160.2098846435547,52.69905090332031,-0.01796655915677567,0.013477336615323923,0.671562806763921,23.376139728502906,"array('d', [-160.2098846435547, -158.6536838123938, -157.09552111075297, -155.53503265261526, -153.9719981394619, -152.40631479544726, -150.83797231500176, -149.26703034019184, -147.6935989065688, -146.11782187302182, -144.53986318943313, -142.95989580381095, -141.37809300636562, -139.79462202515683, -138.2096397146248, -136.6232933584359])","array('d', [-198.09751892089844, -196.14115959080215, -194.18627733616503, -192.23320632255422, -190.28214708465015, -188.33319762561874, -186.3863775066351, -184.44164747019028, -182.49892575880082, -180.55810172818713, -178.61904711033813, -176.68162516569782, -174.7456978997489, -172.8111314773811, -170.87779993678154, -168.9455911173995])","array('d', [-52.69905090332031, -52.669181968655565, -52.64547764076242, -52.62578388340174, -52.60876137892172, -52.59357478279336, -52.579705654656856, -52.56683862176269, -52.554791085307656, -52.54346870933084, -52.53283584120181, -52.52289406578277, -52.51366454467852, -52.5051713812603, -52.4974244342032, -52.490401066524456])","array('d', [-0.01796655915677567, -0.025376423286989202, -0.03033705119012494, -0.03331126197278749, -0.034704510336102924, -0.034869186696834246, -0.034108858066269405, -0.032682347324738945, -0.0308075597764628, -0.028664984797004696, -0.02640082173403, -0.024129699650207018, -0.02193697813101157, -0.019880630355597107, -0.01799271971013667, -0.01628048752054473])","array('d', [-0.013477336615323923, -0.010468580505559584, -0.008527549040082669, -0.007248950293879405, -0.006383594666002758, -0.005775894671234797, -0.005326953959201245, -0.004972628606550427, -0.004670478271900517, -0.004392097362125264, -0.0041187821705373365, -0.0038393210429913563, -0.0035491531443898458, -0.003250374835825368, -0.002952167385938783, -0.002671231838668787])","array('d', [0.671562806763921, 0.6724157595296203, 0.6735107678544817, 0.6747609448692948, 0.6760963857570048, 0.6774620265341997, 0.6788156635273418, 0.6801261271504667, 0.681371603851783, 0.682538097776428, 0.6836180208132578, 0.6846088972505566, 0.6855121676349089, 0.6863320756410938, 0.6870746216823627, 0.687746568753726])",-152.40631479544726,-188.33319762561874,-52.59357478279336,-0.034869186696834246,-0.005775894671234797,0.6774620265341997,25.000000248987714,-1.0,"[-196.92335022417114, -159.27665412031055, 52.678835510392915]","[-182.25015934224444, -122.07521497192404, 51.81258229600448]","[-157.36401205573458, -153.39019619568552, 52.03979186798987]",10000000000.0,0.017427921295166016
13,-193.35211181640625,-156.33799743652344,53.00785827636719,-0.027514755725860783,0.013005908578634163,0.6713804165509085,23.412059827216225,"array('d', [-156.33799743652344, -154.78179514235492, -153.22298338076874, -151.66126834108798, -150.0964936232943, -148.5286136078723, -146.9576685637008, -145.38376259425308, -143.8070446803, -142.22769274836298, -140.64590057262856, -139.0618672845282, -137.4757892693504, -135.88785425143155, -134.29823739900604, -132.70710248454003])","array('d', [-193.35211181640625, -191.39574269269417, -189.44137828924056, -187.48929309386648, -185.53963645665235, -183.59246174491818, -181.6477493253091, -179.70542542768413, -177.76537786158048, -175.8274691100596, -173.89154712875273, -171.95745408060102, -170.02503318024077, -168.09413378267175, -166.16461481983697, -164.23635051027105])","array('d', [-53.00785827636719, -52.97870383119754, -52.954971331900886, -52.93477824161099, -52.91695734274829, -52.90078477031959, -52.885816399322884, -52.87178833631928, -52.85855542489512, -52.8460520986437, -52.834265943180185, -52.823217863464606, -52.81294490209921, -52.80348318254518, -52.79484956839507, -52.78702170335824])","array('d', [-0.027514755725860783, -0.033873713350683676, -0.03789547236640038, -0.04003539602860603, -0.040690695559055634, -0.04020505241407909, -0.038873145645152075, -0.0369449786421817, -0.03462991481451656, -0.03210035332770098, -0.029494998803044487, -0.026921699854616954, -0.024459848906777697, -0.022162349291656305, -0.020057165125457126, -0.018148475149009535])","array('d', [-0.013005908578634163, -0.010362283767631902, -0.008652525154887925, -0.007520999545080067, -0.006748723601204701, -0.006198601745776043, -0.005783097995436989, -0.005445050546234289, -0.005146311523617324, -0.004861148204555514, -0.004572624189089494, -0.004270901631424646, -0.003952797159128374, -0.003622112985501597, -0.003290326881753323, -0.0029772112313906965])","array('d', [0.6713804165509085, 0.6725873240293943, 0.6739973600914899, 0.6755278400659251, 0.6771127615357668, 0.6787006430370685, 0.6802525299030441, 0.6817401629475525, 0.6831443041030798, 0.6844532098524362, 0.6856612400245273, 0.6867675870255004, 0.6877751090637897, 0.6886892503318583, 0.689517031233957, 0.6902660938618513])",-148.5286136078723,-183.59246174491818,-52.90078477031959,-0.04020505241407909,-0.006198601745776043,0.6787006430370685,25.000000248987718,-1.0,"[-192.1777655958667, -155.40497526099205, 52.98834996349384]","[-177.4976970076057, -118.21599113897972, 51.773835156392714]","[-152.61710566010186, -149.53158785714967, 52.311958175284126]",10000000000.0,0.018806934356689453
14,-188.9683380126953,-152.74925231933594,53.29240036010742,-0.031791239976883136,0.014474577270448116,0.6722332398083546,23.441536146355,"array('d', [-152.74925231933594, -151.19125068883983, -149.63034752919285, -148.0662915192281, -146.49896125639023, -144.92834029560444, -143.35449332397488, -141.77754490223634, -140.1976611606049, -138.6150344295162, -137.0298706333092, -135.44237922897943, -133.85276547205854, -132.2612248113821, -130.66793924267756, -129.07307932478952])","array('d', [-188.9683380126953, -187.01345342821048, -185.06079298661263, -183.11060732491708, -181.16302335484707, -179.21807429441813, -177.27572281089556, -175.33587975942334, -173.39841966427275, -171.46319354360412, -169.53003944056994, -167.59879090850956, -165.66928363314213, -163.74136033102653, -161.8148740301055, -159.8896944526853])","array('d', [-53.29240036010742, -53.259969305036456, -53.23359700063032, -53.21117921362755, -53.191411077968034, -53.17348314011812, -53.15689849072024, -53.14136154010166, -53.12670928535373, -53.11286756599342, -53.09982154274007, -53.087593585052716, -53.07622415500563, -53.065752869490034, -53.056198167195824, -53.04753520314155])","array('d', [-0.031791239976883136, -0.0375828563182968, -0.04111483053339338, -0.042834300133369634, -0.04313045632927498, -0.04233927966491117, -0.040748163218782704, -0.03860031674860686, -0.03609886278874016, -0.033410558518145006, -0.030669100467153675, -0.027977990064654183, -0.025412955285806872, -0.023023936787141267, -0.020836655969388707, -0.01885378769549784])","array('d', [-0.014474577270448116, -0.011520287193371975, -0.009609821039166518, -0.008345737371458144, -0.007483323082633858, -0.006869391807350626, -0.006406152764084312, -0.006029766565573339, -0.0056976447324951825, -0.0053810683922238855, -0.005061134652877979, -0.004726847034400203, -0.00437460442182458, -0.00400855488471896, -0.003641351217101319, -0.0032948312133491532])","array('d', [0.6722332398083546, 0.6735968074332166, 0.675142812852312, 0.6767914269581278, 0.6784791920286273, 0.6801568704736618, 0.6817874632372125, 0.6833443942499966, 0.6848098549157475, 0.6861732989891126, 0.6874300748596621, 0.6885801798211525, 0.6896271195109962, 0.6905768552362793, 0.6914368221425464, 0.69221500376764])",-144.92834029560444,-179.21807429441813,-53.17348314011812,-0.04233927966491117,-0.006869391807350626,0.6801568704736618,25.000000248987764,-1.0,"[-188.29424185716618, -152.224290627722, 53.238517445700424]","[-173.64256351381397, -115.02967835941634, 51.86405757602514]","[-148.73874819863062, -146.32522491414534, 52.487554639393785]",10000000000.0,0.01748967170715332
15,-184.26959228515625,-148.8872833251953,53.606605529785156,-0.036720372736454204,0.01364530622959127,0.6733940402653553,23.448698101927366,"array('d', [-148.8872833251953, -147.32682189617339, -145.76314456801194, -144.19604169428422, -142.62542913681258, -141.05132265778633, -139.47381428109472, -137.89305153084797, -136.30921972111932, -134.72252718607183, -133.13319323760803, -131.54143861336092, -129.9474781872193, -128.35151573825627, -126.75374060362684, -125.154329928913])","array('d', [-184.26959228515625, -182.31664700431202, -180.3662016788679, -178.4184661660726, -176.4735348617622, -174.53141425160553, -172.59204470558146, -170.65531835214514, -168.72109392277392, -166.7892090643388, -164.8594904397913, -162.93176184742268, -161.00585053413207, -159.08159183829727, -157.1588322657082, -155.23743571116748])","array('d', [-53.606605529785156, -53.575612088194575, -53.54965947618608, -53.527013553104545, -53.50660359661826, -53.48777123231728, -53.47011954576077, -53.45342138925827, -53.43756265302953, -53.422505871488696, -53.40826507442511, -53.394886039205886, -53.38242809211062, -53.37094497601205, -53.360463444999816, -53.35095943416944])","array('d', [-0.036720372736454204, -0.041822926155317366, -0.04476512777272697, -0.04598289284421448, -0.04585461504646546, -0.04470602775159509, -0.04281492949891232, -0.040415667323461545, -0.03770329168830033, -0.03483732076511784, -0.03194507536871848, -0.029124566552281156, -0.026446934614660803, -0.023958450783023968, -0.02168210128855778, -0.019618778324473205])","array('d', [-0.01364530622959127, -0.011191030440469192, -0.009598008863707238, -0.008536683070528068, -0.007803691466039472, -0.007271225092766349, -0.0068571490607404004, -0.0065073113939086505, -0.006185137115266232, -0.0058656898869366, -0.005532566477915526, -0.005176650131860622, -0.00479609713607569, -0.0043970843446641044, -0.0039948746655720626, -0.003614712486578267])","array('d', [0.6733940402653553, 0.6749375284950327, 0.6766384143492516, 0.6784205130036505, 0.6802235903087285, 0.6820012289196166, 0.6837188674042968, 0.6853520091835421, 0.6868845948955482, 0.6883075278475994, 0.6896173388643916, 0.6908149745355179, 0.6919046916428634, 0.692893040247358, 0.6937879182952926, 0.6945976833770625])",-141.05132265778633,-174.53141425160553,-53.48777123231728,-0.04470602775159509,-0.007271225092766349,0.6820012289196166,25.000000248987835,-1.0,"[-187.7948116054634, -151.81524782291785, 53.270689252348234]","[-173.14677340637814, -114.61996758977679, 51.87566047262931]","[-148.23998683522944, -145.9129292576904, 52.51011515953553]",10000000000.0,0.018367290496826172
16,-179.95474243164062,-145.3250274658203,53.89556121826172,-0.04010651633143444,0.015298682264983559,0.6756487647679189,23.447386993839686,"array('d', [-145.3250274658203, -143.76007609370635, -142.19169575615965, -140.61972457115377, -139.04411527729775, -137.46491214602068, -135.88222908699026, -134.2962302320288, -132.70711332614133, -131.11509588243052, -129.52040392062946, -127.9232630697692, -126.32389181774563, -124.72249671008868, -123.11926932707881, -121.51438876713705])","array('d', [-179.95474243164062, -178.0054553693419, -176.05883118795518, -174.11505274887364, -172.17419066738728, -170.2362314716648, -168.30109925351056, -166.36867312118133, -164.4388015392375, -162.5113141361033, -160.5860313371293, -158.66277207070996, -156.74135973080328, -154.82162653450845, -152.90341637857813, -150.98659089533191])","array('d', [-53.89556121826172, -53.86089585221895, -53.83201484174715, -53.80692445680399, -53.78439265055373, -53.76366053419292, -53.744268940918914, -53.72595301300848, -53.70857700071196, -53.692092499397035, -53.67650972265861, -53.66187514370803, -53.64825112471611, -53.635694715389654, -53.62423409006312, -53.61384241262579])","array('d', [-0.04010651633143444, -0.044534926521467615, -0.04692806097062683, -0.047703965938451616, -0.04722462504758043, -0.04580084095862488, -0.0436969611373426, -0.04113534384344769, -0.03830048278099497, -0.03534273345477908, -0.03238160751196988, -0.029508621265462564, -0.026789700405961257, -0.02426715452278724, -0.02196124274262279, -0.019871355979913016])","array('d', [-0.015298682264983559, -0.012481504406758848, -0.010654302291311542, -0.009438623622890214, -0.008601038357895786, -0.007994955596949403, -0.0075262928036227295, -0.007133139145433809, -0.006773777420557543, -0.006419823784979317, -0.006052604229441036, -0.005661647689606611, -0.005244578961100992, -0.004807875793844111, -0.004367994660049213, -0.0039523254494979775])","array('d', [0.6756487647679189, 0.6773118767653358, 0.6791084183771793, 0.6809667401678572, 0.6828304818087083, 0.6846564920733732, 0.6864129226164059, 0.6880774922926705, 0.6896359149804568, 0.6910804799000446, 0.6924087702451539, 0.6936225038790965, 0.6947264788513797, 0.6957276063672637, 0.6966340143481875, 0.697454207597008])",-137.46491214602068,-170.2362314716648,-53.76366053419292,-0.04580084095862488,-0.007994955596949403,0.6846564920733732,25.00000024898797,-1.0,"[-183.09713719010054, -147.95190632167277, 53.5861382056047]","[-168.4921399806746, -110.74651789286747, 52.019891617617425]","[-143.5487532200736, -142.00631561536775, 52.827668356227754]",10000000000.0,0.017275094985961914
17,-175.29396057128906,-141.45555114746094,54.19261932373047,-0.04261255264282246,0.0170851293951272,0.6789616505291799,23.451461325773515,"array('d', [-141.45555114746094, -139.88410096103235, -138.30908063788115, -136.73037841488855, -135.147983728936, -133.56196744455946, -131.97246225152085, -130.3796450006347, -128.7837215087504, -127.18491388173105, -125.58345022222089, -123.97955653006295, -122.37345059561997, -120.76533769981938, -119.15540795735978, -117.54383905312675])","array('d', [-175.29396057128906, -173.34998386767208, -171.40877775852098, -169.4704979308522, -167.53519179358744, -165.60282729536644, -163.67331431885424, -161.74652155027363, -159.82229014900344, -157.90044489931265, -155.98080324622626, -154.06318248249224, -152.14740527794706, -150.23330369212093, -148.3207217731381, -146.40952142979404])","array('d', [-54.19261932373047, -54.15399260393361, -54.12196311704364, -54.094253027676764, -54.0694536891816, -54.046696120140844, -54.025452886414996, -54.005417670658986, -53.986430799448975, -53.96843160906732, -53.951425813873186, -53.93546031056478, -53.920600462255855, -53.9069066779358, -53.89440854769235, -53.88307625650593])","array('d', [-0.04261255264282246, -0.04631826449334399, -0.048144669958612094, -0.048485253508827236, -0.04767982182209041, -0.04601932723029198, -0.04375051470148807, -0.04108029382625152, -0.03817976124717337, -0.035187823499760004, -0.03221439249641095, -0.02934314448191009, -0.0266338477588451, -0.024124274912271176, -0.02183172201026899, -0.019754160764253105])","array('d', [-0.0170851293951272, -0.013871105439680415, -0.011787940843290613, -0.010403678399381406, -0.009451994322050713, -0.008765760288596531, -0.008237838034941708, -0.007797846057218622, -0.007398459450947683, -0.007007538544590116, -0.00660393539273807, -0.006175697898533394, -0.005719855101840069, -0.005243179038405059, -0.004763370958997106, -0.004310076751308672])","array('d', [0.6789616505291799, 0.6807088412867577, 0.6825641830790404, 0.6844616504955964, 0.6863496004930374, 0.6881887797183912, 0.6899505044265287, 0.6916150091588287, 0.6931699563000289, 0.6946090948439305, 0.6959310538611574, 0.6971382544345985, 0.6982359231056152, 0.6992311899421537, 0.7001322549612036, 0.7009476095606036])",-133.56196744455946,-165.60282729536644,-54.046696120140844,-0.04601932723029198,-0.008765760288596531,0.6881887797183912,25.00000024898816,-1.0,"[-174.1267931315194, -140.51371068711774, 54.16699287641393]","[-159.73008851448003, -103.23951406258763, 52.33146511427414]","[-134.61434290532836, -134.35854564285682, 53.228792257844404]",10000000000.0,0.0173494815826416
18,-171.001220703125,-137.86788940429688,54.46125793457031,-0.04276077821850796,0.0162368044257163,0.6820506016400194,23.455317787771957,"array('d', [-137.86788940429688, -136.29042705052643, -134.70943226846072, -133.12481107842075, -131.5365660540315, -129.9447764031177, -128.34957897007234, -126.75115138647965, -125.14969769238122, -123.54543639899953, -121.93859083381712, -120.32938157064555, -118.71802074718185, -117.10470808787089, -115.48962847194257, -113.87295376233112])","array('d', [-171.001220703125, -169.06208980698807, -167.12573805255758, -165.19229607661092, -163.2617952244971, -161.33419335673133, -159.40939452239667, -157.48726469251815, -155.56764459466442, -153.6503602120147, -151.73523129617382, -149.82207813519122, -147.91072675388602, -146.00101267777194, -144.09278335609298, -142.18590267584844])","array('d', [-54.46125793457031, -54.424129083268326, -54.39259964951702, -54.364754069905494, -54.33941283421613, -54.31585471247378, -54.293649936359664, -54.272558886057176, -54.25246937014011, -54.233356194878205, -54.21525283038885, -54.198228561158956, -54.182366717661175, -54.167741135816264, -54.15438933458812, -54.14228234408443])","array('d', [-0.04276077821850796, -0.04605646140994355, -0.04758617196460011, -0.04772330499254893, -0.046789872932548104, -0.0450612008791117, -0.04277043633101095, -0.040112780580711695, -0.03724937301726807, -0.034310783351349586, -0.031400087869742035, -0.02859552320672948, -0.02595272449920514, -0.023506564340707088, -0.02127261504583113, -0.01924825981632404])","array('d', [-0.0162368044257163, -0.013512819084575332, -0.011740957864529574, -0.010555739346859144, -0.009731349233792184, -0.00912553340787352, -0.008646512074739102, -0.008233419482160902, -0.00784484830765507, -0.007452387830351972, -0.007037353889022858, -0.006589635569665379, -0.006107959678246151, -0.005601029161966973, -0.005089004209597803, -0.0046047219276270064])","array('d', [0.6820506016400194, 0.683795424704588, 0.6856345390419804, 0.6875059727896596, 0.6893613968635494, 0.6911642164271358, 0.6928878313533327, 0.6945140612395005, 0.6960317265893099, 0.6974353742765912, 0.6987241328767804, 0.6999006819775456, 0.700970319033764, 0.7019401075023642, 0.7028180906571696, 0.7036125578424434])",-129.9447764031177,-161.33419335673133,-54.31585471247378,-0.0450612008791117,-0.00912553340787352,0.6911642164271358,25.00000024898832,-1.0,"[-170.06022210893383, -137.10934745004616, 54.42285592694569]","[-155.7726468580443, -99.79287420704057, 52.59364348597078]","[-130.5655327932192, -130.83735936689678, 53.51089028065774]",10000000000.0,0.017529964447021484
19,-166.3599090576172,-133.96286010742188,54.75212860107422,-0.04233509302139303,0.014426070265471835,0.684407548108373,23.455648068172707,"array('d', [-133.96286010742188, -132.38081961859322, -130.79531961736365, -129.20626963737712, -127.61367531620499, -126.01761712340448, -124.41823119792157, -122.81569276560046, -121.21020215835098, -119.60197328503355, -117.99122434739594, -116.37817058623897, -114.76301885484553, -113.14596383613882, -111.52718574293075, -109.90685222329608])","array('d', [-166.3599090576172, -164.4244476642776, -162.4917552352784, -160.5619422162766, -158.635028544062, -156.7109658841589, -154.78965545713976, -152.87096268669063, -150.95472931914776, -149.0407834109938, -147.12894745865074, -145.21904487573363, -143.3109049751408, -141.40436657461487, -139.49928031175028, -137.59551308770875])","array('d', [-54.75212860107422, -54.718456457846855, -54.688668186109865, -54.66146765570334, -54.63606609880347, -54.61199299880947, -54.5889828468895, -54.56690652829559, -54.54572871520976, -54.525479823203774, -54.506235196588406, -54.488096590658714, -54.471172538685764, -54.45555535080546, -54.44129363734, -54.42836062654293])","array('d', [-0.04233509302139303, -0.0454037869128956, -0.04677918604337493, -0.04682109270325455, -0.0458395785762125, -0.04409956975782783, -0.04182524246934311, -0.039204140944089326, -0.036390952667812775, -0.033510899143712254, -0.030662720571852937, -0.02792124936804567, -0.025339580106283816, -0.022950852456109505, -0.0207696693842102, -0.018793175721232038])","array('d', [-0.014426070265471835, -0.012543861561216193, -0.011307938695126241, -0.01046694486146387, -0.009864697126973332, -0.00940180248082601, -0.009013063839254395, -0.008654206940522238, -0.008294250871198932, -0.007911426074975088, -0.00749143354417187, -0.0070273208262363746, -0.006520479304110995, -0.005982329695608651, -0.005436213302409216, -0.004918889735066893])","array('d', [0.684407548108373, 0.6861310977653399, 0.6879414609462324, 0.6897792540732851, 0.6915982365304094, 0.6933634628541708, 0.6950496006131378, 0.6966394091415614, 0.698122370491814, 0.6994934606909232, 0.7007520470632369, 0.7019008960643301, 0.7029452756256382, 0.7038921362309, 0.7047493556238342, 0.7055250343607684])",-126.01761712340448,-156.7109658841589,-54.61199299880947,-0.04409956975782783,-0.00940180248082601,0.6933634628541708,25.000000248988428,-1.0,"[-165.19783937891398, -133.01463764225977, 54.73049024622599]","[-151.0039559084197, -95.66039786826775, 52.943189786554456]","[-125.71802350409679, -126.6398182685844, 53.89036142066085]",10000000000.0,0.022483110427856445
20,-162.04139709472656,-130.30960083007812,55.029319763183594,-0.04415749385952971,0.013649785891175175,0.686172322430883,23.469108706122974,"array('d', [-130.30960083007812, -128.72503704634892, -127.14303223273903, -125.56910231841215, -124.0083285940803, -122.46548391928364, -120.94510092306699, -119.45151957735898, -117.98892084156093, -116.6364847045517, -115.50672795331104, -114.57369478881726, -113.82210933716861, -113.12145609599139, -112.47466413705251, -111.88012285237367])","array('d', [-162.04139709472656, -160.107788970031, -158.1720094180163, -156.22965818833, -154.27672401104013, -152.30960045001913, -150.32507151989932, -148.3203006168229, -146.2928227910159, -144.34653406873184, -142.64362952572463, -141.15111829543517, -139.8530508436109, -138.5268551438082, -137.17357402226438, -135.79652010095563])","array('d', [-55.029319763183594, -55.016078897348805, -55.01896919939814, -55.0187001015899, -55.01903505942912, -55.01925592049777, -55.019496150827216, -55.01973128889545, -55.01996423400046, -55.020174490664466, -55.02033380218471, -55.020441425620426, -55.0205006255548, -55.020514352339916, -55.020395326465476, -55.020138040051144])","array('d', [-0.04415749385952971, 0.03478509699419511, 0.10621531320256081, 0.17084805076124515, 0.2293301739913444, 0.2822469891522394, 0.3301281013994604, 0.3734527128264381, 0.41265441268603786, 0.4481255040037279, 0.48022089109782035, 0.5092614719604627, 0.5355364358745693, 0.5592866139821352, 0.533895535525255, 0.48308310058502013])","array('d', [-0.013649785891175175, 0.0027827931351827174, -0.00041716826367446913, 0.00019173234069937045, 7.81290580048411e-05, 9.82245624977749e-05, 9.402967889777726e-05, 9.407993718515606e-05, 9.230575022307898e-05, 8.523774196590636e-05, 7.091136560501198e-05, 5.169330725009837e-05, 2.7639002306239405e-05, -8.72994844963269e-06, -0.00014765346049010474, -0.00019461123106850317])","array('d', [0.686172322430883, 0.6863304669171916, 0.6835347597820289, 0.6780402159815309, 0.6700599315690814, 0.6597769246408375, 0.6473521668076452, 0.6329301200204426, 0.6166425903535124, 0.5976230364003629, 0.5735714516343695, 0.543484396410951, 0.5058093124633003, 0.4659245037174635, 0.4261496269343274, 0.3897232215050894])",-122.46548391928364,-152.30960045001913,-55.01925592049777,0.2822469891522394,9.82245624977749e-05,0.6597769246408375,25.000000190248006,-1.0,"[-161.86573430181159, -130.193157305931, 54.945348650979376]","[-147.72267570746274, -92.821783526395, 53.11386962379289]","[-122.39434350125927, -123.76476294281804, 54.117668650996926]",10000000000.0,0.015413284301757812
21,-157.35528564453125,-126.33235931396484,55.340293884277344,0.026243934407830037,0.013256038539111519,0.6922316710141039,23.491947035069888,"array('d', [-126.33235931396484, -124.73868184518729, -123.15241102954842, -121.57867832463842, -120.02226787998593, -118.48771793724883, -116.9793716902112, -115.50141223909581, -114.18418846504305, -113.0809805533176, -112.16402100586986, -111.40451812603997, -110.69542749691028, -110.04069833416965, -109.44311113791503, -108.90063826584405])","array('d', [-157.35528564453125, -155.42917876387335, -153.49689549899344, -151.55438834483783, -149.59797992284197, -147.62438446904088, -145.6306978085677, -143.61438910132367, -141.74859641242253, -140.11033749301063, -138.66387146162882, -137.37045778880665, -136.04875403641975, -134.6993066517168, -133.32359833814195, -131.92522035783978])","array('d', [-55.340293884277344, -55.32726285638299, -55.32998969671106, -55.32980577557723, -55.33014400111493, -55.33038934417693, -55.330648827275795, -55.330901981088864, -55.33112019572927, -55.33128614088869, -55.331404160734216, -55.33148342814443, -55.3315416626927, -55.3315612338501, -55.331445640558066, -55.33119355160776])","array('d', [0.026243934407830037, 0.09848694936345107, 0.16385513808578447, 0.22300272588700878, 0.27652167998489435, 0.3249476336714655, 0.36876524609501904, 0.40841305083087454, 0.44428784105406427, 0.4767486288235289, 0.506120200782324, 0.532696214211927, 0.5567411350239679, 0.5784721227124451, 0.5501301834932871, 0.4977728111702796])","array('d', [-0.013256038539111519, 0.002567095977299544, -0.00033717351984831914, 0.00018138600682650972, 9.070712597073026e-05, 0.00010532349213369704, 0.00010231320379402375, 0.00010024436429708441, 9.099525303235443e-05, 7.726800505710959e-05, 6.082437372910386e-05, 4.5126766250880076e-05, 3.272608316123069e-05, -5.9854480113565815e-06, -0.00014580626797150223, -0.00018958159906775132])","array('d', [0.6922316710141039, 0.6897564598163058, 0.6845559300843805, 0.6768472384492402, 0.666816346297003, 0.6546264039150846, 0.6404235217758607, 0.6243407842395166, 0.6048135060715615, 0.5801542745052405, 0.5494761903110215, 0.5120600647215613, 0.47241617702473987, 0.43069838062237636, 0.3893207611166375, 0.3515578672752675])",-118.48771793724883,-147.62438446904088,-55.33038934417693,0.3249476336714655,0.00010532349213369704,0.6546264039150846,25.000000137103623,-1.0,"[-156.20065176848092, -125.37505828519681, 55.320410408809806]","[-142.29953831926343, -87.87680396220414, 56.120390158644476]","[-116.77151088544917, -118.65026204295863, 54.974051164074204]",10000000000.0,0.013167619705200195
