,x_pos,y_pos,z_pos,roll,pitch,yaw,vel,x_traj,y_traj,z_traj,roll_traj,pitch_traj,yaw_traj,x_cmd,y_cmd,z_cmd,roll_cmd,pitch_cmd,yaw_cmd,vel_cmd,effector_dmg,effector_x,effector_y,effector_z,cost,time_solution
0,-243.0398712158203,-197.2144012451172,49.95157241821289,0.630513608455658,0.037763472646474686,0.8202288309719901,23.150503948306717,"array('d', [-197.2144012451172, -195.41054349450954, -193.64974526377205, -191.9276093977928, -190.2401167102073, -188.58366754566245, -186.95506481419704, -185.35147829333712, -183.77040454618876, -182.20962756275253, -180.6671819140391, -179.1413190680978, -177.63047716855806, -176.1332545034952, -174.64838690465152, -173.17473177914465])","array('d', [-243.0398712158203, -241.310836517227, -239.5369662549548, -237.7251099443503, -235.88075553232397, -234.0083825014639, -232.11169560936997, -230.19378947352243, -228.25727011318548, -226.30434793580102, -224.33691071053923, -222.35658183019066, -220.3647672825679, -218.362693601788, -216.35143833356824, -214.33195737485647])","array('d', [-49.95157241821289, -49.87361854785424, -49.82207304007218, -49.787505434973056, -49.76398871678528, -49.74775327979784, -49.73637097091674, -49.72825647631958, -49.72235996948037, -49.717976057553535, -49.714624193951146, -49.71197354208896, -49.70979585425787, -49.70793622457152, -49.70629530892341, -49.704818794164886])","array('d', [0.630513608455658, 0.5640060276176365, 0.5039786597966794, 0.4502072297561103, 0.40230629316709327, 0.35980673185660655, 0.3222021067264332, 0.2889776057972083, 0.25962898593873285, 0.23367560141386698, 0.21066984198437988, 0.19020433267936449, 0.17191770511156415, 0.1554994431300909, 0.14069413013817406, 0.12730532497749392])","array('d', [-0.037763472646474686, -0.024825994295579433, -0.01655148745943478, -0.011192902776707262, -0.0076793714889412164, -0.00534796473685616, -0.0037840046396516846, -0.002725264569620703, -0.00200397783047399, -0.001511371169250814, -0.0011757198347226044, -0.0009485909971928278, -0.0007961032714026055, -0.0006933153088285873, -0.0006206298300909525, -0.0005615692259218702])","array('d', [0.8202288309719901, 0.7935582281055364, 0.7703729734921889, 0.750105053878158, 0.7323010219606005, 0.7165933590916365, 0.7026803649626339, 0.6903119557579355, 0.6792794606869266, 0.6694080943501346, 0.6605512050239457, 0.6525856894779908, 0.6454081618923164, 0.6389315975240314, 0.6330822615655356, 0.6277967852575603])",-188.58366754566245,-234.0083825014639,-49.74775327979784,0.35980673185660655,-0.00534796473685616,0.7165933590916365,25.000000248993103,-1.0,"[-274.1209580475883, -270.3859950688033, 49.922783784783135]","[-296.02557628307534, -243.88115749429613, 70.36003617121128]","[-256.11824585068246, -241.1618526995367, 70.4618162920901]",10000000000.0,0.020593881607055664
1,-238.96969604492188,-193.47377014160156,49.95042419433594,0.600861012935638,0.03126793727278693,0.7693423191693163,23.16689585813274,"array('d', [-193.47377014160156, -191.75829921060355, -190.08481559422654, -188.44835064350494, -186.8445755468864, -185.2697417952161, -183.72060806807798, -182.1943701538155, -180.68859789716353, -179.20117941741563, -177.73027198824616, -176.27425899192588, -174.83171258419165, -173.40136192557262, -171.98206700174788, -170.57280055630793])","array('d', [-238.96969604492188, -237.15238733209384, -235.29567760318943, -233.40597469392426, -231.4883228519003, -229.54677351481334, -227.5846277830895, -225.60460495065473, -223.6089654352799, -221.5996038028898, -219.57812106310746, -217.54588185083253, -215.50406005262118, -213.45367519320092, -211.39562111541488, -209.33069145663495])","array('d', [-49.95042419433594, -49.88589021737982, -49.8432424432421, -49.81465633998737, -49.79521989010137, -49.78181120825754, -49.77242008151006, -49.76573417983894, -49.7608843326766, -49.75728633706828, -49.754542005270046, -49.75237702694919, -49.750602023364856, -49.749088397315035, -49.74775367733581, -49.74655286606104])","array('d', [0.600861012935638, 0.5295472286024374, 0.4669622688567559, 0.4122692562925594, 0.3646310918685766, 0.32323773272538153, 0.2873205485945452, 0.25616053081908313, 0.22909353132471388, 0.2055140555767508, 0.18487835094144467, 0.1667071577622952, 0.15058831371690207, 0.1361793217522372, 0.12320995866633082, 0.11148499097352091])","array('d', [-0.03126793727278693, -0.0205441227961219, -0.013690156253209998, -0.009253259644484658, -0.006344584762608052, -0.004414609541758467, -0.0031199081755081954, -0.0022434408761793888, -0.0016463991515015043, -0.0012387979204591347, -0.0009612972088134079, -0.0007738132554277345, -0.0006482837995437393, -0.000564022744945594, -0.0005047421966257536, -0.0004567097494070582])","array('d', [0.7693423191693163, 0.7444732644752559, 0.7231426615239898, 0.7047038642060263, 0.6886597558430362, 0.6746181844937177, 0.6622639360722212, 0.6513404141033762, 0.6416371718341746, 0.6329810397802922, 0.6252294861580864, 0.6182653678161784, 0.6119925415042704, 0.6063319972460877, 0.6012182953849031, 0.5965961562939887])",-185.2697417952161,-229.54677351481334,-49.78181120825754,0.32323773272538153,-0.004414609541758467,0.6746181844937177,25.00000024899305,-1.0,"[-273.9456282596785, -262.7928086392844, 49.925125595032014]","[-293.27826838066505, -234.92257170819423, 71.12651515697627]","[-253.31387506366553, -234.63963139747045, 69.46302136837005]",10000000000.0,0.021188974380493164
2,-234.32679748535156,-189.69117736816406,50.0666389465332,0.39061984419822665,-0.00606009690091027,0.7207846204426623,23.201110810639097,"array('d', [-189.69117736816406, -188.05576133651178, -186.4467965442097, -184.860902389186, -183.29518177145047, -181.74715539133422, -180.2147041793375, -178.69601824635777, -177.18955122119687, -175.6939792919015, -174.20816459926593, -172.73112285138794, -171.26199516578941, -169.80002422782047, -168.34453490218007, -166.89492177453982])","array('d', [-234.32679748535156, -232.4359937063716, -230.52259944526392, -228.5900247007158, -226.64106168914319, -224.67801019412164, -222.70277298801037, -220.71693068161514, -218.72180181184913, -216.71849188955244, -214.70793384508514, -212.6909214921533, -210.66813709716786, -208.64017378633466, -206.60755328151097, -204.57074252616417])","array('d', [-50.0666389465332, -50.07910831908059, -50.08727199339193, -50.092670534351726, -50.09627082960184, -50.09868766871715, -50.10031736526359, -50.10141916452725, -50.102165331984146, -50.1026722424553, -50.10301979663425, -50.103263561033685, -50.103442296614965, -50.103582517326174, -50.103701118405866, -50.10380676965231])","array('d', [0.39061984419822665, 0.3398752234494316, 0.29603957065606396, 0.2583374178937617, 0.22603313364528588, 0.1984361579648058, 0.17490429322435164, 0.15484600624757625, 0.1377222071844029, 0.12304773968100256, 0.11039271236185232, 0.09938375709776522, 0.08970528178719155, 0.08110077835807217, 0.07337424340106201, 0.06639176696268653])","array('d', [0.00606009690091027, 0.003950634298350871, 0.002602801721634113, 0.0017305848124069762, 0.0011591844892372392, 0.0007806025963867492, 0.0005273789975105231, 0.0003569042918098714, 0.00024194738704841267, 0.00016486684565017787, 0.00011402464483133039, 8.152896573854196e-05, 6.178880321463563e-05, 5.057483601414857e-05, 4.440888717256085e-05, 4.018274422510979e-05])","array('d', [0.7207846204426623, 0.7057943471695023, 0.6928931196147309, 0.681740740388348, 0.672057442764667, 0.6636109062054609, 0.6562073036754252, 0.6496848554883126, 0.6439089501434276, 0.6387682437141566, 0.6341713653655179, 0.6300439917261498, 0.6263261380408661, 0.6229695677034555, 0.6199352552906439, 0.6171908544082045])",-181.74715539133422,-224.67801019412164,-50.09868766871715,0.1984361579648058,0.0007806025963867492,0.6636109062054609,25.000000248990208,-1.0,"[-273.29876388215257, -256.8248463232537, 49.9259788724128]","[-290.59752534170167, -228.08299181853752, 71.71264111322756]","[-250.74365515971732, -229.6164482366099, 68.6601760550476]",10000000000.0,0.03226780891418457
3,-229.9237823486328,-186.3550567626953,50.39207077026367,0.2591332793235776,-0.01096272002905615,0.6885165135052539,23.18057499018765,"array('d', [-186.3550567626953, -184.77617113678886, -183.2143981382615, -181.6672364726467, -180.1325752879139, -178.6086455622248, -177.09397277171928, -175.58733275658665, -174.08771134482595, -172.59426789334032, -171.1063028072449, -169.62322908460484, -168.14454793955272, -166.66982856531573, -165.19869210808963, -163.73080249958153])","array('d', [-229.9237823486328, -227.98559669658084, -226.03351482966212, -224.06979840457464, -222.09628277093896, -220.11446224057417, -218.12555490173284, -216.1305542948042, -214.13027184084106, -212.12537224693276, -210.1164032338113, -208.1038204336531, -206.08800800690545, -204.06929533772933, -202.04797004230971, -200.0242909683276])","array('d', [-50.39207077026367, -50.41443834535128, -50.42871416257193, -50.437796387297375, -50.44350563736521, -50.4470013949112, -50.44903316443697, -50.450093530427075, -50.45051233510402, -50.450515073539535, -50.45025921653621, -50.449856663481974, -50.449387279338964, -50.44890656048322, -50.44844937484881, -50.44803112614041])","array('d', [0.2591332793235776, 0.22029130346086453, 0.1874905445983516, 0.1599554574102027, 0.13696998976875951, 0.11787658109186067, 0.10207536901952494, 0.08902354755318398, 0.07823482566348315, 0.069278963777282, 0.061781395126426435, 0.05542296092063799, 0.04993980068578075, 0.04512344328688015, 0.04082114293807874, 0.036936500922833806])","array('d', [0.01096272002905615, 0.006997734268875147, 0.004465231721004303, 0.002827879089012377, 0.0017573831140433377, 0.0010510076147607448, 0.0005822283551484794, 0.0002712521595810425, 6.719564972511608e-05, -6.283571916542261e-05, -0.00014055339625753573, -0.00018081736222452856, -0.00019446232552224776, -0.00019018412654106165, -0.00017580426424105097, -0.00015907437313121076])","array('d', [0.6885165135052539, 0.6789379838534869, 0.6708349948962788, 0.6639575284281232, 0.6580960949564518, 0.6530749626651047, 0.6487471659395813, 0.6449906102270049, 0.6417048528610075, 0.6388083003247695, 0.6362356614228407, 0.6339355564422545, 0.6318682189632672, 0.6300032485862799, 0.6283173852414264, 0.6267922799111635])",-178.6086455622248,-220.11446224057417,-50.4470013949112,0.11787658109186067,0.0010510076147607448,0.6530749626651047,25.000000248988144,-1.0,"[-272.59365482909817, -252.5296708475851, 49.90639509429111]","[-288.42339970379203, -223.22517062943774, 72.05736446736155]","[-248.72674436014896, -226.02741504170467, 68.01719358212259]",10000000000.0,0.024018049240112305
4,-225.1184844970703,-182.78225708007812,50.76964569091797,0.1697254478931425,0.006997288204729446,0.6639507571843009,23.181788241333997,"array('d', [-182.78225708007812, -181.24790708077234, -179.72440556748418, -178.2097540846087, -176.70232299254894, -175.20079728719423, -173.70412701793651, -172.2114823653763, -170.7222133128303, -169.23581383717232, -167.75189055318927, -166.27013575171674, -164.79030477680456, -163.31219769527726, -161.8356452257376, -160.36050149157927])","array('d', [-225.1184844970703, -223.1447763765556, -221.16265405497117, -219.17374688571707, -217.17935447077156, -215.18050827929287, -213.1780215728412, -211.17253094052714, -209.1645313678427, -207.15440601790328, -205.1424514760792, -203.12889895094509, -201.11393176191285, -199.09769933687676, -197.0803278690794, -195.0619312526405])","array('d', [-50.76964569091797, -50.75464695018089, -50.74366145765707, -50.73526836687585, -50.728579283517156, -50.723033747508566, -50.71827600325755, -50.71407995127359, -50.710302888645714, -50.70685653814253, -50.70368844707614, -50.700769524354264, -50.69808508674499, -50.695627772910186, -50.69339133324992, -50.69136478320181])","array('d', [0.1697254478931425, 0.13832947122409467, 0.11257039780574071, 0.09164072356507633, 0.07480755948791887, 0.06140873971504149, 0.050849714441056376, 0.04260091287106303, 0.036195409590590505, 0.031226828396118754, 0.027347479732370776, 0.02426676070465303, 0.021749859116001476, 0.019616802939158642, 0.017741890363129245, 0.01605352772127435])","array('d', [-0.006997288204729446, -0.005034521050921512, -0.0037749144932810444, -0.0029532774105957105, -0.0024071068868107602, -0.0020355242776064044, -0.0017750191381254662, -0.0015849939945909173, -0.0014390911793720194, -0.001319977130189547, -0.00121622713379483, -0.0011205083322328943, -0.0010285757656986062, -0.0009387736777078635, -0.0008518286880253556, -0.0007707666225338611])","array('d', [0.6639507571843009, 0.6578684733996386, 0.6529281165125607, 0.6489142855505592, 0.6456464792663246, 0.6429741408368547, 0.640772760321006, 0.6389406188007036, 0.6373959290356649, 0.6360742287404081, 0.6349259414888749, 0.633914053414162, 0.6330118717323213, 0.6322008402149739, 0.6314683910564024, 0.6308058132877404])",-175.20079728719423,-215.18050827929287,-50.723033747508566,0.06140873971504149,-0.0020355242776064044,0.6429741408368547,25.000000248986314,-1.0,"[-271.0780297137659, -245.38520282194952, 49.87136981579678]","[-284.31674903265474, -215.20787763458057, 72.54437921753848]","[-245.0376361335999, -220.26269302016772, 66.92297981161326]",10000000000.0,0.026118993759155273
5,-220.63787841796875,-179.46693420410156,51.043609619140625,0.10337123274803142,0.01970432884991159,0.6504398743298391,23.22123126507428,"array('d', [-179.46693420410156, -177.95701556855045, -176.45316584657058, -174.95386456908662, -173.45789788278975, -171.9643229000779, -170.47242616914463, -168.98168284722246, -167.49171905608313, -166.00227832760478, -164.513192422411, -163.0243565493163, -161.53570891205175, -160.04721447841263, -158.55885287030063, -157.07061320352116])","array('d', [-220.63787841796875, -218.6457937374115, -216.64889877722368, -214.64848441086707, -212.64552642474933, -210.64075988508205, -208.6347311397769, -206.62783782397662, -204.62036136078024, -202.61249403826656, -200.604361706388, -198.5960426641572, -196.5875830758781, -194.57900913110547, -192.57033608882358, -190.56157822207092])","array('d', [-51.043609619140625, -51.00216095783235, -50.97326854307851, -50.952467308263316, -50.93695794539896, -50.924965996683774, -50.91535519312394, -50.90739175085968, -50.90059911963967, -50.89466738131722, -50.88939587216269, -50.88465604398028, -50.88036659093028, -50.87647589509092, -50.87294872590512, -50.86975536897947])","array('d', [0.10337123274803142, 0.07808549503890379, 0.05797268366239906, 0.04223179185454666, 0.030142840796479792, 0.021062102564649257, 0.014417981700833919, 0.009707288299802382, 0.006491793382639413, 0.004395051658970145, 0.0030995253524943784, 0.002344060632384948, 0.0019217674651244862, 0.001678343513006712, 0.0015108694934527144, 0.0013670913752672415])","array('d', [-0.01970432884991159, -0.013558693138712058, -0.009621449089679464, -0.007062424802634133, -0.005373324001663687, -0.004239191766217285, -0.003462428102360624, -0.0029174281824666274, -0.0025232589880359252, -0.0022270769980890187, -0.001994021252295854, -0.0018010624703785484, -0.001633300231673844, -0.0014817852404545918, -0.0013422782734496851, -0.0012145437991738076])","array('d', [0.6504398743298391, 0.6468780442996828, 0.6442109797278793, 0.642248445287001, 0.6408317793572755, 0.6398298859530567, 0.6391358664094096, 0.6386640468156267, 0.6383472661135767, 0.6381343503129523, 0.6379877300370963, 0.6378811738782292, 0.6377976164210779, 0.6377270618408204, 0.6376645442435515, 0.6376081255612428])",-171.9643229000779,-210.64075988508205,-50.924965996683774,0.021062102564649257,-0.004239191766217285,0.6398298859530567,25.000000248985266,-1.0,"[-271.0780297137659, -245.38520282194952, 49.87136981579678]","[-284.31674903265474, -215.20787763458057, 72.54437921753848]","[-245.0376361335999, -220.26269302016772, 66.92297981161326]",10000000000.0,0.019704818725585938
6,-215.73594665527344,-175.849609375,51.29926681518555,0.04911309108138064,0.018202316015958685,0.6362451473858693,23.295458028071103,"array('d', [-175.849609375, -174.3659970590748, -172.8845810151912, -171.40414500331283, -169.9237726932001, -168.44280548359308, -166.96079757346877, -165.47747338968824, -163.99268923835066, -162.50639977722705, -161.01862939025284, -159.52944833516685, -158.03895346031754, -156.54725327589384, -155.0544571864668, -153.56067166515095])","array('d', [-215.73594665527344, -213.7241335108809, -211.7105168686114, -209.69609347228177, -207.68158114786831, -205.66748432998182, -203.6541411913054, -201.64176063370573, -199.63045269004132, -197.6202539731453, -195.6111489975933, -193.6030878369244, -191.5960004039174, -189.58980754752997, -187.58442910205127, -185.5797929236997])","array('d', [-51.29926681518555, -51.26072404475985, -51.23337754800843, -51.21325459262346, -51.19786545729444, -51.18563363244948, -51.175551989531016, -51.16697313467505, -51.15948014206651, -51.1528057857093, -51.146781145510325, -51.14130195680559, -51.136305530512836, -51.131753782002036, -51.12761962504644, -51.12387516640406])","array('d', [0.04911309108138064, 0.02824875039293804, 0.012346498708864518, 0.000578238208234004, -0.007793419853445742, -0.013421070010020669, -0.01687786721366851, -0.01866253480996697, -0.01920407574653948, -0.01886615187434532, -0.01795106294543949, -0.016703254758949085, -0.01531229986732193, -0.013915314169617853, -0.012598792228718335, -0.011399859663129668])","array('d', [-0.018202316015958685, -0.012724540634057044, -0.009211705258326704, -0.0069249833313702125, -0.005411649169328504, -0.00439087856504639, -0.003686212943182977, -0.0031852416141705483, -0.0028153322470499324, -0.002528936793365921, -0.002294687734813771, -0.002092047150743693, -0.001908164046932892, -0.001736106996536234, -0.0015739255564591634, -0.00142414694756892])","array('d', [0.6362451473858693, 0.634733334348202, 0.6339419362693735, 0.6336921983866101, 0.6338365017795229, 0.6342545889223874, 0.634850231813388, 0.6355481923948852, 0.6362914014021109, 0.6370383188520835, 0.6377604546469705, 0.6384400319633133, 0.6390677755228312, 0.6396408048921116, 0.6401606112333653, 0.640631095892595])",-168.44280548359308,-205.66748432998182,-51.18563363244948,-0.013421070010020669,-0.00439087856504639,0.6342545889223874,25.000000248984,-1.0,"[-267.62639055815436, -234.45773751559082, 49.87028012362954]","[-276.53318619953075, -203.20792814884692, 73.19662587140849]","[-238.32927340598133, -211.9281465894234, 65.17049120947419]",10000000000.0,0.021230220794677734
7,-211.18580627441406,-172.5003662109375,51.56330871582031,0.012456979602575106,0.015903877094387908,0.6312176744129994,23.351901493024613,"array('d', [-172.5003662109375, -171.0254430123628, -169.55012501582016, -168.07343898609196, -166.59469825510308, -165.1134561124609, -163.6294595994973, -162.1426071130571, -160.6529109766315, -159.16046523454514, -157.6654185545247, -156.16795197962855, -154.66826123069734, -153.16654327228187, -151.66298689273557, -150.1577700816376])","array('d', [-211.18580627441406, -209.16753101839333, -207.1494079151542, -205.13222050282675, -203.11650590491257, -201.1026110215063, -199.0907347468739, -197.08096199166616, -195.07329201991428, -193.06766228641646, -191.06396840007665, -189.06208058772717, -187.06185690977586, -185.06315340964014, -183.06583133261756, -181.0697654722161])","array('d', [-51.56330871582031, -51.529310463803576, -51.50458142730797, -51.485842141358276, -51.47103939340636, -51.4588758207025, -51.44852608704641, -51.43946383101283, -51.43135491011506, -51.423990540008674, -51.41724444011373, -51.411044272312395, -51.40535134362531, -51.40014480869088, -51.395408085550194, -51.391116272919845])","array('d', [0.012456979602575106, -0.004814592525123272, -0.01743485020149694, -0.026221154005104406, -0.03189684336141146, -0.03509759728987902, -0.03637742996324204, -0.036214426095212776, -0.03501618882286621, -0.033124915898993884, -0.030822009401146606, -0.028332138496833636, -0.025826699629234062, -0.023426644771102508, -0.021204671040891007, -0.019186781532754698])","array('d', [-0.015903877094387908, -0.011371200180853157, -0.00846090793767241, -0.006562335296804933, -0.005300974936351353, -0.0044442142950132345, -0.003845582689869585, -0.003411479701369862, -0.0030811784396806165, -0.0028147703424800997, -0.002585933535018429, -0.00237767983704531, -0.002179965283655103, -0.001988460324422527, -0.0018039976293143458, -0.0016323247867465092])","array('d', [0.6312176744129994, 0.6310733793937717, 0.6315140684188766, 0.6323736179465647, 0.6335160764158506, 0.6348320490883336, 0.6362354060411676, 0.6376602305881164, 0.6390579739305937, 0.6403948006024549, 0.6416491130230646, 0.6428092408984976, 0.6438712770258247, 0.6448370374861763, 0.6457121220265507, 0.6465040511930294])",-165.1134561124609,-201.1026110215063,-51.4588758207025,-0.03509759728987902,-0.0044442142950132345,0.6348320490883336,25.000000248983614,-1.0,"[-265.45569325118987, -229.17620204381296, 49.898603987140795]","[-272.15869075845717, -197.51039381953032, 73.40065525762614]","[-234.67927065076154, -207.9234375088657, 64.08069873869044]",10000000000.0,0.025848388671875
8,-206.2538299560547,-168.86293029785156,51.86701202392578,-0.015772527083754734,0.016043059527873892,0.6265185634281972,23.404121597103234,"array('d', [-168.86293029785156, -167.39642497823343, -165.92748634592166, -164.4553290123421, -162.9794422682458, -161.49954217778222, -160.0155249012849, -158.5274243847753, -157.03537541697713, -155.53958219095438, -154.0402921561488, -152.5377748173887, -151.032305111897, -149.52415102031455, -148.01356511697793, -146.50078283932274])","array('d', [-206.2538299560547, -204.2294387330717, -202.20667773194432, -200.18619249686768, -198.16839589250807, -196.15352218489784, -194.14166793321763, -192.13282505056412, -190.12690834899163, -188.12377866420638, -186.12326214679314, -184.12516608205723, -182.12929149061634, -180.1354426987779, -178.14343402397927, -176.15309765660805])","array('d', [-51.86701202392578, -51.832488068875335, -51.806950748792524, -51.78722801600297, -51.77133530556569, -51.758020618891, -51.74649003580984, -51.73624034731857, -51.72695576161425, -51.718443091027225, -51.71058997765199, -51.7033366792782, -51.696655503292384, -51.69053418696887, -51.684960996096315, -51.67991042917319])","array('d', [-0.015772527083754734, -0.030468994122281427, -0.04069690759296054, -0.04727646514304108, -0.050929652155401406, -0.05228715050042196, -0.05189500869831667, -0.050221095629996874, -0.04766125154944429, -0.04454501549084219, -0.041140815519724434, -0.03766053563602097, -0.03426340644204163, -0.031059197821695618, -0.028110716775374463, -0.02543563068996269])","array('d', [-0.016043059527873892, -0.011650284737378478, -0.008827030756237366, -0.006982098385041438, -0.005752665665694443, -0.004913139211955104, -0.004321234156577407, -0.003885803443020435, -0.003547525309544969, -0.003267299007581313, -0.003019338454248722, -0.002787181186691865, -0.0025615302302229538, -0.002339235994370156, -0.0021229287971721985, -0.0019209056672772273])","array('d', [0.6265185634281972, 0.6274308129190317, 0.6288310415850947, 0.630560357135363, 0.6324899119490897, 0.6345172712378027, 0.6365630473526263, 0.6385677592917004, 0.6404889069159314, 0.6422982560428934, 0.6439793267723943, 0.6455250705193876, 0.6469357149359934, 0.6482167515879892, 0.6493770390847553, 0.6504269960426505])",-161.49954217778222,-196.15352218489784,-51.758020618891,-0.05228715050042196,-0.004913139211955104,0.6345172712378027,25.00000024898318,-1.0,"[-262.8827368083055, -223.7828269346322, 49.90131863476134]","[-267.3466303395078, -191.79681062134597, 73.5014969168904]","[-230.71916695574168, -203.836002425466, 62.84847918600869]",10000000000.0,0.018620729446411133
9,-201.7455596923828,-165.5241241455078,52.15530014038086,-0.03384520858526249,0.016299363225698374,0.626331524052892,23.421408083930363,"array('d', [-165.5241241455078, -164.05731266044242, -162.58679027296392, -161.11191654295487, -159.63231034798937, -158.14780256025284, -156.65839034462692, -155.16419604253662, -153.6654315370884, -152.1623681597038, -150.6553118641364, -149.14458327776217, -147.63050222532547, -146.11337635388307, -144.5934935433374, -143.07112089230372])","array('d', [-201.7455596923828, -199.7214034847387, -197.69980594243088, -195.68131360323738, -193.66625226768736, -191.65477925953525, -189.64692302292983, -187.64261514158844, -185.64171697607551, -183.64404196444048, -181.6493741551847, -179.65748333183183, -177.66813698518246, -175.6811093288245, -173.6961875103336, -171.713179101612])","array('d', [-52.15530014038086, -52.12001762386327, -52.09353493172239, -52.07275241059518, -52.05573233496898, -52.04125427467932, -52.02854684010099, -52.01712412949237, -52.00668475865615, -51.99704839827202, -51.98811465312585, -51.97983493976442, -51.97219150766112, -51.96517992892996, -51.95879286386179, -51.953004071595])","array('d', [-0.03384520858526249, -0.04652471068470668, -0.05495565364075944, -0.05994225182029979, -0.06218966902462837, -0.062311208325538436, -0.06083535311614621, -0.05821261195426398, -0.05482203995731881, -0.05097729566367492, -0.04693211351969318, -0.04288510784903648, -0.038983861774707196, -0.03532828735130664, -0.031973268154395745, -0.02893061202333996])","array('d', [-0.016299363225698374, -0.011999341588327182, -0.009233357082845308, -0.007423052913226117, -0.006213294648003503, -0.005383068373594029, -0.004792770456956184, -0.004352769894413116, -0.004004559841796866, -0.0037094701897605656, -0.0034420029745332323, -0.0031860495882557313, -0.002932928146409518, -0.0026805522840731826, -0.002433231102704339, -0.002201678829594251])","array('d', [0.626331524052892, 0.6279134091754294, 0.6299089428148896, 0.6321673652179913, 0.6345673158326873, 0.6370132231167354, 0.6394319322305924, 0.6417695556426785, 0.6439885486738715, 0.6460650107233622, 0.6479862048408296, 0.6497482794904983, 0.6513541694607622, 0.6528116486524109, 0.6541315057033069, 0.6553258158484458])",-158.14780256025284,-191.65477925953525,-52.04125427467932,-0.062311208325538436,-0.005383068373594029,0.6370132231167354,25.000000248983216,-1.0,"[-260.2379388166694, -218.9424245631424, 49.88725937502692]","[-262.56229981251835, -186.80481302148934, 73.58897387754305]","[-226.8468604286069, -200.40988081688397, 61.78602848679999]",10000000000.0,0.0187380313873291
10,-196.89633178710938,-161.90574645996094,52.458587646484375,-0.052031848579645344,0.014789172448217768,0.6269992748883106,23.428260316036287,"array('d', [-161.90574645996094, -160.43686634140525, -158.96301532361497, -157.48369918967663, -155.99866933251616, -154.50787401080643, -153.01141302155816, -151.50949772301303, -150.00241685317977, -148.49050798532903, -146.97413422770717, -145.45366570714785, -143.92946538752156, -142.40187882249037, -140.87122750661263, -139.33780862285138])","array('d', [-196.89633178710938, -194.8736277645666, -192.85443753394674, -190.83919379170666, -188.82812722119465, -186.8213135122737, -184.81871017754355, -182.82018682062812, -180.82555048093883, -178.83456686976496, -176.8469779757312, -174.86251636607, -172.8809164311776, -170.90192276915633, -168.92529586750155, -166.95081915635237])","array('d', [-52.458587646484375, -52.426178255931354, -52.401121820071786, -52.38084075001012, -52.36372695271088, -52.348771719288315, -52.335342536625674, -52.323047062110646, -52.311649097111726, -52.30101556478918, -52.291081725908526, -52.28182670014978, -52.27325427013564, -52.26537579760134, -52.25819339794722, -52.25168262920335])","array('d', [-0.052031848579645344, -0.06256554056563601, -0.06910388995862615, -0.0724298732546325, -0.0732269374996227, -0.07208653414979374, -0.0695155699770608, -0.06594365990139074, -0.061730018224430236, -0.05716983253375295, -0.052499999268802895, -0.047904142988445475, -0.04351688217930636, -0.039427337866248816, -0.03568190555532692, -0.03228632621756862])","array('d', [-0.014789172448217768, -0.011198971719511808, -0.008885116586664498, -0.007365272859280362, -0.006342927137066873, -0.00563317123429106, -0.005118807191265867, -0.004724194959880273, -0.004399623083610773, -0.004112026060802, -0.003839610339061786, -0.003568942409295869, -0.0032936081194435162, -0.0030138472673317666, -0.002736703631209215, -0.0024762721535425483])","array('d', [0.6269992748883106, 0.629253619486137, 0.6318428710418125, 0.6346255049221516, 0.6374886172289198, 0.6403443201104001, 0.6431263607619796, 0.6457869705892937, 0.64829395535052, 0.6506280288147254, 0.652780381037129, 0.6547504623321875, 0.6565439570822287, 0.6581709177618849, 0.6596440283992581, 0.6609769700031451])",-154.50787401080643,-186.8213135122737,-52.348771719288315,-0.07208653414979374,-0.00563317123429106,0.6403443201104001,25.000000248983355,-1.0,"[-254.74976272843972, -210.6848565015453, 49.87745761350118]","[-253.13121396147534, -178.41544345587118, 73.45849409573904]","[-219.3520377279415, -194.91702159253964, 59.7959477743798]",10000000000.0,0.020618915557861328
11,-192.43939208984375,-158.5493927001953,52.7516975402832,-0.06257107108831425,0.012842209078371422,0.6283729831364494,23.429640147951204,"array('d', [-158.5493927001953, -157.07730677743209, -155.599538298081, -154.11568011646077, -152.6255627555412, -151.12920407848276, -149.6267640399964, -148.11850546321415, -146.60476086887493, -145.0859050069501, -143.5623326035491, -142.03444081279295, -140.50261589649827, -138.96722371434444, -137.42860367771198, -135.8870696046605])","array('d', [-192.43939208984375, -190.4189624504852, -188.4026132009666, -186.39070257193276, -184.38340121401245, -182.38073452149723, -180.382617077317, -178.38888151476863, -176.39930288039852, -174.4136190956496, -172.43154790830445, -170.45280062667288, -168.47709287253176, -166.50415254688775, -164.53372516643762, -162.56558144145])","array('d', [-52.7516975402832, -52.72306738897965, -52.70004456417044, -52.68067988456688, -52.663761760429956, -52.648535763119156, -52.63453567579769, -52.6214806017093, -52.60921134159106, -52.59764996764709, -52.58677273056437, -52.576590082049194, -52.56712980787214, -52.55842072011086, -52.55047546622788, -52.54327204750348])","array('d', [-0.06257107108831425, -0.07176925926084395, -0.07714446193090951, -0.07946302200983539, -0.07939185356515134, -0.0775062009472027, -0.07429733681042666, -0.07018004712652615, -0.06549972250883535, -0.060538895630985814, -0.0555231064874893, -0.050626023725863924, -0.0459737921000443, -0.04164860918940566, -0.03769155785419283, -0.03410473497952395])","array('d', [-0.012842209078371422, -0.010108031117254754, -0.008339985820207637, -0.007171407721435295, -0.006376456486511145, -0.0058138028894642165, -0.005393339643816885, -0.00505638806399547, -0.00476393801921012, -0.004489767747132052, -0.00421660619328465, -0.003934245429069932, -0.0036389185678490834, -0.0033334613272297236, -0.0030278506376351724, -0.002739712882909016])","array('d', [0.6283729831364494, 0.6310157545665762, 0.6339446290688419, 0.6370243281828596, 0.6401476081482405, 0.643231658423368, 0.6462147228357565, 0.6490529595959341, 0.651717553933967, 0.6541920854023316, 0.6564701390731428, 0.6585531395890256, 0.6604483803686543, 0.6621672169783135, 0.6637233929904743, 0.6651314710796019])",-151.12920407848276,-182.38073452149723,-52.648535763119156,-0.0775062009472027,-0.0058138028894642165,0.643231658423368,25.00000024898351,-1.0,"[-253.4047281371137, -208.7689994116887, 49.87604078531017]","[-250.8600209020681, -176.51436148645195, 73.3954539880197]","[-217.58499574102999, -193.66925211469407, 59.30707480284264]",10000000000.0,0.02006387710571289
12,-187.62466430664062,-154.89120483398438,53.06733703613281,-0.06907239556312582,0.01595244556665411,0.6316566030171256,23.423725271999114,"array('d', [-154.89120483398438, -153.41230050458566, -151.92727807950405, -150.4358175263048, -148.93781720176872, -147.43334834054014, -145.92261287586885, -144.40590647961832, -142.88358721406527, -141.35604959169538, -139.8237036176196, -138.2869583334638, -136.74620940158496, -135.20183032220626, -133.65416694297653, -132.10353872217365])","array('d', [-187.62466430664062, -185.60932723841162, -183.5983776137692, -181.5921369832632, -179.5907401210144, -177.59418029090145, -175.60234443849333, -173.61504192778736, -171.63202844194893, -169.6530258719845, -167.67773868569523, -165.70586711817123, -163.73711744430608, -161.7712095403348, -159.80788189923945, -157.84689895517053])","array('d', [-53.06733703613281, -53.03201601303653, -53.00404728824313, -52.98086557427101, -52.96087379528794, -52.94307432689249, -52.92684673261652, -52.91181235972115, -52.89775065105752, -52.88454613047825, -52.8721531984509, -52.86057067866587, -52.84982096160671, -52.839930474162, -52.83090959950308, -52.822731423369774])","array('d', [-0.06907239556312582, -0.0771475079448726, -0.08159049258153708, -0.08314250284148972, -0.08244694419037463, -0.0800573185080326, -0.07644500772036812, -0.07200682119958071, -0.0670721204296017, -0.06190936432389623, -0.05673196452603118, -0.05170338726630005, -0.04694147927169615, -0.04252202677225259, -0.038481578359442416, -0.034819575158434965])","array('d', [-0.01595244556665411, -0.012365170901567227, -0.010048920180786491, -0.008522187339868498, -0.007488648351960306, -0.0067631496066431936, -0.006227945279648593, -0.0058066534895189524, -0.005448743360432457, -0.0051203995905886, -0.004799342453581947, -0.004472164453806316, -0.004133288771552769, -0.003784933054013752, -0.0034375768930517653, -0.003110448563454153])","array('d', [0.6316566030171256, 0.634533232754605, 0.6376556971350945, 0.6408955994821385, 0.644151679340628, 0.6473462621087807, 0.650421934202726, 0.6533384640772999, 0.6560699825133203, 0.6586024222469429, 0.6609312040449412, 0.6630591465332462, 0.664994571063507, 0.6667495701884446, 0.6683384080616578, 0.6697760258662455])",-147.43334834054014,-177.59418029090145,-52.94307432689249,-0.0800573185080326,-0.0067631496066431936,0.6473462621087807,25.000000248983845,-1.0,"[-250.6404913616351, -205.3095288025397, 49.87750689709124]","[-246.37371108108448, -173.11282340613113, 73.22631302619301]","[-214.08751711837368, -191.44475256035238, 58.3420242327428]",10000000000.0,0.018748044967651367
13,-183.16842651367188,-151.4737091064453,53.34229278564453,-0.07387036085128802,0.017242731526493926,0.634764746823583,23.42909863613862,"array('d', [-151.4737091064453, -149.98839547640694, -148.49665904326673, -146.99824510882763, -145.4931034261397, -143.98134550186086, -142.46320451940028, -140.93900009874716, -139.40910841145484, -137.87393749786574, -136.33390738484295, -134.78943453666213, -133.240920187709, -131.68874215695547, -130.13324980901626, -128.57476564700326])","array('d', [-183.16842651367188, -181.15786194785355, -179.15192264599705, -177.15089486290663, -175.1548821955426, -173.1638513912041, -171.17766733626152, -169.1961213081457, -167.2189543017428, -165.2458763388369, -163.27658229320244, -161.31076459315247, -159.34812307300672, -157.3883721863218, -155.4312457486288, -153.47650405338374])","array('d', [-53.34229278564453, -53.30406810178866, -53.27371510526511, -53.24848877724159, -53.226680665460094, -53.207224199584736, -53.18945681945822, -53.172975073830216, -53.157545058936776, -53.14304565617716, -53.12943078019327, -53.116701989151764, -53.10488591942436, -53.09401302773034, -53.084095628859075, -53.075104577502444])","array('d', [-0.07387036085128802, -0.08104007782382791, -0.08474014970603866, -0.08568933480642771, -0.08451028102963294, -0.08173743187674125, -0.0778248615389158, -0.07315384937194194, -0.06804000615765517, -0.06273980088568148, -0.057456384993848184, -0.052344658158498834, -0.047515559445538855, -0.04303959762623447, -0.038949654700512856, -0.035243108184693686])","array('d', [-0.017242731526493926, -0.013402291947833838, -0.010922082726606606, -0.00928660722374973, -0.00817858816123038, -0.007399734736404969, -0.006823895227342904, -0.00636918229129115, -0.0059813773104305, -0.005624168823062245, -0.005273633381186828, -0.004915419130040188, -0.004543673269490196, -0.004161050387128325, -0.0037792585393192925, -0.0034196149299837247])","array('d', [0.634764746823583, 0.6378125561797833, 0.6410738572065473, 0.6444261142187043, 0.6477731268316396, 0.6510415285165533, 0.6541775150580046, 0.657143824916648, 0.6599169836943987, 0.6624848107422951, 0.6648441731633848, 0.6669989632254617, 0.6689582697767701, 0.6707347120401677, 0.672342904257765, 0.6737980247096539])",-143.98134550186086,-173.1638513912041,-53.207224199584736,-0.08173743187674125,-0.007399734736404969,0.6510415285165533,25.000000248984144,-1.0,"[-246.2905286183377, -200.37923444837682, 49.890728223939945]","[-239.5082822947095, -168.42792688778405, 72.98001318415558]","[-208.78135716809143, -188.44323151826515, 57.00366651752833]",10000000000.0,0.02071356773376465
14,-178.3248291015625,-147.7238006591797,53.632545471191406,-0.07782255858182925,0.016958709806203745,0.6379395286228994,23.462324419218163,"array('d', [-147.7238006591797, -146.23196274671395, -144.73347185298178, -143.22812403253604, -141.71591057502653, -140.19697591862794, -138.67157869767297, -137.14005774366186, -135.6028033970124, -134.06023391126107, -132.5127765234853, -130.9608527170068, -129.4048672258897, -127.84520038445953, -126.28220348985415, -124.71620069265961])","array('d', [-178.3248291015625, -176.31909438526253, -174.31820011328168, -172.32239200312026, -170.3317419709979, -168.34619158560474, -166.36558565638794, -164.38969949782324, -162.41826147226882, -160.4509716397512, -158.4875170169159, -156.52758379584304, -154.57086679013116, -152.6170763191825, -150.66594269693692, -148.7172231647439])","array('d', [-53.632545471191406, -53.59464854459779, -53.564011686333224, -53.53811402419265, -53.515389701244125, -53.49486499717462, -53.475939743442886, -53.458254229383726, -53.4416068995859, -53.42590200494, -53.41111440027223, -53.39726339673327, -53.38439044212977, -53.372537294444825, -53.36172281301583, -53.351917873115966])","array('d', [-0.07782255858182925, -0.08418827959996324, -0.08723467187083953, -0.08765913468570202, -0.0860646132189473, -0.0829675540156547, -0.07880577241096308, -0.0739460336728066, -0.0686911620677499, -0.06328653308360774, -0.057925853511902096, -0.052756180649969245, -0.04788217019828537, -0.043369570843429434, -0.03924800234034454, -0.03551306431724695])","array('d', [-0.016958709806203745, -0.013419056765594286, -0.01112924707780721, -0.009614523584842603, -0.008582403570560915, -0.007849766200679082, -0.007299756688381065, -0.006856172414341632, -0.00646826093523577, -0.00610184983047712, -0.005734432098226761, -0.005352793866594318, -0.004952296388193643, -0.004537182193896355, -0.00412136654393866, -0.0037291670815388605])","array('d', [0.6379395286228994, 0.6411272602905789, 0.6444998460832116, 0.6479401760536317, 0.6513567090508371, 0.6546800208488264, 0.6578595872922213, 0.6608608248140501, 0.6636623988318701, 0.6662537959885598, 0.6686331437895484, 0.6708052525604766, 0.6727798498119677, 0.6745699753354378, 0.6761905057574954, 0.6776567825488319])",-140.19697591862794,-168.34619158560474,-53.49486499717462,-0.0829675540156547,-0.007849766200679082,0.6546800208488264,25.000000248984428,-1.0,"[-240.8417303376134, -195.0671234086154, 49.897157628303326]","[-231.28193437626513, -163.30152711777097, 72.24793375497241]","[-202.4478846901946, -185.2103362861716, 55.25965369123961]",10000000000.0,0.01900649070739746
15,-173.85215759277344,-144.2299041748047,53.903404235839844,-0.07748871296644229,0.01646615751087656,0.6428104797985892,23.49625618866026,"array('d', [-144.2299041748047, -142.72832770881672, -141.2201968326921, -139.70533578344097, -138.18375446750375, -136.65560753489794, -135.12115700427438, -133.58073984261966, -132.03474070308457, -130.48356955384102, -128.9276437657246, -127.36737419527392, -125.8031548281203, -124.23535560094511, -122.66431808234474, -121.09035653520199])","array('d', [-173.85215759277344, -171.85368832523798, -169.86004923361224, -167.8714578356974, -165.88796752425074, -163.90950818453868, -161.93591804146695, -159.96696968291155, -158.0023916297124, -156.04188618771164, -154.08514404511197, -152.13185594790033, -150.18172171079115, -148.23445676755583, -146.2897964209813, -144.34750134961564])","array('d', [-53.903404235839844, -53.86627820194214, -53.83567479015662, -53.809341646084, -53.78588338035522, -53.76443680472551, -53.744475453631956, -53.72569063325737, -53.70791782145125, -53.69108963648732, -53.67520376149795, -53.66029841876829, -53.64643055831613, -53.633653658237066, -53.621993428396834, -53.61142109084592])","array('d', [-0.07748871296644229, -0.08329946089202624, -0.0859545458814189, -0.08612182635004817, -0.08437804585064154, -0.08121664527246368, -0.0770554604034854, -0.07224411151788264, -0.067070910263451, -0.061769151020934956, -0.05652270157279409, -0.05147085170532698, -0.04671241390469701, -0.04230909639125511, -0.03828818583175231, -0.03464458634716307])","array('d', [-0.01646615751087656, -0.013288778664514446, -0.011228928769307032, -0.009860800604339108, -0.008921753066894314, -0.008246974688922484, -0.007730885287777944, -0.0073042298525211845, -0.00692054001598581, -0.006548318954755499, -0.006166830501396517, -0.005764230462054329, -0.005337237859108228, -0.004891758174886983, -0.004443930169442584, -0.004021034745960027])","array('d', [0.6428104797985892, 0.6459738809729281, 0.6493034720417237, 0.6526880210387709, 0.656040781899232, 0.6592961553354919, 0.6624065866385587, 0.6653397197030154, 0.66807581463755, 0.6706054227166454, 0.6729273011576468, 0.6750465425562304, 0.6769728896631795, 0.6787192048272087, 0.680300064014067, 0.6817304495956311])",-136.65560753489794,-163.90950818453868,-53.76443680472551,-0.08121664527246368,-0.008246974688922484,0.6592961553354919,25.000000248984854,-1.0,"[-237.89267023121047, -192.43078580584802, 49.90352993059289]","[-226.92628230243946, -160.50835173077076, 71.36737251569521]","[-199.1133666823448, -183.71835161510626, 54.40454167651505]",10000000000.0,0.019367218017578125
16,-169.02142333984375,-140.41921997070312,54.20415115356445,-0.07837620377540608,0.01611736416816702,0.6458470980313161,23.526270590110467,"array('d', [-140.41921997070312, -138.91154851030618, -137.39730537871054, -135.87633750755796, -134.3486719818109, -132.81447542758085, -131.2740174102546, -129.727638885719, -128.17572576857845, -126.61868729906791, -125.05693876138581, -123.49088808958399, -121.92092593055075, -120.34741878759374, -118.7707049291466, -117.19109560085829])","array('d', [-169.02142333984375, -167.02753980946082, -165.03854300457076, -163.054627704878, -161.07583124815054, -159.1020720692965, -157.13318035573576, -155.16892326834946, -153.20902590404754, -151.2531886577898, -149.3011014155405, -147.35245489702874, -145.40694939862487, -143.46430113522365, -141.5242463369318, -139.58654664914218])","array('d', [-54.20415115356445, -54.16746527148357, -54.13661107671593, -54.10958922869579, -54.08516517678269, -54.06258034188062, -54.04137842597003, -54.02129979471563, -54.002216073267086, -53.98408810156976, -53.96693674885707, -53.9508198138321, -53.93581052976118, -53.9219747802719, -53.909345471983016, -53.89789391144926])","array('d', [-0.07837620377540608, -0.08376774605372697, -0.0861050413347877, -0.08603909519612624, -0.0841315157299554, -0.08086228339535162, -0.07663738961468469, -0.07179615205771217, -0.06661803730243623, -0.06132886450373882, -0.05610631075814484, -0.051084681333411076, -0.04635894203082182, -0.041988035756245955, -0.037997521477996836, -0.0343815823399747])","array('d', [-0.01611736416816702, -0.013279741705828242, -0.011435017707543729, -0.010203428177651954, -0.009350355538908945, -0.0087281380895449, -0.008241712513564866, -0.007828262310193427, -0.007445252430012753, -0.0070636183795277354, -0.006664233911573132, -0.006236538208237764, -0.005778600483346089, -0.005298071785096692, -0.00481350142023057, -0.004355436672513173])","array('d', [0.6458470980313161, 0.6490371345768341, 0.6523788486458569, 0.6557646601631422, 0.659110860013103, 0.6623543277481518, 0.6654494883006388, 0.6683655256671931, 0.6710838592516384, 0.6735958752897763, 0.6759008950600768, 0.678004354453509, 0.6799161657205471, 0.6816492311101121, 0.6832180788371197, 0.6846375961331704])",-132.81447542758085,-159.1020720692965,-54.06258034188062,-0.08086228339535162,-0.0087281380895449,0.6623543277481518,25.00000024898508,-1.0,"[-233.1998859818276, -188.70123401953526, 50.07572903624575]","[-220.37422423371436, -153.69686091538875, 64.57387596296324]","[-193.97573493694608, -181.54561567097397, 53.27933651189758]",10000000000.0,0.02221512794494629
17,-164.6161346435547,-136.9156951904297,54.48565673828125,-0.07812108099460623,0.014974582009017372,0.652189509072576,23.526674083791857,"array('d', [-136.9156951904297, -135.3954104471234, -133.8686767661215, -132.33538076050093, -130.7955760775426, -129.2494443582062, -127.6972607690128, -126.13936459635484, -124.57613475874172, -123.00796985024019, -121.43527225715933, -119.85843589624105, -118.2778371630838, -116.6938287333051, -115.1067359167154, -113.51685813308998])","array('d', [-164.6161346435547, -162.6318136097172, -160.65237465585182, -158.67797048156166, -156.70861043707288, -154.74419506999615, -152.78454425014033, -150.82942055562415, -148.87854878964004, -146.93163215803023, -144.98836548264035, -143.0484457415299, -141.1115801702047, -139.17749211130786, -137.2459247592089, -135.31664632571085])","array('d', [-54.48565673828125, -54.451064361037986, -54.42107983930614, -54.394146380118585, -54.369309346516786, -54.345990478071016, -54.323852359930655, -54.30271613336258, -54.28251045130647, -54.26323826053948, -54.244952923467096, -54.22773808212616, -54.21168747051185, -54.1968821947904, -54.183364211050744, -54.17110610422681])","array('d', [-0.07812108099460623, -0.08271370475881812, -0.08448327827526574, -0.0840393388491119, -0.08190669685028178, -0.0785330045301495, -0.07429615456882481, -0.0695113263283639, -0.06443752680017743, -0.059283516256710626, -0.05421305278353828, -0.04934942849394087, -0.044779300616505494, -0.040555842398141924, -0.036701252622017344, -0.033208669669015096])","array('d', [-0.014974582009017372, -0.01273752699688533, -0.01127506423423696, -0.01028857717592762, -0.009592980715447322, -0.009071090750957998, -0.008646714627938345, -0.008268772825439622, -0.007902066138972569, -0.007522176439758116, -0.007113048671426725, -0.006666384465350725, -0.006182269049164045, -0.005670557148294159, -0.005152524377599868, -0.0046621973576268525])","array('d', [0.652189509072576, 0.6553534260614333, 0.658642078306608, 0.6619561931698262, 0.66521884508132, 0.6683723334182514, 0.6713753011256645, 0.6742001077205867, 0.6768304583004837, 0.6792592782685157, 0.6814868142791158, 0.6835189360241256, 0.6853656105858791, 0.687039520479481, 0.6885547974471987, 0.6899258483305218])",-129.2494443582062,-154.74419506999615,-54.345990478071016,-0.0785330045301495,-0.009071090750957998,0.6683723334182514,25.00000024898564,-1.0,"[-228.76556775947859, -185.40202551004182, 50.40851452093094]","[-214.7248309350901, -149.23755553513143, 60.15473537119219]","[-189.31066419766347, -179.1652671013153, 52.50933090487508]",10000000000.0,0.020391225814819336
18,-159.88853454589844,-133.1159210205078,54.7950325012207,-0.07738561183214208,0.015231306664645578,0.6577999154713492,23.51099609431661,"array('d', [-133.1159210205078, -131.58560980051985, -130.05556749810114, -128.5316336052499, -127.01914621190727, -125.52309086778041, -124.04817860856816, -122.59890059014862, -121.17956698356758, -119.89385872974148, -118.82514883352842, -117.95038744034669, -117.22483314676758, -116.5491011795723, -115.92388525455758, -115.34560716203296])","array('d', [-159.88853454589844, -157.9117324937338, -155.9346249440964, -153.95280394545784, -151.96223725092383, -149.95929636328736, -147.94074153420567, -145.90371035831993, -143.84571004904785, -141.91140032049924, -140.22696413514504, -138.76223837671154, -137.44947997646963, -136.11040497854594, -134.7470026387021, -133.36302117474358])","array('d', [-54.7950325012207, -54.77990406684897, -54.78286773690934, -54.78264200391696, -54.78302544270022, -54.78329416470096, -54.78358243296385, -54.78386577852055, -54.78414634563887, -54.78439342145276, -54.78457952374954, -54.78470587224046, -54.78478229813263, -54.78480876585415, -54.784685703557095, -54.784414462117816])","array('d', [-0.07738561183214208, 0.0047190497103605095, 0.07901042595675149, 0.14623204820048644, 0.20705669091931794, 0.2620931045363425, 0.3118921065661314, 0.35695209069748157, 0.397724005883636, 0.43461584876397036, 0.46799667459945843, 0.49819994069818313, 0.5255234959119571, 0.527283811739274, 0.4817214384325523, 0.4358751201677009])","array('d', [-0.015231306664645578, 0.002827066874740738, -0.00040225767449591257, 0.00021143368519263098, 9.722260801419788e-05, 0.00011741809016512198, 0.00011326578757204482, 0.0001134082807923687, 0.0001110841938820243, 0.00010182262298866333, 8.503482881357096e-05, 6.343742595759909e-05, 3.887316147288622e-05, -2.886285004906841e-06, -0.00015859896316944945, -0.0002023263103395142])","array('d', [0.6577999154713492, 0.6592001585977636, 0.6575313055639866, 0.6530692840421138, 0.6460419700275412, 0.6366430622735471, 0.6250414148054901, 0.6113874350986778, 0.5958175239653788, 0.5771316921841299, 0.5532784244834877, 0.5230956944580887, 0.4863311232177127, 0.4483261886232537, 0.412238993196405, 0.37995855485758645])",-125.52309086778041,-149.95929636328736,-54.78329416470096,0.2620931045363425,0.00011741809016512198,0.6366430622735471,25.00000019060265,-1.0,"[-222.40870332977408, -180.73537579051623, 50.84572136802848]","[-207.28550187879932, -144.07983963704842, 56.10504139775184]","[-182.77982844097167, -175.3102412681957, 51.192406329300375]",10000000000.0,0.015464067459106445
19,-155.54586791992188,-129.59384155273438,55.070072174072266,-0.019803246483206947,0.01624853909015646,0.666220978894506,23.494965366156393,"array('d', [-129.59384155273438, -128.0490978436806, -126.50864450900023, -124.97797426447539, -123.46214584434352, -121.96592443756967, -120.49384312213175, -119.05024602205839, -117.76301720943745, -116.68917523986086, -115.80282588393953, -115.05960608735712, -114.36536593809103, -113.7236193709342, -113.13487003187959, -112.59524542368375])","array('d', [-155.54586791992188, -153.58034364690664, -151.61133644173012, -149.63471613177938, -147.6466958744093, -145.6438831069161, -143.6232673743531, -141.58221129365856, -139.69620805770896, -138.0497164441529, -136.60821191329214, -135.30537216089098, -133.97580122723346, -132.62011932146012, -131.24058447310333, -129.84108398686723])","array('d', [-55.070072174072266, -55.05252383298427, -55.05467781110656, -55.054773416707306, -55.05523966879154, -55.05563899096003, -55.056047780111975, -55.05645010577669, -55.056801082709114, -55.05707432293986, -55.057276856500074, -55.057426842817684, -55.05755101312501, -55.05762617868123, -55.05753407092883, -55.057283130915984])","array('d', [-0.019803246483206947, 0.056821733243605094, 0.12615488792426305, 0.18889012541721456, 0.2456553190685529, 0.29701859107193945, 0.34349399696291166, 0.3855466673700223, 0.42359745738137017, 0.45802713968497244, 0.48918014903003343, 0.5173677017292758, 0.5428675212746076, 0.5428417751252941, 0.49581521816081126, 0.4486277190488328])","array('d', [-0.01624853909015646, 0.0019066882892519426, -0.00014920882720538444, 0.00021954181249864436, 0.00015454414408157008, 0.00016474344460958856, 0.00016232816813480767, 0.0001595782460730864, 0.00014802472627223456, 0.00013026969452528662, 0.00010944161999917195, 9.084982554723213e-05, 7.497526212013452e-05, 2.6061371975440714e-05, -0.00014600122873290947, -0.00018788627323315595])","array('d', [0.666220978894506, 0.6654691470726736, 0.6618447496688417, 0.655588770453633, 0.6469043093863843, 0.6359671077820285, 0.6229327272307738, 0.6079415159557363, 0.5895269553398259, 0.565963149173358, 0.5362311936262423, 0.5002014196069967, 0.4618506553280309, 0.4223938002552346, 0.3850314379036444, 0.3516521382261569])",-121.96592443756967,-145.6438831069161,-55.05563899096003,0.29701859107193945,0.00016474344460958856,0.6359671077820285,25.00000014440921,-1.0,"[-219.4443838755317, -178.5588057418606, 51.01405503843214]","[-203.99018755798255, -141.83156418683058, 54.5179876772148]","[-179.77342856489042, -173.44509552314256, 50.758570126780825]",10000000000.0,0.01685786247253418
20,-150.81607055664062,-125.80982971191406,55.37687683105469,0.24317832291126237,0.007136409636586814,0.6774207512524465,23.469394433349137,"array('d', [-125.80982971191406, -124.25310791894802, -122.71977031894575, -121.21409735499253, -119.74021090122983, -118.30210448642183, -116.90365694894939, -115.67096067834754, -114.64827165421829, -113.80887399442841, -113.12395652210594, -112.49757307482356, -111.93341707358663, -111.43397489806557, -110.99678428523924, -110.61584456023802])","array('d', [-150.81607055664062, -148.85993451228114, -146.88540026680317, -144.8896965559211, -142.8704113053026, -140.8254974284344, -138.75326794638244, -136.83767774068312, -135.15239468648014, -133.66282079941837, -132.3284438488543, -130.9656240070214, -129.5759000601403, -128.1616258062419, -126.72686288736529, -125.27612593357519])","array('d', [-55.37687683105469, -55.36976758118258, -55.371189439021144, -55.371132042412256, -55.37132240098209, -55.37147120633847, -55.37162416592138, -55.37175503582245, -55.371855872229986, -55.37192952343308, -55.37198225625322, -55.37202725535435, -55.3720642552509, -55.372078124017584, -55.37201113754275, -55.37184875458241])","array('d', [0.24317832291126237, 0.2947773190722436, 0.34146602537778487, 0.3837117168569931, 0.4219372009497608, 0.45652504842791747, 0.4878214208809617, 0.516139532644438, 0.5417627774617397, 0.5649475400413697, 0.5859256604996425, 0.6049060959487792, 0.6220618602669807, 0.594079201198753, 0.5366951931167346, 0.48561706678016864])","array('d', [-0.007136409636586814, 0.0013081133161073819, -0.00014636332583605242, 9.639632466050402e-05, 5.655515989252036e-05, 6.23917582629848e-05, 6.001554886576446e-05, 5.496778567564349e-05, 4.745773220679774e-05, 3.8833421741446296e-05, 3.1597537432714335e-05, 2.8453680196553454e-05, 2.1003769602295377e-05, -2.126238212942052e-06, -8.579324779963995e-05, -0.00012997996558644122])","array('d', [0.6774207512524465, 0.6665831654680613, 0.6536416412931793, 0.6387371382026096, 0.6219987321020962, 0.6035460744742337, 0.5834911049267111, 0.559838885008154, 0.5307361057301314, 0.49527804269698167, 0.45283693814922504, 0.4085161069282821, 0.36245115695474844, 0.3169476988948302, 0.27548061110129, 0.23882535803745208])",-118.30210448642183,-140.8254974284344,-55.37147120633847,0.45652504842791747,6.23917582629848e-05,0.6035460744742337,24.99999983268742,-1.0,"[-214.52964780221473, -174.95848778972464, 51.271964848854076]","[-198.55299023775598, -138.31879491474345, 52.78170624892064]","[-174.78974796374652, -170.43206186137604, 50.77013903874734]",10000000000.0,0.0158388614654541
21,-146.36245727539062,-122.43025970458984,55.678199768066406,0.3834848105907438,-0.002790166530758182,0.6731147925045826,23.44724521175933,"array('d', [-122.43025970458984, -120.88783117867455, -119.38025959635723, -117.91136579499835, -116.48487401597257, -115.10441618840865, -113.91596765675968, -112.93406171158858, -112.13283258785708, -111.47864289008133, -110.88842077698716, -110.36565072602976, -109.91334584446732, -109.53204944121717, -109.21692583990955, -108.96075451029407])","array('d', [-146.36245727539062, -144.39503380440183, -142.4007794201367, -140.37787508497937, -138.32485785877768, -136.24061646009451, -134.34494534289936, -132.669343013173, -131.1816283088582, -129.831946160577, -128.45310137628968, -127.04730643241626, -125.61728782336809, -124.16670677554859, -122.70029721311523, -121.22242182295437])","array('d', [-55.678199768066406, -55.68102244507818, -55.68048833108273, -55.68049134892363, -55.68041201643138, -55.68034620819447, -55.680289282943576, -55.6802453947569, -55.68021264271086, -55.68018800783, -55.6801657888216, -55.68014514838741, -55.680127871591374, -55.68011943102257, -55.6801312991694, -55.68011806334747])","array('d', [0.3834848105907438, 0.42173189065041156, 0.456339282592414, 0.4876533478066093, 0.5159874865013908, 0.5416252737111462, 0.5648232963599928, 0.5858137177494829, 0.6048065916443672, 0.6219919289526835, 0.6375414231770421, 0.6516088245875179, 0.6536896002201324, 0.6094670375827106, 0.5479949004384999, 0.49584159310945264])","array('d', [0.002790166530758182, -0.0004775120471414712, 4.156166371539026e-05, -3.782309515874115e-05, -2.5842754037885744e-05, -2.6788065945764947e-05, -2.4139637877444987e-05, -2.1105407165367362e-05, -1.771416558027584e-05, -1.517467999168243e-05, -1.4462537834100842e-05, -1.3081079941947199e-05, -1.0005940072567415e-05, -1.391846440687451e-06, 1.6910707200965905e-05, -3.37139287800534e-05])","array('d', [0.6731147925045826, 0.6563863989604978, 0.6379431009699285, 0.617896877927837, 0.5963531755602552, 0.5734117161837515, 0.5463223705950256, 0.5135525481834771, 0.47422022796188057, 0.4281635501858071, 0.38048836097342664, 0.33131524921128064, 0.28132213218608493, 0.23350477900203398, 0.19080386138613747, 0.15321805669522073])",-115.10441618840865,-136.24061646009451,-55.68034620819447,0.5416252737111462,-2.6788065945764947e-05,0.5734117161837515,22.374728716061153,-1.0,"[-209.97499513336368, -171.61528580286816, 51.53945390582107]","[-193.81358171202552, -135.02609044178564, 51.738197592840116]","[-170.2114374968432, -167.31128969040867, 50.96057434058547]",10000000000.0,0.01696467399597168
