,x_pos,y_pos,z_pos,roll,pitch,yaw,vel,x_traj,y_traj,z_traj,roll_traj,pitch_traj,yaw_traj,x_cmd,y_cmd,z_cmd,roll_cmd,pitch_cmd,yaw_cmd,vel_cmd,effector_dmg,effector_x,effector_y,effector_z,cost,time_solution
0,-257.4386291503906,-214.66085815429688,50.00468444824219,0.6330279111862179,0.031973376870155376,1.0557646314289906,23.119867420607818,"array('d', [-216.98606872558594, -214.7954483930441, -212.63859523104338, -210.51542531333374, -208.4250515271011, -206.3660672802509, -204.33674861172582, -202.33519920427466, -200.35945341527798, -198.40754832069175, -196.47757301877317, -194.5677012800622, -192.67621194035183, -190.80150016472444, -188.94208179222682, -187.0965953022559])","array('d', [-258.91412353515625, -257.71152604126473, -256.44836107590675, -255.1289331108533, -253.75794279661068, -252.34015226042345, -250.88016671785314, -249.3823088688305, -247.8505576041885, -246.28852758073035, -244.6994731084267, -243.08630560564887, -241.4516180362134, -239.79771247881166, -238.12662869311666, -236.4401752844377])","array('d', [-50.00202560424805, -49.935227206967355, -49.89059942631846, -49.86038928840733, -49.83965377996594, -49.825210608630556, -49.814989106888966, -49.80762626347981, -49.80221370103368, -49.79813821982829, -49.794980806928166, -49.792452527374955, -49.79035392992482, -49.78854959048129, -49.786952430517346, -49.785514244358595])","array('d', [0.6347305774688718, 0.61710015783108, 0.5904516236820674, 0.5578885533070497, 0.5218776331726724, 0.4843023469953693, 0.4465540063016548, 0.4096284981629926, 0.37421317991426784, 0.3407586344549747, 0.30953522682258533, 0.28067650266615835, 0.25421197471367213, 0.2300916636640137, 0.20820435512573293, 0.18839110817894422])","array('d', [-0.03221643716096871, -0.021409189044473087, -0.014411736332108488, -0.009833359672073556, -0.0068057500525742914, -0.004782603277350432, -0.0034173958349471615, -0.002488385307664518, -0.0018522795726965103, -0.0014153949351241042, -0.0011155382475879806, -0.0009105060683119249, -0.0007707042465412003, -0.0006743743937630553, -0.0006045189796671455, -0.00054699152431011])","array('d', [1.083007381358419, 1.0546493418498701, 1.0275962320819254, 1.0022250657226857, 0.9787222320047686, 0.9571403147735665, 0.9374454274498388, 0.9195518451872067, 0.9033454490568058, 0.8886988376543549, 0.875480765920604, 0.8635619275740496, 0.8528184664978282, 0.8431341172907137, 0.8344015397585258, 0.8265231804039421])",-206.3660672802509,-252.34015226042345,-49.825210608630556,0.4843023469953693,-0.004782603277350432,0.9571403147735665,25.000000248948822,-1.0,"[-257.2113459781284, -214.12061256743237, 49.95554264952477]","[-257.92167183512726, -181.8984236528633, 73.64575114862203]","[-222.94871660207355, -196.8570898349225, 61.27115182902628]",10000000000.0,0.02226114273071289
1,-257.1872253417969,-214.27828979492188,50.00563430786133,0.6329097151756284,0.03198660537600514,1.0510869781163075,23.118858009890793,"array('d', [-216.59617614746094, -214.4108672916511, -212.25950359322337, -210.1419336569838, -208.05721815617187, -206.00391217982397, -203.98026493837025, -201.98436223426847, -200.01422723927473, -198.06789070048808, -196.14343880806666, -194.2390447491007, -192.35298827747238, -190.48366637191864, -188.6295971503808, -186.78942154444147])","array('d', [-258.6728210449219, -257.4605882134621, -256.1880908588665, -254.85969077899298, -253.4801096756047, -252.0541065775049, -250.58626904634488, -249.0808943407108, -247.5419325498496, -245.9729689075061, -244.3772292895829, -242.75759855811333, -241.11664543544006, -239.4566502287999, -237.7796333715441, -236.08738645082474])","array('d', [-50.00242233276367, -49.935798985898266, -49.891298996802426, -49.86118152723154, -49.84051312453896, -49.82611868592589, -49.815932806360266, -49.808596268842756, -49.803203411932394, -49.79914297578842, -49.79599733356619, -49.79347854019877, -49.791387846559005, -49.78959031524056, -49.78799918562093, -49.78656643022855])","array('d', [0.6343079805374142, 0.6158517069101828, 0.5886407309344074, 0.5557292901142024, 0.5195358126896993, 0.4819012878992907, 0.4441818757766773, 0.4073454833276275, 0.37205774454091045, 0.33875268881083287, 0.30768830070811665, 0.2789891017203378, 0.252678308535794, 0.22870191080134522, 0.20694659822421857, 0.18725304256858438])","array('d', [-0.032135378569364506, -0.021349794291801668, -0.014368609663531066, -0.00980214734228832, -0.006783132508327981, -0.004766131454143648, -0.003405296728374385, -0.0024793878660605228, -0.0018454759509832677, -0.0014101367112940228, -0.0011113618741877122, -0.0009070809567081958, -0.0007677976576856431, -0.0006718284646585477, -0.0006022362418296554, -0.0005449260175126984])","array('d', [1.0785836140301566, 1.050275759065671, 1.0233112885927824, 0.9980505455006337, 0.9746676063119917, 0.9532067691130841, 0.9336289933800013, 0.9158456120221657, 0.8997410370897583, 0.8851873430495, 0.8720533495669845, 0.8602101704630474, 0.8495345721424006, 0.8399110112293372, 0.8312328957281835, 0.8234033897229557])",-206.00391217982397,-252.0541065775049,-49.82611868592589,0.4819012878992907,-0.004766131454143648,0.9532067691130841,25.000000248950155,-1.0,"[-256.7123225928287, -213.37419842150268, 49.956697157527906]","[-257.0636540692147, -181.13267149423262, 73.62863217754307]","[-222.26601452990025, -196.35289065933188, 61.07995850028598]",10000000000.0,0.023706436157226562
2,-257.1872253417969,-214.27828979492188,50.00563430786133,0.6329097151756284,0.03198660537600514,1.0510869781163075,23.118858009890793,"array('d', [-216.20721435546875, -214.0273233590825, -211.88156076608848, -209.7697061288213, -207.6907668669534, -205.64325903306406, -203.6254044971994, -201.63527081225868, -199.67086969992522, -197.73022539288365, -195.8114210465724, -193.9126291806596, -192.03213041237206, -190.16832349781788, -188.319728807878, -186.48498970746078])","array('d', [-258.4296569824219, -257.20769576859715, -255.92576962110286, -254.58829855329773, -253.20002605952072, -251.76570869560453, -250.2899168796853, -248.77692282365442, -247.2306481018009, -245.65464871849736, -244.05212223484048, -242.42592701996227, -240.77860757897577, -239.1124224464162, -237.42937271305223, -235.7312329263015])","array('d', [-50.002811431884766, -49.93640641632658, -49.892063073360845, -49.86205776684346, -49.841469828147154, -49.82713341410258, -49.81698972572323, -49.80968422254689, -49.804314545746884, -49.80027177060533, -49.79713992595423, -49.79463224221493, -49.79255080031773, -49.79076123632005, -49.78917716325837, -49.787750762729736])","array('d', [0.6339441537857051, 0.6146472480700786, 0.5868621721987656, 0.5535931999559145, 0.5172100576211164, 0.4795109007033514, 0.4418164495572987, 0.40506636938117085, 0.36990432913472404, 0.336747584698368, 0.30584154559189375, 0.2773015433922812, 0.2511443642319789, 0.2273118648825496, 0.20568857083639872, 0.18611473221207206])","array('d', [-0.032033421099185916, -0.021276543745632474, -0.014316175571292394, -0.009764596015586473, -0.006756134331150482, -0.00474658488067326, -0.003391002447982315, -0.0024687928535821013, -0.0018374834169694373, -0.0014039699668299144, -0.0011064692973865506, -0.0009030711010140385, -0.0007643959713290044, -0.0006688492452302951, -0.0005995650748844654, -0.0005425090454926511])","array('d', [1.0741082886841633, 1.0458474961884707, 1.0189692802185677, 0.9938171438505127, 0.970552739180751, 0.9492119898121117, 0.9297506231527785, 0.9120769606855232, 0.8960738864367207, 0.8816129028120125, 0.8685628571753407, 0.8567952563128112, 0.8461874703993083, 0.8366246660074134, 0.8280009921825812, 0.820220326623758])",-205.64325903306406,-251.76570869560453,-49.82713341410258,0.4795109007033514,-0.00474658488067326,0.9492119898121117,25.000000248951487,-1.0,"[-256.442664574182, -212.97701043338571, 49.95766258109601]","[-256.598161676912, -180.72780350321187, 73.62123105725509]","[-221.8973787026146, -196.08848347315822, 60.97586938462598]",10000000000.0,0.021821022033691406
3,-256.42193603515625,-213.13641357421875,50.00849151611328,0.6327783465385433,0.03135471045970914,1.0370242158558702,23.112427851633527,"array('d', [-215.43209838867188, -213.26342683939652, -211.12926132642923, -209.02924173040086, -206.96226692347415, -204.926773021167, -202.92092569153402, -200.94275481859847, -198.99024836394273, -197.06141692561766, -195.15433718141495, -193.2671800534548, -191.3982277232956, -189.54588240278954, -187.70866890488705, -185.88523541033072])","array('d', [-257.9377746582031, -256.6960077012145, -255.39486277387826, -254.03888166513266, -252.63285488556915, -251.18153640309035, -249.68946399993703, -248.16086092024764, -246.59959242603387, -245.0091564670092, -243.39269414662954, -241.75301085747478, -240.092602573593, -238.41368412601815, -236.7182177332652, -235.00794366713063])","array('d', [-50.00356674194336, -49.937200431729856, -49.892904627968306, -49.86294383574285, -49.84239346845527, -49.82808722785702, -49.81796718596191, -49.81068003461478, -49.80532460939387, -49.80129300370493, -49.79817006220325, -49.79566964533999, -49.79359430604053, -49.791810020494616, -49.79023063034985, -49.78880844848748])","array('d', [0.6334018707275387, 0.6123704745600645, 0.583395911076683, 0.5493801577639972, 0.5125937419779629, 0.4747477359484809, 0.4370907902974084, 0.40050504201795056, 0.36558930179938787, 0.33272646108762044, 0.30213607511116297, 0.2739145080130947, 0.2480652158880423, 0.22452144025842313, 0.20316314803462676, 0.18382963495770205])","array('d', [-0.03202153369784356, -0.021257574281884146, -0.014297109235429945, -0.009748006977057454, -0.006742614009165826, -0.004735918431889371, -0.0033827119155446206, -0.002462370690786107, -0.0018324806121389477, -0.0014000196403767195, -0.0011032843309979907, -0.0009004334336499853, -0.0007621451062159593, -0.000666872770510924, -0.0005977918251587896, -0.000540904542644489])","array('d', [1.064965740838323, 1.0367894763200385, 1.0100768453757483, 0.9851369826144274, 0.962106227131051, 0.9410034015427221, 0.9217734804766414, 0.9043185222749699, 0.8885181592949848, 0.8742425965260363, 0.8613606220161414, 0.8497444472100005, 0.8392725960996543, 0.8298316228823571, 0.8213171418744727, 0.8136344509074199])",-204.926773021167,-251.18153640309035,-49.82808722785702,0.4747477359484809,-0.004735918431889371,0.9410034015427221,25.00000024895415,-1.0,"[-255.83803124676652, -212.10161859435226, 49.96056530862307]","[-255.55691597041738, -179.84219470419788, 73.60904400127347]","[-221.07451624860306, -195.52276626098495, 60.76055050680111]",10000000000.0,0.03830456733703613
4,-255.9022674560547,-212.38035583496094,50.01063537597656,0.6320029497146603,0.030691465362906355,1.0281697074559073,23.11224201434968,"array('d', [-215.0459747314453, -212.88294403667754, -210.75460930107144, -208.66053983428472, -206.5995800855763, -204.5701262523527, -202.5703159925948, -200.59816043386724, -198.65163571219242, -196.72874564270847, -194.82756368443006, -192.9462599707488, -191.08311746790454, -189.23654011172636, -187.4050549263778, -185.5873124875677])","array('d', [-257.6891174316406, -256.43754486699373, -255.12688061822766, -253.76172632248975, -252.34689574911172, -250.88714188126409, -249.38698681354649, -247.85063007513602, -246.28190956213052, -244.6842949434225, -243.06089976645666, -241.414503525553, -239.74757843858296, -238.0623179209532, -236.36066512731196, -234.644343511842])","array('d', [-50.003944396972656, -49.93767599144139, -49.89345606215791, -49.863552567143806, -49.84304489258605, -49.82877030024989, -49.81867374333033, -49.81140412857306, -49.80606194773568, -49.80204051436759, -49.79892556476491, -49.79643160673622, -49.79436165795246, -49.792582019616695, -49.79100674707564, -49.789588273646466])","array('d', [0.6331858634948729, 0.611290252858649, 0.5817220092011298, 0.547332031065285, 0.5103416617308841, 0.47241893803850543, 0.4347769274179675, 0.3982693458989411, 0.36347280734724263, 0.3307531616962194, 0.3003171102590571, 0.27225156102310183, 0.2465533041955605, 0.22315125704130778, 0.2019230836583271, 0.18270757820762581])","array('d', [-0.031977578997611944, -0.021223020016575396, -0.014270816295745429, -0.009728348092805659, -0.006728032818371065, -0.004725117525410066, -0.0033746785166795215, -0.0024563413257723313, -0.0018278904371286354, -0.0013964548427053281, -0.0011004435268437544, -0.00089809872491334, -0.0007601615431382862, -0.0006651344730338731, -0.0005962330443411205, -0.0005394940993068071])","array('d', [1.060423807301794, 1.0322863676460878, 1.0056529186634937, 0.980815571064143, 0.9578981742733568, 0.9369111140387468, 0.9177940423262392, 0.9004458945477648, 0.8847446586646232, 0.8705598592396979, 0.8577602189051518, 0.8462182667929545, 0.8358130727629328, 0.8264318582501268, 0.8179709480612761, 0.8103363318766278])",-204.5701262523527,-250.88714188126409,-49.82877030024989,0.47241893803850543,-0.004725117525410066,0.9369111140387468,25.000000248955445,-1.0,"[-255.65913463929294, -211.84570727917657, 49.96146715638894]","[-255.25240825692612, -179.584330385065, 73.6054544374287]","[-220.83357372246792, -195.3569943793887, 60.69937448216149]",10000000000.0,0.02829146385192871
5,-255.37461853027344,-211.6286163330078,50.012569427490234,0.6287800073623655,0.029059294611215546,1.0198052684452867,23.120665843391688,"array('d', [-214.27828979492188, -212.1270051631506, -210.0108108715115, -207.92913089127794, -205.880697401209, -203.86382415871392, -201.87659089886137, -199.9169698946339, -197.98291272576392, -196.0724090678456, -194.1835256125578, -192.31443075770613, -190.46340899375994, -188.62886772631373, -186.8093384566401, -185.003476613147])","array('d', [-257.1872253417969, -255.91556845964456, -254.58538919340464, -253.20141370165376, -251.76850508880165, -250.2914160327572, -248.77463818432315, -247.22232406877123, -245.63825691612251, -244.02584964634744, -242.3881603392792, -240.7279162362672, -239.04754153791663, -237.34918631388808, -235.63475509377477, -233.90593723162206])","array('d', [-50.00563430786133, -49.939360355567395, -49.89515674229361, -49.8652751773169, -49.84478828602405, -49.830531016089374, -49.82044796555975, -49.81318845885613, -49.807853637915684, -49.80383746975234, -49.80072626229193, -49.798234990637326, -49.796167036845105, -49.79438897134121, -49.79281503028247, -49.791397742894155])","array('d', [0.6329097151756284, 0.6092224238928288, 0.5784196221647284, 0.543246665546356, 0.5058238724713919, 0.4677311071656379, 0.43010855623990835, 0.3937516590745053, 0.3591914218298497, 0.3267585870421222, 0.2966332963025079, 0.26888285494662445, 0.2434901846666311, 0.22037516487323838, 0.199410607302575, 0.180434195383106])","array('d', [-0.03198660537600514, -0.02121865663963794, -0.014262195900573092, -0.009719428187972725, -0.006720305644274747, -0.004718960356672757, -0.003370005721088549, -0.0024529069836701023, -0.0018254207555508056, -0.0013947004229850953, -0.001099195778118431, -0.0008971916895401008, -0.0007594690064726597, -0.0006645666632039905, -0.0005957345124331277, -0.000539043008941734])","array('d', [1.0510869781163075, 1.0230197157723873, 0.9965402533728439, 0.9719056809872187, 0.9492142283673595, 0.9284589568962809, 0.9095685367285719, 0.8924353999628784, 0.8769340503072197, 0.8629325075105417, 0.8502992624739657, 0.8389074141187525, 0.8286370864384589, 0.8193768188003898, 0.8110243549843289, 0.8034870747389337])",-203.86382415871392,-250.2914160327572,-49.830531016089374,0.4677311071656379,-0.004718960356672757,0.9284589568962809,25.000000248958045,-1.0,"[-254.58965226593412, -210.3511467628246, 49.968986620040994]","[-253.4945605075337, -177.9947342789412, 73.46075848198188]","[-219.42870530264855, -194.3484999307985, 60.343142152635636]",10000000000.0,0.04767584800720215
6,-255.1077423095703,-211.25440979003906,50.0135383605957,0.625804722309112,0.027842888608574805,1.015860752263341,23.12615236779762,"array('d', [-213.5160369873047, -211.37681201836526, -209.27309330541524, -207.20414940962485, -205.1685952031641, -203.1646593070035, -201.19036198636505, -199.24363572772396, -197.32240698626063, -195.42465096340095, -193.54842740508835, -191.69190289836897, -189.8533634463934, -188.03121994642967, -186.22400841027942, -184.43038915296287])","array('d', [-256.67889404296875, -255.387009528848, -254.03716599594964, -252.63421208331758, -251.18305995041075, -249.68846262783964, -248.15488239214054, -246.58642592347715, -244.98682286013874, -243.35943028797772, -241.70725155780494, -240.03296223405732, -238.3389389400861, -236.6272887330026, -234.899877770432, -233.15836150483065])","array('d', [-50.00752258300781, -49.94207756285375, -49.89844591839538, -49.86896117874866, -49.848751528669354, -49.83468959155256, -49.824745552135404, -49.817586183053216, -49.81232460081746, -49.80836305664902, -49.805293637430296, -49.802835373220944, -49.80079448576831, -49.79903949463533, -49.797485895605575, -49.79608690802288])","array('d', [0.6328109502792355, 0.6072975222259155, 0.5752328389281571, 0.5392546344046915, 0.5013811184413208, 0.4631034005920827, 0.4254883827466702, 0.3892728499497769, 0.354941803646166, 0.3227904673165075, 0.29297201844560056, 0.26553378626533336, 0.24044450109655094, 0.21761474676763584, 0.19691230012932995, 0.17817363336626266])","array('d', [-0.03159249573945995, -0.020947333018006584, -0.014074476545192189, -0.009588713173064093, -0.0066285698511627045, -0.004653980964029342, -0.003323467669502616, -0.0024191218532763482, -0.0018004674557611895, -0.0013758526188027455, -0.0010845429822807944, -0.0008853909385689094, -0.0007495847083723756, -0.0006559699801419462, -0.0005880424779265555, -0.0005320829676710422])","array('d', [1.0416419665005539, 1.013635266829078, 0.9873018759622125, 0.9628634540571919, 0.9403924414082292, 0.9198644585171359, 0.9011970674657003, 0.8842760566012674, 0.8689723037625454, 0.8551521938856644, 0.8426838754867813, 0.8314409287801533, 0.8213044649007789, 0.8121642929243882, 0.8039195423179448, 0.7964789602209383])",-203.1646593070035,-249.68846262783964,-49.83468959155256,0.4631034005920827,-0.004653980964029342,0.9198644585171359,25.00000024896059,-1.0,"[-254.50041084307, -210.22934884629365, 49.96990116858054]","[-253.35355380036629, -177.85056191871203, 73.42835116046768]","[-219.31444070045404, -194.261253276008, 60.31240710191999]",10000000000.0,0.021131515502929688
7,-254.56866455078125,-210.51060485839844,50.015953063964844,0.6162365674972533,0.02439871244132513,1.0082216421749932,23.137713222261038,"array('d', [-213.13641357421875, -211.00315261034527, -208.90560121500945, -206.8429508512645, -204.81375869406085, -202.81621171626955, -200.84830120324906, -198.90794032174387, -196.9930433814219, -195.10157864079895, -193.2316025759068, -191.3812810053217, -189.54890077840565, -187.73287459501162, -185.93174075581885, -184.14416203209913])","array('d', [-256.42193603515625, -255.12020128949027, -253.76078227614246, -252.34858598250736, -250.888547706532, -249.38542033479368, -247.84365180942805, -246.26732661442472, -244.66014849044396, -243.0254475513311, -241.36620070327163, -239.68505852898838, -237.98437463957123, -236.26623527686658, -234.5324880203276, -232.78477189793855])","array('d', [-50.00849151611328, -49.943544843926446, -49.90025435775842, -49.87100484796251, -49.850958755406886, -49.83701163796401, -49.82714909701549, -49.82004833176934, -49.81482956676249, -49.81089994405422, -49.80785494731713, -49.80541598160894, -49.80339092722123, -49.801649439698735, -49.80010774790957, -49.7987194727354])","array('d', [0.6327783465385433, 0.6063737485953619, 0.5736934122421367, 0.5373220157862382, 0.49922785476142933, 0.46085884423318957, 0.4232462891051447, 0.3870984930126049, 0.3528781027726079, 0.320863059796467, 0.29119340038887237, 0.26390670068332545, 0.23896474905300907, 0.21627357261396699, 0.1956984724655368, 0.1770753165775387])","array('d', [-0.03135471045970914, -0.02078503954914034, -0.013962953628205144, -0.009511466963028988, -0.006574577737596246, -0.004615851237688355, -0.0032962166176922093, -0.0023993646292550424, -0.0017858845029355534, -0.0013648388305754614, -0.0010759779209298308, -0.0008784894401134154, -0.000743801102124804, -0.0006509381542635832, -0.0005835396842799499, -0.0005280086711260832])","array('d', [1.0370242158558702, 1.009046108054728, 0.9827829256579187, 0.9584390577596229, 0.9360744457514781, 0.9156562759460851, 0.8970967349512801, 0.8802783851770735, 0.8650703318603812, 0.8513381486790345, 0.8389497997454997, 0.827779082842006, 0.8177075755076789, 0.8086256938285136, 0.8004332335926984, 0.7930396016673803])",-202.81621171626955,-249.38542033479368,-49.83701163796401,0.46085884423318957,-0.004615851237688355,0.9156562759460851,25.000000248961797,-1.0,"[-254.3177158174167, -209.98000234621378, 49.97177942360958]","[-253.06493475194787, -177.55580153778132, 73.36198552651621]","[-219.08073624994051, -194.08296955699822, 60.24989303749174]",10000000000.0,0.026706695556640625
8,-254.56866455078125,-210.51060485839844,50.015953063964844,0.6162365674972533,0.02439871244132513,1.0082216421749932,23.137713222261038,"array('d', [-212.38035583496094, -210.25862141755863, -208.1729360596226, -206.12234442330882, -204.10529669523788, -202.1199043997096, -200.16410762091215, -198.23578648805812, -196.33283558086393, -194.45321296284507, -192.59497156181857, -190.7562781031817, -188.93542315090704, -187.13082471201457, -185.3410271250511, -183.56469935204572])","array('d', [-255.9022674560547, -254.5817593589424, -253.20417292876758, -251.77450805928348, -250.2977297928434, -248.77857979088293, -247.2214704441167, -245.6304377722514, -244.00913153329864, -242.36082693573522, -240.68844780495274, -238.99459502721552, -237.281576704842, -235.55143807517007, -233.80599021003033, -232.04683991017427])","array('d', [-50.01063537597656, -49.947072606442745, -49.90472019701186, -49.87611240395695, -49.85650973728864, -49.84287242573797, -49.833229004205364, -49.82628541238265, -49.821181303134146, -49.81733709413393, -49.81435743696873, -49.811970117316044, -49.80998745497932, -49.80828213774334, -49.80677234753579, -49.80541277442922])","array('d', [0.6320029497146603, 0.6039792296761646, 0.5702014639511152, 0.5331495792450737, 0.4946954349505326, 0.4562046691056573, 0.41864145558507326, 0.3826607862801462, 0.34868371417632055, 0.31695619159516547, 0.2875940511200101, 0.2606170014213195, 0.23597419850606524, 0.213563463248764, 0.19324573995849653, 0.17485599222772677])","array('d', [-0.030691465362906355, -0.020337188649511947, -0.01365784755575249, -0.009301575669051635, -0.006428649762786129, -0.0045132085282447755, -0.0032230703648112834, -0.0023464343925947563, -0.00174685799216448, -0.0013353747707347998, -0.0010530610648775756, -0.0008600153190507143, -0.0007283117793809382, -0.0006374577287688498, -0.0005714752189245408, -0.0005170922904583901])","array('d', [1.0281697074559073, 1.0002858010500106, 0.9741898282262821, 0.950053917984466, 0.9279151394766751, 0.9077255332060198, 0.8893878278393631, 0.8727790613110241, 0.8577654393373692, 0.8442113521111594, 0.83198468604426, 0.8209598606466538, 0.8110194999006065, 0.802055297802442, 0.7939684146102897, 0.7866695906132392])",-202.1199043997096,-248.77857979088293,-49.84287242573797,0.4562046691056573,-0.0045132085282447755,0.9077255332060198,25.00000024896401,-1.0,"[-253.7688538979558, -209.24215550317763, 49.979358626315886]","[-252.21067613918632, -176.60259397215648, 73.04949311085588]","[-218.38535999996483, -193.535833682821, 60.04513303498531]",10000000000.0,0.023060321807861328
9,-253.74525451660156,-209.40499877929688,50.02229309082031,0.5937814116477964,0.016771534457802717,0.9963171641018728,23.155887663095246,"array('d', [-211.6286163330078, -209.51778392531668, -207.44315904414717, -205.40365024976367, -203.3976183665199, -201.42311794107061, -199.47805484204497, -197.56029095749022, -195.6677137198232, -193.7982816005435, -191.95005291134268, -190.12120285181993, -188.31003217646673, -186.51496981376343, -184.73457107670643, -182.96751552376816])","array('d', [-255.37461853027344, -254.03659141339986, -252.64233308795698, -251.19686929054774, -249.70514574198592, -248.17185744932044, -246.6013559429393, -244.9976108430425, -243.36420529000466, -241.70435072237805, -240.0209116761284, -238.3164349816322, -236.59318014122275, -234.85314915019097, -233.09811489941325, -231.32965066296123])","array('d', [-50.012569427490234, -49.952394671628014, -49.91231233357127, -49.88524378663699, -49.866698123306044, -49.85379652634468, -49.84467274834114, -49.83810225415624, -49.833271181878075, -49.82963141793198, -49.826809172589634, -49.8245471332367, -49.82266792857299, -49.82105125699648, -49.8196198078212, -49.8183307517996])","array('d', [0.6287800073623655, 0.5995275305272258, 0.5649911658393306, 0.527544107675394, 0.4889651275026554, 0.45054351348436106, 0.41318307479609423, 0.3774921424008027, 0.3438562519549148, 0.3124946864857917, 0.28350359428870603, 0.2568885530292538, 0.23258907767621764, 0.21049706778120833, 0.19047072056680642, 0.17234505061892896])","array('d', [-0.029059294611215546, -0.01924900871115333, -0.012923806149296575, -0.008800258741209445, -0.006081762387315668, -0.004269789627384612, -0.003049604479075248, -0.002220626030612894, -0.0016536918028303626, -0.0012646110145949935, -0.0009976393422929332, -0.0008150385169610309, -0.0006904044855402653, -0.0006043681115569564, -0.0005418344661256273, -0.0004902722258056868])","array('d', [1.0198052684452867, 0.99214773735222, 0.9663245326413065, 0.9424802868356492, 0.9206338572391608, 0.9007261217699042, 0.8826535260267867, 0.8662900188027618, 0.8515007336642185, 0.8381502294802146, 0.8261073046807375, 0.8152477173276635, 0.8054556513925972, 0.7966244435321831, 0.7886568781969846, 0.7814652203651715])",-201.42311794107061,-248.17185744932044,-49.85379652634468,0.45054351348436106,-0.004269789627384612,0.9007261217699042,25.0000002489659,-1.0,"[-253.21192452603137, -208.5101729409152, 49.99023839602491]","[-251.33878919373493, -175.56118651436947, 72.59235461310087]","[-217.6789966545988, -192.98888214772296, 59.81370870934778]",10000000000.0,0.028652429580688477
10,-253.1859893798828,-208.67372131347656,50.03002166748047,0.575107395648956,0.011168648488819637,0.9882643381741385,23.167244022846564,"array('d', [-211.25440979003906, -209.1486963007598, -207.07916636012177, -205.04466922498446, -203.04353179120568, -201.07379059055003, -199.13334375053316, -197.22005210058498, -195.331806319594, -193.4665708184479, -191.62241143012696, -189.79751168442007, -187.9901809370289, -186.19885662060645, -184.42210221566523, -182.6586049705262])","array('d', [-255.1077423095703, -253.7615598293144, -252.35970047756592, -250.9071685445629, -249.40887455172728, -247.8694714439231, -246.29326670645696, -244.6841869275007, -243.0457748649929, -241.3812049913441, -239.69330854278226, -237.9846026770642, -236.25732065852216, -234.51344141039533, -232.75471761341913, -230.98270488146704])","array('d', [-50.0135383605957, -49.955885348599736, -49.91748761538222, -49.89155864034636, -49.87379413620949, -49.861435590863955, -49.85269510700813, -49.84639975583715, -49.84177008617151, -49.83828122534954, -49.83557527426049, -49.833405885847014, -49.83160326424773, -49.83005225415423, -49.82867885182237, -49.82744204933826])","array('d', [0.625804722309112, 0.5961489174606946, 0.5614166992627909, 0.5239271644581183, 0.4854143833688803, 0.4471325494984464, 0.4099587750327246, 0.374481492700836, 0.34107163366148097, 0.3099379279859292, 0.2811690632743144, 0.25476553551613745, 0.2306636391172436, 0.20875354437964405, 0.18889295042909227, 0.17091742503196236])","array('d', [-0.027842888608574805, -0.018440629139596876, -0.01237991708334184, -0.008429548243019442, -0.005825617318232056, -0.0040902104195993825, -0.0029216845788420575, -0.0021278445951348505, -0.0015849498290110328, -0.0012123553410405617, -0.000956671256999493, -0.0007817575849740441, -0.0006623320615738299, -0.0005798520124597558, -0.0005198705088008285, -0.0004703984135756977])","array('d', [1.015860752263341, 0.9883895345248899, 0.962761461193607, 0.9391100298436, 0.9174474673487686, 0.8977111660542566, 0.8797961023632728, 0.8635759719856956, 0.8489163509551014, 0.8356826147389155, 0.8237445602710844, 0.8129790128485811, 0.803271225464502, 0.7945155644695577, 0.7866157771505506, 0.7794850034568687])",-201.07379059055003,-247.8694714439231,-49.861435590863955,0.4471325494984464,-0.0040902104195993825,0.8977111660542566,25.0000002489667,-1.0,"[-252.93027269943786, -208.14596271658743, 49.997136968509636]","[-250.89622134126608, -175.0165420730126, 72.3198635692947]","[-217.32192633568127, -192.71685307489227, 59.691890441563594]",10000000000.0,0.02876734733581543
11,-253.1859893798828,-208.67372131347656,50.03002166748047,0.575107395648956,0.011168648488819637,0.9882643381741385,23.167244022846564,"array('d', [-210.51060485839844, -208.41471683726417, -206.3547036968129, -204.32931707954168, -202.33684129518457, -200.37530158569868, -198.44260299835702, -196.53662382696334, -194.65527808691027, -192.79655647419997, -190.95855219647478, -189.13947605788286, -187.33766383260914, -185.5515780525438, -183.77980572015449, -182.02105592265502])","array('d', [-254.56866455078125, -253.20694196278998, -251.79100716539682, -250.32574013771756, -248.8159186432295, -247.2660641656805, -245.68036036484224, -244.0626208448742, -242.4162873033207, -240.74444492445403, -239.04984664971002, -237.33494129253998, -235.6019026156154, -233.85265780863276, -232.08891458646667, -230.3121894646065])","array('d', [-50.015953063964844, -49.96543485736922, -49.93179460262264, -49.90907900877606, -49.893514511378164, -49.88268385680624, -49.87502091869821, -49.86949857745521, -49.86543446049211, -49.86236918047614, -49.8599895676389, -49.858080116113854, -49.85649232286776, -49.85512549060389, -49.853914902567894, -49.85282466398835])","array('d', [0.6162365674972533, 0.5862601018312963, 0.551569700853892, 0.5143715429001035, 0.476311838459669, 0.43857946513008644, 0.40200445413372626, 0.3671420895892355, 0.3343404784645449, 0.3037930668668676, 0.27557874414424327, 0.24969221548019774, 0.22606694362811053, 0.2045924894336227, 0.18512764979326926, 0.16751043981793715])","array('d', [-0.02439871244132513, -0.016156219778307494, -0.010845422483751144, -0.007385037709780648, -0.005104684079246221, -0.0035852152010237047, -0.0025622108426238232, -0.0018672589711132286, -0.0013919648817416655, -0.0010657024392559129, -0.000841724501130852, -0.0006883947002000893, -0.0005835883487530397, -0.0005110869736380872, -0.00045826466508486793, -0.0004146551359788592])","array('d', [1.0082216421749932, 0.9813155912334807, 0.9562364512333141, 0.9331010066558645, 0.911913613461774, 0.892609365141598, 0.8750841212706182, 0.8592140991432284, 0.8448681152393833, 0.8319149901405124, 0.8202279002380138, 0.8096868529004512, 0.8001800286447706, 0.7916044470258617, 0.7838662310620368, 0.7768806214978963])",-200.37530158569868,-247.2660641656805,-49.88268385680624,0.43857946513008644,-0.0035852152010237047,0.892609365141598,25.00000024896804,-1.0,"[-252.93027269943786, -208.14596271658743, 49.997136968509636]","[-250.89622134126608, -175.0165420730126, 72.3198635692947]","[-217.32192633568127, -192.71685307489227, 59.691890441563594]",10000000000.0,0.020599842071533203
12,-252.61878967285156,-207.9471893310547,50.04186248779297,0.5548464059829709,0.005267640110105305,0.9804414073613025,23.178405230092576,"array('d', [-209.7724151611328, -207.68660799828248, -205.63605969203718, -203.61944746905866, -201.63503996838318, -199.68087763924947, -197.75489687098042, -195.85501524929188, -193.9791893524456, -192.12545299944193, -190.2919415136637, -188.47690592196207, -186.6787198576584, -184.89588113608323, -183.1270094197397, -181.37084392108494])","array('d', [-254.02178955078125, -252.64433347906444, -251.214576915855, -249.73718892097224, -248.21674560360194, -246.65758254993585, -245.06371673147376, -243.43881502576724, -241.78619143942436, -240.10882074709139, -238.4093607222147, -236.69017822617516, -234.95337641650494, -233.2008215654734, -231.4341687148136, -229.65488874585972])","array('d', [-50.01961898803711, -49.979060618622285, -49.95205224688567, -49.93381077046067, -49.9213062494134, -49.91259870286695, -49.90643170523547, -49.90198151545191, -49.898701041077686, -49.89622208302357, -49.89429372374155, -49.89274336489732, -49.891452119824315, -49.89033939725051, -49.889353391405955, -49.888465308847074])","array('d', [0.6021681427955623, 0.5723750557834928, 0.5381926069381378, 0.5017047548584488, 0.4644675958959676, 0.427606558624913, 0.3919086288080337, 0.3579009354217895, 0.3259139960923093, 0.29613103863183343, 0.2686258210543572, 0.2433913995199126, 0.2203619520030949, 0.19942934154626318, 0.1804557129187562, 0.16328309613629585])","array('d', [-0.019588313996791805, -0.012970266527276423, -0.00870797100644945, -0.005931658618918651, -0.004102514993300064, -0.002883866181882497, -0.0020634236324878373, -0.0015060285454644336, -0.0011247128028408066, -0.0008628227982170901, -0.0006828667916902793, -0.0005594787105899285, -0.0004749278603943776, -0.00041622942620183706, -0.00037329155160093196, -0.00033776827642962334])","array('d', [1.0003430406239369, 0.9742357247335396, 0.9499034672356774, 0.927451346918261, 0.9068808991649325, 0.8881294448251973, 0.8710975510143262, 0.8556670872434653, 0.8417126282245503, 0.8291084437412823, 0.8177326745808055, 0.8074697584023743, 0.7982117842854147, 0.7898591972772437, 0.7823211094391247, 0.7755153600663742])",-199.68087763924947,-246.65758254993585,-49.91259870286695,0.427606558624913,-0.002883866181882497,0.8881294448251973,25.000000248969208,-1.0,"[-251.78381740011434, -206.70109187448688, 50.033961064169425]","[-249.11559149712335, -172.7701614121844, 71.04758827350673]","[-215.88632598864854, -191.60383320077585, 59.16866910016024]",10000000000.0,0.028194189071655273
13,-252.04409790039062,-207.22532653808594,50.058135986328125,0.5338841080665584,-0.0005432745674625471,0.972636953988347,23.187863030707582,"array('d', [-209.40499877929688, -207.32435164089736, -205.27855973883842, -203.26627332404155, -201.28576242270094, -199.33508331476784, -197.41219533131223, -195.5150420897385, -193.64160704134488, -191.7899504619319, -189.95823302807995, -188.1447296631821, -186.34783628577776, -184.56607134887858, -182.79807353948613, -181.0426004400899])","array('d', [-253.74525451660156, -252.35985138577462, -250.92322495346235, -249.43991709004393, -247.91438538351372, -246.35085823159133, -244.75325785880946, -243.12516865439088, -241.46983346048893, -239.79016594935027, -238.08877152612666, -236.36797216076837, -234.62983246935553, -232.8761855529852, -231.10865781543944, -229.32869621712456])","array('d', [-50.02229309082031, -49.98756511760642, -49.964435683859165, -49.94880904303295, -49.93809149240948, -49.93062276562971, -49.92532780938128, -49.921501923001124, -49.918677164369235, -49.91653867390548, -49.9148719435607, -49.913529470418794, -49.912409690979096, -49.91144377499545, -49.910587467201985, -49.909816121476915])","array('d', [0.5937814116477964, 0.5642324102575768, 0.5304430562774785, 0.494434610354398, 0.45771811309168015, 0.42138814914403117, 0.3862114987465274, 0.3527027028866378, 0.32118499264171724, 0.29183792518155144, 0.26473401168924415, 0.23986665451533035, 0.21717139520038134, 0.196542078666818, 0.17784317173277128, 0.1609191709009506])","array('d', [-0.016771534457802717, -0.011106282512655906, -0.0074583926756829405, -0.005082636570148911, -0.003517539916046534, -0.0024748448387915374, -0.0017728343058987265, -0.0012958333179918819, -0.000969419291921608, -0.0007451151146600056, -0.0005908428171660988, -0.00048490302454103735, -0.00041213447286938057, -0.000361443944726062, -0.0003242232128073832, -0.00029336940343970957])","array('d', [0.9963171641018728, 0.9706751424745469, 0.9467724286409447, 0.9247097390555994, 0.904488586576801, 0.8860486061849806, 0.8692937198480516, 0.8541094420947934, 0.8403738895277711, 0.8279645894883891, 0.8167625916482513, 0.8066548893531307, 0.7975357973502998, 0.7893076901150708, 0.7818813487398295, 0.7751760520184244])",-199.33508331476784,-246.35085823159133,-49.93062276562971,0.42138814914403117,-0.0024748448387915374,0.8860486061849806,25.00000024896975,-1.0,"[-251.4924981341637, -206.3428448545917, 50.04618307493309]","[-248.66802114446867, -172.20727253836372, 70.70495923370524]","[-215.5258012512891, -191.32701109305788, 59.04181822657194]",10000000000.0,0.03458857536315918
14,-251.75473022460938,-206.86703491210938,50.06893539428711,0.5235267281532284,-0.0030975895933806922,0.9687986532833911,23.1913928144611,"array('d', [-209.0387725830078, -206.96339183506547, -204.92241182194365, -202.91446417490542, -200.9378260170552, -198.99057381936836, -197.07069341819957, -195.17615748480375, -193.3049789573115, -191.45524685413667, -189.6251492189646, -187.81298665715389, -186.01717896497934, -184.23626666241822, -182.46890875149379, -180.7138814853189])","array('d', [-253.46664428710938, -252.07322518326086, -250.62970947140354, -249.1405050274389, -247.60994466512457, -246.04214419477412, -244.44092655051855, -242.8097898493519, -241.1519026272769, -239.47011484283564, -237.76697735397866, -236.0447654099997, -234.30550353764292, -232.55099034480992, -230.7828224570356, -229.00242104418666])","array('d', [-50.025699615478516, -49.996776060623475, -49.97750611762301, -49.96447966380136, -49.955537861749114, -49.949299153718755, -49.944869147901215, -49.94166169182237, -49.93928765713207, -49.93748529604122, -49.936076357682985, -49.934938334113454, -49.93398691971506, -49.93316500290665, -49.93243585003305, -49.93177893865903])","array('d', [0.5847369432449337, 0.5555048317610671, 0.5221743306715524, 0.4867038501584296, 0.4505596929415079, 0.41480614345648636, 0.38019041510568646, 0.34721512412691696, 0.3161968636966395, 0.28731213174850123, 0.26063275308869355, 0.23615297701144672, 0.21381014369228485, 0.1935004448356135, 0.17509096031383703, 0.15842886680120047])","array('d', [-0.013966794125735768, -0.009251251972751692, -0.006215503222861351, -0.00423868584556381, -0.00293649462856582, -0.002068949464577581, -0.0014848018057289603, -0.001087786754353941, -0.0008159756212844056, -0.0006290319566761609, -0.0005002668377690043, -0.000411630668389384, -0.0003505203038731928, -0.0003077270253985594, -0.00027612250252464864, -0.0002498460770122424])","array('d', [0.9922299544003347, 0.9670826166547877, 0.9436346981818651, 0.9219832316226155, 0.9021302781166236, 0.8840182560533761, 0.8675548265284376, 0.8526294642306976, 0.8391240865349723, 0.8269196910778575, 0.8159004110679684, 0.8059559387061457, 0.7969829316702395, 0.7888857900862454, 0.78157704363968, 0.7749774809628369])",-198.99057381936836,-246.04214419477412,-49.949299153718755,0.41480614345648636,-0.002068949464577581,0.8840182560533761,25.000000248970277,-1.0,"[-251.4924981341637, -206.3428448545917, 50.04618307493309]","[-248.66802114446867, -172.20727253836372, 70.70495923370524]","[-215.5258012512891, -191.32701109305788, 59.04181822657194]",10000000000.0,0.03040313720703125
15,-250.8769073486328,-205.79855346679688,50.10927963256836,0.49287623167037936,-0.009744232520461091,0.9576516310360766,23.19712722895233,"array('d', [-208.67372131347656, -206.60346161420188, -204.5670968086711, -202.56325036809525, -200.59021366909587, -198.646088657383, -196.7288917654483, -194.83662797831397, -192.96734236691225, -191.11915486912326, -189.2902827084175, -187.47905370082873, -185.68391282806556, -183.9034238133329, -182.13626697670173, -180.38123722160077])","array('d', [-253.1859893798828, -251.78485917046194, -250.33478948745076, -248.8400473266302, -247.30483521191843, -245.73315215736991, -244.12871866525347, -242.49494426054162, -240.83492146879854, -239.1514352842472, -237.44698109667561, -235.72378674925642, -233.98383615851316, -232.22889303027213, -230.4605238772979, -228.6801228667619])","array('d', [-50.03002166748047, -50.006887599830655, -49.991464728951605, -49.981028281694854, -49.97385382296006, -49.968838071618855, -49.96526695459373, -49.96267261550148, -49.960744562970255, -49.9592740418606, -49.95811898157365, -49.95718182199076, -49.956395487956506, -49.95571457041394, -49.955109844898274, -49.9545648965622])","array('d', [0.575107395648956, 0.5462913223613904, 0.5135015393045314, 0.47863589916409705, 0.443118312363377, 0.4079849305979413, 0.3739653125555981, 0.3415517986666006, 0.3110557484260857, 0.2826517850652563, 0.25641203546541685, 0.23233240769641425, 0.21035269062499026, 0.19037192161813282, 0.1722601482832403, 0.15586744192049592])","array('d', [-0.011168648488819637, -0.007401720462637733, -0.004977104840858851, -0.003398413716158281, -0.0023585090338674054, -0.0016656529903566726, -0.001199025868538798, -0.0008817387468772757, -0.0006643302257811055, -0.000514584771561582, -0.000411188340491169, -0.00033973138049402156, -0.00029016275452054593, -0.00025515527540629447, -0.0002290604508384162, -0.00020726256783237432])","array('d', [0.9882643381741385, 0.963635354261535, 0.9406610655025279, 0.9194359902372415, 0.8999636218875138, 0.8821898192906851, 0.8660264706503649, 0.8513673750725977, 0.8380985239167961, 0.8261045903141689, 0.815272944592976, 0.805496091812649, 0.7966731162521948, 0.7887105045219822, 0.781522579328674, 0.7750316763779428])",-198.646088657383,-245.73315215736991,-49.968838071618855,0.4079849305979413,-0.0016656529903566726,0.8821898192906851,25.00000024897075,-1.0,"[-250.31238464972395, -204.92379956193054, 50.106090112425306]","[-246.88097588052585, -170.02042059868734, 69.34094313517811]","[-214.08439714138157, -190.2041095844406, 58.52414499832211]",10000000000.0,0.024479150772094727
16,-250.58135986328125,-205.44439697265625,50.12500762939453,0.482985198497772,-0.011494549922645172,0.9539363543179373,23.198156382212876,"array('d', [-207.58567810058594, -205.53075287710354, -203.508043437528, -201.51618929144897, -199.55354835443006, -197.61831458096515, -195.70860740745243, -193.82253741437427, -191.95825307477787, -190.11397293425566, -188.2880067463676, -186.47876828513037, -184.68478188733442, -182.9046842603562, -181.1372227066712, -179.38125377132855])","array('d', [-252.3323516845703, -250.90863000562445, -249.43948235799422, -247.9287523105106, -246.38024873783104, -244.79761712375574, -243.18426763070335, -241.54334118105206, -239.8776996869335, -238.18993090920904, -236.48236171833827, -234.7570758256202, -233.0159335763786, -231.26059237414862, -229.49252691697774, -227.71305196009374])","array('d', [-50.04957962036133, -50.044860981663895, -50.041660236017364, -50.03944134297462, -50.0378654807093, -50.036716205523476, -50.03585374826525, -50.035186873981125, -50.03465540830997, -50.03421929269059, -50.03385166694565, -50.033534454315834, -50.03325551019101, -50.03300674992694, -50.03278288685943, -50.032580545167725])","array('d', [0.5443930029869077, 0.5171094490792183, 0.48617248529955703, 0.4533092038085172, 0.41982521205544177, 0.3866791928321215, 0.354553117973477, 0.3239127212090106, 0.2950570330522608, 0.2681577907605182, 0.24329027282174986, 0.22045720560813567, 0.1996072172817226, 0.1806490585754074, 0.16346255687271735, 0.14790705130267115])","array('d', [-0.0022643655538559277, -0.0015229165408484164, -0.0010456425553343265, -0.0007346599111974836, -0.0005294532302813117, -0.00039225567082194415, -0.0002992614712611087, -0.00023530488043731326, -0.00019061320168894147, -0.00015880983561904777, -0.00013567666581079183, -0.00011838194656850746, -0.00010499664503515681, -9.419181074962604e-05, -8.505112659050506e-05, -7.695753094270945e-05])","array('d', [0.9765266338970999, 0.9535057117227916, 0.9319960464648641, 0.9120875192332955, 0.8937896367608362, 0.8770595982823193, 0.8618226122944876, 0.8479858884514798, 0.8354479672670461, 0.824104809506309, 0.8138537124116584, 0.8045957994609497, 0.7962375847325955, 0.7886919393811526, 0.7818786707311243, 0.7757248370638261])",-197.61831458096515,-244.79761712375574,-50.036716205523476,0.3866791928321215,-0.00039225567082194415,0.8770595982823193,25.00000024897206,-1.0,"[-250.20519131772159, -204.7974586083058, 50.112475437755734]","[-246.7214600317253, -169.82968284885385, 69.2205437536179]","[-213.9551777199203, -190.1016776979958, 58.477314802345525]",10000000000.0,0.022376060485839844
17,-250.2720489501953,-205.076416015625,50.14267349243164,0.47302100062370267,-0.01299706380814317,0.9500865499165395,23.199064356037088,"array('d', [-207.22532653808594, -205.17555978072377, -203.15741865702117, -201.16955961235345, -199.2103683918309, -197.2780725994874, -195.37082774356338, -193.48678073922508, -191.62411535752773, -189.78108367707156, -187.95602685809854, -186.14738782288194, -184.3537178047254, -182.57367824259822, -180.80603913455354, -179.0496778296006])","array('d', [-252.04409790039062, -250.61294751786838, -249.13752368963742, -247.62153605469447, -246.06866696168103, -244.48244726472058, -242.86618590611192, -241.22293579914816, -239.5554830037421, -237.86635019130034, -236.1578084551754, -234.43189367646622, -232.6904250970282, -230.93502468597592, -229.16713647697205, -227.388048575288])","array('d', [-50.058135986328125, -50.059221166200984, -50.059867271495555, -50.06023083173507, -50.060411013655425, -50.060471491063254, -50.060453803641096, -50.06038558315643, -50.06028565448362, -50.06016720970085, -50.06003977296331, -50.05991038715584, -50.05978428253871, -50.05966518762154, -50.05955538722418, -50.059455606953314])","array('d', [0.5338841080665584, 0.5071598970548524, 0.47687653628619864, 0.44470800476633743, 0.4119231572344529, 0.37945665420421393, 0.34797579017663804, 0.31793821103511144, 0.28963936281879427, 0.2632503860840398, 0.2388478745383878, 0.21643702672366832, 0.1959695717055791, 0.17735761880878836, 0.160484348329881, 0.14521225653032419])","array('d', [0.0005432745674625471, 0.0003284530025966396, 0.00019072874887764353, 0.00010160618283048319, 4.350853659480608e-05, 5.507325075437242e-06, -1.9244355339724165e-05, -3.506806093562625e-05, -4.471396367371317e-05, -4.9954440055651915e-05, -5.1961467789124534e-05, -5.155397500140661e-05, -4.9366213960810706e-05, -4.5966433972082133e-05, -4.1941034772127666e-05, -3.794990324900329e-05])","array('d', [0.972636953988347, 0.9501522558985104, 0.9291309500865219, 0.9096618254173524, 0.891756493091472, 0.8753758680881741, 0.8604494794009055, 0.8468888854496195, 0.8345967077517548, 0.823472591943384, 0.8134170889467299, 0.8043341578355329, 0.7961327656951462, 0.7887278981001464, 0.7820411837688316, 0.7760012535944156])",-197.2780725994874,-244.48244726472058,-50.060471491063254,0.37945665420421393,5.507325075437242e-06,0.8753758680881741,25.000000248972487,-1.0,"[-250.0137850766256, -204.5718479957587, 50.123895750046266]","[-246.4369029803239, -169.49050399033902, 69.00524149770314]","[-213.72475708597284, -189.91935122720108, 58.39497705426703]",10000000000.0,0.02360844612121582
18,-249.67454528808594,-204.37274169921875,50.18006134033203,0.455064982175827,-0.015512488782405904,0.9428982893612726,23.198161205561686,"array('d', [-206.86703491210938, -204.82239995281205, -202.808804923748, -200.82492674009998, -198.86917999985874, -196.93982589480274, -195.03505549763278, -193.15305139697372, -191.29203197863154, -189.4502822053272, -187.62617405002732, -185.81817904802665, -184.02487484903025, -182.24494719227832, -180.4771883821206, -178.72049621974796])","array('d', [-251.75473022460938, -250.3162674080169, -248.83464751797013, -247.31345364924815, -245.75624739719615, -244.16644956482082, -242.5472715021725, -240.90168097602327, -239.23239044614257, -237.54185926548084, -235.83230414600683, -234.10571424366927, -232.3638685777076, -230.6083543910055, -228.8405856278507, -227.0618242169367])","array('d', [-50.06893539428711, -50.07529812134423, -50.079437484045705, -50.08214192378676, -50.083910051877446, -50.0850609281325, -50.085801365257346, -50.0862673480355, -50.0865497274823, -50.086710268251224, -50.08679170786279, -50.08682404398172, -50.086828403405036, -50.086819331887796, -50.086806041651485, -50.08679298295234])","array('d', [0.5235267281532284, 0.4973588680321113, 0.4677210460883876, 0.4362366871427008, 0.4041395499102981, 0.37234125995869133, 0.34149496770556953, 0.3120504753266074, 0.2842997142292584, 0.2584131993266978, 0.2344687597434735, 0.2124739652537206, 0.1923835419330915, 0.17411286189852096, 0.1575483774029671, 0.1425556799367739])","array('d', [0.0030975895933806922, 0.002010728752245971, 0.0013124122663055748, 0.0008587086258268051, 0.0005607642611288691, 0.00036323199925035904, 0.0002313182872272741, 0.00014294222260644596, 8.394551565560735e-05, 4.513454262322622e-05, 2.042927898432605e-05, 5.685570331289889e-06, -2.0686754541817863e-06, -5.1373467170039504e-06, -5.488976343335977e-06, -4.966713840835817e-06])","array('d', [0.9687986532833911, 0.9468361956953489, 0.9262910129332289, 0.9072508508725344, 0.8897292783171787, 0.8736907012109933, 0.8590687331098658, 0.8457790658577473, 0.8337282187510076, 0.8228193724460295, 0.8129562118263817, 0.8040454372389322, 0.7959983950259235, 0.7887321276592167, 0.7821700402403804, 0.7762423006535816])",-196.93982589480274,-244.16644956482082,-50.0850609281325,0.37234125995869133,0.00036323199925035904,0.8736907012109933,25.000000248972903,-1.0,"[-249.39970360590723, -203.8563203048516, 50.16216853927057]","[-245.52169364217764, -168.4392106749144, 68.34428569273273]","[-212.98580802155357, -189.34184477426624, 58.12195549897157]",10000000000.0,0.029378175735473633
19,-249.0699462890625,-203.66897583007812,50.221900939941406,0.4389010071754452,-0.016939334571361587,0.9360872666027883,23.200465174923654,"array('d', [-206.15367126464844, -204.11915656873632, -202.11450980930414, -200.138458743891, -198.18947956137904, -196.26590174557364, -194.36598734410705, -192.48798958045865, -190.63019514336267, -188.7909537872711, -186.96869816020651, -185.16195613129346, -183.3693573594567, -181.589635429727, -179.8216265688646, -178.06426885400808])","array('d', [-251.17103576660156, -249.7183606843621, -248.22468061074147, -246.69334105819627, -245.12767450293325, -243.5308916812012, -241.90601685854642, -240.255854003153, -238.58297355703016, -236.88971236443325, -235.17818166605613, -233.45027980015914, -231.70770745648855, -229.95198413598698, -228.18446499644776, -226.40636075772525])","array('d', [-50.094520568847656, -50.11041383301175, -50.1208513842647, -50.12776754212998, -50.132384779931144, -50.13548474463333, -50.13757352835633, -50.13898330905974, -50.13993537705976, -50.14057950400217, -50.14101865566781, -50.14132450409884, -50.14154707460846, -50.14172059629961, -50.141866874992296, -50.1419970757163])","array('d', [0.5030144453048704, 0.47798409710877754, 0.4496436453966605, 0.4195225879327258, 0.38878941820097934, 0.3583128929932033, 0.32871986300149514, 0.3004456240641021, 0.27377574139929156, 0.24887981865842557, 0.2258382995617608, 0.20466352448654462, 0.1853161766178263, 0.16771808315446518, 0.15176215566710852, 0.13732008952691513])","array('d', [0.007713105529546749, 0.005046086306634414, 0.003332564849256724, 0.002218946111351741, 0.0014870556657674092, 0.001001024695794699, 0.0006754339694827415, 0.00045605039889011576, 0.0003080725773946, 0.0002088836462129543, 0.0001435279478727182, 0.00010184613087228279, 7.663091530956247e-05, 6.242344525627697e-05, 5.4727885096036745e-05, 4.951976050412074e-05])","array('d', [0.9613042036679129, 0.9403579974511339, 0.9207397885903417, 0.9025356729574333, 0.8857630239393722, 0.8703928691968815, 0.8563665562829215, 0.8436076224380282, 0.8320300119186077, 0.8215436656150652, 0.8120582844875952, 0.8034858497666948, 0.7957423059647262, 0.7887486820673648, 0.7824318346734831, 0.7767249246082559])",-196.26590174557364,-243.5308916812012,-50.13548474463333,0.3583128929932033,0.001001024695794699,0.8703928691968815,25.00000024897371,-1.0,"[-248.7934837856627, -203.15899162674398, 50.203329140295985]","[-244.62957426145917, -167.4533333232035, 67.74664190000753]","[-212.26290566213183, -188.7805163231812, 57.86990007556054]",10000000000.0,0.02362227439880371
20,-248.76492309570312,-203.3166961669922,50.24424743652344,0.4314709603786467,-0.017152329906821282,0.9328680197384696,23.203415469746684,"array('d', [-205.44439697265625, -203.41996548494464, -201.42425342272603, -199.4560450205099, -197.51387891479732, -195.5961516318041, -193.70119410991998, -191.82732789724943, -189.97290573046104, -188.13634007310054, -186.31612237334195, -184.5108351632383, -182.7191586234624, -180.9398728549885, -179.17185680974657, -177.41408778496796])","array('d', [-250.58135986328125, -249.11476531633716, -247.60920748644224, -246.06781545406628, -244.49371003069115, -242.88990614203811, -241.2592524394905, -239.60439820812766, -237.9277790577976, -236.23161496574386, -234.51791612911958, -232.788493553082, -231.04497235549317, -229.28880649512868, -227.5212941153558, -225.7435962008476])","array('d', [-50.12500762939453, -50.1487007401816, -50.16427766768359, -50.17461723046384, -50.18153802425867, -50.18620241255016, -50.189362715499136, -50.191512526245276, -50.192980498283575, -50.19398891164622, -50.19469043434684, -50.19519120656841, -50.195565215330845, -50.19586303956932, -50.19611692779522, -50.196343525218516])","array('d', [0.482985198497772, 0.459077132381198, 0.43200433811026245, 0.40321019089413596, 0.3738029103052343, 0.3446113010664375, 0.31623742646787245, 0.2891026973665999, 0.2634864021673486, 0.239557028020219, 0.2173972846686535, 0.19702388520535244, 0.17840308016871756, 0.16146280500403135, 0.14610214780315275, 0.13219870216137253])","array('d', [0.011494549922645172, 0.00752643092113044, 0.004977712680573254, 0.0033215894279324813, 0.0022332092483504347, 0.0015103621238364523, 0.0010259616725322269, 0.0006993358953009537, 0.00047872207143836537, 0.00033048157987842033, 0.0002323732253541623, 0.00016929679120594837, 0.00013055648241393087, 0.00010807789420719758, 9.524673420460432e-05, 8.6182734621595e-05])","array('d', [0.9539363543179373, 0.9339614928709228, 0.9152312317997394, 0.8978300540048423, 0.8817786021901131, 0.8670537674058248, 0.8536038489023366, 0.8413595188988415, 0.8302415432263637, 0.8201661303016498, 0.8110486045972808, 0.8028059203519359, 0.7953583811510563, 0.7886308176677709, 0.7825533948857438, 0.777062154411937])",-195.5961516318041,-242.88990614203811,-50.18620241255016,0.3446113010664375,0.0015103621238364523,0.8670537674058248,25.0000002489745,-1.0,"[-248.4888723173039, -202.81152665585483, 50.22494763181891]","[-244.1859361988445, -166.97677391701308, 67.46893895942434]","[-211.90208647476535, -188.4992539653556, 57.745981612928844]",10000000000.0,0.026979446411132812
21,-248.15255737304688,-202.61459350585938,50.290916442871094,0.4175560474395748,-0.017322566360235242,0.9267389933255051,23.207964850798,"array('d', [-205.076416015625, -203.0573137194146, -201.0663651063566, -199.10238112995066, -197.16393007839272, -195.2494405773133, -193.35727682768308, -191.48579361526077, -189.63337601536563, -187.7984673637445, -185.97958818744183, -184.17534814931113, -182.38445257482732, -180.60570476174027, -178.83800499538907, -177.08035060168112])","array('d', [-250.2720489501953, -248.79817662433365, -247.2863450335984, -245.73958139008116, -244.16090564137593, -242.55323850419313, -240.91934343784078, -239.26179413613673, -237.58295988302942, -235.88500282784136, -234.16988290896765, -232.43936749595738, -230.6950438029752, -228.9383328122495, -227.1705039095979, -225.39269338030675])","array('d', [-50.14267349243164, -50.16946121270516, -50.18706881751818, -50.19875341791253, -50.206572164446094, -50.21183968583671, -50.21540675467438, -50.217831515778684, -50.21948559014702, -50.22062031944343, -50.22140834007777, -50.22196968508278, -50.222388034396005, -50.22272059746101, -50.223003847376255, -50.22325659596352])","array('d', [0.47302100062370267, 0.44964683969894564, 0.42318500942571546, 0.3950363647525563, 0.36627889609235414, 0.33772095205731495, 0.30995152863425424, 0.28338435995971145, 0.2582948829770747, 0.23485038043301826, 0.2131341385690933, 0.19316459921883605, 0.17491043990719632, 0.1583023930829566, 0.14324247503399212, 0.1296111630021371])","array('d', [0.01299706380814317, 0.008508419929650303, 0.005625871791503474, 0.0037530856417440834, 0.002522451544458153, 0.0017052021100971886, 0.0011575892094369668, 0.0007883791292817254, 0.0005390399266351415, 0.00037153780267827673, 0.0002607272499865249, 0.00018953635926393078, 0.000145871506293471, 0.00012060051435513284, 0.00010623899488637471, 9.612894429212763e-05])","array('d', [0.9500865499165395, 0.9305883339576133, 0.9122956660307593, 0.8952918148508276, 0.8795985882257837, 0.8651953626767304, 0.8520335304287531, 0.8400470233740105, 0.829159782205592, 0.8192909755402845, 0.8103586171451931, 0.8022820655837556, 0.7949837525137139, 0.7883903805233136, 0.782433755450329, 0.7770513542714569])",-195.2494405773133,-242.55323850419313,-50.21183968583671,0.33772095205731495,0.0017052021100971886,0.8651953626767304,25.000000248974928,-1.0,"[-247.25202517152528, -201.41527425682054, 50.316898992929666]","[-242.4460481335462, -165.15067921986045, 66.49656930835044]","[-210.4642014925103, -187.3296199111451, 57.263147665116705]",10000000000.0,0.03575873374938965
22,-247.53749084472656,-201.9155731201172,50.339691162109375,0.40515524148941023,-0.0166477225720883,0.9210813800480704,23.208752463383448,"array('d', [-204.37274169921875, -202.36369398157734, -200.38178497883973, -198.42587350032014, -196.49458012871227, -194.58639003690516, -192.69972621107422, -190.83300242803935, -188.98466139969315, -187.1532016923279, -185.33719602232676, -183.53530287247762, -181.74627290492467, -179.96895130097766, -178.20227689946503, -176.44528307066147])","array('d', [-249.67454528808594, -248.18709466275945, -246.66347069898367, -245.10652638090502, -243.51910703040622, -241.9039688597131, -240.2637255233281, -238.60081697817319, -236.91749452371184, -235.2158169416219, -233.49765394707163, -231.76469428399372, -230.01845665262326, -228.26030227126708, -226.49144829834577, -224.71298591605864])","array('d', [-50.18006134033203, -50.21202348392295, -50.23301477216362, -50.24692979321454, -50.25622744196728, -50.26247866261393, -50.266699928480236, -50.269558046344486, -50.271497011487284, -50.272817177979796, -50.27372492570952, -50.27436382731871, -50.27483403469698, -50.27520404829161, -50.27551752088827, -50.27579687659025])","array('d', [0.455064982175827, 0.4326240001673176, 0.40723870547942825, 0.38023442188667195, 0.35263482401984825, 0.3252109526944356, 0.2985274833048891, 0.27298341233462275, 0.24884632742233131, 0.22628050131357685, 0.20536952828689892, 0.18613436183763465, 0.1685475831632339, 0.15254462932282, 0.13803258961929227, 0.12489706330826794])","array('d', [0.015512488782405904, 0.010147452822999116, 0.006703239622677005, 0.004466155934735429, 0.0029964976408545577, 0.002020761460257452, 0.001367156299958297, 0.0009266864004145834, 0.0006294444473442008, 0.00043001565637811333, 0.0002983785064708455, 0.0002141479155117377, 0.0001628733475476499, 0.00013362543968938818, 0.00011742292607870598, 0.00010624858462688028])","array('d', [0.9428982893612726, 0.9242482746608428, 0.9067368303860944, 0.8904445712064362, 0.8753948138627341, 0.8615708276051322, 0.848929062414944, 0.8374089027108276, 0.8269396840491401, 0.8174456680862798, 0.8088495444185698, 0.8010748905540195, 0.794047902814904, 0.7876986189518481, 0.7819617858612578, 0.776777465716517])",-194.58639003690516,-241.9039688597131,-50.26247866261393,0.3252109526944356,0.002020761460257452,0.8615708276051322,25.000000248975738,-1.0,"[-247.25202517152528, -201.41527425682054, 50.316898992929666]","[-242.4460481335462, -165.15067921986045, 66.49656930835044]","[-210.4642014925103, -187.3296199111451, 57.263147665116705]",10000000000.0,0.022248506546020508
