,x_pos,y_pos,z_pos,roll,pitch,yaw,vel,x_traj,y_traj,z_traj,roll_traj,pitch_traj,yaw_traj,x_cmd,y_cmd,z_cmd,roll_cmd,pitch_cmd,yaw_cmd,vel_cmd,effector_dmg,effector_x,effector_y,effector_z,cost,time_solution
0,-271.9648742675781,-291.53546142578125,49.942771911621094,0.6345301270484922,0.028842967003583884,1.8406939367440083,23.157883207629315,"array('d', [-295.1212463378906, -292.72717543172746, -290.31245515319847, -287.8789312747503, -285.428601333065, -282.96364737125947, -280.48653413644195, -278.00006954078594, -275.507028491018, -273.00985100300244, -270.5105229688704, -268.01057426163214, -265.5111340782595, -263.01300499321417, -260.5167356709074, -258.02268753285983])","array('d', [-271.16259765625, -271.8793617057575, -272.5246179892082, -273.0957618057899, -273.59039833630965, -274.00641648962534, -274.34280226093676, -274.6014093808323, -274.78646727500495, -274.90352516508773, -274.958644425154, -274.9578707607985, -274.9069295860255, -274.81107339954997, -274.6750252754038, -274.50298254805426])","array('d', [-49.93052673339844, -49.86577312150424, -49.81803882629113, -49.782714606505614, -49.756441363916025, -49.73677083296976, -49.72191689364394, -49.710574495868684, -49.701788541859194, -49.69485905542843, -49.68927274743481, -49.684654100933564, -49.68073097458852, -49.677310949065024, -49.674265486055226, -49.67151955455276])","array('d', [0.634987711906433, 0.6493011474131787, 0.6622524805981097, 0.6739713325062231, 0.6845749890599461, 0.6911093966382194, 0.6765090850807531, 0.6469975723195753, 0.6080200685023731, 0.5639391502245549, 0.518028827210147, 0.4726151794664352, 0.4292518400965742, 0.3888760716060831, 0.3519286504463131, 0.3184382402442446])","array('d', [-0.02991895377635957, -0.022021608192259182, -0.016264245651481768, -0.012066124205662249, -0.009003948034858851, -0.006769910428645668, -0.005140494064230541, -0.003953261141142534, -0.003089918951863963, -0.0024641169508114514, -0.002012467568234625, -0.0016878667032950263, -0.0014545281882611385, -0.0012843322674576205, -0.0011542094295972423, -0.0010443720566577106])","array('d', [1.8762995461609702, 1.8469445533983455, 1.816747444196443, 1.7857730004029524, 1.7540820467506537, 1.721834179032204, 1.6898613238961036, 1.6593085138723382, 1.6308614449908057, 1.6048306330336433, 1.5812712854383524, 1.560086591405531, 1.5411001394857915, 1.524101802729454, 1.5088757980978742, 1.4952182845807978])",-282.96364737125947,-274.00641648962534,-49.73677083296976,0.6911093966382194,-0.006769910428645668,1.721834179032204,25.00000024795588,-1.0,[],[],[],10000000000.0,0.05378866195678711
1,-272.1449890136719,-290.6349182128906,49.94667434692383,0.634313344955444,0.02956822700798519,1.8316895226624348,23.15155458966821,"array('d', [-293.77801513671875, -291.374568486323, -288.95143993436574, -286.51050807322684, -284.053799611715, -281.5835256007377, -279.1021739761352, -276.6125252963027, -274.11728534966534, -271.6188049302468, -269.1189757617461, -266.6192372489333, -264.120635900875, -261.6239007844885, -259.1295162204675, -256.6377877319227])","array('d', [-271.47918701171875, -272.1638741106027, -272.77682054629184, -273.31544397317356, -273.7773742644473, -274.16055286176623, -274.4641122327493, -274.69003410213764, -274.8426243243573, -274.92746763599416, -274.9506338559599, -274.9181615287114, -274.83576110910985, -274.7086671034831, -274.54158423492134, -274.3386925062471])","array('d', [-49.93418884277344, -49.86963530649746, -49.82216601094338, -49.78711705086742, -49.761101897689294, -49.74166062264098, -49.72700419017256, -49.71582917834355, -49.70718417736271, -49.700373535622184, -49.69488816526909, -49.690356261879124, -49.686508761434716, -49.68315565200878, -49.68017014837804, -49.67747835168966])","array('d', [0.6347149014472959, 0.6490542982787614, 0.6620291222433905, 0.6737692294885269, 0.6843921186597526, 0.6900306149008801, 0.6748508646296417, 0.6450221909122972, 0.6059231134391748, 0.5618535256805575, 0.5160364882193244, 0.47076018349204257, 0.427551833731438, 0.38733155873919833, 0.35053033679535167, 0.31717299361611334])","array('d', [-0.02985955774784087, -0.021921569159148776, -0.01615244268661155, -0.011957641998589138, -0.008905775304949005, -0.006684460513306024, -0.0050677241771505815, -0.003891930074237863, -0.0030383244775791262, -0.00242050219344424, -0.0019752257017455243, -0.0016556304606508271, -0.001426198468963845, -0.0012590777592742875, -0.0011314546987200452, -0.0010237827228635281])","array('d', [1.8629187802460532, 1.8335796703442686, 1.8033972329795087, 1.772436322589324, 1.7407578347303323, 1.7085519572411199, 1.6766685952839684, 1.6462302372748097, 1.6179049293040384, 1.591992154154757, 1.5685415317461195, 1.547454214677243, 1.5285537477309452, 1.5116309338563996, 1.4964712922414762, 1.4828723100581513])",-281.5835256007377,-274.16055286176623,-49.74166062264098,0.6900306149008801,-0.006684460513306024,1.7085519572411199,25.000000247999413,-1.0,[],[],[],10000000000.0,0.02663135528564453
2,-272.31719970703125,-289.73211669921875,49.950111389160156,0.6340358257293697,0.030114552006125457,1.8225585381176808,23.149117302352437,"array('d', [-292.88165283203125, -290.47227784813884, -288.0438706027804, -285.5983238925274, -283.1376793529637, -280.664164165458, -278.18027821145233, -275.6887817636373, -273.19233409980495, -270.6932271398814, -268.19329097896895, -265.6939060693283, -263.1960651710892, -260.700449641302, -258.2075020771501, -255.7174917743201])","array('d', [-271.6797180175781, -272.34337787991, -272.93515319437176, -273.45247841540504, -273.89300052455894, -274.25469579228894, -274.5367928360555, -274.7413565525434, -274.8727416700912, -274.93655489669476, -274.93887037545454, -274.88572089550553, -274.7828061959556, -274.6353482147324, -274.448038988274, -274.22504659930644])","array('d', [-49.937538146972656, -49.87438267216655, -49.82801592350047, -49.79383117374321, -49.76849129771565, -49.749577525321975, -49.73533428458172, -49.72448489986938, -49.71609905264668, -49.70949752961559, -49.704183917415186, -49.69979606740729, -49.696072144559146, -49.692827386697765, -49.68993860282219, -49.68733405920633])","array('d', [0.6344936490058896, 0.6488541007724029, 0.6618479760315079, 0.6736053216013643, 0.6842438086490022, 0.6892956655968667, 0.6737379129430177, 0.643703560841218, 0.6045270046213753, 0.5604668973482904, 0.514712871318362, 0.4695282769835669, 0.4264230424679822, 0.38630606754147134, 0.34960192230610115, 0.3163329293707098])","array('d', [-0.02923369407653815, -0.02142643057267354, -0.01576361184737756, -0.011653622164180807, -0.008668432073979573, -0.006498924724367247, -0.004922036226540704, -0.0037766072156898557, -0.0029459404463719756, -0.002345303956248343, -0.0019128039571569737, -0.0016026517867336596, -0.0013801985336049285, -0.0012183090999674767, -0.0010947792186861338, -0.0009905973732078886])","array('d', [1.8541702489045004, 1.8248440156582566, 1.7946734734291165, 1.763723535451479, 1.7320551546516532, 1.699878619121388, 1.6680555593641584, 1.637693609671308, 1.6094492716079192, 1.5836148472508744, 1.5602363375205335, 1.5392135897984263, 1.5203701395760294, 1.5034974125463514, 1.488381791239519, 1.4748216411993362])",-280.664164165458,-274.25469579228894,-49.749577525321975,0.6892956655968667,-0.006498924724367247,1.699878619121388,25.00000024802667,-1.0,[],[],[],10000000000.0,0.025390148162841797
3,-272.4002685546875,-289.2798767089844,49.95158004760742,0.6340445280075071,0.030097018927335753,1.8182687769320347,23.147578142933884,"array('d', [-291.9848327636719, -289.56960929942835, -287.13600551244866, -284.6859332929307, -282.221452758206, -279.7448096800182, -277.2585166172275, -274.7653134390322, -272.2678124079275, -269.76824583307945, -267.26838131747417, -264.7695394467213, -262.27265832073937, -259.77837071242726, -257.2870766770268, -254.79900852939915])","array('d', [-271.871826171875, -272.5139657001064, -273.0840545937692, -273.57954532334406, -273.998103668311, -274.3377429760102, -274.5977915112349, -274.78040080575755, -274.88997735355696, -274.93215207435975, -274.91300506956605, -274.83856451131, -274.71452019139736, -274.5460819906757, -274.3379296014465, -274.0942194234865])","array('d', [-49.9410285949707, -49.878787850719924, -49.833166320646775, -49.79958033081546, -49.774717330439515, -49.75618163022901, -49.74223793950403, -49.73162669726458, -49.72343162527286, -49.71698477918191, -49.711798628478576, -49.70751790597814, -49.703885994471314, -49.70072195780795, -49.69790524405086, -49.69536571890838])","array('d', [0.6344666481018064, 0.6488296693414352, 0.661825869555839, 0.6735853188314302, 0.6842257093839966, 0.6886686779259462, 0.6727142722465125, 0.6424591087920339, 0.6031931440096446, 0.5591333054416191, 0.5134352361331352, 0.46833690333993944, 0.425330457367977, 0.3853131933722167, 0.34870300244572444, 0.31551955297155937])","array('d', [-0.028830977156758315, -0.021095923982755442, -0.0154967785504755, -0.01144050656605689, -0.008499293931149239, -0.00636500890689845, -0.004815845648345253, -0.0036919232613515382, -0.0028777285791371653, -0.0022895657604581816, -0.001866416736376471, -0.0015632208283080545, -0.001345934150837283, -0.0011879316302411957, -0.001067449710454147, -0.0009658686093101798])","array('d', [1.8452459136631822, 1.8159212515632228, 1.7857521607378641, 1.7548035615923594, 1.7231364140502101, 1.6909813988618705, 1.6592121499774575, 1.6289213495869976, 1.6007537694103326, 1.5749943169116645, 1.5516851759993027, 1.5307247281365384, 1.5119363798069172, 1.4951120952818195, 1.4800390633232026, 1.466516489109312])",-279.7448096800182,-274.3377429760102,-49.75618163022901,0.6886686779259462,-0.00636500890689845,1.6909813988618705,25.000000248053784,-1.0,[],[],[],10000000000.0,0.022396564483642578
4,-272.5597229003906,-288.3754577636719,49.953617095947266,0.6349311470985409,0.028978817164897898,1.8104066858675814,23.15075236837046,"array('d', [-291.53546142578125, -289.11733894325226, -286.6811617353478, -284.228854596449, -281.76248905530514, -279.28432157142964, -276.79687155449824, -274.30286866704574, -271.80490138984027, -269.305171806589, -266.805415787381, -264.3069234807632, -261.8106051658078, -259.31706886194576, -256.8266929288598, -254.33969080495976])","array('d', [-271.9648742675781, -272.59600857634297, -273.15500081522185, -273.6393125646799, -274.046619522307, -274.3749544746388, -274.62369713299944, -274.79504393621056, -274.8934285315554, -274.92449488316475, -274.8943267223249, -274.80895034079157, -274.67405082628375, -274.4948321951025, -274.2759680653486, -274.02160905427576])","array('d', [-49.942771911621094, -49.88052781419943, -49.83494066111121, -49.801404503071794, -49.77659467092819, -49.758109379479116, -49.74421071202584, -49.733638402390596, -49.72547645672392, -49.719057656573085, -49.713895331481105, -49.7096350463559, -49.706020909197655, -49.70287256821376, -49.70006990354507, -49.6975430593822])","array('d', [0.6345301270484922, 0.6488871074726413, 0.661877841730496, 0.6736323452030981, 0.6842682606038877, 0.6883963042966293, 0.6722351035536837, 0.6418629437715245, 0.6025473115404227, 0.55848396261274, 0.5128112295773619, 0.4677541010463476, 0.4247955994692281, 0.3848270348873339, 0.3482628342943009, 0.31512127232185205])","array('d', [-0.028842967003583884, -0.02108696761399527, -0.015478386289955216, -0.011419080412432546, -0.008478178204713421, -0.006345765276211756, -0.004799029599553174, -0.003677552157404624, -0.0028655617087791673, -0.0022792646787904718, -0.001857631992433268, -0.001555635637274305, -0.0013392842457064854, -0.0011820127863144518, -0.0010621194577691711, -0.0009610455967977683])","array('d', [1.8406939367440083, 1.811365580793877, 1.781193077645686, 1.750241330844606, 1.7185712838630631, 1.6864239893091573, 1.654679227056513, 1.624422119302094, 1.5962914648445068, 1.570568368104783, 1.547293015802319, 1.5263629892911261, 1.5076015832772738, 1.490800999829518, 1.4757488106512235, 1.46224462783676])",-279.28432157142964,-274.3749544746388,-49.758109379479116,0.6883963042966293,-0.006345765276211756,1.6864239893091573,25.000000248067362,-1.0,[],[],[],10000000000.0,0.024251937866210938
5,-272.5597229003906,-288.3754577636719,49.953617095947266,0.6349311470985409,0.028978817164897898,1.8104066858675814,23.15075236837046,"array('d', [-290.6349182128906, -288.2112521987629, -285.77016926047696, -283.3136240117947, -280.84371132633333, -278.36270765101665, -275.8731433188137, -273.37772520936727, -270.8789929538381, -268.37908788475795, -265.879682808461, -263.3820078233919, -260.8869186020646, -258.39497476464936, -255.90651237720346, -253.4217081663989])","array('d', [-272.1449890136719, -272.75433025520715, -273.2914047925813, -273.75368677974063, -274.138867442834, -274.445014931209, -274.67160875119663, -274.82093074443316, -274.8974637353463, -274.9068728311969, -274.8552446910538, -274.7485982329063, -274.59260618800056, -274.39245845048606, -274.1528145383931, -273.87781189441387])","array('d', [-49.94667434692383, -49.882909164200285, -49.836278859358124, -49.80202165215737, -49.776708406304934, -49.75786722996215, -49.743713063786004, -49.73295385637448, -49.72465210307334, -49.71812595170951, -49.712878718100626, -49.70854908580246, -49.70487644296878, -49.701677253823064, -49.69882935311453, -49.69626172817623])","array('d', [0.634313344955444, 0.6486909549050673, 0.6617003555308157, 0.6734717490319554, 0.6841229471557175, 0.6876366294956161, 0.6710801401609091, 0.6404928508446031, 0.6010958385296806, 0.5570418029431884, 0.511434263863747, 0.4664723484179482, 0.4236210441653079, 0.38375993855807405, 0.34729674925870163, 0.3142471223534672])","array('d', [-0.02956822700798519, -0.021582800577122065, -0.015819796625144013, -0.01165630189278586, -0.008644884757186992, -0.006464573789359541, -0.004885168345648379, -0.0037413064352900547, -0.00291391113737906, -0.0023169740095736794, -0.0018879725491418831, -0.001580858277953015, -0.0013609259323437146, -0.0012010924020898052, -0.0010792610271603289, -0.0009765559315874731])","array('d', [1.8316895226624348, 1.802373779922153, 1.772212928753977, 1.7412719302582276, 1.709611784067918, 1.6774945084664097, 1.6458120077490526, 1.6156338893583597, 1.5875869938487506, 1.5619450070115726, 1.5387443682048574, 1.517881292814311, 1.4991790474783524, 1.4824304634500982, 1.467423995775565, 1.4539601599539558])",-278.36270765101665,-274.445014931209,-49.75786722996215,0.6876366294956161,-0.006464573789359541,1.6774945084664097,25.000000248093393,-1.0,[],[],[],10000000000.0,0.02013874053955078
6,-272.78179931640625,-287.0163269042969,49.95575714111328,0.6393175721168516,0.024264959618449183,1.799477891125951,23.162439065278107,"array('d', [-289.73211669921875, -287.303021238961, -284.8571622337657, -282.3965219321585, -279.92321715471275, -277.43954308270406, -274.9480387862, -272.45138617290934, -269.95207429613754, -267.4521824724598, -264.95331954905674, -262.4566549434202, -259.96298927157, -257.4728334263815, -254.9864809345878, -252.50407162412463])","array('d', [-272.31719970703125, -272.9043983114419, -273.4192162820926, -273.8591409613654, -274.22187935475245, -274.5055354593202, -274.7096902202302, -274.83671151943776, -274.8911308953092, -274.87863357118425, -274.8053078944149, -274.67716415195866, -274.4998615390405, -274.278574765677, -274.0179483156299, -273.72210564581997])","array('d', [-49.950111389160156, -49.88521382454572, -49.83782944388399, -49.80306694704992, -49.77741218536406, -49.75833749606502, -49.744021221342386, -49.73314727418427, -49.724762332975715, -49.71817409409612, -49.71287892904547, -49.70851088520752, -49.70480625725486, -49.70157947617316, -49.69870710415196, -49.696117432361454])","array('d', [0.6340358257293697, 0.648439845101863, 0.6614731419633905, 0.6732661576735584, 0.6839369203735395, 0.6868253085476597, 0.6698681731021089, 0.6390643929194445, 0.5995872771438333, 0.5555454365682995, 0.5100068394954049, 0.4651442425728207, 0.422404260887754, 0.3826545496412658, 0.3462960053503594, 0.3133416117373171])","array('d', [-0.030114552006125457, -0.021945749127803196, -0.016062228918976504, -0.011819463287989846, -0.008755821804986387, -0.006541027855202761, -0.004938784252574049, -0.003779736531246668, -0.0029422009048316756, -0.002338467798093987, -0.0019049001726040371, -0.0015947112246426623, -0.0013726958575448706, -0.0012114201029344066, -0.00108852808278445, -0.000984941111028489])","array('d', [1.8225585381176808, 1.7932589368311431, 1.7631129973675586, 1.7321857544150114, 1.7005382794153256, 1.6684540267701566, 1.6368372080268472, 1.6067415215139507, 1.5787816319800207, 1.5532237119443084, 1.530100428638373, 1.509306642136527, 1.4906656177473423, 1.4739708483884355, 1.4590117051662843, 1.4455896368850292])",-277.43954308270406,-274.5055354593202,-49.75833749606502,0.6868253085476597,-0.006541027855202761,1.6684540267701566,25.000000248119,-1.0,[],[],[],10000000000.0,0.02637195587158203
7,-272.9183349609375,-286.10675048828125,49.957679748535156,0.6442405581474302,0.01953280530869973,1.7927897284415104,23.175017072307895,"array('d', [-289.2798767089844, -286.84828304139086, -284.40023627560595, -281.93772982849316, -279.4628904214126, -276.9780221823278, -274.48566827563343, -271.9884990449991, -269.488980071618, -266.98916180231373, -264.4906232163651, -261.9945053101558, -259.50158284306445, -257.0123437679816, -254.52706154099027, -252.04585854703248])","array('d', [-272.4002685546875, -272.9770412746966, -273.4813608706013, -273.91072323381684, -274.2628445698641, -274.53584707121087, -274.7293600628054, -274.84579287617277, -274.889701310847, -274.8667814938486, -274.7831239161585, -274.6447359770218, -274.45727148285465, -274.22589880365115, -273.9552560074814, -273.64946051302667])","array('d', [-49.95158004760742, -49.88674182799137, -49.83943603766092, -49.804754650378804, -49.77917532474255, -49.76016705525586, -49.745907476643, -49.73508112719039, -49.72673588936601, -49.72018082043728, -49.714913590492074, -49.71056938174581, -49.70688542200377, -49.70367686690701, -49.70082080115097, -49.69824584647378])","array('d', [0.6340445280075071, 0.6484477192492353, 0.6614802667868092, 0.6732726044799859, 0.6839427536801338, 0.6865347979026415, 0.669384686337608, 0.6384731404949407, 0.5989518046603738, 0.5549091263946877, 0.50939669127197, 0.4645750129670942, 0.4218821119488229, 0.38218001601903895, 0.3458663714204354, 0.31295286284625573])","array('d', [-0.030097018927335753, -0.021915994402492187, -0.016029155436760544, -0.01178762224936461, -0.008727256155103186, -0.006516390559623188, -0.004917999638838912, -0.0037623853409581224, -0.0029277409759942263, -0.0023263525596923253, -0.0018946363905696444, -0.0015858829571183122, -0.0013649711293536814, -0.0012045497780415798, -0.001082341973019133, -0.0009793436869353508])","array('d', [1.8182687769320347, 1.7889686695884073, 1.7588222626159413, 1.7278945883968087, 1.696246716122751, 1.6641719508692603, 1.6325802451974145, 1.6025180686343372, 1.5745944678789596, 1.549072079235587, 1.5259817338869468, 1.505217572670154, 1.4866027803773751, 1.4699310921194455, 1.454992253709161, 1.4415881084577673])",-276.9780221823278,-274.53584707121087,-49.76016705525586,0.6865347979026415,-0.006516390559623188,1.6641719508692603,25.000000248130707,-1.0,[],[],[],10000000000.0,0.04578208923339844
8,-272.9183349609375,-286.10675048828125,49.957679748535156,0.6442405581474302,0.01953280530869973,1.7927897284415104,23.175017072307895,"array('d', [-288.3754577636719, -285.93932922394816, -283.48732278086226, -281.0214483344619, -278.5438522222616, -276.0568586781901, -273.5630220289905, -271.06499503548076, -268.56520316322417, -266.0656457631357, -263.5678478635021, -261.0728983731385, -258.58152413026664, -256.09417018671223, -253.61107218063685, -251.1323194205539])","array('d', [-272.5597229003906, -273.1173109373139, -273.60218937127684, -274.0118816639297, -274.3441306304123, -274.59709973162126, -274.77051222504315, -274.86686124526324, -274.8907570223067, -274.84792583276936, -274.74447134439447, -274.58640357013064, -274.3793729902086, -274.1285417167457, -273.83854045010366, -273.51347916807686])","array('d', [-49.953617095947266, -49.89122682915849, -49.84577243742482, -49.81249289194575, -49.787977992732294, -49.76978175467463, -49.75614600016564, -49.74580359038322, -49.73783870006589, -49.731587575738445, -49.7265681936118, -49.72243081579377, -49.71892373293771, -49.71587000544311, -49.7131520576089, -49.71070168610029])","array('d', [0.6349311470985409, 0.6492499654506573, 0.6622061692334146, 0.6739294282333332, 0.6845370724329306, 0.6865635747169117, 0.6690253976839058, 0.6378756838384546, 0.5982309416952709, 0.554145615535832, 0.5086428108820052, 0.4638611819357279, 0.4212230113820721, 0.38157975224582513, 0.3453227444655889, 0.31246096879150775])","array('d', [-0.028978817164897898, -0.021070633320367578, -0.015389701940022338, -0.011302914932415621, -0.008358445304689176, -0.006234114353594707, -0.004700134153626505, -0.0035922985209919296, -0.0027929591915643905, -0.0022175445632122218, -0.00180484841833877, -0.00150997441196755, -0.0012992087614914132, -0.001146324238535926, -0.0010299753685213727, -0.0009319604194516393])","array('d', [1.8104066858675814, 1.7810549867814915, 1.7508609200903844, 1.7198892827014507, 1.6882009140419187, 1.6561060709425146, 1.6245252027266155, 1.5944928724091032, 1.5666082509143124, 1.5411273041626103, 1.5180770281363805, 1.4973497115102192, 1.478767900399811, 1.4621253627432547, 1.4472122025981806, 1.433830728601992])",-276.0568586781901,-274.59709973162126,-49.76978175467463,0.6865635747169117,-0.006234114353594707,1.6561060709425146,25.000000248151814,-1.0,[],[],[],10000000000.0,0.025489330291748047
9,-273.1051025390625,-284.7373352050781,49.96220016479492,0.6534732580184933,0.010504798032343363,1.7823285172369814,23.194742350575474,"array('d', [-287.4700622558594, -285.0296654534846, -282.5739391363892, -280.104906579067, -277.62473816362336, -275.13578564423136, -272.64062207684293, -270.14189086454337, -267.6419848184213, -265.14285790740047, -262.6459850748943, -260.1524054607307, -257.6627991463122, -255.1775686425753, -252.69691159490407, -250.22088371780896])","array('d', [-272.7100524902344, -273.24931922739535, -273.7154044915054, -274.10587826957624, -274.41852596152904, -274.6515649121341, -274.8048186828972, -274.88087580736425, -274.8844174206983, -274.8212175606555, -274.69740955060996, -274.51902039754026, -274.2917093687444, -274.02064237215046, -273.71045106722147, -273.365244927359])","array('d', [-49.955101013183594, -49.898750330334046, -49.85775756269814, -49.82778793750852, -49.805742167483295, -49.789401038829965, -49.777171920329884, -49.76790869883668, -49.76078416043845, -49.75519951255511, -49.750720372351424, -49.74703185405949, -49.74390750512246, -49.74118825196334, -49.73876848026402, -49.73658702711313])","array('d', [0.6373831033706663, 0.6514685874337789, 0.6642136616015554, 0.6757458826076332, 0.6861806684589533, 0.6876194080679336, 0.6696429735608843, 0.6381884797848846, 0.5983468625091128, 0.5541450590842777, 0.5085814345793801, 0.46377455246098975, 0.42113150498369006, 0.3814930507013254, 0.3452438016941115, 0.3123895384115222])","array('d', [-0.026190031319856658, -0.019014138209717823, -0.013867438900247395, -0.010170520991767507, -0.007510699783768532, -0.005594268011879976, -0.0042121234150572255, -0.003215103253303861, -0.002496522603141564, -0.0019798190688698433, -0.0016096698227940544, -0.001345551874134622, -0.001157072122844024, -0.0010206073185531107, -0.0009169397077695289, -0.0008296815147952352])","array('d', [1.8029520670559744, 1.7734573503961082, 1.7431311878757585, 1.712037719587465, 1.6802371443265516, 1.6480541405703455, 1.6164193037076304, 1.5863580951043774, 1.5584608521107768, 1.5329767095907918, 1.5099280807099305, 1.489204484381026, 1.4706269538085486, 1.4539885407844584, 1.4390790982450257, 1.4257009157421496])",-275.13578564423136,-274.6515649121341,-49.789401038829965,0.6876194080679336,-0.005594268011879976,1.6480541405703455,25.000000248171805,-1.0,[],[],[],10000000000.0,0.02133965492248535
10,-273.2166748046875,-283.8226318359375,49.967994689941406,0.659919202327728,0.003986257594078833,1.774797053137097,23.208525880536925,"array('d', [-287.0163269042969, -284.5739526482082, -282.1164987891062, -279.64599758131055, -277.16463532589796, -274.67478187205063, -272.1790237303346, -269.6800039080919, -267.18010276335525, -264.6812546067457, -262.1849114891343, -259.69208907111243, -257.2034448965942, -254.71936064395544, -252.2400151222775, -249.76544721121928])","array('d', [-272.78179931640625, -273.3124637238934, -273.7696151158928, -274.15085413302876, -274.4539941203295, -274.6772846473849, -274.8206015581435, -274.88658580353325, -274.8799611954348, -274.8065335814081, -274.6724586387956, -274.48377850351915, -274.24616246421334, -273.9647830245299, -273.6442762311219, -273.28875456836084])","array('d', [-49.95575714111328, -49.90356472120752, -49.86562576293234, -49.83790969591393, -49.817537078454755, -49.80244771417534, -49.79116418379918, -49.782624027999375, -49.77606090778182, -49.77092041903768, -49.76680058291626, -49.763410127382556, -49.760539657416565, -49.7580421327818, -49.75581997496776, -49.753816735188664])","array('d', [0.6393175721168516, 0.6532189672978298, 0.6657974709416236, 0.67717897269088, 0.6874773821035713, 0.6886173446518414, 0.6704023518614894, 0.6387671357279086, 0.5987945714662747, 0.5545011254470392, 0.5088747567983568, 0.4640249882819505, 0.4213517105816617, 0.3816903785387796, 0.3454221072276364, 0.3125508759447104])","array('d', [-0.024264959618449183, -0.017603218353244483, -0.012828789050881365, -0.009401700159508999, -0.006937682898230744, -0.005163480522480351, -0.0038847074366926537, -0.0029628097557638246, -0.0022987699996916246, -0.0018215842996413853, -0.0014799846353836018, -0.001236443356491419, -0.001062829328875435, -0.0009372850221325095, -0.0008420304823357744, -0.000761900838546133])","array('d', [1.799477891125951, 1.7698699863634673, 1.7394393023272718, 1.7082494550124299, 1.67636013230665, 1.644101920071168, 1.6124102440132044, 1.582307397512234, 1.5543798497495658, 1.5288732926455617, 1.5058075324500861, 1.4850702964851414, 1.46648146605792, 1.4498333916800343, 1.434915518736573, 1.4215299015169012])",-274.67478187205063,-274.6772846473849,-49.80244771417534,0.6886173446518414,-0.005163480522480351,1.644101920071168,25.000000248181163,-1.0,[],[],[],10000000000.0,0.04313325881958008
11,-273.2166748046875,-283.8226318359375,49.967994689941406,0.659919202327728,0.003986257594078833,1.774797053137097,23.208525880536925,"array('d', [-286.10675048828125, -283.66061840494575, -281.19987530447986, -278.72657849992714, -276.24295398691356, -273.7514154123748, -271.2545827499629, -268.755104187166, -266.25533998027197, -263.7571884631399, -261.262057923944, -258.77091807474636, -256.2843816842026, -253.80278859634427, -251.3262794834165, -248.8548589697943])","array('d', [-272.9183349609375, -273.43233371544414, -273.8720116817366, -274.23504152995156, -274.51930266883886, -274.7231178703367, -274.8464729823634, -274.8921227886504, -274.86488837435485, -274.77065152027455, -274.6156238929304, -274.40588759170055, -274.14714004126125, -273.8445736043814, -273.5028385937293, -273.1260580783935])","array('d', [-49.957679748535156, -49.91569309410709, -49.88522158513497, -49.86299717805406, -49.846688743825545, -49.83463085032181, -49.82563086557386, -49.81883228798662, -49.813618109808225, -49.80954246311567, -49.80628237859434, -49.803604023259005, -49.80133941015995, -49.79937065892021, -49.79761962723355, -49.7960412335686])","array('d', [0.6442405581474302, 0.6576734696701958, 0.6698280717317545, 0.6808260114325669, 0.6907773595149697, 0.6913010035678547, 0.6725724242858759, 0.6405293788521115, 0.6002448336024523, 0.5557183984237674, 0.5099194876557627, 0.46494054998404377, 0.42216732042015964, 0.38242449287334956, 0.3460858663118634, 0.31315147005507504])","array('d', [-0.01953280530869973, -0.014147967787629343, -0.010294147353678302, -0.007531701114333032, -0.0055482290880957035, -0.004121917558713268, -0.003095213506367272, -0.002355987106085148, -0.0018242292488942688, -0.001442654956041812, -0.0011699624367561244, -0.0009759585940417217, -0.0008380329903123056, -0.0007386264486125255, -0.0006634530443041668, -0.0006003172760072999])","array('d', [1.7927897284415104, 1.7628923483373558, 1.732194446099433, 1.7007582798009169, 1.6686422147805637, 1.6361871232970104, 1.6043379788600662, 1.5741124814829448, 1.5460899153622296, 1.5205088711947752, 1.4973833770745704, 1.4765969308209257, 1.457966511427842, 1.44128256191562, 1.426333305533573, 1.4129200039328622])",-273.7514154123748,-274.7231178703367,-49.83463085032181,0.6913010035678547,-0.004121917558713268,1.6361871232970104,25.000000248199235,-1.0,[],[],[],10000000000.0,0.03699445724487305
12,-273.4508056640625,-281.5285339355469,49.994361877441406,0.6747658252716062,-0.011446115560829622,1.7542086104538777,23.23942430563035,"array('d', [-285.1944580078125, -282.7446136288754, -280.2806166271186, -277.8045636204855, -275.31873239211853, -272.82559057198785, -270.32779914545586, -267.82801627201394, -265.32858429121364, -262.8313656922254, -260.33772375831734, -257.8485802114475, -255.36450061269414, -252.88578040977552, -250.4125195999567, -247.94468724473265])","array('d', [-273.0453186035156, -273.54221195978783, -273.96382140341746, -274.30790260739957, -274.5724123834161, -274.7557580815332, -274.85804741772245, -274.8821636027293, -274.8330403102907, -274.71664919251407, -274.5392696259605, -274.3070331265963, -274.02567274351117, -273.70040661831626, -273.3359040495763, -272.9363026872672])","array('d', [-49.96035385131836, -49.93076334623471, -49.90933065655792, -49.893731718661705, -49.88231128709582, -49.87388856724969, -49.86761920521818, -49.86289765772487, -49.85928826037901, -49.85647654335139, -49.85423492967903, -49.8523987734483, -49.85084986569933, -49.84950531803357, -49.848310267486994, -49.84723320566064])","array('d', [0.6502481698989865, 0.6631093820684161, 0.674746689116225, 0.6852765608895599, 0.6948043835535912, 0.6946568979150964, 0.6753540236032204, 0.6428424904981817, 0.6021891619022944, 0.5573785564515903, 0.5113618914317833, 0.466214098458633, 0.42330597753568383, 0.3834506301914718, 0.34701382105173195, 0.31399111830199733])","array('d', [-0.013776849955320343, -0.009959797146971379, -0.0072320736723147155, -0.005279728495077399, -0.003879999461639235, -0.0028749555153158826, -0.0021525899232306567, -0.001633312896960163, -0.0012604264593677767, -0.0009934021190987545, -0.0008030642585993887, -0.0006681121151474334, -0.000572607361067006, -0.0005041724437991747, -0.00045272624588460323, -0.0004096437665967781])","array('d', [1.7859679172423217, 1.7557144711090364, 1.7246880650104788, 1.6929492510882642, 1.6605547357777783, 1.6278553254737358, 1.5958061417025295, 1.5654211656290224, 1.5372723268918247, 1.5115904196185197, 1.4883828604835925, 1.4675281471676644, 1.4488397196642706, 1.4321056164897912, 1.4171124609513603, 1.403660429623683])",-272.82559057198785,-274.7557580815332,-49.87388856724969,0.6946568979150964,-0.0028749555153158826,1.6278553254737358,25.000000248217724,-1.0,[],[],[],10000000000.0,0.055451393127441406
13,-273.5609130859375,-280.14605712890625,50.01884841918945,0.6824969053268429,-0.01913642697036274,1.7407887736943104,23.24882172821352,"array('d', [-283.8226318359375, -281.36709647309453, -278.8981286885693, -276.4179158847722, -273.9288335958779, -271.4334433808426, -268.93447370138705, -266.4345964825396, -263.93612132698706, -261.44084889589726, -258.95006631291943, -256.46461494381793, -253.98498184231167, -251.51138896749367, -249.0438692049288, -246.58233114560613])","array('d', [-273.2166748046875, -273.6854793444751, -274.07745070131256, -274.39047447030936, -274.62263242534993, -274.7724717575071, -274.84030591207596, -274.8292326192546, -274.7443707982834, -274.5918379266407, -274.37802178671774, -274.10913195910103, -273.79095700184064, -273.42875466550765, -273.0272230231673, -272.5905212978649])","array('d', [-49.967994689941406, -49.959455653921545, -49.95331279845769, -49.94887818494927, -49.94566309707332, -49.943319769632474, -49.94160011749468, -49.940326609553175, -49.939371750944424, -49.93864362992979, -49.938075770292734, -49.93762007704181, -49.93724201554002, -49.93691739991682, -49.936630326674866, -49.93637189557508])","array('d', [0.659919202327728, 0.6718600948735817, 0.6826646622137595, 0.6924410398710124, 0.7012870727931794, 0.7000151448007825, 0.6797590702213775, 0.6464775647736107, 0.6052243456834119, 0.5599564952299912, 0.5135934194933186, 0.468180014581991, 0.4250617829558511, 0.3850323646818902, 0.34844414104864685, 0.3152853254721849])","array('d', [-0.003986257594078833, -0.0028637111083227003, -0.002063920392560294, -0.0014932915138528447, -0.0010855809129776263, -0.0007939463475629086, -0.0005852568169481355, -0.00043603882441325834, -0.0003296232968561114, -0.0002541328484560625, -0.0002010405459812392, -0.00016412979797768854, -0.00013874290555358873, -0.00012124154868744029, -0.00010862747112665923, -9.829029158087924e-05])","array('d', [1.774797053137097, 1.7439637604160296, 1.7124028380637524, 1.680171972181819, 1.6473250891431437, 1.6142306986103014, 1.5818612314523497, 1.551223294409057, 1.522875843529982, 1.4970363918415777, 1.4737013211350447, 1.4527409087779601, 1.4339628514327478, 1.4171513336794008, 1.4020904472038958, 1.388578682768613])",-271.4334433808426,-274.7724717575071,-49.943319769632474,0.7000151448007825,-0.0007939463475629086,1.6142306986103014,25.000000248247492,-1.0,[],[],[],10000000000.0,0.040247440338134766
14,-273.6216735839844,-279.22381591796875,50.040122985839844,0.6869036555290217,-0.023370785638690012,1.7317488352444506,23.255288199177244,"array('d', [-282.4479064941406, -279.9868452889689, -277.51309022996077, -275.0289552443316, -272.53693047512616, -270.0396779061371, -267.53999170331537, -265.04054982084904, -262.543619168067, -260.0509288346279, -257.56368129511657, -255.0826305556715, -252.6081795190303, -250.14047213534252, -247.67947054377714, -245.22501877479468])","array('d', [-273.3648681640625, -273.8036429090412, -274.16409536415256, -274.4442328084291, -274.6422592825977, -274.756864760064, -274.78858277712135, -274.7407350130037, -274.61862718270214, -274.42851913858885, -274.1769011571082, -273.8700541754445, -273.5138156643877, -273.1134769172259, -272.6737593886812, -272.19883894694243])","array('d', [-49.98198699951172, -49.993830037559206, -50.002416555266855, -50.00868292983701, -50.013292780691145, -50.016717199839256, -50.019291423495794, -50.021254710514484, -50.02277835568985, -50.02398538154126, -50.02496435716579, -50.02577902911717, -50.02647495617441, -50.027084008883755, -50.027627367906085, -50.028117500845596])","array('d', [0.669144988059997, 0.6802079317709352, 0.6902180980818866, 0.6992756718966948, 0.707471304133974, 0.7050020881631941, 0.6837561700916643, 0.6496958652357044, 0.6078528338932296, 0.5621492424800079, 0.5154671829634643, 0.46981779061319423, 0.42651891012749354, 0.3863433431202486, 0.3496294099583443, 0.31635780122924595])","array('d', [0.005513047799468018, 0.003986878450021097, 0.0029004729012167777, 0.002125559184581945, 0.0015715653202388346, 0.001174593132408961, 0.0008895413742495977, 0.0006845087419159307, 0.000536870364979271, 0.0004305244068995766, 0.0003539337892005838, 0.00029872477339921066, 0.0002586848202974814, 0.00022905168692737338, 0.00020601974881483275, 0.0001864143122109321])","array('d', [1.7628671387818198, 1.7314728235613144, 1.6993952760445805, 1.666689300116755, 1.6334060357768891, 1.5999354419126453, 1.5672689996503617, 1.5364027086457686, 1.5078803848075313, 1.4819051548613353, 1.458461989355517, 1.4374129703501723, 1.41856025815893, 1.4016844501373962, 1.3865673720555758, 1.3730060720707797])",-270.0396779061371,-274.756864760064,-50.016717199839256,0.7050020881631941,0.001174593132408961,1.5999354419126453,25.000000248278,-1.0,[],[],[],10000000000.0,0.04225969314575195
15,-273.6946716308594,-277.8396911621094,50.07754898071289,0.6920107603073117,-0.02804747223854064,1.7182958434012274,23.26125750203556,"array('d', [-281.5285339355469, -279.06378697709005, -276.58688231957984, -274.10023309825704, -271.6064113801698, -269.1081465059446, -266.6082720801999, -264.10946215260356, -261.61394630626927, -259.1233977457761, -256.63895564018344, -254.16131022441323, -251.690803930342, -249.22752526335947, -246.77138648115286, -244.32218716775392])","array('d', [-273.4508056640625, -273.86780706940147, -274.20556466486084, -274.46216110122515, -274.6358787755561, -274.72550352590235, -274.73172545260314, -274.65802060962113, -274.50981767661693, -274.29346607410014, -274.0155175114834, -273.6822933962133, -273.29965716633166, -272.87291655247685, -272.40680343497036, -271.90550045588867])","array('d', [-49.994361877441406, -50.01890942637805, -50.036634283532095, -50.04950880257715, -50.05892811847469, -50.06588074750465, -50.07106886612317, -50.07499278845151, -50.07801020128378, -50.080377719452116, -50.082279974360304, -50.08384982135959, -50.08518219864707, -50.0863434629544, -50.08737754395312, -50.08830993331435])","array('d', [0.6747658252716062, 0.6852938760611906, 0.6948200511981308, 0.7034396916479793, 0.7112390653419363, 0.7079157506319602, 0.6859865704879973, 0.6514077785863429, 0.6091879821077862, 0.5632193695116753, 0.5163543919840128, 0.4705785504452412, 0.4271893344628639, 0.3869445816864985, 0.35017274960798933, 0.3168494353194737])","array('d', [0.011446115560829622, 0.008245637744557478, 0.005972293617116297, 0.004354358551279841, 0.003200363280319724, 0.0023755074545483658, 0.0017848438834356553, 0.0013613598180678152, 0.0010576377088103149, 0.0008400075975689529, 0.000684392433130104, 0.0005733378486912381, 0.0004938893802042003, 0.00043608635961028537, 0.0003919153160793508, 0.0003546195925069123])","array('d', [1.7542086104538777, 1.7224686145940755, 1.6900730121482819, 1.6570747749677386, 1.6235232770432257, 1.5898260314027497, 1.5569885828813443, 1.5259969960994775, 1.4973832537298537, 1.4713401308384169, 1.447844847626939, 1.4267541910271282, 1.4078669199464602, 1.390961551888482, 1.3758186908209056, 1.3622346674102208])",-269.1081465059446,-274.72550352590235,-50.06588074750465,0.7079157506319602,0.0023755074545483658,1.5898260314027497,25.00000024829926,-1.0,[],[],[],10000000000.0,0.055786848068237305
16,-273.7153015136719,-277.35833740234375,50.0911865234375,0.6936100125312803,-0.029193939641118008,1.7135988036778305,23.262717529487016,"array('d', [-280.14605712890625, -277.6760605557019, -275.19474660171875, -272.70468861508385, -270.20858380854224, -267.7092597535179, -265.20960127033294, -262.7122664883919, -260.2194196829883, -257.7326427896802, -255.25297455918962, -252.7810057613203, -250.31698554838064, -247.86091755662395, -245.41263811437696, -242.97187943139778])","array('d', [-273.5609130859375, -273.94416567815193, -274.2468924334392, -274.4672829020197, -274.60373286811983, -274.6551710248368, -274.6225290564527, -274.509515606967, -274.32173824699925, -274.0656720191908, -273.7479512476267, -273.374948968642, -272.952559470899, -272.48610813367344, -271.9803364945218, -271.4394322673855])","array('d', [-50.01884841918945, -50.05982272034654, -50.08929664163145, -50.11061827150641, -50.12614898673441, -50.137557169083955, -50.14602468071277, -50.152391446085446, -50.157256539237295, -50.16104888851522, -50.16407660574854, -50.16656112974996, -50.1686605452022, -50.17048520770847, -50.172107967380214, -50.17357072161918])","array('d', [0.6824969053268429, 0.6922892472102689, 0.7011497253393214, 0.709167018170912, 0.7164213651283172, 0.7117826672783621, 0.6888237884911567, 0.6534828827767585, 0.6107257401029887, 0.5643934169234825, 0.5172898275972322, 0.4713595603759127, 0.42786821515893797, 0.38755053714857185, 0.35071998741674143, 0.31734459661024234])","array('d', [0.01913642697036274, 0.013734634125658195, 0.009908884519172744, 0.0071939222513877415, 0.005262944225506011, 0.0038865942216349957, 0.002903822824026227, 0.002201314276138907, 0.0016991399718246192, 0.0013407197631193088, 0.0010857086907626132, 0.0009049266254846274, 0.0007767442555145134, 0.0006845242782146043, 0.0006148459121086311, 0.0005563355556324717])","array('d', [1.7407887736943104, 1.708568395812848, 1.675731150415527, 1.6423273892881811, 1.6084039678577586, 1.5743977419291046, 1.5413363570520653, 1.5101881208437202, 1.4814657357889647, 1.455345948197475, 1.4317944352122367, 1.410660376300474, 1.3917378308624369, 1.374802580819672, 1.3596337312577642, 1.3460268131238748])",-267.7092597535179,-274.6551710248368,-50.137557169083955,0.7117826672783621,0.0038865942216349957,1.5743977419291046,25.000000248330824,-1.0,[],[],[],10000000000.0,0.029679059982299805
17,-273.73284912109375,-276.89605712890625,50.10479736328125,0.6951010823249815,-0.030212037265300723,1.7092064777996876,23.26389595934065,"array('d', [-279.6844482421875, -277.2127919278079, -274.73010924900785, -272.2390270963558, -269.7422831671365, -267.242735788434, -264.7432839042689, -262.24657732648757, -259.75475614426233, -257.26937018651296, -254.79142368644284, -252.32147368854083, -249.85973800294246, -247.4061919312143, -244.96064656937787, -242.52281181262126])","array('d', [-273.5926818847656, -273.9645128631095, -274.2554270975601, -274.4636478059234, -274.58760682927044, -274.62627935955004, -274.580678077267, -274.4545879800863, -274.2536735092543, -273.98444824639256, -273.6535707659049, -273.26742835863945, -272.83192305675, -272.35238398192394, -271.8335540974803, -271.2796213009606])","array('d', [-50.02888488769531, -50.07462925809204, -50.107496560633514, -50.13124425953695, -50.14851987372801, -50.16119216984572, -50.17058374887226, -50.17763374433121, -50.18301146376079, -50.18719579460331, -50.19053054366685, -50.19326269628526, -50.19556851276584, -50.19757098769098, -50.199351249809695, -50.20095584645622])","array('d', [0.6848248243331906, 0.6943956356240135, 0.7030556645652882, 0.7108915834542152, 0.7179818164572431, 0.7129019990741454, 0.6896043204597843, 0.6540182928487319, 0.6110932403315587, 0.5646516585457787, 0.5174803685839929, 0.4715098351765751, 0.4279948123406456, 0.3876622885652878, 0.35082075073068947, 0.3174357710353253])","array('d', [0.021374793723225597, 0.015323744353247678, 0.011042298178417839, 0.008006792100659842, 0.005849794814290191, 0.004313711327222404, 0.0032178510016563407, 0.002435208957341009, 0.00187629373663785, 0.0014778198276727257, 0.0011947031468409607, 0.0009943614632770055, 0.0008526558971340448, 0.0007510196935850825, 0.0006744671572393534, 0.0006102830940074094])","array('d', [1.7362453351405005, 1.703879171514034, 1.67090797810151, 1.6373812940045034, 1.603345195161304, 1.5692470291446794, 1.5361219675686701, 1.5049316717783225, 1.4761820960837486, 1.4500446030021479, 1.4264811213909472, 1.4053384417946229, 1.3864092046783494, 1.3694684097661185, 1.3542947697263346, 1.3406836350798856])",-267.242735788434,-274.62627935955004,-50.16119216984572,0.7129019990741454,0.004313711327222404,1.5692470291446794,25.00000024834112,-1.0,[],[],[],10000000000.0,0.02794051170349121
18,-273.7886962890625,-274.57293701171875,50.177730560302734,0.7010443210601804,-0.03336457908153544,1.6877082745220997,23.276381926837804,"array('d', [-279.22381591796875, -276.7505708733315, -274.2665940124472, -271.77456269985584, -269.27725229512777, -266.77754925619274, -264.2783641303307, -261.78233656285994, -259.29158145536667, -256.80761622836496, -254.33141077773348, -251.8634888913758, -249.40403765427124, -246.95300470775626, -244.5101765933006, -242.07524152609037])","array('d', [-273.6216735839844, -273.9822110889452, -274.2614785324992, -274.4577304852317, -274.569432461054, -274.5956038391526, -274.53733607928524, -274.3984873443928, -274.1847752761957, -273.902748500547, -273.55908682150573, -273.16018929935694, -272.71196370915146, -272.21974131168076, -271.68826520304975, -271.12172240424036])","array('d', [-50.040122985839844, -50.090114680140495, -50.12599306103285, -50.1518855566034, -50.17069755713494, -50.18447792539374, -50.19467542250139, -50.20231789671875, -50.208137320300594, -50.21265707085553, -50.21625269401978, -50.21919386406785, -50.22167296924985, -50.22382420726161, -50.22573602765711, -50.227459058212226])","array('d', [0.6869036555290217, 0.6962766400459942, 0.7047576679035805, 0.7124316198986846, 0.7193752991719629, 0.7138651141246766, 0.6902416029660021, 0.6544239789109186, 0.6113439907861908, 0.5648050139429864, 0.5175766049783523, 0.4715751545469245, 0.4280447201176989, 0.38770470804815854, 0.3508587879244146, 0.31747018851460196])","array('d', [0.023370785638690012, 0.016735990640319418, 0.012045964599326003, 0.008723831373891908, 0.006365260105022446, 0.004687086793876233, 0.003490888886200397, 0.0026373390474115003, 0.002028362982006475, 0.0015946742165191096, 0.0012869585987781338, 0.001069603873493795, 0.0009162390108843321, 0.0008065809104328644, 0.0007242490010584188, 0.0006553275731004708])","array('d', [1.7317488352444506, 1.6992520337906187, 1.6661608427453214, 1.632524065874181, 1.5983870745185402, 1.5642079002384346, 1.5310291323752465, 1.4998054784598154, 1.4710361291083205, 1.4448872025678374, 1.4213170668841735, 1.4001703028034806, 1.3812382818107152, 1.3642953393099844, 1.3491198855835735, 1.3355071592729821])",-266.77754925619274,-274.5956038391526,-50.18447792539374,0.7138651141246766,0.004687086793876233,1.5642079002384346,25.00000024835108,-1.0,[],[],[],10000000000.0,0.08933687210083008
19,-273.7965393066406,-273.6382141113281,50.20839309692383,0.7032943964004512,-0.033951193094253554,1.6793087879803512,23.284553441330424,"array('d', [-276.89605712890625, -274.41556949407385, -271.92593007802327, -269.4300273344797, -266.9307924906674, -264.4312245913292, -261.9342634756514, -259.44247491283824, -256.9578331304742, -254.48168595329452, -252.014829219595, -249.55762137523888, -247.1100987305966, -244.67207444944233, -242.24321651321395, -239.82310900410914])","array('d', [-273.73284912109375, -274.0368518219256, -274.25814783088447, -274.39513380670456, -274.44642620513093, -274.4112490080401, -274.2910761389321, -274.09010862848896, -273.8142992657486, -273.4703404446632, -273.06498977477486, -272.60468112157946, -272.0953311373758, -271.5422655561065, -270.95021484299536, -270.3233506420935])","array('d', [-50.10479736328125, -50.169271384245405, -50.21529015471522, -50.2483100620924, -50.272153485238434, -50.2895034585992, -50.30224883893078, -50.31172422029625, -50.318876510354386, -50.324380629147, -50.32871962820045, -50.33223971040861, -50.33518748493638, -50.33773467246116, -50.339994041753556, -50.34202941071919])","array('d', [0.6951010823249815, 0.7036939792133922, 0.7114691545301713, 0.7185044246723433, 0.7248702005827229, 0.7172559946367705, 0.6920885407915093, 0.6552167436866316, 0.6114706521787893, 0.5645498032905858, 0.5171334354665813, 0.47106622268119414, 0.42753882925101855, 0.3872334927382844, 0.3504307206521023, 0.3170828571940974])","array('d', [0.030212037265300723, 0.021518094091169174, 0.015401102641927848, 0.011087570023257266, 0.008038332286096683, 0.005877802342702321, 0.004344131676753403, 0.003254371240727859, 0.0024803804064278505, 0.0019320651865241177, 0.0015455830774892423, 0.001274997506486901, 0.0010863693359629628, 0.0009535959426035778, 0.0008555355631975527, 0.0007741205777319663])","array('d', [1.7092064777996876, 1.676190323192175, 1.6426223859781568, 1.608548478786484, 1.5740111137627621, 1.5395252157067227, 1.5061703138623868, 1.4748622091706096, 1.4460652287807825, 1.4199200127076392, 1.3963685597409603, 1.3752459143091522, 1.3563384369596465, 1.3394182294515853, 1.3242630460653304, 1.3106682316028293])",-264.4312245913292,-274.4112490080401,-50.2895034585992,0.7172559946367705,0.005877802342702321,1.5395252157067227,25.00000024839813,-1.0,[],[],[],10000000000.0,0.0261538028717041
20,-273.79644775390625,-272.7036437988281,50.23908615112305,0.7056713700294491,-0.03416663780808448,1.6710998947408533,23.290110758122548,"array('d', [-275.97076416015625, -273.4878296731063, -270.996381553863, -268.4993741100321, -265.9997876450669, -263.5006556341281, -261.00491999297543, -258.51511126076923, -256.03314578561395, -253.5603047501373, -251.0973171950894, -248.64447902884658, -246.2017700856467, -243.76895349885908, -241.34565335644538, -238.93141541778687])","array('d', [-273.7615051269531, -274.04402831320874, -274.2433748692883, -274.35799391988087, -274.38655639184753, -274.3283610454766, -274.1850249910698, -273.96087413640186, -273.6619430911709, -273.2949711628608, -272.86673857477524, -272.3836865228955, -271.85173016381816, -271.27618914098065, -270.66178584031684, -270.01268336564084])","array('d', [-50.13322830200195, -50.201051248076006, -50.249359108140446, -50.28394488158352, -50.30885941029523, -50.32694118620439, -50.34018526152148, -50.34999914383022, -50.3573801316991, -50.3630382556971, -50.3674812435625, -50.37107274629295, -50.37407167343289, -50.37665820405551, -50.3789504986057, -50.38101512199259])","array('d', [0.6977273225784301, 0.7060702998782473, 0.7136193385787662, 0.7204499918284072, 0.7266306226629488, 0.7182272227326925, 0.6924923410598044, 0.655243490432989, 0.6112687703008488, 0.5642263768085488, 0.5167603657985356, 0.47068790402663957, 0.4271794245493797, 0.38690323202200383, 0.350131253197892, 0.31681188781150277])","array('d', [0.03180943429470065, 0.022609249878649162, 0.01614730889077617, 0.011598106010371874, 0.008387416018380249, 0.006116025139071604, 0.0045061417803465625, 0.003364037161582157, 0.002554270338642682, 0.001981782970682412, 0.0015793230150827945, 0.001298563762084221, 0.0011038271007224722, 0.0009676691339224601, 0.0008678322248662624, 0.0007852470583296182])","array('d', [1.700640888014112, 1.667456903682485, 1.6337350111289024, 1.5995200327133174, 1.5648535364378706, 1.530272927183531, 1.496871704123018, 1.4655498516752847, 1.4367581996446368, 1.4106278883071584, 1.3870950335377104, 1.365991403683594, 1.3471017568505481, 1.3301975892996107, 1.315056595987957, 1.3014743086055696])",-263.5006556341281,-274.3283610454766,-50.32694118620439,0.7182272227326925,0.006116025139071604,1.530272927183531,25.000000248414914,-1.0,[],[],[],10000000000.0,0.021874189376831055
21,-273.79345703125,-272.2364196777344,50.25431823730469,0.7067961692810056,-0.034080717712640776,1.66718860814837,23.294361748254286,"array('d', [-275.04034423828125, -272.5551109041165, -270.06202929469697, -267.5641099536785, -265.0643753225399, -262.565887557082, -260.07158453998585, -257.5839566728798, -255.10485927478726, -252.63550519996434, -250.17655603825597, -247.72824516107798, -245.29049630599891, -242.86302315372, -240.4454065633346, -238.03715460480683])","array('d', [-273.7817077636719, -274.0425749636105, -274.21985893816594, -274.31205863542846, -274.31789617371896, -274.23674208614705, -274.0703548471513, -273.8231810479021, -273.501331273295, -273.11158572344647, -272.6607417744593, -272.1552432905253, -271.60100005972157, -271.00332244744783, -270.3669221336724, -269.6959514881272])","array('d', [-50.16270446777344, -50.23297413203066, -50.28291933940968, -50.31859756064158, -50.34423684659405, -50.362794742282226, -50.37634661302843, -50.386354445007754, -50.393852766875455, -50.399577299470394, -50.40405368917291, -50.40765818931388, -50.410658559612855, -50.41324103397337, -50.415527576138345, -50.41758657319126])","array('d', [0.699949502944946, 0.7080810120051073, 0.7154387063117587, 0.7220962239761575, 0.7281201951917898, 0.7189314326533215, 0.6926418060509967, 0.655033399362669, 0.6108493861378338, 0.5637047884873212, 0.5162075083333247, 0.47014678122487497, 0.42667269665334984, 0.38643967393356654, 0.3497111749562228, 0.31643178526551263])","array('d', [0.03298613429069509, 0.023397181061007362, 0.016673876678054093, 0.011948524003797317, 0.008618819766915328, 0.0062668716078290295, 0.0046024451836076665, 0.003423509170726799, 0.00258907741621107, 0.0020003734375109517, 0.0015876256826220338, 0.001300760886687029, 0.001102837662509674, 0.0009654343358548981, 0.0008654672839163066, 0.0007831071710715258])","array('d', [1.6919984454896786, 1.6586718976056176, 1.6248192681888254, 1.5904845291261502, 1.555708438530094, 1.5210516715032814, 1.4876217244868157, 1.4563018967416832, 1.4275292812193996, 1.4014256350811185, 1.3779214468591643, 1.35684548480038, 1.3379811514985958, 1.3210995418327838, 1.3059784541754895, 1.2924137354181033])",-262.565887557082,-274.23674208614705,-50.362794742282226,0.7189314326533215,0.0062668716078290295,1.5210516715032814,25.000000248431277,-1.0,[],[],[],10000000000.0,0.020586013793945312
22,-273.79345703125,-272.2364196777344,50.25431823730469,0.7067961692810056,-0.034080717712640776,1.66718860814837,23.294361748254286,"array('d', [-274.57293701171875, -272.0866209976469, -269.5927951156964, -267.09449478226094, -264.5947616690815, -262.09667102633006, -259.6031574324819, -257.1166903558786, -254.639094210113, -252.17154761401403, -249.71467854699839, -247.268689320207, -244.833475866953, -242.40872738913978, -239.9940033656367, -237.58879323694705])","array('d', [-273.7886962890625, -274.03880791385563, -274.20513649886163, -274.28620648530296, -274.2807657976494, -274.1882208862099, -274.01040073236453, -273.7518117933042, -273.4186020605596, -273.0175716417398, -272.5555260416454, -272.0389101021916, -271.4736306463164, -270.8649931775421, -270.2177038434169, -269.53590949995476])","array('d', [-50.177730560302734, -50.248774951329196, -50.29921713926095, -50.3352095028402, -50.36104246548346, -50.37971464497724, -50.393328552861185, -50.40336421528433, -50.410868249197065, -50.4165845726491, -50.42104447056897, -50.42462812340111, -50.427606029478426, -50.43016627763779, -50.43243196077764, -50.43447193076031])","array('d', [0.7010443210601804, 0.7090716444911809, 0.7163350677333126, 0.7229072854021825, 0.7288540739544227, 0.7192740957208136, 0.6927086256972241, 0.654921798496154, 0.6106342342688468, 0.5634393743794118, 0.515927091671298, 0.4698727118836358, 0.426416201576087, 0.38620507463303755, 0.34949858559829816, 0.31623942644236464])","array('d', [0.03336457908153544, 0.023641019460888677, 0.016829182556666235, 0.012045531264950147, 0.008677403346184415, 0.006300140010518615, 0.0046190846579599884, 0.0034293149673557243, 0.002587956825131726, 0.001994997682615051, 0.0015798480586231138, 0.001291879066757396, 0.0010937515012453842, 0.0009567331055250119, 0.0008574695516181894, 0.000775870522974327])","array('d', [1.6877082745220997, 1.654311300321408, 1.620394100943667, 1.5860002249637648, 1.551170027715562, 1.5164758348893763, 1.483032104327987, 1.451713752979296, 1.4229510146155016, 1.3968609799302176, 1.3733713474083722, 1.35230940252682, 1.3334578814661031, 1.3165876854960574, 1.3014766690561006, 1.2879208394022783])",-262.09667102633006,-274.1882208862099,-50.37971464497724,0.7192740957208136,0.006300140010518615,1.5164758348893763,25.000000248439232,-1.0,[],[],[],10000000000.0,0.018976449966430664
23,-273.7731018066406,-270.83502197265625,50.30000686645508,0.7090075016021725,-0.033744134008884395,1.6558509478953218,23.302409420185516,"array('d', [-273.6382141113281, -271.149903457505, -268.65475367487693, -266.15584760714813, -263.6562641667935, -261.1591039249071, -258.66729374782824, -256.18326095036156, -253.7087686379665, -251.24492788083512, -248.79230051560918, -246.351027812697, -243.920951101399, -241.50171152364658, -239.09282658162138, -236.69374913290926])","array('d', [-273.7965393066406, -274.02557206484335, -274.17041667437985, -274.2296498433339, -274.2020719974966, -274.0871617510875, -273.8868880075226, -273.6058759606144, -273.2503480039824, -272.8271441007588, -272.3430863227925, -271.80462189973883, -271.2176521868949, -270.5874734075083, -269.9187810463406, -269.2157112857592])","array('d', [-50.20839309692383, -50.280623501989815, -50.33179980531637, -50.36823342429232, -50.39431800076914, -50.41311922406281, -50.42678331889302, -50.436818945176654, -50.44429163797973, -50.449957982536, -50.454357890460905, -50.45787751057993, -50.460791484905464, -50.46329068863547, -50.46549986563989, -50.46748844471703])","array('d', [0.7032943964004512, 0.7111075970363473, 0.7181772739432708, 0.7245741826601158, 0.7303623450314689, 0.7200094343797891, 0.692897279158462, 0.6547550195250263, 0.6102592118281706, 0.5629610761152782, 0.5154151593821079, 0.46936948658204347, 0.4259441198661019, 0.385772968730388, 0.3491069792116764, 0.31588508629851547])","array('d', [0.033951193094253554, 0.02400729639163197, 0.01705270521128491, 0.01217659381381989, 0.008748641161778242, 0.006332784094781357, 0.004627003241567009, 0.003421627819175809, 0.002570730115537428, 0.0019723319074678104, 0.0015545654174348648, 0.0012659463310007643, 0.001068526985924257, 0.0009330955786347191, 0.0008358681852341027, 0.0007563247966223803])","array('d', [1.6793087879803512, 1.6457666800943138, 1.611716445015083, 1.5772007522710103, 1.5422591214953594, 1.5074867903204783, 1.4740119139598273, 1.4426929344054096, 1.4139465747365927, 1.3878807010451235, 1.364417464144659, 1.343381171831668, 1.3245531945417233, 1.307704006882753, 1.2926115368804152, 1.279072078391339])",-261.1591039249071,-274.0871617510875,-50.41311922406281,0.7200094343797891,0.006332784094781357,1.5074867903204783,25.000000248454505,-1.0,[],[],[],10000000000.0,0.03448486328125
24,-273.74993896484375,-269.89447021484375,50.32855224609375,0.7103155255317685,-0.033428780734539025,1.6485328088190891,23.309881587638976,"array('d', [-273.1708984375, -270.6816559769022, -268.1859130189166, -265.6867747234746, -263.18733802751456, -260.690715811429, -258.1998304422733, -255.71708768014713, -253.24421974827925, -250.78230387533097, -248.3318688478062, -245.89302547764248, -243.4655878668143, -241.04917319982778, -238.6432780537999, -236.24733704574018])","array('d', [-273.7974853515625, -274.01603817276185, -274.15019341155266, -274.1985551028921, -274.1599508668383, -274.0338962075131, -273.82243065812645, -273.5302393304061, -273.1635822903817, -272.72931983145037, -272.23428264396176, -271.6849194224506, -271.08712900335746, -270.4462031388993, -269.7668321157945, -269.05314688569933])","array('d', [-50.22392272949219, -50.296492219976514, -50.34785416945244, -50.38437798850838, -50.41049386827086, -50.429290484047215, -50.44292850897738, -50.45292570161594, -50.46035336718861, -50.46597180638978, -50.47032337946757, -50.47379589018972, -50.476665110667795, -50.479122656199856, -50.4812936669013, -50.48324761268159])","array('d', [0.704472184181213, 0.7121733035871525, 0.719141565193861, 0.7254467095427214, 0.7311518400326644, 0.7204105138002149, 0.6930227015552543, 0.6547002297851234, 0.610097786405952, 0.5627455994521151, 0.5151806210723157, 0.4691372527902191, 0.4257256046174691, 0.3855727696928487, 0.3489255206288132, 0.3157208957680467])","array('d', [0.03412549942731863, 0.024105644176811127, 0.01710369701741273, 0.012198259397520414, 0.00875231975086624, 0.006325600620795454, 0.0046134369700176914, 0.003404506238820954, 0.0025518589383844363, 0.0019528882529331643, 0.0015353375356005436, 0.0012474740536898296, 0.0010511774323019305, 0.0009170960369090466, 0.0008213106181061343, 0.0007431525639789945])","array('d', [1.6751369471338131, 1.6415186578827061, 1.607398607561307, 1.5728190006500005, 1.5378189150508328, 1.5030050438864138, 1.4695123971767445, 1.438191185850218, 1.4094513645594153, 1.3833961596000905, 1.359944913869263, 1.3389204123459875, 1.3201033125020627, 1.303263850723863, 1.2881799720100586, 1.2746480979941317])",-260.690715811429,-274.0338962075131,-50.429290484047215,0.7204105138002149,0.006325600620795454,1.5030050438864138,25.000000248461966,-1.0,[],[],[],10000000000.0,0.026865005493164062
