,x_pos,y_pos,z_pos,roll,pitch,yaw,vel,x_traj,y_traj,z_traj,roll_traj,pitch_traj,yaw_traj,x_cmd,y_cmd,z_cmd,roll_cmd,pitch_cmd,yaw_cmd,vel_cmd,effector_dmg,effector_x,effector_y,effector_z,cost,time_solution
0,-273.9541320800781,-270.2255859375,49.926025390625,0.6280435919761657,0.04098673537373543,1.6154881055143218,23.066593332452204,"array('d', [-270.2255859375, -267.72834808310245, -265.22920134661797, -262.7307576408665, -260.2356006679491, -257.74628881239533, -255.26508547283498, -252.79373678852278, -250.33341078048846, -247.8847434767928, -245.44793624074356, -243.02286433608438, -240.6091758791883, -238.20637319778504, -235.81387516144548, -233.43106555353842])","array('d', [-273.9541320800781, -274.0297968806702, -274.032036022455, -273.9587168914806, -273.80804882807473, -273.57933829450536, -273.2745614977071, -272.8978988172121, -272.4547709538704, -271.95109512533867, -271.3927910007651, -270.78548964081693, -270.13438290813417, -269.4441619720426, -268.7190101228255, -267.9626300658856])","array('d', [-49.926025390625, -49.83904986958759, -49.77772394989712, -49.73416592854395, -49.70297041146129, -49.6804140839218, -49.66391925928313, -49.65169146482095, -49.64247391647425, -49.63538075339091, -49.629783903872124, -49.62523675425943, -49.621423193513294, -49.61812417506305, -49.61519628494684, -49.612558315784014])","array('d', [0.6280435919761657, 0.6430178472752677, 0.6565671149686741, 0.6688270003535565, 0.6767692150642184, 0.6648441427780758, 0.6385875018709606, 0.6028900246790426, 0.56173498302369, 0.5181760689779775, 0.4744441109854145, 0.4320930428224706, 0.3921371778540652, 0.35516204156549686, 0.3214065865835055, 0.29082073228421595])","array('d', [-0.04098673537373543, -0.028811268431545658, -0.020394935408654016, -0.01455078655893251, -0.010474295916279816, -0.007618654724918729, -0.005610797879013884, -0.0041950941760116696, -0.0031956344230805642, -0.002490664028881627, -0.0019950865472540638, -0.0016484182485428378, -0.0014064677254876565, -0.0012355982216558372, -0.0011088291465268824, -0.0010033102747826648])","array('d', [1.6154881055143218, 1.5865354900553155, 1.5567101985598957, 1.5260788296773988, 1.4948071446416056, 1.4636732928404426, 1.4337473570144832, 1.4057029140669193, 1.3798782708939723, 1.356373324259926, 1.3351381522408559, 1.316038232554128, 1.298897383590084, 1.2835245746681385, 1.2697305773176841, 1.2573387881100067])",-257.74628881239533,-273.57933829450536,-49.6804140839218,0.6648441427780758,-0.007618654724918729,1.4636732928404426,25.000000248540744,-1.0,[],[],[],10000000000.0,0.020084619522094727
1,-273.7226257324219,-264.1607666015625,49.9123420715332,0.6413722038269041,0.021438479423522946,1.5637741624985375,23.154853185342986,"array('d', [-264.1607666015625, -261.6618685565404, -259.1655411867113, -256.6743236699475, -254.19082789716313, -251.71755504136593, -249.25654410648218, -246.8092041649688, -244.37632120684933, -241.9581502678367, -239.55453749360117, -237.16503890726406, -234.7890213569968, -232.42574184765405, -230.07440617026074, -227.73421313516062])","array('d', [-273.7226257324219, -273.6681008921732, -273.538283375223, -273.3313400846818, -273.04590366644237, -272.68219465276815, -272.242996908063, -271.7330086529224, -271.15792548728666, -270.52376688108154, -269.83644602552255, -269.10152622197154, -268.32410188033253, -267.5087566206117, -266.6595674287153, -265.78013795627436])","array('d', [-49.9123420715332, -49.867025148598806, -49.835382740569905, -49.81312996019786, -49.79735658106279, -49.786076022905135, -49.77792452248054, -49.7719600413266, -49.76752735097276, -49.764167302998594, -49.76155588601614, -49.75946351095049, -49.757728108315966, -49.756237681663336, -49.754919300763014, -49.75373236658953])","array('d', [0.6413722038269041, 0.6550780750940646, 0.6674796613409532, 0.6787010814362784, 0.68071214146537, 0.6644836345294154, 0.6353554564381881, 0.5979355751173983, 0.5559128362372685, 0.512079934239587, 0.46845688462129026, 0.4264373896480574, 0.38692002433321077, 0.35041189127342137, 0.3171047742765184, 0.2869282911909514])","array('d', [-0.021438479423522946, -0.014925753943739805, -0.01046331171430898, -0.007390416551491423, -0.0052638481416426115, -0.003785294956704605, -0.0027531356372747623, -0.002030508725422904, -0.0015240934341005817, -0.0011698551420742827, -0.0009233903322371852, -0.0007533465697461195, -0.000636917898550441, -0.0005567606651014095, -0.0004989091721804383, -0.00045143181015236004])","array('d', [1.5637741624985375, 1.5340456938054237, 1.5035036995002091, 1.472211233116555, 1.4404972916868297, 1.4092505245688263, 1.3794367843904776, 1.3516347402930948, 1.3261122896021884, 1.3029240815212646, 1.2819944573129103, 1.2631762693863422, 1.2462887789981085, 1.2311410089805002, 1.2175461372234293, 1.2053308206716926])",-251.71755504136593,-272.68219465276815,-49.786076022905135,0.6644836345294154,-0.003785294956704605,1.4092505245688263,25.00000024861338,-1.0,[],[],[],10000000000.0,0.018099546432495117
2,-273.12213134765625,-258.6037292480469,49.98151779174805,0.6636576652526853,-0.021436620503663927,1.5178293446686602,23.228778220221436,"array('d', [-258.6037292480469, -256.1100946201502, -253.62285247179975, -251.14479306249774, -248.67871683271295, -246.22711035832177, -243.79180320108145, -241.37388335611575, -238.97377331173993, -236.59136632792038, -234.22617140868334, -231.8774412208165, -229.54427461907312, -227.2256939060577, -224.9206999183459, -222.62831234683614])","array('d', [-273.12213134765625, -272.9512113884921, -272.70201964351946, -272.37311529322983, -271.96364677651565, -271.47480089968303, -270.91023153694925, -270.2752355418404, -269.5758712056193, -268.8183457153555, -268.00864330021017, -267.15232680877386, -266.2544502228299, -265.31953737964227, -264.3515988740006, -263.35417275496684])","array('d', [-49.98151779174805, -50.026775941226255, -50.05830849904995, -50.08047757229599, -50.096223208746466, -50.107537455891794, -50.11577792308338, -50.121875753447284, -50.126474107184514, -50.130020590584195, -50.13282891687702, -50.13511988911487, -50.13704842390003, -50.13872113229428, -50.140207546965776, -50.141547177893486])","array('d', [0.6636576652526853, 0.6752427962900492, 0.6857254572362339, 0.6952105615825488, 0.6912237838123773, 0.670454174085807, 0.6380986310138421, 0.5985333098646427, 0.555193939250435, 0.5106410894969082, 0.4667015276537494, 0.4246177554856312, 0.38517595765418483, 0.3488047573546291, 0.31564691818304513, 0.2856091683279931])","array('d', [0.021436620503663927, 0.014881297752833403, 0.01041986382311924, 0.007366569010740154, 0.005265082615685915, 0.003810610208008521, 0.0027986570933318787, 0.0020914103723406754, 0.0015955466867712306, 0.001247447950903646, 0.0010032866361283795, 0.0008323430738001764, 0.0007124843748369244, 0.0006271066973737299, 0.0005630929750361814, 0.0005095075574485422])","array('d', [1.5178293446686602, 1.486769655632741, 1.4550001886249222, 1.4225774799372177, 1.3899806226191773, 1.3582036211118347, 1.3281201824798803, 1.3002200266939163, 1.2747012306385201, 1.2515702681861676, 1.2307211619268288, 1.2119892039727571, 1.195184513547318, 1.180112216045749, 1.1665846266649353, 1.1544290127895778])",-246.22711035832177,-271.47480089968303,-50.107537455891794,0.670454174085807,0.003810610208008521,1.3582036211118347,25.000000248671903,-1.0,[],[],[],10000000000.0,0.024788379669189453
3,-272.0910339355469,-252.67742919921875,50.21135711669922,0.6688971519470212,-0.03704974055290218,1.4632382402804236,23.22374459778317,"array('d', [-252.67742919921875, -250.19769246113532, -247.7283089152212, -245.2724137478744, -242.83295026699074, -240.41220862764004, -238.01162845668676, -235.63184996913535, -233.27285725727916, -230.9341463711024, -228.61488025538705, -226.31401567878075, -224.03040031655763, -221.76284338781448, -219.51016438226983, -217.27122739776095])","array('d', [-272.0910339355469, -271.7840026442477, -271.3983689539513, -270.9329311680728, -270.3872344755183, -269.76341012424433, -269.0658515893446, -268.30022977359886, -267.4727140713483, -266.5894588747482, -265.6563061687214, -264.67863606691117, -263.66130891638375, -262.60866068579577, -261.52452835065463, -260.41229391516873])","array('d', [-50.21135711669922, -50.28916847222455, -50.34268865569534, -50.379776163802525, -50.4056819964302, -50.42393511992837, -50.436922582410986, -50.44627079014781, -50.45309711631528, -50.45817624752816, -50.46205006066704, -50.46509986175691, -50.467593381306884, -50.46971475766646, -50.47158308444344, -50.47326345188135])","array('d', [0.6688971519470212, 0.6799836803169378, 0.6900151868379355, 0.699092065007752, 0.6888176755040141, 0.663769562168973, 0.6288005589047592, 0.5878928704653579, 0.5441168529414049, 0.4997308666990346, 0.4563282837298375, 0.414979671638766, 0.3763500325001813, 0.34078779093278055, 0.30838899429485744, 0.27904192662191296])","array('d', [0.03704974055290218, 0.02540402607933148, 0.01754658015407543, 0.012213515948319625, 0.008572275524637527, 0.006072065185233645, 0.004346734677199405, 0.0031517834790402927, 0.0023231082961823147, 0.0017497640094714458, 0.001355858853594573, 0.0010884436251497234, 0.0009093598033368384, 0.0007897370186246352, 0.0007063161542987053, 0.0006391012608622646])","array('d', [1.4632382402804236, 1.4318590986866866, 1.3997955169242648, 1.3671023784717602, 1.334459635985492, 1.302978350807307, 1.2733905055253583, 1.246075580228429, 1.2211590830501802, 1.198605783982885, 1.1782891412194283, 1.1600369089049585, 1.143659101240861, 1.1289646296865283, 1.1157712957486547, 1.1039121550098916])",-240.41220862764004,-269.76341012424433,-50.42393511992837,0.663769562168973,0.006072065185233645,1.302978350807307,25.000000248729368,-1.0,[],[],[],10000000000.0,0.020700931549072266
4,-270.8774108886719,-247.27842712402344,50.45564651489258,0.6678960323333737,-0.03482739254832259,1.425367043414388,23.212806627765506,"array('d', [-247.27842712402344, -244.8119312861996, -242.35879487187407, -239.9221279553938, -237.50470218397055, -235.10850463010482, -232.73462973019784, -230.38338646720715, -228.05446672571503, -225.74711994818674, -223.4603053246499, -221.1928125690427, -218.94335237463983, -216.7106211118526, -214.49334462874097, -212.29030862028813])","array('d', [-270.8774108886719, -270.47676409507704, -269.9981153136601, -269.44049181526844, -268.8041226919921, -268.09174578954395, -267.30806339893525, -266.458813444636, -265.55007991134437, -264.58785071956936, -263.5777678127889, -262.5250057927249, -261.4342291187095, -260.30959467150893, -259.1547797017222, -257.97302583736655])","array('d', [-50.45564651489258, -50.52848122224866, -50.578024894618125, -50.61190100122855, -50.635174409462536, -50.65123124413737, -50.6623513904866, -50.67008243809923, -50.675484883613244, -50.67929318265127, -50.68202139269775, -50.684032059009205, -50.68558051252767, -50.686842595013154, -50.687931212711725, -50.688905535935874])","array('d', [0.6678960323333737, 0.6790778297327333, 0.6891955391913035, 0.6937830185130691, 0.6798385808782504, 0.6525597807261498, 0.6164874993504025, 0.57529345178429, 0.5317827134429329, 0.48800625579402285, 0.445404100330163, 0.4049379957499173, 0.36719898926687655, 0.33248857270159166, 0.30087718274500885, 0.27224495783877656])","array('d', [0.03482739254832259, 0.023635625886430037, 0.016127254707543944, 0.011059036895748177, 0.007617381363279436, 0.005267380239572589, 0.0036556538613984183, 0.0025476775937717257, 0.001786972321906674, 0.001268320240442893, 0.0009200579282656179, 0.0006922751521799501, 0.0005488798498368133, 0.0004622316365952471, 0.0004095415176241152, 0.00037056844061214746])","array('d', [1.425367043414388, 1.394049136584564, 1.3620419191054236, 1.3295547357805926, 1.2973851425726026, 1.2665504548040054, 1.237680570796277, 1.2110852766878877, 1.1868499577026812, 1.1649203438247242, 1.1451638563011977, 1.127409430797674, 1.111471861896993, 1.097166327120837, 1.0843171735535893, 1.0727635707919474])",-235.10850463010482,-268.09174578954395,-50.65123124413737,0.6525597807261498,0.005267380239572589,1.2665504548040054,25.000000248762483,-1.0,[],[],[],10000000000.0,0.024686574935913086
5,-269.3373107910156,-241.48538208007812,50.6993408203125,0.6608152985572813,-0.030803110450506193,1.3847581307080126,23.2136769831894,"array('d', [-241.48538208007812, -239.03683637006037, -236.60466893329163, -234.1918804886595, -231.80094298764004, -229.4334536203063, -227.09012216395334, -224.7709169341559, -222.4752460657562, -220.20213017368647, -217.95034653580663, -215.71854074653962, -213.50530896787515, -211.3092559100905, -209.129033377885, -206.96336907933957])","array('d', [-269.3373107910156, -268.83734578980244, -268.2610068332419, -267.6074982665157, -266.87775647421734, -266.0750380214967, -265.2042245112025, -264.27099830517284, -263.28125241249234, -262.24072100744115, -261.1547748430555, -260.0283250540742, -258.8657927474613, -257.67111651937455, -256.4477812183578, -255.19886200182637])","array('d', [-50.6993408203125, -50.76344089586642, -50.80646477151901, -50.83539302545742, -50.85483617959735, -50.86786046975986, -50.87652119742195, -50.882208791642476, -50.88587420614693, -50.88817595507814, -50.889575857838544, -50.890400905203684, -50.89088249925035, -50.89118041523299, -50.891396414724625, -50.89158101340949])","array('d', [0.6608152985572813, 0.6726709160356906, 0.6833983224790767, 0.6827396794433686, 0.665405903933633, 0.6362723974580634, 0.5995069903903955, 0.5584354026728253, 0.5155792645739611, 0.47277411489478816, 0.43130404794145955, 0.39202223959102467, 0.35544741415837594, 0.32183636499714113, 0.2912363120470301, 0.263521536493214])","array('d', [0.030803110450506193, 0.020652130113763656, 0.013881680048844835, 0.009337269221188911, 0.006268608265476364, 0.004185621163928815, 0.002766646661722404, 0.001799565611156645, 0.0011437080767728728, 0.0007050096878739723, 0.00041967256328941983, 0.0002433074564286205, 0.00014363058838446927, 9.550502626472224e-05, 7.75933678491456e-05, 7.020916220574588e-05])","array('d', [1.3847581307080126, 1.353870687272411, 1.3222598762237219, 1.2903286851947038, 1.2589876631157626, 1.22911696218077, 1.2012413591856552, 1.175604225280007, 1.1522560815557676, 1.131128830021181, 1.112088350833614, 1.0949684488887605, 1.0795916747880798, 1.0657818681478668, 1.0533718593475916, 1.0422084991688798])",-229.4334536203063,-266.0750380214967,-50.86786046975986,0.6362723974580634,0.004185621163928815,1.22911696218077,25.00000024667475,-1.0,[],[],[],10000000000.0,0.016839265823364258
6,-267.7095031738281,-236.1879119873047,50.91290283203125,0.6486015319824217,-0.02733678556978705,1.3452538261797766,23.21807321204407,"array('d', [-236.1879119873047, -233.760618849673, -231.35229915557682, -228.96582541994968, -226.60332868172827, -224.26600543950556, -221.95420088680402, -219.66757856833124, -217.40530420419827, -215.1662106737074, -212.9489316074523, -210.75200300896475, -208.57393719235125, -206.41327428120374, -204.26861586297363, -202.13864768666653])","array('d', [-267.7095031738281, -267.1140810422908, -266.44469613400383, -265.700640478621, -264.88341102713537, -263.99663165757534, -263.04524227834537, -262.0347836109846, -260.9709001522284, -259.85903477755954, -258.704262468076, -257.5112144537313, -256.2840571154037, -255.0265025494558, -253.74183698162082, -252.43296135138317])","array('d', [-50.91290283203125, -50.96949649755866, -51.00694572975471, -51.03165989052229, -51.04784925278944, -51.05830059616413, -51.064874630443974, -51.06882669349918, -51.071014310043495, -51.07203173233276, -51.07229694436439, -51.07210737734395, -51.07167474143906, -51.07114571439301, -51.07061299274846, -51.07011993236597])","array('d', [0.6486015319824217, 0.6616194421982123, 0.6733985340615645, 0.6681001599211185, 0.6479391069687053, 0.6174298206033753, 0.5803599842815912, 0.5397193870225048, 0.4977618923576338, 0.4561228861449206, 0.4159432487308436, 0.3779774189243136, 0.34267910066102636, 0.3102656143589182, 0.28076448972321033, 0.25404623896692463])","array('d', [0.02733678556978705, 0.01809632567440177, 0.01196648550509929, 0.007873458690463632, 0.005123992200727329, 0.003268068482118036, 0.0020121170693665775, 0.0011636882381567144, 0.0005958774417349613, 0.00022425973220552913, -8.21201642850793e-06, -0.00014122271535041206, -0.00020384140252910663, -0.00021912526800738267, -0.00020725014742573833, -0.00018752778747944477])","array('d', [1.3452538261797766, 1.3150982858641624, 1.2841621864628723, 1.253028950762498, 1.2227078129146982, 1.1939476040211334, 1.1671789560402956, 1.142589077801913, 1.1202011522327018, 1.0999381785596327, 1.081667557939673, 1.0652298458671827, 1.050456522558325, 1.0371808486585659, 1.0252446576955299, 1.0145028957629285])",-224.26600543950556,-263.99663165757534,-51.05830059616413,0.6174298206033753,0.003268068482118036,1.1939476040211334,25.000000248820626,-1.0,[],[],[],10000000000.0,0.019234895706176758
7,-265.6944274902344,-230.45643615722656,51.139137268066406,0.6310439109802244,-0.025430437177419673,1.3026603619244437,23.244635416539612,"array('d', [-230.45643615722656, -228.05623855468318, -225.67734882159908, -223.32233262944695, -220.99287812814796, -218.68975165506683, -216.41293942289258, -214.16182635085966, -211.9353717717606, -209.73226025838676, -207.55102110256348, -205.3901181571672, -203.2480146970007, -201.12321819652905, -199.0143091249051, -196.91996018670227])","array('d', [-265.6944274902344, -264.9974140113814, -264.2297952531588, -263.3913785511787, -262.4841800226289, -261.5119939138886, -260.4796343094064, -259.39234346620725, -258.2553890416433, -257.0738189016767, -255.85232835569846, -254.59520038390517, -253.30629044567812, -251.98903745859153, -250.64648984935224, -249.28134254808214])","array('d', [-51.139137268066406, -51.19149861169323, -51.22562332648953, -51.24768138036639, -51.26170351238187, -51.27034502243955, -51.27537216511282, -51.27797360656776, -51.2789606738849, -51.27889631906932, -51.278177936469305, -51.27708991259874, -51.275835981240974, -51.27455785622471, -51.27334445393114, -51.272234819304785])","array('d', [0.6310439109802244, 0.6457326481904261, 0.6538851414089145, 0.6445160970602835, 0.6222146861471969, 0.5910456449248277, 0.5543661358705032, 0.5148059659581455, 0.47434230914873676, 0.43440931023897106, 0.3960073107058724, 0.3597963187399614, 0.3261698471239367, 0.2953104978997612, 0.2672304451963795, 0.24180012795254768])","array('d', [0.025430437177419673, 0.016608996504607808, 0.010788754901993592, 0.006922426124302182, 0.0043384472505238235, 0.0026037141690907714, 0.0014374583392576755, 0.0006567195112930358, 0.00014152877139517818, -0.00018752337845513272, -0.0003839066408076274, -0.0004848288907693132, -0.0005177667584240946, -0.0005049471457725263, -0.00046641746964140124, -0.000422032099340405])","array('d', [1.3026603619244437, 1.2735343774650298, 1.2437113172976588, 1.2139348502905387, 1.1851310176364407, 1.1579136389359979, 1.1326249321337534, 1.1094045357592126, 1.0882566159101181, 1.069102331041821, 1.051816328766144, 1.036250501452201, 1.022248937443374, 1.0096572878184986, 0.99832880793886, 0.9881285204900018])",-218.68975165506683,-261.5119939138886,-51.27034502243955,0.5910456449248277,0.0026037141690907714,1.1579136389359979,25.000000248845982,-1.0,[],[],[],10000000000.0,0.017503976821899414
8,-263.61944580078125,-225.21812438964844,51.34147262573242,0.6128375530242919,-0.02087975293397915,1.2643533209946496,23.287746027405447,"array('d', [-225.21812438964844, -222.84578308616923, -220.49658243745574, -218.172685051044, -215.87534632451292, -213.60496469384083, -211.36123861175946, -209.14334155212433, -206.9500847502197, -204.78005325611755, -202.6317123543833, -200.50348708264076, -198.39381937757605, -196.30120726057064, -194.22422966761604, -192.1615630239182])","array('d', [-263.61944580078125, -262.83221177238477, -261.9777656923228, -261.05646869829394, -260.0707002415961, -259.02428338285773, -257.921837075211, -256.7682856109432, -255.56852905488572, -254.32724340039724, -253.04877240304359, -251.73707914356083, -250.39573449342387, -249.02792763132052, -247.6364895660074, -246.22392678342757])","array('d', [-51.34147262573242, -51.38412833005696, -51.41129300063459, -51.4282586274405, -51.438466637101975, -51.44417571840581, -51.44688450969591, -51.44760067412799, -51.44701291748008, -51.445601121509476, -51.44370655810296, -51.44157593359115, -51.439387904972705, -51.437267579696694, -51.43529267107939, -51.43349400959468])","array('d', [0.6128375530242919, 0.6292588523833539, 0.6323574834635493, 0.6199542092063156, 0.5962591345088866, 0.5649249864895662, 0.5289346587215776, 0.4906133464995324, 0.45170727967560476, 0.41348380003046825, 0.3768272702212047, 0.3423201577419711, 0.3103070026782301, 0.28094275175890127, 0.2542281809936258, 0.23003519171714742])","array('d', [0.02087975293397915, 0.013371794558399383, 0.00844261995129363, 0.005184346081214333, 0.00301822114566162, 0.0015731548065777451, 0.0006099469379267393, -2.639984868206747e-05, -0.0004369565689213824, -0.0006882875579675378, -0.0008250813063363909, -0.0008785269136087196, -0.0008720049860788793, -0.0008250389092848125, -0.0007560391867670227, -0.0006840926897462207])","array('d', [1.2643533209946496, 1.2362683061468287, 1.2076076541826233, 1.1792332091861337, 1.151927680732795, 1.1261972959734012, 1.1023170914189142, 1.0803924193730516, 1.060415372792931, 1.042308154711475, 1.0259532935084055, 1.0112135520575152, 0.9979447079502303, 0.9860037680192298, 0.9752544242626086, 0.9655709195091384])",-213.60496469384083,-259.02428338285773,-51.44417571840581,0.5649249864895662,0.0015731548065777451,1.1261972959734012,25.00000024886627,-1.0,[],[],[],10000000000.0,0.017972230911254883
9,-261.1602478027344,-219.61837768554688,51.556297302246094,0.5855841040611265,-0.01757455989718432,1.2259873608734944,23.33120508698239,"array('d', [-219.61837768554688, -217.27717653823737, -214.96017093400218, -212.66910812949308, -210.40484251031742, -208.1674596242405, -205.95643426829622, -203.77079263188998, -201.60925767565354, -199.47036886019586, -197.35257536904666, -195.2543057582257, -193.17401803186303, -191.11023389363356, -189.06156021190128, -187.02670368119507])","array('d', [-261.1602478027344, -260.28439176182656, -259.34598227974914, -258.345738304031, -257.2861587263159, -256.17089811310075, -255.00423282495223, -253.79066292901146, -252.53464482292392, -251.24042748912336, -249.9119622582587, -248.5528611873898, -247.16638617199058, -245.7554569889798, -244.3226709431205, -242.8703324339275])","array('d', [-51.556297302246094, -51.59186275748724, -51.61386490510874, -51.62697923882512, -51.63423367664762, -51.637609231863784, -51.63841791721924, -51.63754195603156, -51.63558588748741, -51.63297340395265, -51.63000863408044, -51.62691409897078, -51.623852954903526, -51.62094034340321, -51.61824706581468, -51.615798002885796])","array('d', [0.5855841040611265, 0.6026294770684758, 0.6019563652234928, 0.5877061514896293, 0.5636574859050154, 0.5330401009995553, 0.4984749997737512, 0.46200422526076323, 0.4251656370298644, 0.38908007946556117, 0.3545330029449128, 0.3220431909015332, 0.29191718496462205, 0.26429070681103434, 0.23915927803923315, 0.21640028324033195])","array('d', [0.01757455989718432, 0.010988681187619224, 0.006685070448165345, 0.0038536812794826643, 0.0019811160377516215, 0.0007400328431019403, -7.941452153025284e-05, -0.0006124621483245879, -0.0009468151642786479, -0.001139950150238776, -0.0012303580961798527, -0.0012450259108790743, -0.0012045649010671124, -0.0011268217151816325, -0.0010294255151060993, -0.0009314628915555564])","array('d', [1.2259873608734944, 1.1994708940540066, 1.1724933950949423, 1.145950712336429, 1.1204928343885983, 1.096534822205535, 1.0743000191701642, 1.053871579599749, 1.0352381928838703, 1.0183291427871082, 1.0030390474653104, 0.9892445267119447, 0.9768152171643962, 0.9656211000521648, 0.9555375501029988, 0.9464490319558707])",-208.1674596242405,-256.17089811310075,-51.637609231863784,0.5330401009995553,0.0007400328431019403,1.096534822205535,25.00000024888368,-1.0,[],[],[],10000000000.0,0.024053096771240234
10,-258.72515869140625,-214.5571746826172,51.76694107055664,0.557184040546417,-0.01592009142041205,1.1906849900868275,23.34986623766846,"array('d', [-214.5571746826172, -212.24749256545488, -209.96231242913476, -207.70298758681412, -205.4700561051794, -203.26337587694425, -201.0822754081944, -198.92570004407642, -196.79234013093438, -194.68073586235508, -192.58935899737685, -190.5166741611512, -188.4611830905108, -186.42145492533567, -184.39614506189233, -182.3840081157029])","array('d', [-258.72515869140625, -257.76912072104375, -256.75558866217165, -255.68553520441617, -254.5613922623687, -253.38652937467592, -252.16481755191646, -250.90030505140308, -249.59699743243488, -248.25872013484062, -246.8890403630834, -245.4912290723208, -244.06824906208524, -242.62275974773698, -241.15713261188404, -239.67347638097803])","array('d', [-51.76694107055664, -51.79887651722556, -51.81808821726254, -51.82899480686764, -51.83444779785814, -51.8363079652207, -51.83580603102857, -51.8337698423184, -51.830768156011345, -51.82720174008641, -51.82336066191361, -51.819459374479116, -51.8156567715355, -51.81206572390567, -51.80875511350496, -51.805746680568504])","array('d', [0.557184040546417, 0.5698579977665313, 0.5668333610368028, 0.551869126336239, 0.5283304253510898, 0.49906757279347075, 0.466389364758182, 0.43209966340228917, 0.3975644257679106, 0.3637859280485898, 0.33147145921144827, 0.301091251321835, 0.27292467139383525, 0.24709569429931805, 0.22359937540089167, 0.2023210998369929])","array('d', [0.01592009142041205, 0.009732227497501978, 0.005704484890776121, 0.0030648512833024405, 0.0013265439079838655, 0.00018070506095521342, -0.000569733611111032, -0.0010511859528455098, -0.001345257948077112, -0.0015052074579696537, -0.0015666315825213191, -0.0015546003065466383, -0.0014885844675290507, -0.0013859664698788214, -0.0012645481010803816, -0.0011442106243923337])","array('d', [1.1906849900868275, 1.1658843204562304, 1.140825570008181, 1.116265696115451, 1.092747745867148, 1.07061808532306, 1.0500643283027302, 1.0311573337686457, 1.013887937291607, 0.9981953395515643, 0.9839875382063826, 0.9711554738221855, 0.9595826911606637, 0.9491520060342626, 0.9397502725079027, 0.9312719873341866])",-203.26337587694425,-253.38652937467592,-51.8363079652207,0.49906757279347075,0.00018070506095521342,1.07061808532306,25.00000024889785,-1.0,[],[],[],10000000000.0,0.0210874080657959
11,-255.9287872314453,-209.20034790039062,52.008056640625,0.5221003293991087,-0.011946219950914402,1.1538480679180958,23.35088784553808,"array('d', [-209.20034790039062, -206.9263362831097, -204.6766669191619, -202.4523176595089, -200.2535493686923, -198.08003594011026, -195.93100055801634, -193.80534377760827, -191.7017544738644, -189.61880051840885, -187.55499976504882, -185.50887363153637, -183.47898598530037, -181.4639698211669, -179.46254376571895, -177.4735235522649])","array('d', [-255.9287872314453, -254.89050204875898, -253.8003022078914, -252.65926544348255, -251.4696549827163, -250.2344927427117, -248.95720819150065, -247.64137675575836, -246.2905397244119, -244.90808886679318, -243.49719836258606, -242.0607895626061, -240.6015178360413, -239.121774092068, -237.62369613350347, -236.1091895415187])","array('d', [-52.008056640625, -52.03152607042347, -52.0446663885766, -52.05109802006028, -52.05315044999466, -52.05234145993807, -52.04967547287998, -52.04583058393862, -52.0412763862786, -52.036348190762304, -52.031293227087225, -52.026298315777815, -52.02150480398251, -52.01701438068448, -52.012888212011596, -52.00914136312542])","array('d', [0.5221003293991087, 0.5312405666176448, 0.5266153584949576, 0.5115766964630433, 0.48908039416337623, 0.46161475849492745, 0.4311959529524535, 0.39940624634932576, 0.36745205487228905, 0.3362257484825041, 0.30636241095902783, 0.2782878775274518, 0.25225735461992554, 0.22838537461667152, 0.2066683796137512, 0.18700129993663875])","array('d', [0.011946219950914402, 0.006913574019639001, 0.0036531242921030342, 0.0015276447292824225, 0.00013749006875437994, -0.0007695508912199559, -0.001353497771729523, -0.0017163612941001483, -0.0019235426221925278, -0.00201744974867311, -0.002026375015632594, -0.001970488942364169, -0.0018660648099732907, -0.0017285694244897178, -0.0015749299955683852, -0.0014250558017782865])","array('d', [1.1538480679180958, 1.1310276311304028, 1.1080946964304568, 1.0856804126416901, 1.0642351438580084, 1.044047614936921, 1.025276649959021, 1.0079845174811648, 0.9921659088477198, 0.9777706259614471, 0.9647202993613698, 0.9529203203999927, 0.9422682822560116, 0.9326600286287566, 0.923994140763438, 0.9161754365817347])",-198.08003594011026,-250.2344927427117,-52.05234145993807,0.46161475849492745,-0.0007695508912199559,1.044047614936921,25.000000248911213,-1.0,[],[],[],10000000000.0,0.02529597282409668
12,-253.21278381347656,-204.34591674804688,52.232872009277344,0.4899156987667079,-0.007525795605033672,1.1206617514279222,23.347352213044275,"array('d', [-204.34591674804688, -202.1065892941477, -199.89123552623857, -197.70054256851134, -195.5345651691383, -193.39284654032804, -191.2745410593723, -189.17852753921824, -187.1035066765578, -185.0480806983665, -183.01081593733306, -180.99029028634763, -178.9851277654482, -176.9940222482451, -175.01575203303344, -173.0491905940829])","array('d', [-253.21278381347656, -252.10148956410612, -250.9430724037221, -249.73864730739623, -248.49031356213126, -247.20079848752536, -245.87316798878385, -244.51061045373908, -243.11628612917156, -241.69322862164663, -240.24428504044948, -238.772083531961, -237.27901974320093, -235.76725626629909, -234.23873109239668, -232.6951756867051])","array('d', [-52.232872009277344, -52.24697777428398, -52.25349517647671, -52.25511342982947, -52.253560034332, -52.24996096583244, -52.24506402354003, -52.239378336664345, -52.23326189048784, -52.2269762843909, -52.22072030055596, -52.21464923604374, -52.20888417330033, -52.20351376727855, -52.1985903284116, -52.194121764196055])","array('d', [0.4899156987667079, 0.4963626031919873, 0.4906283952664821, 0.4757181990522274, 0.45425299677894365, 0.4284297196934275, 0.4000293360329774, 0.37045463825321945, 0.34078106458778606, 0.31180916485181626, 0.28411243935597047, 0.2580779173099349, 0.23393898850813188, 0.21180107554804622, 0.19166115423225574, 0.17342219964067684])","array('d', [0.007525795605033672, 0.0038206911951365195, 0.0014330679746767095, -0.00011267894645346652, -0.0011133444767850464, -0.0017552038457344058, -0.002155671876359122, -0.00238898931095324, -0.0025022825096064558, -0.002525815046384282, -0.0024797457237098414, -0.0023787946781765818, -0.002235647541874443, -0.002063551448563646, -0.0018782926445327732, -0.0016995497025935318])","array('d', [1.1206617514279222, 1.0995702953516335, 1.0784659730026838, 1.0578844065136126, 1.0382065777843101, 1.0196778813418468, 1.0024349722348271, 0.9865329191283959, 0.9719686968221045, 0.9586997806453452, 0.946658119453694, 0.9357603625838015, 0.925915305037313, 0.9170293854209918, 0.9090108822223076, 0.9017732618107921])",-193.39284654032804,-247.20079848752536,-52.24996096583244,0.4284297196934275,-0.0017552038457344058,1.0196778813418468,25.000000248922383,-1.0,[],[],[],10000000000.0,0.01781320571899414
13,-250.1266326904297,-199.17184448242188,52.48041534423828,0.4510830342769621,-0.004937042947858646,1.0873758057740075,23.336761756545723,"array('d', [-199.17184448242188, -196.96955665404036, -194.79031882473095, -192.6345974293531, -190.50230305264068, -188.39290195347775, -186.30552542826067, -184.23906917442656, -182.19227841662595, -180.1638176509981, -178.15232575011325, -176.15645802455555, -174.17491703241902, -172.2064737839208, -170.24998071122096, -168.30438143919773])","array('d', [-250.1266326904297, -248.94356027561383, -247.71851951626087, -246.45254878955478, -245.14750504047024, -243.80577160048463, -242.43002158167258, -241.02303959145092, -239.5875951617676, -238.12635775684547, -236.64184320944014, -235.1363830169997, -233.61210992792695, -232.07095509327667, -230.51465354926313, -228.94475908924687])","array('d', [-52.48041534423828, -52.48895654838362, -52.491384022817996, -52.489887530832426, -52.48587230387877, -52.480255377903624, -52.47364868709133, -52.46647305275799, -52.45902942420405, -52.45154313713901, -52.44419058920562, -52.43711389318563, -52.43042678538803, -52.42421378891744, -52.418524050185404, -52.41336121491949])","array('d', [0.4510830342769621, 0.4558845186659011, 0.4499223419336319, 0.43586124221306083, 0.416008425337275, 0.3922951519623059, 0.36629151077321537, 0.3392412016685669, 0.3121047238723066, 0.285603039468136, 0.2602572823622352, 0.23642260406251622, 0.21431577848475378, 0.19403698468985517, 0.17558651983545984, 0.1588772676398415])","array('d', [0.004937042947858646, 0.0019458354645670677, 2.813572248224596e-05, -0.0012047622520398244, -0.0019942505070366344, -0.002491007164907303, -0.0027893742468246573, -0.002948486737683663, -0.0030054741816268613, -0.0029839238639780942, -0.0028995307508615925, -0.0027640929461926816, -0.0025885283916598756, -0.0023852647040874192, -0.00217011923093991, -0.001963605341408518])","array('d', [1.0873758057740075, 1.0682498477705133, 1.0491563973020204, 1.0305494168751939, 1.0127529659018013, 0.9959784298657932, 0.9803464563932461, 0.9659086466517083, 0.9526663896683003, 0.9405860141773408, 0.9296104465759639, 0.9196679872423911, 0.9106788990926457, 0.9025604266686849, 0.8952307382202673, 0.8886121449996086])",-188.39290195347775,-243.80577160048463,-52.480255377903624,0.3922951519623059,-0.002491007164907303,0.9959784298657932,25.00000024893236,-1.0,[],[],[],10000000000.0,0.017201900482177734
14,-247.15359497070312,-194.46572875976562,52.718780517578125,0.41925832629203785,-0.00046858124551364824,1.0592463771489007,23.33941812036652,"array('d', [-194.46572875976562, -192.2966107214529, -190.1496818691982, -188.02525049920348, -185.92312936170535, -183.84273737828065, -181.7831982487768, -179.74342942359058, -177.72221820160402, -175.71828419966343, -173.73032889826447, -171.75707361894203, -169.79728743383774, -167.84980638985755, -165.9135452057226, -163.9875062646528])","array('d', [-247.15359497070312, -245.91070962122367, -244.62988241584037, -243.31208142733365, -241.95897781100044, -240.5726970162351, -239.15561823130568, -237.71022239245352, -236.23898287108267, -234.74429066369504, -233.2284060193333, -231.69342966320966, -230.14128830508974, -228.5737305501491, -226.9923305048276, -225.39850048201282])","array('d', [-52.718780517578125, -52.717872648171415, -52.71363710854309, -52.70729921203711, -52.6996485125879, -52.69120569669958, -52.68232558882169, -52.67326119969844, -52.66420356837672, -52.65530608824462, -52.646698362848134, -52.63849244545699, -52.630783039600075, -52.62364258437401, -52.61711196602218, -52.61118781585097])","array('d', [0.41925832629203785, 0.4228635884178533, 0.41679581857857406, 0.40345711199227713, 0.384916578196682, 0.36290443670714434, 0.33883015242090647, 0.3138146726699469, 0.2887282342823561, 0.2642279242770195, 0.2407917195461119, 0.21874757770974945, 0.19829729457777923, 0.17953545549045719, 0.1624640751339428, 0.14700358758237336])","array('d', [0.00046858124551364824, -0.0011675823904326369, -0.0022035687355759417, -0.0028558722188473406, -0.0032579887695873824, -0.003492366835187414, -0.003609775725203042, -0.0036412267245116508, -0.0036054902691824197, -0.003514034459923103, -0.0033744873244969205, -0.0031932811994696566, -0.002977847082345469, -0.002738517319883138, -0.002490126913236859, -0.0022531602925677774])","array('d', [1.0592463771489007, 1.041671472785588, 1.024158297676687, 1.0071023580587783, 0.9907867469394004, 0.9753977879711629, 0.9610436353851681, 0.947772346876748, 0.9355876043333898, 0.9244615096213146, 0.914344603493135, 0.905173568098538, 0.8968771426309572, 0.8893807333978521, 0.8826101099185572, 0.8764944735540636])",-183.84273737828065,-240.5726970162351,-52.69120569669958,0.36290443670714434,-0.003492366835187414,0.9753977879711629,25.00000024894021,-1.0,[],[],[],10000000000.0,0.02268671989440918
15,-243.80160522460938,-189.4198760986328,52.98122024536133,0.3849716782569883,0.0029870532453059543,1.0305178324368336,23.3483235988498,"array('d', [-189.4198760986328, -187.28631590050745, -185.17382728774407, -183.08259889052246, -181.01237655960145, -178.9625570174026, -176.9322769124172, -174.9204924297581, -172.92604721267574, -170.94772820771286, -168.98431011592064, -167.03458960480972, -165.0974105341328, -163.17168134962546, -161.25638561789603, -159.3505903332477])","array('d', [-243.80160522460938, -242.49863947982408, -241.16178885538127, -239.7919226510839, -238.39051237252048, -236.9594220965358, -235.5007395734538, -234.0166471863064, -232.50932778825108, -230.98089895994784, -229.43336937318762, -227.8686118674129, -226.28834899417498, -224.69414787347526, -223.0874221186221, -221.46944255335086])","array('d', [-52.98122024536133, -52.97295343494349, -52.96342786672785, -52.953149718395444, -52.94245165246489, -52.93156175602133, -52.920646269265646, -52.9098362271547, -52.899243871884586, -52.88897213087163, -52.879118895564154, -52.869776898712104, -52.86102947446065, -52.85294230790129, -52.845551408746466, -52.838847983357454])","array('d', [0.3849716782569883, 0.3877778220376067, 0.3819225012684485, 0.3695560556549328, 0.3525236952039463, 0.3323682394417127, 0.31034974895246903, 0.2874747780789699, 0.264529113821452, 0.2421098120287319, 0.22065414862222202, 0.2004644323778852, 0.1817284664760121, 0.1645359095893267, 0.1488909991039506, 0.13472215940022894])","array('d', [-0.0029870532453059543, -0.003615916493395203, -0.003998179579056761, -0.0042206509205567466, -0.004335905192876138, -0.004375380893225394, -0.00435733717508478, -0.0042918163953473264, -0.00418389346361247, -0.004035989721883733, -0.0038497261131031227, -0.003627594304082268, -0.003374580106481829, -0.0030997491099159953, -0.002817684194123305, -0.0025495464036397416])","array('d', [1.0305178324368336, 1.0145529993424232, 0.998661109763464, 0.9831861377033622, 0.9683754442343221, 0.9543936249929446, 0.9413381113688543, 0.9292541263872621, 0.9181477400482242, 0.9079966302064958, 0.8987586605441017, 0.8903786155258968, 0.8827934901199924, 0.8759367036193728, 0.8697415449141968, 0.8641440779827269])",-178.9625570174026,-236.9594220965358,-52.93156175602133,0.3323682394417127,-0.004375380893225394,0.9543936249929446,25.000000248947565,-1.0,[],[],[],10000000000.0,0.019438505172729492
16,-240.5792999267578,-184.79281616210938,53.22334289550781,0.3547796308994291,0.005592336878180434,1.0078226486828665,23.376372658702184,"array('d', [-184.79281616210938, -182.68846905481155, -180.6040454343246, -178.53967568036367, -176.49508386425313, -174.4696754395309, -172.46261931634143, -170.47292074562574, -168.49948343467437, -166.5411607258113, -164.59679648294716, -162.66525669019177, -160.74545283828076, -158.83635809064415, -156.93701707019926, -155.04655376623066])","array('d', [-240.5792999267578, -239.229699735244, -237.84952464810618, -236.43952668457126, -235.00099422379657, -233.5355698370011, -232.0451029791268, -230.53153637041052, -228.99682191758626, -227.44286093782486, -225.87146355947664, -224.28432287734447, -222.68300033422787, -221.06891966467836, -219.44336747563477, -217.80750241892179])","array('d', [-53.22334289550781, -53.209496517153326, -53.19589865978213, -53.182529527426084, -53.169389145873026, -53.15649362099234, -53.14387337993667, -53.13157233619367, -53.119647158085776, -53.108165903199406, -53.097205288599575, -53.086845865256784, -53.07716441966289, -53.06822310253508, -53.060055147585665, -53.05264765644071])","array('d', [0.3547796308994291, 0.3574869565532194, 0.35223353662173823, 0.34098360819456863, 0.3254202646091092, 0.3069524757910551, 0.2867346114088247, 0.26569295339247795, 0.2445545515252384, 0.22387522042377328, 0.204064828852205, 0.18540904496523525, 0.16808735691118007, 0.15218756079475296, 0.13771708587704143, 0.12461158369089231])","array('d', [-0.005592336878180434, -0.0054865864611517165, -0.00539330902313595, -0.005303545175385802, -0.005210362837826338, -0.005107813445491696, -0.00499038118937722, -0.004852788739956279, -0.004690103750706338, -0.004498134792995394, -0.004274121890539475, -0.004017717773140585, -0.0037322206710414755, -0.003425957321469201, -0.0031136284938077822, -0.0028173279038403794])","array('d', [1.0078226486828665, 0.9932245575744466, 0.9786862428964489, 0.9645171436676268, 0.9509413241865666, 0.9381097618874055, 0.9261137743096266, 0.9149978196244929, 0.904770735904169, 0.8954151170995436, 0.8868949046919316, 0.879161454052799, 0.8721583867626875, 0.865825524470578, 0.8601021555728429, 0.8549298246884088])",-174.4696754395309,-233.5355698370011,-53.15649362099234,0.3069524757910551,-0.005107813445491696,0.9381097618874055,25.000000248952773,-1.0,[],[],[],10000000000.0,0.017511844635009766
17,-236.97763061523438,-179.82403564453125,53.48480224609375,0.3242052197456357,0.006816400215029651,0.9837790886547901,23.41986572113272,"array('d', [-179.82403564453125, -177.7518072041348, -175.6982788610685, -173.66352988169913, -171.64726859019376, -169.64891424586028, -167.667672417192, -165.70260141913468, -163.75266882355766, -161.81679807562787, -159.89390583944456, -157.98293095469242, -156.08285592986073, -154.19272182291502, -152.31163723340148, -150.43878578680594])","array('d', [-236.97763061523438, -235.5792375643862, -234.15351634520425, -232.70111197795703, -231.2231427818026, -229.72104340742726, -228.19643745378485, -226.65103834822423, -225.08657504021383, -223.50473828731845, -221.90714340878168, -220.2953059205123, -218.6706271554345, -217.03438765070103, -215.38774667273753, -213.73175007025884])","array('d', [-53.48480224609375, -53.46822265734641, -53.452419745460276, -53.43719088221869, -53.42242186693544, -53.4080574573848, -53.3940839615048, -53.38051878954473, -53.367403732704574, -53.35479976426787, -53.34278172179584, -53.33143155740168, -53.32082910053199, -53.31103959017604, -53.3020977021079, -53.29398851011711])","array('d', [0.3242052197456357, 0.3267696707792969, 0.32208006107230525, 0.3119167374686265, 0.29780296404402784, 0.2810151142607379, 0.26260179904366926, 0.24340782690325277, 0.22409955121671682, 0.20518921640308582, 0.18705690851304663, 0.16996947093312634, 0.15409624522875168, 0.13952178837597057, 0.12625586189802954, 0.11424103843890177])","array('d', [-0.006816400215029651, -0.006453423131615027, -0.006193329362384184, -0.005993175443229608, -0.005824912368624393, -0.005669274745299379, -0.005512200379771596, -0.005342816014350412, -0.005152453126787272, -0.0049344017884735735, -0.004684242308084553, -0.004400651206004125, -0.00408657901673757, -0.00375065315493781, -0.003408578996619935, -0.003084210179364478])","array('d', [0.9837790886547901, 0.9705350133148726, 0.9573399906259542, 0.9444704197785126, 0.9321276513398503, 0.9204488653635433, 0.9095185989026606, 0.8993796571074926, 0.8900427341451782, 0.8814945248560996, 0.8737043878164661, 0.8666297577698392, 0.8602205492620406, 0.8544227854807833, 0.8491816551464854, 0.8444441529375586])",-169.64891424586028,-229.72104340742726,-53.4080574573848,0.2810151142607379,-0.005669274745299379,0.9204488653635433,25.000000248958,-1.0,[],[],[],10000000000.0,0.018861770629882812
18,-233.58497619628906,-175.3140106201172,53.73512268066406,0.3015313744544981,0.010868677869439038,0.9622476855900627,23.44275335225972,"array('d', [-175.3140106201172, -173.2717108152765, -171.24718657539563, -169.2404696246751, -167.25124716831107, -165.27894108352436, -163.32277884665615, -161.38185518475973, -159.4551841627358, -157.5417420285755, -155.6405015076303, -153.75045838836644, -151.87065124534192, -150.00017506455404, -148.13818941902582, -146.28392547871888])","array('d', [-233.58497619628906, -232.14334544879128, -230.67680365497554, -229.1859563812894, -227.67182420806, -226.13570659791378, -224.57907096836638, -223.0034658512118, -221.41045525570857, -219.80157073565633, -218.17827774258558, -216.54195328074093, -214.89387243586182, -213.23520189973644, -211.5669990957849, -209.8902192938961])","array('d', [-53.73512268066406, -53.70996318729354, -53.68807880962807, -53.668387166826726, -53.6502193247016, -53.633166907297564, -53.61698957837987, -53.60155844427359, -53.58682068634027, -53.5727763632766, -53.5594615921581, -53.546934251187494, -53.53525956857206, -53.52449386537163, -53.51466556568469, -53.50575356036645])","array('d', [0.3015313744544981, 0.3035154269273898, 0.29889549219617423, 0.2892963842365528, 0.2761050418701138, 0.2604829305628563, 0.24338496635784232, 0.22558174764975303, 0.2076824443638106, 0.19015652049348175, 0.17335323104235337, 0.15751841596157753, 0.14280850088898786, 0.12930184274217563, 0.1170076727770866, 0.10587293011527546])","array('d', [-0.010868677869439038, -0.009285666292842486, -0.008239512006047667, -0.007525870277205836, -0.007017020003328267, -0.006631451701295291, -0.0063157679128573565, -0.006033919473366391, -0.005760909434297544, -0.005479305749726133, -0.005177594580654741, -0.00484978854026219, -0.0044958951027840015, -0.004122916074929549, -0.0037460310910061227, -0.003389549488742844])","array('d', [0.9622476855900627, 0.950000036036477, 0.9378114679905935, 0.9259298279398702, 0.9145358698026496, 0.9037531808335313, 0.8936583913232315, 0.88429073446816, 0.8756604690820183, 0.8677560171934925, 0.8605498779186658, 0.8540034827139394, 0.84807119082617, 0.8427036179805211, 0.8378504672151851, 0.8334629921411217])",-165.27894108352436,-226.13570659791378,-53.633166907297564,0.2604829305628563,-0.006631451701295291,0.9037531808335313,25.000000248962504,-1.0,[],[],[],10000000000.0,0.016278505325317383
19,-229.85153198242188,-170.52023315429688,54.01018524169922,0.27610677480697604,0.009714148007333211,0.9418494860318043,23.443218366317936,"array('d', [-170.52023315429688, -168.5069385455627, -166.51029082699802, -164.53029307128148, -162.56663303711053, -160.61875605718654, -158.68593016070793, -156.7673026035104, -154.86194764235057, -152.96890589333967, -151.08721590571244, -149.21593869698523, -147.35417599150873, -145.50108283270927, -143.6558751376257, -141.81783637565772])","array('d', [-229.85153198242188, -228.3696240199849, -226.86533068179776, -225.33916843145883, -223.79202721569578, -222.22505028885044, -220.6395361892573, -219.03686155297586, -217.41842223216486, -215.7855897751328, -214.1396804200226, -212.48193410922835, -210.81350148077067, -209.1354372389984, -207.44869870331306, -205.75415208065152])","array('d', [-54.01018524169922, -53.98720001222488, -53.96634421047224, -53.94694327624486, -53.928588221432165, -53.91103917559766, -53.894167378702626, -53.87791987686476, -53.862297373436945, -53.84733922678801, -53.83311161396832, -53.81969607419022, -53.80717643059911, -53.795622744823206, -53.785071682825595, -53.77550361250243])","array('d', [0.27610677480697604, 0.278088255039399, 0.2740027554441605, 0.26533513359899336, 0.25335193864900774, 0.23911476141132104, 0.22349825605509666, 0.2072103789923386, 0.19081282655749254, 0.17474027791312036, 0.159317630288124, 0.14477486001370446, 0.1312594446632011, 0.11884646298841904, 0.10754658274220015, 0.0973121810609303])","array('d', [-0.009714148007333211, -0.008691357449841475, -0.008004928646307438, -0.007523997411346166, -0.007166147940693272, -0.006878010639638898, -0.006623770470124501, -0.006378415415604794, -0.006123914166454492, -0.005847289128693171, -0.00553998888051754, -0.005198196180611495, -0.004823806088249241, -0.004425814694155535, -0.00402179971294259, -0.0036390752791351727])","array('d', [0.9418494860318043, 0.930688358031982, 0.9195739695159879, 0.9087309449649936, 0.8983239018030089, 0.8884663507221362, 0.8792296663543588, 0.8706514419021947, 0.862742870410948, 0.8554950474477312, 0.8488842479658472, 0.8428763104871659, 0.837430289435942, 0.8325015335520837, 0.8280443305249917, 0.8240142269786808])",-160.61875605718654,-222.22505028885044,-53.91103917559766,0.23911476141132104,-0.006878010639638898,0.8884663507221362,25.00000024896631,-1.0,[],[],[],10000000000.0,0.016579627990722656
20,-226.3466339111328,-166.1606903076172,54.272823333740234,0.2567100524902341,0.010346288792788927,0.9254503409054615,23.44128545905116,"array('d', [-166.1606903076172, -164.1713573166625, -162.19777005932175, -160.23991550755494, -158.297485616622, -156.36994639072313, -154.45659907228955, -152.55663302689518, -150.66917036035633, -148.79330267238606, -146.92812056336115, -145.07273658799917, -143.2263023338933, -141.3880202332454, -139.55715062278185, -137.7330181564776])","array('d', [-226.3466339111328, -224.83273244129262, -223.29832643004627, -221.74387402000895, -220.1701741529261, -218.57825858229842, -216.9693035504621, -215.3445598849784, -213.70529929508194, -212.05277433049218, -210.38818955307622, -208.71268177062174, -207.02730755841733, -205.333036670078, -203.63075027567447, -201.92124669141293])","array('d', [-54.272823333740234, -54.24831976180609, -54.226046583963644, -54.20529686441414, -54.18564302662148, -54.16683534567545, -54.14874097995205, -54.13130690809822, -54.11453669023618, -54.09847470839541, -54.083193677881255, -54.06878247851331, -54.05533218125347, -54.042918840959175, -54.0315823989919, -54.02130204989805])","array('d', [0.2567100524902341, 0.25863711035570236, 0.2549167818459139, 0.24692673727643108, 0.23584135166474687, 0.22264545489658288, 0.2081515778642644, 0.19301872175214566, 0.17777103555856355, 0.16281528715312063, 0.1484564778467337, 0.13491130999595308, 0.12231946275897723, 0.11075278059454954, 0.10022255730891233, 0.0906851281980119])","array('d', [-0.010346288792788927, -0.009274758639263896, -0.008556009738347383, -0.00805235841283496, -0.007677133222479569, -0.007374206788769351, -0.007105888164374327, -0.006845820710802559, -0.006574972395624113, -0.006279628325811096, -0.005950758349973344, -0.005584376917464188, -0.005182614957411113, -0.0047552277329274, -0.004321197396191718, -0.003909981530286206])","array('d', [0.9254503409054615, 0.9151086663938004, 0.9048065772955163, 0.8947511529143936, 0.8850946304989132, 0.8759425694741376, 0.8673619540129321, 0.8593887031664135, 0.852034314869461, 0.8452915677257794, 0.8391393295213823, 0.8335465859994237, 0.8284758264011034, 0.8238859205675567, 0.8197346083306994, 0.8159806957870605])",-156.36994639072313,-218.57825858229842,-54.16683534567545,0.22264545489658288,-0.007374206788769351,0.8759425694741376,25.000000248969158,-1.0,[],[],[],10000000000.0,0.017686128616333008
21,-222.4883575439453,-161.49285888671875,54.5641975402832,0.23623260855674721,0.010774786584079188,0.9085278669979909,23.43412343378395,"array('d', [-161.49285888671875, -159.5287752183018, -157.57944136099442, -155.64483519363094, -153.7246599469371, -151.81840911763763, -149.925423597229, -148.0449408763917, -146.1761365057395, -144.3181582560058, -142.47015357011676, -140.63129094688594, -138.8007758713528, -136.97786183984545, -135.16185694241602, -133.35213002794043])","array('d', [-222.4883575439453, -220.941854637141, -219.3767669823229, -217.7934887126932, -216.19272406409664, -214.5753908655838, -212.9425413723799, -211.2952992693192, -209.6348109152442, -207.9622086599757, -206.27858414702672, -204.5849697639922, -202.8823267142604, -201.17153849617497, -199.453408858185, -197.7286670065446])","array('d', [-54.5641975402832, -54.53856936719351, -54.51508715954851, -54.49307791390901, -54.472137491278104, -54.45203338127109, -54.4326464430077, -54.413935564044465, -54.39591548397731, -54.378641610118166, -54.362197690856085, -54.34668340921901, -54.332199755366744, -54.318830729761, -54.30662072936748, -54.29554804085014])","array('d', [0.23623260855674721, 0.2381940257143633, 0.23492072319973917, 0.22768352875594303, 0.21756536759904962, 0.20547505905547206, 0.19216361950231622, 0.1782415176951163, 0.1641956143155287, 0.15040490998050873, 0.13715459127055066, 0.12464814929047568, 0.11301754214083537, 0.10233149417222108, 0.09260208958449631, 0.08378984323349745])","array('d', [-0.010774786584079188, -0.009745285829186115, -0.009052316823815472, -0.008563462208513404, -0.008195214821440686, -0.007893283255844803, -0.00762096550355843, -0.007352358217754901, -0.007068564815962993, -0.006755860678881193, -0.006405218930486815, -0.006012831798714313, -0.0055813539866337155, -0.005121587287408195, -0.004654248006264427, -0.0042113382116043116])","array('d', [0.9085278669979909, 0.8990403202297969, 0.8895818201714019, 0.880342578988902, 0.8714629575069585, 0.8630408963972579, 0.855139187705285, 0.8477921861399011, 0.8410117559773354, 0.8347924013029092, 0.8291156245238223, 0.8239536091593599, 0.8192723416907016, 0.8150342864514769, 0.8112007166347109, 0.8077337826984119])",-151.81840911763763,-214.5753908655838,-54.45203338127109,0.20547505905547206,-0.007893283255844803,0.8630408963972579,25.000000248971897,-1.0,[],[],[],10000000000.0,0.016580820083618164
22,-218.87069702148438,-157.22625732421875,54.83870315551758,0.22055867314338662,0.014392872340977123,0.894880131879125,23.42838796363528,"array('d', [-157.22625732421875, -155.2830219181037, -153.3537273914366, -151.4383560587223, -149.53662603660536, -147.6480557206131, -145.77201905423595, -143.90779250717196, -142.05459440209015, -140.21161721791375, -138.3780535185817, -136.55311614492143, -134.7360532584983, -132.92615875222987, -131.122778457884, -129.32531611854276])","array('d', [-218.87069702148438, -217.29822066764203, -215.70858621200225, -214.1021528529408, -212.47956190600885, -210.84165097015168, -209.1893826015576, -207.52378702999226, -205.84591746346615, -204.15681618892992, -202.45748969013883, -200.7488911911946, -199.03190928926827, -197.30736160272545, -195.5759926021635, -193.83847849031602])","array('d', [-54.83870315551758, -54.80536451497978, -54.77631985215169, -54.75013758718333, -54.72593727352882, -54.703184582750566, -54.68156776613916, -54.66092237721085, -54.64118439108226, -54.62235952279054, -54.60450097273536, -54.58769043341509, -54.57201883128601, -54.557564489281674, -54.54436753266522, -54.532400673692074])","array('d', [0.22055867314338662, 0.22249498332301448, 0.2195243759150547, 0.2128344881473547, 0.20343700782486002, 0.19218134002327134, 0.17977013772144557, 0.1667754151965018, 0.15365420409501404, 0.14076303564717135, 0.12837083319450926, 0.11667003476486278, 0.10578592934572446, 0.09578429259262249, 0.08667746265684043, 0.0784290186159041])","array('d', [-0.014392872340977123, -0.012313522905162936, -0.010945552159837542, -0.010016147596525972, -0.009355427977619223, -0.008855318760551801, -0.008445191714486358, -0.008077441889853777, -0.0077190890312429945, -0.007347152501478353, -0.006946492807016943, -0.006509332672418162, -0.0060359284615065616, -0.005535950208149693, -0.005030102673212865, -0.004551425608723897])","array('d', [0.894880131879125, 0.8860417067993099, 0.8772262848571402, 0.8686110024900165, 0.8603268883474713, 0.8524657528343139, 0.8450868568501386, 0.8382230439664737, 0.8318861780031918, 0.8260718502057975, 0.8207633989724101, 0.8159353268493488, 0.8115562151087199, 0.8075912357151791, 0.8040043515026744, 0.8007602764652987])",-147.6480557206131,-210.84165097015168,-54.703184582750566,0.19218134002327134,-0.008855318760551801,0.8524657528343139,25.000000248973958,-1.0,[],[],[],10000000000.0,0.017579317092895508
23,-214.88235473632812,-152.62738037109375,55.1162223815918,0.20455928146839125,0.01680042222142213,0.8805039087918144,23.439809764940865,"array('d', [-152.62738037109375, -150.70648167729797, -148.79867975472249, -146.9039590881704, -145.02205213881973, -143.15250276503497, -141.29471926349018, -139.44801888017312, -137.61166482958265, -135.78489660667645, -133.96695428421307, -132.1570974256096, -130.35461917388224, -128.55885599727213, -126.76919348862226, -124.98507213161187])","array('d', [-214.88235473632812, -213.28278502787703, -211.66749286298358, -210.03680491135157, -208.39130177186465, -206.7317425880709, -205.05900144901196, -203.37401579608743, -201.67774583087865, -199.97114348208393, -198.2551294393624, -196.53057689338146, -194.798300824772, -193.05905190168446, -191.31351424866617, -189.56231004682596])","array('d', [-55.1162223815918, -55.077668453048034, -55.04470130494702, -55.01543356662124, -54.98869982832802, -54.96378635835189, -54.94026814451957, -54.9179095619575, -54.8966026313053, -54.87632698833868, -54.85712156227595, -54.83906141938618, -54.822235380411534, -54.80672155324602, -54.792559279423685, -54.7797174802043])","array('d', [0.20455928146839125, 0.20642517175794833, 0.20372923681433874, 0.19757290587765317, 0.18889403183005782, 0.17848028011542183, 0.1669838208754514, 0.15493628430208184, 0.14276314169182344, 0.1307969382533921, 0.11928904754927865, 0.10841980896911607, 0.09830704370271566, 0.08901302883380688, 0.08055005486725955, 0.07288471027016051])","array('d', [-0.01680042222142213, -0.014089181372465797, -0.012314903242006466, -0.011119760816347237, -0.010281619720600255, -0.009659858498257215, -0.009163274107450428, -0.008731040870460244, -0.00832154123545411, -0.007906081613647737, -0.007465755846288527, -0.0069904137814074474, -0.006479049613205122, -0.005941066435232012, -0.005397874770801148, -0.004884199593992122])","array('d', [0.8805039087918144, 0.8723243042403903, 0.8641632463199691, 0.8561843752067334, 0.8485089873617162, 0.8412223847826434, 0.8343799537964082, 0.8280127319148569, 0.8221323455409195, 0.8167352976587031, 0.8118066469754438, 0.80732315325302, 0.8032559760617338, 0.7995730137353494, 0.7962409619085649, 0.7932271546790819])",-143.15250276503497,-206.7317425880709,-54.96378635835189,0.17848028011542183,-0.009659858498257215,0.8412223847826434,25.000000248976008,-1.0,[],[],[],10000000000.0,0.025250911712646484
