,current_time,x_pos,y_pos,z_pos,roll,pitch,yaw,vel,x_traj,y_traj,z_traj,roll_traj,pitch_traj,yaw_traj,x_cmd,y_cmd,z_cmd,roll_cmd,pitch_cmd,yaw_cmd,vel_cmd,effector_dmg,effector_x,effector_y,effector_z,cost,time_solution
0,2.3443212509155273,-176.4408721923828,-74.64669036865234,49.94194030761719,0.3498651385307311,0.027697635814547435,-0.317202134928431,15.809382058203544,"array('d', [-73.20902252197266, -73.89257029163242, -74.59948271322779, -75.32008819315531, -76.04608062191389, -76.7708516269707, -77.48972183576359, -78.19964844225339, -78.89887010535996, -79.5866005627825, -80.26276066247027, -80.92774885756741, -81.58225194157868, -82.22709674790997, -82.86314231164941, -83.36482442249114])","array('d', [-180.6468963623047, -178.24305212169273, -175.84554620706672, -173.45190095351816, -171.05977028984245, -168.66720977083628, -166.27283817666202, -163.8757825970116, -161.47557308612025, -159.07204030912166, -156.6652236061933, -154.2552940966666, -151.84249441365745, -149.4270945014651, -147.00936184348157, -145.07331429187968])","array('d', [-49.949771881103516, -49.8851008372303, -49.83829943669225, -49.804063385660186, -49.77875859032882, -49.75985945066177, -49.745587235835956, -49.734673825220206, -49.72620508933848, -49.71951577918882, -49.714118418487075, -49.70965507517044, -49.70586478150098, -49.702561776798476, -49.699621238918766, -49.69750032728604])","array('d', [0.3486037254333496, 0.24068927001129034, 0.143044224189219, 0.05469132864606368, -0.01633734745600528, -0.06540230286249374, -0.09695596340766487, -0.11487372591664015, -0.12253173894928698, -0.12283211827094953, -0.11821359250995407, -0.11066231000257472, -0.10172579891820904, -0.09252831260786554, -0.08378483322674213, -0.07581165903164734])","array('d', [-0.030160706490278084, -0.02172281531016522, -0.015819033579498924, -0.011640391243533164, -0.008653623319662726, -0.0065017330267088174, -0.004942119368956197, -0.00380756388390897, -0.0029812229196239555, -0.0023802569243203224, -0.0019448976435988263, -0.0016310150730928284, -0.00140499152413069, -0.0012401626576294229, -0.0011143666938873027, -0.0010083210957572068])","array('d', [-0.27071575721236674, -0.28259844577333776, -0.2901942204992042, -0.29405985035752746, -0.2947895090640111, -0.2931684735752289, -0.2899653246570606, -0.2857875710009845, -0.2811051092846948, -0.2762666725118476, -0.2715158481125797, -0.26700807930061, -0.2628282193377264, -0.2590079351654289, -0.25554254374545754, -0.2516233600263536])",-76.7708516269707,-168.66720977083628,-49.75985945066177,-0.06540230286249374,-0.0065017330267088174,-0.2931684735752289,25.000000243409605,-1.0,[],[],[],10000000000.0,-100.0
1,2.344883441925049,-176.4408721923828,-74.64669036865234,49.94194030761719,0.3498651385307311,0.027697635814547435,-0.317202134928431,15.809382058203544,"array('d', [-73.30580139160156, -73.99711596350906, -74.71177620627556, -75.44011836980346, -76.17384081764331, -76.90632775391985, -77.6328920943063, -78.35048602164561, -79.05734539296722, -79.75268292456558, -80.43641979403827, -81.10895572144285, -81.77097933699338, -82.42331958107297, -83.06683764416225, -83.57447899438397])","array('d', [-180.34262084960938, -177.94100259784926, -175.54579752044432, -173.15449687576935, -170.76472705563128, -168.3745182639727, -165.9824706921175, -163.58769959248883, -161.18972849331303, -158.7883855430071, -156.38371041320525, -153.97587641356316, -151.5651294284136, -149.15174310879132, -146.73598867683035, -144.80149520251112])","array('d', [-49.94908905029297, -49.88427418061865, -49.8373327328639, -49.80296914614754, -49.77755249661638, -49.758557408181325, -49.74420391288722, -49.73322203040118, -49.72469561393217, -49.71795748562449, -49.71251844873894, -49.708019108615225, -49.704197304727415, -49.70086634696565, -49.69790073297942, -49.695761704519676])","array('d', [0.3486186861991881, 0.2407028070714315, 0.14305647302376762, 0.05470241130785119, -0.016512107102508666, -0.065703690157357, -0.09733634782251678, -0.11529564355219217, -0.12296684936087672, -0.12326014183812378, -0.11862114128142082, -0.11104164676756641, -0.10207358314348042, -0.09284437472048919, -0.08407099341086595, -0.0760705874972387])","array('d', [-0.030217746272683026, -0.021780858340373428, -0.015873114353406978, -0.011688449224999694, -0.008695162121307312, -0.006537059115669799, -0.004971911059432134, -0.003832629068806009, -0.0030023678711535388, -0.0023982197257266095, -0.0019603182763328507, -0.0016444254671145397, -0.0014168157936351067, -0.001250721957311873, -0.001123885648320536, -0.001016934202681724])","array('d', [-0.2739483555171151, -0.28583165495880025, -0.29342795472701594, -0.2972940467800086, -0.2980204324900442, -0.29638999387339776, -0.2931733505805713, -0.2889796619396109, -0.2842801404813949, -0.2794245129890904, -0.27465706020666947, -0.2701336573701783, -0.26593937900950165, -0.26210595649276724, -0.25862866663625256, -0.2546960398303737])",-76.90632775391985,-168.3745182639727,-49.758557408181325,-0.065703690157357,-0.006537059115669799,-0.29638999387339776,25.000000243370895,-1.0,[],[],[],10000000000.0,0.02648472785949707
2,2.3453831672668457,-176.4408721923828,-74.64669036865234,49.94194030761719,0.3498651385307311,0.027697635814547435,-0.317202134928431,15.809382058203544,"array('d', [-73.50223541259766, -74.20933590787618, -74.93974224673347, -75.68380709648059, -76.43323834985496, -77.18140572339739, -77.92360693047632, -78.65678426371996, -79.37916804500072, -80.08996897427267, -80.78910888853491, -81.47699002652121, -82.15430466905413, -82.82188594507406, -83.4805993310789, -84.00035954873599])","array('d', [-179.73556518554688, -177.33855323377787, -174.94810743296958, -172.5616554350421, -170.17676740947684, -167.79142173931612, -165.40418061036334, -163.01413507640552, -160.62079532325296, -158.22398435131495, -155.82374250612543, -153.42024757172993, -151.01375207661022, -148.60453724833994, -146.19288195215145, -144.2616094608433])","array('d', [-49.94782638549805, -49.88279012681886, -49.83561425407187, -49.801027246225075, -49.77540892716742, -49.75623735342496, -49.74173212225388, -49.730620939461915, -49.72198460045931, -49.71515275413359, -49.70963324576659, -49.70506409732924, -49.70118100323021, -49.69779557941133, -49.694781068561525, -49.69260670757818])","array('d', [0.3486468493938445, 0.24072829018249683, 0.14307953108832844, 0.054723274351868696, -0.01686550203316675, -0.06631210246835482, -0.09810384469292388, -0.11614675331056118, -0.12384447118795942, -0.12412341317064864, -0.1194430864817017, -0.11180667811253417, -0.10277497372346545, -0.09348178791374813, -0.0846481020954784, -0.07659277707662662])","array('d', [-0.030300302430987226, -0.02187527536896234, -0.015966291530830755, -0.011774150858273304, -0.008770969676988028, -0.006602614992606344, -0.005027905436805387, -0.003880216207277126, -0.0030428380085339183, -0.002432822165850539, -0.0019901723882536516, -0.001670481458259794, -0.0014398425629748358, -0.0012713087759606081, -0.0011424500856226619, -0.001033732001704628])","array('d', [-0.28052775462600177, -0.2924122040468119, -0.30000949219873724, -0.30387645432761656, -0.30459619155700957, -0.3029467584290791, -0.2997028793989077, -0.29547703855285123, -0.2907431001795494, -0.2858527943897081, -0.28105179967051647, -0.27649686209862295, -0.2722735020062032, -0.26841358029984685, -0.26491229253072446, -0.26095255282312874])",-77.18140572339739,-167.79142173931612,-49.75623735342496,-0.06631210246835482,-0.006602614992606344,-0.3029467584290791,25.000000243290426,-1.0,[],[],[],10000000000.0,0.022557735443115234
3,2.3458786010742188,-176.4408721923828,-74.64669036865234,49.94194030761719,0.3498651385307311,0.027697635814547435,-0.317202134928431,15.809382058203544,"array('d', [-73.60189819335938, -74.3170175652608, -75.0554199220329, -75.8074669616922, -76.56487191963558, -77.32099764704414, -78.07113450951856, -78.81222002969936, -79.54248188542876, -80.26112985788221, -80.96808618026812, -81.6637544016839, -82.34882866881304, -83.02414423847642, -83.69056875943731, -84.21647907199835])","array('d', [-179.43275451660156, -177.03812023798488, -174.65013174264953, -172.2661832468153, -169.88381580509582, -167.5009811318688, -165.1162219109552, -162.72861680543443, -160.33766918238737, -157.94319942065385, -155.5452482222721, -153.14399566996212, -150.7396976986131, -148.3326394173064, -145.9231036048782, -143.9934963383878])","array('d', [-49.947181701660156, -49.88223279100312, -49.835082761767794, -49.80048852736689, -49.77484652013438, -49.755644304851515, -49.74110673317269, -49.729964240704724, -49.721298883689016, -49.71444074493489, -49.70889766393942, -49.7043074473347, -49.70040549821322, -49.69700313971522, -49.693973359056194, -49.69178795358271])","array('d', [0.34864419698715193, 0.24072589001236136, 0.14307735900430998, 0.054721306708038375, -0.017054613569374953, -0.06662849719586024, -0.09849935468929566, -0.11658348305108115, -0.12429375776150978, -0.12456475955408434, -0.11986298067455191, -0.11219733569760451, -0.10313306546130681, -0.09380719583523318, -0.08494272115442622, -0.07685935945145163])","array('d', [-0.030249116942286422, -0.021856024694659602, -0.01596457091803652, -0.011781501848225372, -0.00878250047810682, -0.00661557431370562, -0.0050408197106400635, -0.003892362730360934, -0.0030539237310268697, -0.0024427891276339723, -0.0019990812264987254, -0.0016784429848012248, -0.0014469788392974356, -0.0012777321483667062, -0.001148252922997432, -0.0010389824137767333])","array('d', [-0.2838745554301404, -0.29575889654039533, -0.3033560915919141, -0.3072229717116447, -0.3079388974880683, -0.30627948318974435, -0.30302151207338585, -0.2987791379334724, -0.2940275576362013, -0.28911950788288077, -0.28430136878722695, -0.27973032259553166, -0.27549211173905835, -0.2716186600617667, -0.26810512009328935, -0.2641315390892243])",-77.32099764704414,-167.5009811318688,-49.755644304851515,-0.06662849719586024,-0.00661557431370562,-0.30627948318974435,25.00000024755269,-1.0,[],[],[],10000000000.0,0.024951457977294922
4,2.346374988555908,-176.4408721923828,-74.64669036865234,49.94194030761719,0.3498651385307311,0.027697635814547435,-0.317202134928431,15.809382058203544,"array('d', [-73.80412292480469, -74.53520079699663, -75.28951574472879, -76.05744789690661, -76.83072150932335, -77.60268625393655, -78.36861823295274, -79.12544568000872, -79.87139109754176, -80.6056624400036, -81.32818267327102, -82.0393578627637, -82.7398857584216, -83.4306057357578, -84.11238965281714, -84.65055066475564])","array('d', [-178.8285675048828, -176.43874855035452, -174.05573569968868, -171.67685584151883, -169.29959163442098, -166.9218412784705, -164.54210832174377, -162.15944656069186, -159.77334566742942, -157.38362073932302, -154.99031316735918, -152.59360761819897, -150.1937668338359, -147.79108368609093, -145.38584878563012, -143.4596223596205])","array('d', [-49.945919036865234, -49.88127681139024, -49.834274473724285, -49.79973627244279, -49.77409912263597, -49.754874709533595, -49.74030201812002, -49.729119543103614, -49.72041374332994, -49.713516940779165, -49.70793796842433, -49.70331493937681, -49.69938321054509, -49.69595390053177, -49.69289974135156, -49.690696691484135])","array('d', [0.3486490845680236, 0.24073031247759719, 0.14308136061345866, 0.05472492748889459, -0.017421959265359867, -0.06724834902859443, -0.09927636606304016, -0.1174426199684139, -0.12517824843921077, -0.1254339906269206, -0.12069016486694104, -0.11296702537121456, -0.10383863487782392, -0.09444837901255862, -0.08552323961247749, -0.07738463432173084])","array('d', [-0.030085323378443652, -0.021773036025578486, -0.015928599987382427, -0.011772196866598823, -0.008787677647705478, -0.006628034413392905, -0.005056403759093823, -0.003908751614007356, -0.00306989619655248, -0.0024577644512555627, -0.002012839366606897, -0.0016909556209785054, -0.0014583097145734814, -0.0012879805629503014, -0.0011575236494649624, -0.0010473709147336837])","array('d', [-0.29054443438979616, -0.30242897507475025, -0.31002634165604454, -0.31389337277545765, -0.31460203864663, -0.3129231301935806, -0.30963750516045047, -0.30536262252201796, -0.30057631820667363, -0.29563332337359444, -0.2907814090274767, -0.2861786226327801, -0.28191114780851595, -0.27801103428741797, -0.27447335056856653, -0.27047249290188524])",-77.60268625393655,-166.9218412784705,-49.754874709533595,-0.06724834902859443,-0.006628034413392905,-0.3129231301935806,25.000000247522017,-1.0,[],[],[],10000000000.0,0.025914669036865234
5,2.3482086658477783,-176.4408721923828,-74.64669036865234,49.94194030761719,0.3498651385307311,0.027697635814547435,-0.317202134928431,15.809382058203544,"array('d', [-74.00934600830078, -74.75635538295894, -75.52656691493479, -76.31037833343309, -77.09952435296326, -77.88734129977446, -78.66909082248199, -79.4416915299517, -80.20336028914335, -80.95330268060715, -81.69144180788524, -82.4181856440064, -83.1342349458746, -83.84043264174018, -84.53765427395946, -85.08813270850676])","array('d', [-178.2279815673828, -175.84307849875475, -173.46514899863078, -171.09145079457642, -168.71940699699067, -166.34686128520593, -163.97227728056228, -161.59468331119356, -159.21355489117306, -156.82870148427241, -154.44016490895612, -152.04813422677057, -149.6528788530922, -147.2546993287306, -144.85389402955605, -142.93115150018784])","array('d', [-49.9445686340332, -49.880511008596834, -49.83385921991234, -49.79952663245945, -49.77400575818068, -49.754843019761445, -49.74029907845691, -49.729125902323204, -49.72041827479092, -49.71351362004461, -49.7079238656937, -49.70328897463976, -49.69934538261708, -49.69590480488593, -49.69284025869798, -49.69062966079585])","array('d', [0.3487992882728576, 0.24086622242118355, 0.1432043370239363, 0.054836201133908365, -0.017688511972853253, -0.0677742890057389, -0.09996638012530748, -0.11822162038702304, -0.12598929425356875, -0.1262361920927861, -0.12145637530958425, -0.11368138305242505, -0.10449407180387267, -0.09504418129008929, -0.0860626933702132, -0.07787275231123883])","array('d', [-0.029792375862598315, -0.02159620595965276, -0.015823739358483663, -0.011711808400808139, -0.008754585295512441, -0.006611509138096687, -0.0050497636358956734, -0.003907856709739498, -0.0030721999549887815, -0.0024617150009960454, -0.0020175025470251092, -0.0016957793830806442, -0.001462979092404234, -0.0012923306935252632, -0.0011614895411427527, -0.0010509594022433872])","array('d', [-0.29721264441939804, -0.3091033186531785, -0.3167059567784969, -0.32057762845207977, -0.3212831250574327, -0.31958854722294294, -0.31627883759615955, -0.3119747570148475, -0.3071567777624025, -0.30218162843384266, -0.2972984801055469, -0.2926662594662054, -0.28837160831174036, -0.2844467205755902, -0.2808865990833606, -0.2768603920905281])",-77.88734129977446,-166.34686128520593,-49.754843019761445,-0.0677742890057389,-0.006611509138096687,-0.31958854722294294,25.000000247490366,-1.0,[],[],[],10000000000.0,0.030316591262817383
6,2.386770009994507,-175.848388671875,-74.8673095703125,49.94165802001953,0.3502243459224699,0.02702830731868734,-0.323990865549769,15.80789466470591,"array('d', [-74.1130142211914, -74.86801259011855, -75.64620239097964, -76.43798968838188, -77.2351140554526, -78.03090489129255, -78.82061636462953, -79.60116197809835, -80.37075545026275, -81.12860082124595, -81.87462090291663, -82.60922426811346, -83.33311283958408, -84.04713100679972, -84.75215586463955, -85.30886274675157])","array('d', [-177.9291534423828, -175.54675268257787, -173.17141504131058, -170.80036192634952, -168.43098560558587, -166.0611016931693, -163.68915325763564, -161.31415546172212, -158.93557641926935, -156.5532225391072, -154.16713567997365, -151.77750697729257, -149.38460909676292, -146.98874635368406, -144.59022096412323, -142.66927254124926])","array('d', [-49.944026947021484, -49.88051476236172, -49.834222968090394, -49.80012934285435, -49.77476795308253, -49.75571224745788, -49.741240589338815, -49.73011661712842, -49.721442858379724, -49.71456191076369, -49.7089891803417, -49.70436697847309, -49.70043332154255, -49.69700096648549, -49.69394357457848, -49.69173811060778])","array('d', [0.3489652276039124, 0.24101637055006223, 0.1433401966799897, 0.054959132034776974, -0.01776038507958985, -0.06798123167657091, -0.10026034022574436, -0.11856469940912459, -0.12635267690792124, -0.12659909151661705, -0.12180488256135219, -0.11400724468249666, -0.10479345024511638, -0.09531643892515893, -0.08630921704889928, -0.07809581618034865])","array('d', [-0.029528247192501866, -0.02142232995793591, -0.01570858895239374, -0.011635128864664212, -0.008703247692691618, -0.006576938240336504, -0.005026321342147691, -0.0038918120580042344, -0.0030610674685324765, -0.0024538275760374586, -0.002011735423732719, -0.001691372449954839, -0.0014594237359758057, -0.0012892991659922783, -0.0011587920670070979, -0.0010485186264911383])","array('d', [-0.30055896838637786, -0.3124564193552741, -0.3200648815924191, -0.32394168010063573, -0.3246481171714275, -0.3229480113788007, -0.31962837280169365, -0.3153116254148721, -0.3104795688676783, -0.3054899403134145, -0.30059262210558074, -0.29594699274104486, -0.2916399355160386, -0.2877037284599659, -0.2841333527370461, -0.2800955607536871])",-78.03090489129255,-166.0611016931693,-49.75571224745788,-0.06798123167657091,-0.006576938240336504,-0.3229480113788007,25.000000247474095,-1.0,[],[],[],10000000000.0,0.024463176727294922
7,2.412559747695923,-175.848388671875,-74.8673095703125,49.94165802001953,0.3502243459224699,0.02702830731868734,-0.323990865549769,15.80789466470591,"array('d', [-74.32341766357422, -75.09427063727864, -75.88828640039478, -76.69588926100808, -77.50882965082721, -78.32042430637574, -79.1259133722771, -79.92220080114689, -80.70749448153477, -81.48099569592681, -82.24262689103308, -82.99279798260756, -83.7322133174207, -84.46172026740733, -85.1821990738301, -85.75124082920863])","array('d', [-177.33267211914062, -174.95531399890086, -172.58519975729087, -170.219476752197, -167.8554750671742, -165.49095399903578, -163.1243154820975, -160.75454839329285, -158.38110611267712, -156.00378900465262, -153.62263906387005, -151.2378516167981, -148.8497058622889, -146.45851368902666, -144.0645850132352, -142.14725336948302])","array('d', [-49.9431266784668, -49.88111407728576, -49.835842881563515, -49.802450486918595, -49.77757555220418, -49.7588607728101, -49.74463079763119, -49.73368048537763, -49.72513361337002, -49.71834737261012, -49.71284727197743, -49.70828265116637, -49.704396401163464, -49.701004590866106, -49.6979830027573, -49.69580331572477])","array('d', [0.3492398262023924, 0.24126483782131042, 0.14356501947222633, 0.05516256094706613, -0.01793722389933624, -0.06842103215697334, -0.10086870978193603, -0.11926719736265409, -0.12709273501842214, -0.12733594979008117, -0.12251132640778338, -0.1146671951989452, -0.10539951901938575, -0.0958675298692385, -0.08680820912773986, -0.07854732292347498])","array('d', [-0.028810691088437975, -0.0209359731878045, -0.015375764972352162, -0.011405199469517966, -0.008542833279385766, -0.006463814807638381, -0.0049455553870144196, -0.0038332778020096713, -0.003017836433828365, -0.0024211173331847038, -0.001986221641697938, -0.0016707398810596695, -0.0014420759218469012, -0.0012741740651647795, -0.00114524774158677, -0.0010362634053942153])","array('d', [-0.3072102506968638, -0.3191189173413607, -0.32673701812613337, -0.3306223009147044, -0.33132913896633326, -0.32961681927579567, -0.3262764070474561, -0.32193359411347483, -0.3170727900079817, -0.3120537141219783, -0.3071276445852937, -0.30245484360683544, -0.29812266337972876, -0.29416354071766615, -0.2905724075674717, -0.2865111666827967])",-78.32042430637574,-165.49095399903578,-49.7588607728101,-0.06842103215697334,-0.006463814807638381,-0.32961681927579567,25.000000242946058,-1.0,[],[],[],10000000000.0,0.01985621452331543
8,2.4352097511291504,-175.25888061523438,-75.09122467041016,49.942047119140625,0.35004389286041254,0.026268284767866013,-0.3309165676448009,15.806774111951036,"array('d', [-74.53791046142578, -75.32464388454993, -76.13452195732665, -76.95798631225541, -77.7867976715911, -78.61425992448393, -79.43559900374912, -80.24770899928815, -81.04879154300126, -81.83804465080327, -82.615389849102, -83.38123782739984, -84.13629479823345, -84.88141058586378, -85.6174680863664, -86.1989480774585])","array('d', [-176.73773193359375, -174.36553958224974, -172.00077737776206, -169.64051776941187, -167.28202788867486, -164.92300982786014, -162.5618236185188, -160.19743124240313, -157.8292708703277, -155.45713646280825, -153.0810698889857, -150.70127048382298, -148.31802385643851, -145.931649387967, -143.54246464038698, -141.62886839823818])","array('d', [-49.94223403930664, -49.88184164708735, -49.83768199701052, -49.8050598363625, -49.78072406056306, -49.762390762966945, -49.74843395292352, -49.73768200086443, -49.72928164972979, -49.72260597316429, -49.717191552786424, -49.71269548398429, -49.70886607176215, -49.70552308675101, -49.70254469917459, -49.700396129385744])","array('d', [0.3496520817279815, 0.2416378620774107, 0.14390254579986844, 0.055467967375534, -0.018019412587807725, -0.06877325107627386, -0.10139638511013385, -0.11989567465273414, -0.12776516395133886, -0.12801122146173335, -0.12316182797780337, -0.11527642182795335, -0.10595964869074696, -0.09637704143234994, -0.0872695771820858, -0.07896478604033223])","array('d', [-0.028037915006279838, -0.02040809702207891, -0.01501152870075205, -0.0111513519765717, -0.008364079543636771, -0.006336516170985332, -0.004853726665060704, -0.003766007169557209, -0.0029676054297886802, -0.0023826995888444357, -0.0019559589747996232, -0.0016460675919247874, -0.001421214361805568, -0.0012559316681859793, -0.0011288981128795654, -0.001021469648244609])","array('d', [-0.31388346751662694, -0.3258089756491075, -0.3334415484696328, -0.337339569363902, -0.3380506669253563, -0.33632971356204194, -0.33297184944135194, -0.32860603804700494, -0.3237193013856481, -0.31867334775141454, -0.3137208624929156, -0.309023006589604, -0.30466761821113303, -0.30068731065422005, -0.29707698394243204, -0.2929940589992386])",-78.61425992448393,-164.92300982786014,-49.762390762966945,-0.06877325107627386,-0.006336516170985332,-0.33632971356204194,25.00000024285142,-1.0,[],[],[],10000000000.0,0.02078080177307129
9,2.4582366943359375,-174.9652862548828,-75.20436096191406,49.942481994628906,0.34874042868614197,0.02577581629157056,-0.3343790014598033,15.808659012900115,"array('d', [-74.64669036865234, -75.44130803241669, -76.25906189430793, -77.09040213397267, -77.92709462268581, -78.76243703109229, -79.59164837205756, -80.41161791512891, -81.22054421175731, -82.0176236430568, -82.8027772382588, -83.57641601381223, -84.33924704282947, -85.09212129917809, -85.83592293126789, -86.42358646126242])","array('d', [-176.4408721923828, -174.07129101233724, -171.70923168073037, -169.35173000877606, -166.9960221054018, -164.63978167211172, -162.28134788786414, -159.91966932979253, -157.55417657519328, -155.18466037643282, -152.8111625251726, -150.43388434253794, -148.05311462422551, -145.66917648007185, -143.28239127911453, -141.37068489963107])","array('d', [-49.94194030761719, -49.88225925745097, -49.838583932828364, -49.806294473320975, -49.78218928485333, -49.764017307967386, -49.750174549778734, -49.73950424424495, -49.73116326635038, -49.724531656922714, -49.7191508259668, -49.714681230508425, -49.71087350801786, -49.7075490135103, -49.70458693028645, -49.70245009543509])","array('d', [0.3498651385307311, 0.24183064386140612, 0.14407698198715732, 0.05562580382670529, -0.018053511052977672, -0.06894121364276035, -0.10165149444230645, -0.12020104302556944, -0.12809268901639856, -0.12834057026607576, -0.12347933076401152, -0.11557389462027765, -0.10623319681528165, -0.09662588385088193, -0.08749490843683011, -0.07916867420948358])","array('d', [-0.027697635814547435, -0.020177307197855026, -0.014853581587112238, -0.011042299515048643, -0.008288101527603302, -0.006283058419679037, -0.00481568433352608, -0.003738555005209848, -0.0029474372205876803, -0.002367530564687657, -0.0019441995193572685, -0.001636609938808406, -0.0014132945540104194, -0.001249041875470981, -0.0011227323323200296, -0.0010158906326769252])","array('d', [-0.317202134928431, -0.3291363484601926, -0.33677640133157716, -0.34068100570174487, -0.3413944718000239, -0.3396694996497314, -0.33630324283091534, -0.3319262807280815, -0.32702692604444183, -0.32196787027112467, -0.3170024949642042, -0.31229240630731936, -0.307925683796284, -0.30393502913623827, -0.3003153277422893, -0.2962218117530273])",-78.76243703109229,-164.63978167211172,-49.764017307967386,-0.06894121364276035,-0.006283058419679037,-0.3396694996497314,25.000000242800482,-1.0,[],[],[],10000000000.0,0.020299196243286133
10,2.508556365966797,-174.37890625,-75.43386840820312,49.94375991821289,0.34006032347679127,0.024518037214875152,-0.3414549072596689,15.818870686969282,"array('d', [-74.7564926147461, -75.55909686487826, -76.38482683171993, -77.22414162919475, -78.06881260644487, -78.912131455763, -79.74931044785374, -80.57723416722071, -81.3940981891599, -82.19909734168488, -82.99215222201929, -83.77367422659592, -84.54437133328503, -85.30509570336616, -86.05673277085207, -86.65065260193164])","array('d', [-176.14442443847656, -173.7775197283486, -171.4182285313907, -169.0635499536625, -166.71068889530238, -164.35729038563386, -162.00167252633858, -159.64277035190017, -157.28000678072328, -154.91316934832025, -152.54229980076553, -150.1676015032983, -147.78936651015286, -145.40792173661382, -143.02359243388568, -141.11382044329702])","array('d', [-49.941749572753906, -49.882730562438276, -49.83950335641061, -49.80751962685401, -49.78362465075532, -49.7655983832524, -49.75185753840294, -49.741259292385074, -49.732969986897885, -49.72637614473037, -49.72102364792306, -49.71657605282017, -49.7127861373215, -49.70947670291343, -49.7065278512294, -49.70440053192539])","array('d', [0.35006114840507485, 0.24200800094460792, 0.14423746132318335, 0.055771011521532445, -0.018100015576299786, -0.06912118775744178, -0.10191807348365757, -0.12051722524489732, -0.12843029598594286, -0.1286792303292579, -0.1238053683497784, -0.11587914621845341, -0.10651380724044852, -0.09688112356547314, -0.08772602909524445, -0.07937780084823244])","array('d', [-0.027380228042602348, -0.019963206109056574, -0.014707989302999972, -0.010942522814060563, -0.0082191855774733, -0.006235054878912599, -0.004781918424495035, -0.0037145105963370486, -0.0029300327046815145, -0.002354645767597618, -0.0019343660428200403, -0.0016288091928979458, -0.0014068274423166835, -0.001243446357125468, -0.0011177326713920422, -0.0010113667519874609])","array('d', [-0.3205682476374762, -0.3325104709969411, -0.3401574059087276, -0.344068067196907, -0.34478341035322846, -0.343053939392243, -0.33967882559375584, -0.3352902696208958, -0.3303778797627561, -0.325305334145578, -0.3203267122137151, -0.3156040654354153, -0.311225713493628, -0.30722444457054865, -0.3035951271310509, -0.29949074757439575])",-78.912131455763,-164.35729038563386,-49.7655983832524,-0.06912118775744178,-0.006235054878912599,-0.343053939392243,25.000000242750755,-1.0,[],[],[],10000000000.0,0.04584383964538574
11,2.559901475906372,-173.50062561035156,-75.78610229492188,49.94805908203125,0.30553904175758356,0.022093139588832734,-0.3517250259730478,15.855039444926835,"array('d', [-74.8673095703125, -75.67802386278812, -76.51184945834461, -77.35925520263856, -78.21201851587745, -79.06342551653327, -79.90868202546991, -80.74466816838891, -81.56957672707847, -82.38260112882028, -83.18366166887562, -83.97317023639306, -84.75183581289002, -85.52051183473841, -86.28008510009815, -86.88034121227435])","array('d', [-175.848388671875, -173.48423110535586, -171.1277796666124, -168.77599603710587, -166.4260533833887, -164.07556759781906, -161.72283538837578, -159.36677807162374, -157.0068108359515, -154.64271800332864, -152.27454132743404, -149.90248630088027, -147.52684833451417, -145.14795825090638, -142.76614528167582, -140.858355310418])","array('d', [-49.94165802001953, -49.88337551392614, -49.840651075251046, -49.809013538091534, -49.78535898724641, -49.767501182719066, -49.75387954752033, -49.74336665223328, -49.735139368677316, -49.72859148639169, -49.72327394154062, -49.71885382155468, -49.71508636214563, -49.71179603859138, -49.70886402425548, -49.70674882115496])","array('d', [0.3502243459224699, 0.2421556681767902, 0.14437107616867947, 0.05589191121881855, -0.018169777204434336, -0.06932322833095361, -0.10220540081690817, -0.120852744828104, -0.12878578159074353, -0.1290343078714986, -0.12414639929135315, -0.11619803456384899, -0.10680678610291851, -0.09714756337719707, -0.08796728510738978, -0.07959609833511241])","array('d', [-0.02702830731868734, -0.019723878370923494, -0.01454378885835403, -0.010828902575812803, -0.008139884202529177, -0.006179191336469619, -0.004742144384599846, -0.003685818562145756, -0.002908979488408582, -0.0023388433560142885, -0.0019221470467797029, -0.0016190077314238009, -0.0013986371343716302, -0.0012363300522656808, -0.0011113665735648732, -0.0010056064679515534])","array('d', [-0.323990865549769, -0.3359397585801502, -0.34359242381745686, -0.3475081282291712, -0.3482244148275081, -0.34648955422212885, -0.34310473719784457, -0.33870379068479495, -0.33377762339028877, -0.32869090304084714, -0.3236984075779538, -0.3189626322589037, -0.3145721339244408, -0.31055978328372735, -0.30692042750599247, -0.3028047075654034])",-79.06342551653327,-164.07556759781906,-49.767501182719066,-0.06932322833095361,-0.006179191336469619,-0.34648955422212885,25.0000002426995,-1.0,[],[],[],10000000000.0,0.04808831214904785
12,2.5888731479644775,-173.20794677734375,-75.90556335449219,49.9500732421875,0.2881785035133361,0.020974405109882212,-0.3550545414302011,15.874862255165318,"array('d', [-75.3185806274414, -76.16193776485974, -77.02787770370091, -77.90697321426669, -78.7910735643176, -79.67348023923414, -80.54940372955078, -81.4157326136047, -82.27067234363929, -83.1134327563832, -83.94395326342645, -84.76266637024754, -85.57030205926142, -86.36773426500713, -87.15586916613655, -87.77881617635528])","array('d', [-174.67198181152344, -172.31917568465255, -169.97428618859908, -167.6341378830014, -165.29579098087186, -162.95675908484375, -160.61526721086443, -158.27019504872393, -155.92093916569513, -153.56728208861128, -151.2092752541199, -148.84714089520293, -146.48119476616964, -144.11178910374147, -141.73927392104721, -139.8387718768938])","array('d', [-49.943050384521484, -49.88869889341147, -49.8487182319269, -49.81901587138968, -49.796740216257795, -49.779875270412, -49.766976667089416, -49.756997181651435, -49.74916963094827, -49.742927218465674, -49.73784887912194, -49.73362167409528, -49.73001502297921, -49.7268632500188, -49.72405397073381, -49.72202719490061])","array('d', [0.3456492722034453, 0.2380159699056556, 0.14062532192129523, 0.05250261222237544, -0.021928104672868855, -0.07326561334604843, -0.10618105686049675, -0.12474443570696032, -0.13250821581382893, -0.13253107191710325, -0.12738576147088343, -0.11916818229414797, -0.10951096948402735, -0.09959942176033236, -0.09018645515955473, -0.08160408661710265])","array('d', [-0.025166660547256334, -0.01843041462040885, -0.01363549735896362, -0.010184530755250597, -0.007678046823405023, -0.005844599509151883, -0.004496813372408709, -0.003503369062527443, -0.0027709008402118456, -0.0022320238884974667, -0.001837236212527583, -0.0015493322116414585, -0.001339490241775858, -0.001184514083995741, -0.0010649051131041843, -0.0009635663962689796])","array('d', [-0.3379146297785899, -0.3496767854222269, -0.35716892637069203, -0.36094330072310926, -0.3615191302279699, -0.35963276323311694, -0.35609135813304715, -0.35153406732333825, -0.34645613986820323, -0.3412254058462114, -0.3360986344170595, -0.33123929427110416, -0.3267361211379215, -0.32262160506522203, -0.3188898700221723, -0.3146698158292812])",-79.67348023923414,-162.95675908484375,-49.779875270412,-0.07326561334604843,-0.005844599509151883,-0.35963276323311694,25.00000024248768,-1.0,[],[],[],10000000000.0,0.020961284637451172
13,2.6240718364715576,-172.32945251464844,-76.26880645751953,49.95916748046875,0.22197529673576347,0.01681293547153464,-0.364954515299525,15.953741645820772,"array('d', [-75.43386840820312, -76.28528562079583, -77.1587600941267, -78.04494317423814, -78.93574050372177, -79.82448758320261, -80.70642064202367, -81.57845189278314, -82.43880977277301, -83.28672674733023, -84.12216427768446, -84.94557597857529, -85.7577116885433, -86.55946374754166, -87.35175520897063, -87.97789482492998])","array('d', [-174.37890625, -172.02897240926794, -169.68686201919914, -167.3493793301013, -165.01357049334945, -162.67693766471893, -160.33770123127874, -157.9947427637069, -155.64746531218896, -153.29566077499584, -150.93939143543847, -148.57889078622094, -146.21448553000783, -143.84653810053996, -141.4754077357298, -139.5759550364141])","array('d', [-49.94375991821289, -49.89079015105724, -49.8517950271875, -49.82280418746043, -49.801048259946086, -49.78456741923054, -49.771956211673334, -49.76219472419587, -49.7545351760256, -49.748424703914225, -49.743452332548806, -49.73931245581387, -49.7357797929367, -49.732692412437615, -49.729940428927286, -49.72795497394285])","array('d', [0.34006032347679127, 0.23295887951164623, 0.13604947688975227, 0.0483622160271226, -0.025829355576784778, -0.0769215539369642, -0.10958468651705183, -0.12789226266493667, -0.13540194600139752, -0.13517764294038248, -0.12979648033722202, -0.12135750730402846, -0.11149526629340996, -0.1013958535698524, -0.09181205369874786, -0.0830749891352487])","array('d', [-0.024518037214875152, -0.017970253587209654, -0.013304965102962665, -0.009944299856336295, -0.0075014181574651565, -0.005713182879177876, -0.004397770290578067, -0.0034276237430427427, -0.0027119630968238397, -0.0021852068129701602, -0.0017991333626194731, -0.0015174682531449686, -0.0013120891003529141, -0.001160347261667812, -0.0010431943162239425, -0.0009439216531179344])","array('d', [-0.3414549072596689, -0.3529896092216733, -0.360285983051579, -0.3638878408481752, -0.36430587150136456, -0.3622709139527638, -0.3585899025143932, -0.3539023731631422, -0.3487039635725599, -0.34336263854063015, -0.33813499301013283, -0.3331840612037829, -0.32859796899812377, -0.32440850474963656, -0.3206090660488789, -0.3163125601650445])",-79.82448758320261,-162.67693766471893,-49.78456741923054,-0.0769215539369642,-0.005713182879177876,-0.3622709139527638,25.00000024243609,-1.0,[],[],[],10000000000.0,0.03215146064758301
14,2.6627044677734375,-172.0364227294922,-76.39110565185547,49.963558197021484,0.19629898667335505,0.015233328565955023,-0.3680358370158336,15.98819501039284,"array('d', [-75.66764068603516, -76.53435330213566, -77.42130872671545, -78.31941213037317, -79.22075296511828, -80.11879085923199, -81.00885993628651, -81.8879611387926, -82.75440766917806, -83.60751392390883, -84.44731989272431, -85.27435334523119, -86.08943312861771, -86.8935150541238, -87.68758007488161, -88.31468686152259])","array('d', [-173.79330444335938, -171.44889583132874, -169.11181853068643, -166.77886893104144, -164.44709695188337, -162.11401293879828, -159.77785681954853, -157.43754018272344, -155.09250254944968, -152.74257503703063, -150.38785897998625, -148.02862478565447, -145.6652328339908, -143.2980755680922, -140.92753858685572, -139.02840478246108])","array('d', [-49.94637680053711, -49.896617914095756, -49.859934748326026, -49.83262963131137, -49.81211752487037, -49.79656526687092, -49.78465578082954, -49.77543169524315, -49.76819006174749, -49.76241051646843, -49.757705840225746, -49.753787846941094, -49.75044395089456, -49.74752125959605, -49.74491596939382, -49.74303633182474])","array('d', [0.3200615346431732, 0.21486322541987174, 0.11967585047514206, 0.033546744763944314, -0.03951377533267805, -0.08953930959920683, -0.12118101144930103, -0.13851051458141678, -0.14509087643277407, -0.14399284514409916, -0.13779887360817583, -0.12861073430282371, -0.11806307960124318, -0.10733998283159789, -0.09719068079279834, -0.08794177262832371])","array('d', [-0.023016657680272976, -0.016895259473756297, -0.012525249983694801, -0.009371891147469533, -0.007076277005363132, -0.005393680067117232, -0.004154615389240414, -0.0032399288039046386, -0.0025646511255828872, -0.0020672862563819966, -0.0017025416116212872, -0.0014362957897024128, -0.0012420620308763548, -0.0010984866455428343, -0.0009875957598817515, -0.0008936139805507087])","array('d', [-0.3483763178202771, -0.35910288970425436, -0.365701585898269, -0.36868723491213723, -0.36854619548632167, -0.3659936784358498, -0.36183315553339473, -0.35670327912238275, -0.3510992047659164, -0.34538791647366257, -0.33982433503804715, -0.3345692661683642, -0.3297082943501496, -0.325270578089081, -0.32124696029679917, -0.31669734799478877])",-80.11879085923199,-162.11401293879828,-49.79656526687092,-0.08953930959920683,-0.005393680067117232,-0.3659936784358498,25.000000242345433,-1.0,[],[],[],10000000000.0,0.037337303161621094
15,2.693074941635132,-171.44859313964844,-76.6379623413086,49.974517822265625,0.14195735752582542,0.011811114847659942,-0.3737324913355968,16.068439554698465,"array('d', [-75.90556335449219, -76.78641887442248, -77.68469937773574, -78.5916805657743, -79.49972252463779, -80.40247718269197, -81.29543457406336, -82.17573814283028, -83.04183757373397, -83.89317896530547, -84.72992805605128, -85.55273081916178, -86.36251561990622, -87.16033862892289, -87.9472721001803, -88.56796541932815])","array('d', [-173.20794677734375, -170.8687224013383, -168.5359245786214, -166.20638480367012, -163.8771993568262, -161.5459283550085, -159.2108704862879, -156.87100370679738, -154.52583685088962, -152.1752689778299, -149.81946482383785, -147.4587518467635, -145.09354049466364, -142.72426649906066, -140.35135264653633, -138.45011281073442])","array('d', [-49.9500732421875, -49.904704666979754, -49.871221049525424, -49.84627681097417, -49.827527179702386, -49.81330577886442, -49.8024131612337, -49.79397612308894, -49.787352719195916, -49.782067278871665, -49.77776557648552, -49.774183836381155, -49.771127404670835, -49.76845625232989, -49.766075303360566, -49.76435754085145])","array('d', [0.2881785035133361, 0.18601426324117043, 0.0935722276588954, 0.009927207935783482, -0.061155130724714506, -0.10935641578399628, -0.13928948084830126, -0.15501530415553755, -0.1600979585916748, -0.15761183394493236, -0.15014124117397087, -0.13978656467519657, -0.12817798629435728, -0.11649289131486848, -0.10547262509129715, -0.09543558640220884])","array('d', [-0.020974405109882212, -0.015415232252670318, -0.011438814688925355, -0.0085648573197698, -0.00646993835055139, -0.004932885793964609, -0.0038001328410496625, -0.002963467857976527, -0.0023455692679516583, -0.00189037960769303, -0.0015565528774956073, -0.0013129047033534186, -0.0011352056293504986, -0.0010039069562573788, -0.0009025434391329771, -0.0008166554513564958])","array('d', [-0.3550545414302011, -0.3645099401374778, -0.3700046180962027, -0.37201083507059945, -0.3709818164298097, -0.3676117018819397, -0.3626976553480993, -0.3568759698507091, -0.3506400566874278, -0.34435445356697414, -0.33827070058420483, -0.33254554184856083, -0.32726019828950825, -0.3224394901175845, -0.3180701646363052, -0.31313034610385543])",-80.40247718269197,-161.5459283550085,-49.81330577886442,-0.10935641578399628,-0.004932885793964609,-0.3676117018819397,25.000000242263997,-1.0,[],[],[],10000000000.0,0.024604320526123047
16,2.713433265686035,-171.44859313964844,-76.6379623413086,49.974517822265625,0.14195735752582542,0.011811114847659942,-0.3737324913355968,16.068439554698465,"array('d', [-76.02600860595703, -76.9137177884232, -77.81711686674728, -78.72769935713316, -79.63798548343395, -80.5417424316618, -81.43455537479524, -82.31365607443921, -83.17757966070933, -84.02585511828023, -84.858727482247, -85.67691727165649, -86.48142186169768, -87.27336058693756, -88.05386309733015, -88.66896808571425])","array('d', [-172.91514587402344, -170.57846173111406, -168.24761321865176, -165.91946343403438, -163.59114578044773, -161.26025867940493, -158.9251432570372, -156.58482315394912, -154.23885338563755, -151.8871771776515, -149.52999965646507, -147.16768399565478, -144.80067151168754, -142.42942427432664, -140.05438745079286, -138.15133214819838])","array('d', [-49.95249557495117, -49.90978171990513, -49.87824243572401, -49.854739364878476, -49.83706998830415, -49.82366725459517, -49.81340216577794, -49.80545219967056, -49.799212329014956, -49.79423405419122, -49.790183288716136, -49.786811208565766, -49.78393417541897, -49.78142008212602, -49.77917924028969, -49.777562577820504])","array('d', [0.2682402133941649, 0.16797335065676952, 0.07724813342040189, -0.004843444653933818, -0.07467212288617117, -0.1217184527081905, -0.15057218731841798, -0.1652879202372374, -0.16943018811824978, -0.16607516539442396, -0.15780764562342126, -0.14672640686533572, -0.13445814247970347, -0.1221754838709204, -0.1106144423897475, -0.10008809551169899])","array('d', [-0.019742269068956243, -0.014517673130990066, -0.010776842606817418, -0.008071034897012788, -0.00609750856888252, -0.004648896335812421, -0.003581012534378472, -0.0027921312849322377, -0.0022094900611754546, -0.0017802922955646007, -0.001465571651744459, -0.0012359242426224902, -0.0010684958031508644, -0.0009448419446411394, -0.000849423516929522, -0.0007685905676958823])","array('d', [-0.3583809574458259, -0.36705107192229136, -0.3718598132469365, -0.37325491302410496, -0.37167046480618615, -0.3677885779856682, -0.36240297855085724, -0.3561487061289227, -0.3495181244460897, -0.3428741825321478, -0.3364662037384463, -0.3304482853752925, -0.3248988303622178, -0.3198398825473493, -0.31525558969979106, -0.31007320348516926])",-80.5417424316618,-161.26025867940493,-49.82366725459517,-0.1217184527081905,-0.004648896335812421,-0.3677885779856682,25.000000242219702,-1.0,[],[],[],10000000000.0,0.01883721351623535
17,2.737197160720825,-170.857666015625,-76.88734436035156,49.988224029541016,0.08689878135919564,0.00782548170536744,-0.3790934522959847,16.165888765652763,"array('d', [-76.26880645751953, -77.169749879581, -78.08241492082887, -78.99876713490431, -79.91167627772384, -80.81516176415192, -81.70502134379414, -82.5786887147065, -83.43489742391648, -84.2733706165831, -85.09453984859962, -85.89930122470975, -86.68881464099098, -87.46434805374531, -88.22716601124284, -88.82708577910104])","array('d', [-172.32945251464844, -169.99772779725396, -167.67043163568707, -165.344513962766, -163.01720578989136, -160.6862040960918, -158.34995689548748, -156.00760086430955, -153.65880358607015, -151.3036145040594, -148.94233465851667, -146.5754110103657, -144.2033564513975, -141.82669345625553, -139.44591801268282, -137.53802101626582])","array('d', [-49.95916748046875, -49.9227749188478, -49.895880322748106, -49.875828530207755, -49.86075080650241, -49.84931448370835, -49.840557651690006, -49.833778529312546, -49.828460378723804, -49.824219889358226, -49.82077141993579, -49.817902187892344, -49.81545514998926, -49.81331734477943, -49.81141210878993, -49.81003760508261])","array('d', [0.22197529673576347, 0.12611111913105372, 0.03936961650018651, -0.03911734723646862, -0.10605727898519027, -0.1504289357727004, -0.1767753971711329, -0.18914109820911718, -0.19109462107523997, -0.1857178883607224, -0.17559740466343216, -0.16282815146926047, -0.14902831095757954, -0.13535896333599984, -0.12254329259466697, -0.11088176650856744])","array('d', [-0.01681293547153464, -0.012376179826489449, -0.009193022411796961, -0.006887055165292765, -0.005203286849135014, -0.003966436913131846, -0.0030542601282058657, -0.002380287673354687, -0.0018825394411053566, -0.0015159687927331876, -0.0012472897039840158, -0.0010513648331604698, -0.0009086466087300189, -0.0008033542379710958, -0.0007221886890150771, -0.0006534637242124183])","array('d', [-0.364954515299525, -0.3718269056399297, -0.375054546259233, -0.3750338087373389, -0.37215736702715324, -0.36708172496356495, -0.36059483489730065, -0.35333007828957325, -0.34577798638793916, -0.3382979929132008, -0.3311342043565304, -0.3244343944490834, -0.3182702225921596, -0.31265710846695854, -0.30757302562105887, -0.30182690116292343])",-80.81516176415192,-160.6862040960918,-49.84931448370835,-0.1504289357727004,-0.003966436913131846,-0.36708172496356495,25.000000242152613,-1.0,[],[],[],10000000000.0,0.021149396896362305
18,2.7711660861968994,-170.26280212402344,-77.13858032226562,50.00566864013672,0.03359654545783988,0.003837484866380577,-0.38400225242110675,16.275528210623538,"array('d', [-76.39110565185547, -77.29807489581552, -78.21459221772231, -79.13286664244153, -80.0459496036541, -80.94799155230452, -81.83490338497953, -82.70422924847982, -83.55481314582, -84.38648736210725, -85.19978877219452, -85.99571276845765, -86.77551112592958, -87.54053573535809, -88.2921272294656, -88.8824839892791])","array('d', [-172.0364227294922, -169.70698261617034, -167.38117237397853, -165.0559975076958, -162.7287493065284, -160.39718440704246, -158.0598145575684, -155.7158429763751, -153.36500272032674, -151.0074042883779, -148.64340320640918, -146.27349346982388, -143.8982276757067, -141.51816142180013, -139.13381826124436, -137.22294047176942])","array('d', [-49.963558197021484, -49.93057771813354, -49.90619503475229, -49.888011997867785, -49.87433832338702, -49.86396722115828, -49.85602687450825, -49.84988082906816, -49.84506025418104, -49.841217296437314, -49.838092715249445, -49.8354933984786, -49.83327683286014, -49.83134052182094, -49.829614917037006, -49.82837001450908])","array('d', [0.19629898667335505, 0.1028782309252158, 0.018347628016360078, -0.058138830759738955, -0.12349514464102913, -0.16639058018108802, -0.19134687859835484, -0.20240609362897502, -0.20314125306938105, -0.19663878659654457, -0.18548678576074482, -0.17177830130203312, -0.15712670302896847, -0.1426864599850047, -0.12917343490994043, -0.11688096790550424])","array('d', [-0.015233328565955023, -0.011218807669477027, -0.00833575004131053, -0.006245676823856911, -0.004718789779907625, -0.0035968326371179204, -0.002769261026121681, -0.002157781012347984, -0.0017062143144514533, -0.0013737000754189305, -0.001130030403037459, -0.0009523868195847413, -0.0008230239221509218, -0.0007276166328551038, -0.0006540937970717785, -0.0005918489124880264])","array('d', [-0.3680358370158336, -0.37392302461120086, -0.3762780544195294, -0.3754718204497224, -0.3718754739203619, -0.3661325093920635, -0.3590290594627923, -0.35119839351988424, -0.34313042531601234, -0.33518276278115455, -0.3275965819971036, -0.3205160377769606, -0.3140089186462005, -0.30808685048177875, -0.3027242854062055, -0.29666419009658923])",-80.94799155230452,-160.39718440704246,-49.86396722115828,-0.16639058018108802,-0.0035968326371179204,-0.3661325093920635,25.000000242122468,-1.0,[],[],[],10000000000.0,0.02734375
19,2.801645040512085,-169.9636688232422,-77.26470184326172,50.015804290771484,0.00828180089592926,0.001959384419023877,-0.3862226446482797,16.33354958221563,"array('d', [-76.5141830444336, -77.42661031498241, -78.34633139646157, -79.26579700839099, -80.17823988097436, -81.07794085244443, -81.96092554071369, -82.82485247421079, -83.66868156956238, -84.49236045538402, -85.2965376642929, -86.08231394858029, -86.85103855292468, -87.60415233251726, -88.34307647854195, -88.9226862394328])","array('d', [-171.7428436279297, -169.4154868045461, -167.09091506631106, -164.76619669907257, -162.4386899492787, -160.10621697518084, -157.76735907704773, -155.42139165950076, -153.06811833526558, -150.70771492538967, -148.34059480186852, -145.96730149337063, -143.5884290641466, -141.20456741551348, -138.816268416278, -136.90210338350235])","array('d', [-49.96865463256836, -49.939219382380315, -49.917449164586515, -49.90121056876382, -49.88899777011966, -49.87973448565264, -49.872642541474264, -49.86715352435976, -49.86284858378889, -49.85941690479151, -49.85662685092699, -49.85430589072738, -49.852326719036554, -49.85059779258349, -49.8490570048356, -49.847945434207276])","array('d', [0.16946892440319056, 0.07860138445576713, -0.0036189730535054446, -0.07801503517660908, -0.1417356967489443, -0.1830976210949734, -0.2066039736350356, -0.21629707071298584, -0.21575651034791413, -0.20807464151951413, -0.1958418607167055, -0.18114945622067838, -0.16560578869197837, -0.15035832551219527, -0.13611516057746498, -0.12316210160391498])","array('d', [-0.013592968694865587, -0.01001546780962298, -0.0074438312229176875, -0.005578259997005876, -0.004214764268723322, -0.0032125986205947922, -0.0024732974225960404, -0.0019270325945560485, -0.001523650766400277, -0.0012266478768120064, -0.0010090260267188842, -0.0008503887689063751, -0.0007348757220926277, -0.0006496866602838576, -0.0005840387409842083, -0.0005284604707416717])","array('d', [-0.37089435656997166, -0.37575984438549626, -0.37720557437626206, -0.3755778895952914, -0.3712263454827432, -0.36478163082680726, -0.3570290635565667, -0.3486024433534542, -0.33999136315757694, -0.33155162653576575, -0.3235213204356398, -0.31604072978684444, -0.3091734934551673, -0.30292717585537415, -0.29727246976249927, -0.29088312187021026])",-81.07794085244443,-160.10621697518084,-49.87973448565264,-0.1830976210949734,-0.0032125986205947922,-0.36478163082680726,25.000000242096075,-1.0,[],[],[],10000000000.0,0.02534627914428711
20,2.8296937942504883,-169.36172485351562,-77.51653289794922,50.03995132446289,-0.03859259560704239,-0.0014043253613637032,-0.38989858230086766,16.455011132082298,"array('d', [-76.6379623413086, -77.55577304310074, -78.47857926798537, -79.39906797923132, -80.3106499120443, -81.20773262072743, -82.08645537117596, -82.94459273794358, -83.78122398931401, -84.59641646760859, -85.39093502636588, -86.16599031871823, -86.92303325367624, -87.66359741104414, -88.38918786054182, -88.9574954562236])","array('d', [-171.44859313964844, -169.1233070790025, -166.79993306624402, -164.4756060803852, -162.1477549800542, -159.81427035902047, -157.4738064779029, -155.125714729839, -152.76987298565376, -150.4065256506366, -148.0361465993298, -145.65933091975464, -143.2767156016074, -140.88892584156986, -138.49654245595218, -136.57899144541594])","array('d', [-49.974517822265625, -49.94893506997042, -49.930005392730514, -49.91588105591201, -49.905256002454166, -49.89719569812826, -49.89102390637849, -49.886246403423684, -49.88249889510826, -49.879511022273405, -49.87708130822609, -49.87505970797223, -49.87333552936601, -49.87182918843608, -49.87048669501988, -49.86951816814671])","array('d', [0.14195735752582542, 0.053707886903658644, -0.026143543411070534, -0.09839611178264793, -0.16047394420696762, -0.20028263158713447, -0.22231101004169807, -0.2306053529493464, -0.22875476678610787, -0.21985960048868475, -0.2065138428607418, -0.19080767897022946, -0.17434468221997412, -0.1582652728085518, -0.14326959487895086, -0.12963570205437197])","array('d', [-0.011811114847659942, -0.008707231218006465, -0.006473914470481762, -0.004852661950641792, -0.003667182971246259, -0.0027956113527106865, -0.0021525545668414003, -0.0016773770292676784, -0.0013264843208644066, -0.0010681244562526105, -0.0008788052921132346, -0.000740777648684412, -0.0006402424599973418, -0.0005660677278789434, -0.0005088810349937148, -0.00046045475328830256])","array('d', [-0.3737324913355968, -0.37755711285647275, -0.3780721073344396, -0.3756006611752628, -0.37047073635796884, -0.3633004716608936, -0.3548756491727441, -0.34583142949233, -0.33665752181249353, -0.3277080586294833, -0.31921797229350884, -0.31132350618132326, -0.3040839381034571, -0.29750256009964454, -0.29154611523144114, -0.2848168305885344])",-81.20773262072743,-159.81427035902047,-49.89719569812826,-0.20028263158713447,-0.0027956113527106865,-0.3633004716608936,25.000000247126074,-1.0,[],[],[],10000000000.0,0.023600339889526367
21,2.8636693954467773,-168.7544403076172,-77.7679443359375,50.06789779663086,-0.08000888675451284,-0.0037618870846928176,-0.39311556418868476,16.582478884530435,"array('d', [-76.88734436035156, -77.81519030118655, -78.74346051064988, -79.6652823849412, -80.57440053918107, -81.46545548519641, -82.33480227769743, -83.18044463258813, -84.00170299346743, -84.79888950868254, -85.57300815843811, -86.32549587638549, -87.05801280167606, -87.77228307564175, -88.46998384100559, -89.0146877511755])","array('d', [-170.857666015625, -168.53628506025845, -166.21504535300573, -163.89122388193712, -161.56239794336457, -159.22659974657972, -156.88263530465971, -154.53001471643094, -152.16877076088235, -149.79929028103018, -147.42217198206865, -145.03811647674752, -142.64784780530803, -140.25206202556762, -137.85139745701616, -135.92700841140433])","array('d', [-49.988224029541016, -49.97126340685186, -49.958696680232656, -49.94930887211323, -49.94223878665616, -49.936868896809685, -49.93275167681317, -49.92955973938606, -49.92705165479228, -49.925048241554215, -49.9234160100511, -49.92205559582114, -49.92089373170886, -49.9198777532981, -49.91897191223907, -49.91831834074706])","array('d', [0.08689878135919564, 0.0038888226461722486, -0.07122170071367005, -0.1391845183669973, -0.19808228150933557, -0.2348430063001297, -0.25394120836216205, -0.25944263749126534, -0.2549642086475427, -0.24362840839841912, -0.22804030210484846, -0.21029007713743192, -0.19197280809864864, -0.1742152105562719, -0.157701557723705, -0.14269428323099767])","array('d', [-0.00782548170536744, -0.00577729068973526, -0.0043007651501138135, -0.0032274050686984814, -0.002441776771976955, -0.001863780554876676, -0.0014371145628710607, -0.0011216978376843382, -0.0008886577322232473, -0.0007169376493716262, -0.0005909493697757974, -0.0004989173356940574, -0.00043169537541472774, -0.000381917758305263, -0.00034339769077848363, -0.00031071941081710667])","array('d', [-0.3790934522959847, -0.3808497347487306, -0.37950292671198205, -0.37533534535724855, -0.3686328907240303, -0.35999005978187987, -0.35019755432026395, -0.33989579004145254, -0.3295760700101919, -0.3195896973196248, -0.3101652812263477, -0.3014307007984637, -0.2934361367289478, -0.28617596528293443, -0.2796087077816099, -0.2721917274272729])",-81.46545548519641,-159.22659974657972,-49.936868896809685,-0.2348430063001297,-0.001863780554876676,-0.35999005978187987,25.000000242032492,-1.0,[],[],[],10000000000.0,0.031380653381347656
22,2.8972346782684326,-168.4486846923828,-77.89373779296875,50.08289337158203,-0.09860628098249447,-0.004771544132381778,-0.3945935209605357,16.646399135173663,"array('d', [-77.13858032226562, -78.0754782004653, -79.00839373226815, -79.93084348125228, -80.8368692045391, -81.72131098003507, -82.58071816673315, -83.41331314444935, -84.21865394902518, -84.99729767352598, -85.75048910804227, -86.47989341051104, -87.18738153191529, -87.87486918585135, -88.54420603889857, -89.06493989594529])","array('d', [-170.26280212402344, -167.94501186906513, -165.62561017794283, -163.30202530756694, -160.97198898210456, -158.63367711508593, -156.2860505852493, -153.9287823420022, -151.56206389368728, -149.18642720142543, -146.80259706313916, -144.41137955535336, -142.0135846578065, -139.6099774367939, -137.20125138984034, -135.27023838109696])","array('d', [-50.00566864013672, -49.99733614129709, -49.991134594148036, -49.98647788742241, -49.98294955023785, -49.98025042499092, -49.97816347347181, -49.97652984996102, -49.97523243647924, -49.97418437947823, -49.97332105366322, -49.972594422313456, -49.97196909963567, -49.97141963182567, -49.97092864735532, -49.97057421896795])","array('d', [0.03359654545783988, -0.0443410392350011, -0.11486188837473842, -0.17867179672360428, -0.23464124153328222, -0.2685369201138092, -0.28483838441623976, -0.2876459614425294, -0.28061565581895304, -0.26689997068971, -0.249120189958954, -0.2293696671944096, -0.2092368376769445, -0.18983577601404703, -0.17183549821540867, -0.15548320261010465])","array('d', [-0.003837484866380577, -0.0028450820129687572, -0.002128121187069966, -0.0016059570908256411, -0.0012231003958205534, -0.0009409077428510328, -0.0007321363753775141, -0.0005773447475567139, -0.00046250188273590817, -0.00037736400421967093, -0.0003143478893687619, -0.00026773479251099373, -0.00023310110917614647, -0.0002069100574103383, -0.00018622262597201673, -0.0001685015182682243])","array('d', [-0.38400225242110675, -0.3837658256265518, -0.3806111087407659, -0.3747869034399335, -0.3665388778692483, -0.3564399515233049, -0.34529087685671234, -0.3337405615127592, -0.3222836699954607, -0.3112694197365367, -0.30092023220044334, -0.2913554642992113, -0.2826159467278656, -0.274686895645307, -0.2675184174012701, -0.25942516286934814])",-81.72131098003507,-158.63367711508593,-49.98025042499092,-0.2685369201138092,-0.0009409077428510328,-0.3564399515233049,25.00000024199136,-1.0,[],[],[],10000000000.0,0.028161287307739258
23,2.9251997470855713,-168.4486846923828,-77.89373779296875,50.08289337158203,-0.09860628098249447,-0.004771544132381778,-0.3945935209605357,16.646399135173663,"array('d', [-77.26470184326172, -78.20563429479712, -79.14049182610455, -80.06296428339212, -80.96722630286253, -81.8482039204458, -82.70253389531965, -83.52854173001248, -84.325900217001, -85.095286056514, -85.83806211485388, -86.55600552434362, -87.25109054722131, -87.92532659481775, -88.58064752730859, -89.0895509885336])","array('d', [-169.9636688232422, -167.64750251067764, -165.32887744303318, -163.00529927071437, -160.67457739644703, -158.33495870049393, -155.98548077002923, -153.62589746040916, -151.25647899450598, -148.87782894617607, -146.49073390422194, -144.09605118767138, -141.69463212392571, -139.28727461793093, -136.87469811048265, -134.94053377301137])","array('d', [-50.015804290771484, -50.01153439425596, -50.008327377106795, -50.00589242878395, -50.00402276966773, -50.002569834522376, -50.00142586662144, -50.000512062876986, -49.999770403602845, -49.99915795236234, -49.99864284647148, -49.99820146654401, -49.997816439645526, -49.99747523566723, -49.99716918393221, -49.996948061390896])","array('d', [0.00828180089592926, -0.06724676941987097, -0.13558785201704518, -0.1974254258779403, -0.25205848556329163, -0.28462455361469197, -0.299612222948256, -0.30114393733198835, -0.2928987246341035, -0.2780464921322309, -0.25921823050489906, -0.23850993888768265, -0.21750746304696147, -0.19731908908997703, -0.17860661730885533, -0.16160996508255226])","array('d', [-0.001959384419023877, -0.0014647853530518125, -0.00110680095131592, -0.0008455167424183123, -0.0006534153121430121, -0.0005113035661890557, -0.00040563356412861705, -0.0003267257798209144, -0.00026758817558158554, -0.00022311472283871833, -0.0001895302448432294, -0.00016399959770480068, -0.0001443497185946339, -0.00012887166721062745, -0.00011618141817832612, -0.00010512560698002089])","array('d', [-0.3862226446482797, -0.3850401203631703, -0.3810226258994208, -0.3744048635440386, -0.3654132738432564, -0.3546108207561786, -0.3428049267786814, -0.33064976301915, -0.31864223529543256, -0.3071307818930161, -0.2963348323039022, -0.2863695156353449, -0.27727100421253, -0.2690199569315068, -0.26156230801694313, -0.2531440198693714])",-81.8482039204458,-158.33495870049393,-50.002569834522376,-0.28462455361469197,-0.0005113035661890557,-0.3546108207561786,25.00000024197292,-1.0,[],[],[],10000000000.0,0.022232770919799805
