,current_time,x_pos,y_pos,z_pos,roll,pitch,yaw,vel,x_traj,y_traj,z_traj,roll_traj,pitch_traj,yaw_traj,x_cmd,y_cmd,z_cmd,roll_cmd,pitch_cmd,yaw_cmd,vel_cmd,effector_dmg,effector_x,effector_y,effector_z,cost,time_solution
0,22.276776552200317,-360.44793701171875,88.07810974121094,50.019813537597656,0.6365309357643126,0.03493634611368168,-0.8122309883448738,23.193880612761408,"array('d', [90.19132232666016, 88.4052320006401, 86.58143408374269, 84.7308704058128, 82.86211439359134, 80.98192230495533, 79.09513443973736, 77.2050828727764, 75.31399660310984, 73.42328763454759, 71.53377193939774, 69.64584735384257, 67.75963725363586, 65.87510352531318, 63.99213029642566, 62.83158422928152])","array('d', [-362.2589416503906, -360.5115225705787, -358.8026585461576, -357.12235842791176, -355.4620592218625, -353.8145779623882, -352.174572818327, -350.5382826877014, -348.90316057046476, -347.26758537283837, -345.63062139521094, -343.99181604563097, -342.35103336965886, -340.7083226509662, -339.06382137923384, -338.04795187667327])","array('d', [-50.02494812011719, -49.94728865631216, -49.88947907242057, -49.845867159396484, -49.81254609289346, -49.7867663905633, -49.766561531756984, -49.75050504991969, -49.73754991839178, -49.7269204353585, -49.718038480644125, -49.7104728083068, -49.70390407848634, -49.69810078688054, -49.692902764381685, -49.690007510873194])","array('d', [0.6354202628135681, 0.5002116285641128, 0.3778697861157228, 0.2671702997215058, 0.16943195183326673, 0.09824052390059328, 0.04797996954525561, 0.014055853093294577, -0.007399990026206741, -0.01966175561836674, -0.025471990611888158, -0.027074981283653907, -0.026238444094808022, -0.02426968612950877, -0.022027750836944724, -0.019931534995580504])","array('d', [-0.03580257669091211, -0.026490558759227862, -0.019871730589194853, -0.015099217652852697, -0.011616536214486606, -0.009050404842412237, -0.007145439095677188, -0.0057235554996447275, -0.004658365984404483, -0.0038585880980398684, -0.0032570259174561677, -0.0028030936807164003, -0.0024576587436309586, -0.002189452892569683, -0.001972585855626559, -0.0017848699557619263])","array('d', [-0.7832051952693126, -0.808227937071927, -0.8266347920911418, -0.8397230573668045, -0.8484016619767549, -0.8536635386898804, -0.8565215795633798, -0.8577281161653971, -0.8578516871068566, -0.8573166825514934, -0.8564291029395636, -0.8553973688255913, -0.8543513855332591, -0.853360849768638, -0.8524530655733771, -0.8511195942825437])",82.86211439359134,-355.4620592218625,-49.81254609289346,0.16943195183326673,-0.011616536214486606,-0.8484016619767549,25.000000243240542,-1.0,"[-359.72018481797346, 87.36462591751204, 49.96762765200962]","[-340.5301429721739, 83.26696822539863, 46.100911293815486]","[-354.96618036666626, 71.83877809055308, 38.29083481617216]",10000000000.0,0.02724933624267578
1,22.32160258293152,-359.56719970703125,87.00472259521484,50.01908874511719,0.6375104188919066,0.03480416908860201,-0.8270990093562268,23.19681390450166,"array('d', [89.8407211303711, 88.04634508248407, 86.21444379036504, 84.355911251165, 82.4792825755422, 80.59129039841127, 78.69675832858263, 76.7990058774388, 74.90025281161427, 73.00190447171549, 71.10477207709059, 69.20925007896501, 67.31545940554328, 65.4233601036811, 63.53283483012749, 62.36757631514292])","array('d', [-361.9513244628906, -360.212420954368, -358.512252650775, -356.84077582049247, -355.1893839515597, -353.55084997933903, -351.9197989871023, -350.2924479105329, -348.66623598304744, -347.03953444571096, -345.41140435934136, -343.78139293066613, -342.1493659096209, -340.51537530361577, -338.8795616990418, -337.8689737592195])","array('d', [-50.023712158203125, -49.945914501718875, -49.88792757656686, -49.84412789869415, -49.81062414629567, -49.78467453157225, -49.76431566586761, -49.74812162251537, -49.73504452619132, -49.7243071664584, -49.71532968774824, -49.70767913173788, -49.701034605862944, -49.695163280682266, -49.689903916825216, -49.68697428935544])","array('d', [0.6354373693466187, 0.5002271071956768, 0.37788379175953124, 0.2671829725420895, 0.16924033050074025, 0.09791269234738484, 0.0475683262657181, 0.013600650990873186, -0.00786863726900675, -0.020122380939797832, -0.025910419886349165, -0.0274830081529943, -0.026612520897253425, -0.02460964211071822, -0.022335544590984188, -0.020210038326476113])","array('d', [-0.03584607690572725, -0.026557278092374317, -0.01994678335267859, -0.015174397744159207, -0.0116875868861071, -0.00911539256610793, -0.007203771995951123, -0.005775382647914993, -0.004704211785653615, -0.0038991328806607284, -0.0032929774457558588, -0.002835114970430386, -0.0024863303883169608, -0.0022152561073560378, -0.0019958974008219316, -0.0018059631160179275])","array('d', [-0.7879597385737558, -0.8129833821943091, -0.8313909441679598, -0.8444797916522899, -0.8531546710189054, -0.8584061320326316, -0.8612495591885588, -0.8624390568177492, -0.8625444965873942, -0.8619912586042333, -0.8610860375740217, -0.8600376942864125, -0.8589763661700539, -0.8579718231876537, -0.8570513337612583, -0.8556992974863189])",82.4792825755422,-355.1893839515597,-49.81062414629567,0.16924033050074025,-0.0116875868861071,-0.8531546710189054,25.00000024317279,-1.0,"[-359.1668541870382, 86.67682436117843, 49.9672341900842]","[-340.03058370084824, 82.43067007235724, 45.9956695569831]","[-354.5974354706588, 71.11786870476834, 38.26085509677502]",10000000000.0,0.03412008285522461
2,22.35326313972473,-358.9884338378906,86.28191375732422,50.0189323425293,0.6373738646507263,0.03436273336410515,-0.8368012150141858,23.20011712139759,"array('d', [88.78640747070312, 86.96724042098646, 85.11107507000632, 83.22866339026153, 81.32842623912894, 79.41702508935094, 77.49923319527, 75.57833247120013, 73.65651545477984, 71.73516827749172, 69.81508890703036, 67.89666278555352, 65.98000470369527, 64.06507038921232, 62.15173923433416, 60.972234000175774])","array('d', [-361.04345703125, -359.3304695433652, -357.65681274096903, -356.01227218212415, -354.3881027434813, -352.7769393569799, -351.17330385688706, -349.5733443108285, -347.97445623896584, -346.37498583964447, -344.77398267877754, -343.1709918029167, -341.56588270499054, -339.95871435218385, -338.3496355443163, -337.3553127453351])","array('d', [-50.02102279663086, -49.944018414562336, -49.88639365858813, -49.84270006829628, -49.809154681732544, -49.78308255582345, -49.76256111068625, -49.74618887281803, -49.732932193235435, -49.72202175707277, -49.712881747834885, -49.705080950451666, -49.698298889931685, -49.69230241681973, -49.686929577450314, -49.68393607389667])","array('d', [0.6360100507736204, 0.5007452908232759, 0.37835266373037274, 0.2676072254522698, 0.1690166422188439, 0.0972497642163585, 0.04662618123869957, 0.012502159395571694, -0.009031313523794734, -0.02128312269286928, -0.027025022489186284, -0.028525197344350915, -0.027570041736477924, -0.025480437159437715, -0.023124034430679997, -0.020923493501731092])","array('d', [-0.03541842475533473, -0.026346377898659346, -0.01986570128083278, -0.015169327589054303, -0.011725254107357606, -0.009175367389760925, -0.00727369903571061, -0.005847969874412724, -0.004775317874040473, -0.003966550765202184, -0.003355663771522461, -0.00289270729627566, -0.0025388507856563265, -0.00226293510155322, -0.0020390741288797303, -0.0018450310386548135])","array('d', [-0.8022970398280284, -0.8273508848649417, -0.8457821195031058, -0.8588904608221107, -0.8675693463074771, -0.872802975561176, -0.8756146557588088, -0.8767640264793416, -0.876825079229264, -0.876226246019521, -0.8752763728117879, -0.8741857055604368, -0.8730851410740755, -0.8720447305378081, -0.8710916942962561, -0.869692147171803])",81.32842623912894,-354.3881027434813,-49.809154681732544,0.1690166422188439,-0.011725254107357606,-0.8675693463074771,25.00000024295857,-1.0,"[-358.4170282381894, 85.72778411934483, 49.96693905452933]","[-339.35653786247315, 81.28344413910322, 45.85044190558657]","[-354.0984428807526, 70.12566684498226, 38.22284449310955]",10000000000.0,0.02739429473876953
3,22.384584665298462,-358.9884338378906,86.28191375732422,50.0189323425293,0.6373738646507263,0.03436273336410515,-0.8368012150141858,23.20011712139759,"array('d', [88.4329833984375, 86.6053340835647, 84.74087088808638, 82.85029565432185, 80.94198896884218, 79.02258675106312, 77.09684413618021, 75.16802960812842, 73.23832605749776, 71.30911288564526, 69.38118349188626, 67.45492028471074, 65.53043605420581, 63.60768517520328, 61.68654605498207, 60.50216001701119])","array('d', [-360.744873046875, -359.04091682245445, -357.37649920743445, -355.74134601976033, -354.12666396834624, -352.5250403280128, -350.93096134137767, -349.34055133321175, -347.7511907285957, -346.1612170413963, -344.56967580328467, -342.97611123210476, -341.38039402190276, -339.78258545052296, -338.18283706526495, -337.1941930820384])","array('d', [-50.02037048339844, -49.94384367910688, -49.886496040505754, -49.842953691126226, -49.809481084432875, -49.7834335364705, -49.76290778150786, -49.7465146335659, -49.733228210701654, -49.72228405858858, -49.71310935637829, -49.70527468976996, -49.698460616320325, -49.69243451759877, -49.6870346316902, -49.68402582296601])","array('d', [0.6362302303314208, 0.5009445175428794, 0.37853293153488055, 0.26777033851169507, 0.1689595581514532, 0.0970430562309088, 0.04632392242799834, 0.012145866453606439, -0.009410485240361345, -0.021662798568225995, -0.02739021530129976, -0.02886696474991773, -0.027884169059518456, -0.02576615036810586, -0.023382747559114715, -0.02115758684205729])","array('d', [-0.035177022218704064, -0.026203882106000158, -0.019785404997947655, -0.015127962627933735, -0.01170798771514379, -0.009172726306901571, -0.007279644827065249, -0.005858673131114708, -0.004788370386417469, -0.003980457028577078, -0.0033695130235750757, -0.0029059634510372715, -0.002551219867561647, -0.0022742836012676075, -0.002049380298985668, -0.0018543564478390347])","array('d', [-0.8072494705531259, -0.8323149328263546, -0.8507552718722601, -0.8638711095725089, -0.8725521367268461, -0.8777804558735248, -0.8805820677534114, -0.881718488120907, -0.8817651029835387, -0.8811513772771232, -0.880186885766068, -0.8790823447797581, -0.8779689104449987, -0.8769167319619355, -0.8759530165310937, -0.87453788835241])",80.94198896884218,-354.12666396834624,-49.809481084432875,0.1689595581514532,-0.01170798771514379,-0.8725521367268461,25.000000242881285,-1.0,"[-358.2674727790692, 85.53578705493968, 49.9669897537669]","[-339.2224448469869, 81.05119443618028, 45.82267556321933]","[-353.998986913937, 69.92419470161784, 38.21717219718886]",10000000000.0,0.027104616165161133
4,22.440918445587158,-357.857177734375,84.82490539550781,50.018985748291016,0.6178449988365173,0.03144464641809455,-0.8553005894038341,23.214586973708236,"array('d', [88.07810974121094, 86.24197005250062, 84.36919702424116, 82.47044317334786, 80.5540491558426, 78.6266253564142, 76.6929087471498, 74.75615437462311, 72.81853552990923, 70.88142498404355, 68.94561170902206, 67.01147524800878, 65.07912657249555, 63.1485188883314, 61.21952979505637, 60.03023394699569])","array('d', [-360.44793701171875, -358.75311165970044, -357.09804009992206, -355.4723871519986, -353.8673104331805, -352.2753487877745, -350.6909522827344, -349.11022104583355, -347.5305200313606, -345.95017774824333, -344.36823541706747, -342.78423618654244, -341.1980517421613, -339.6097454884562, -338.0194715574063, -337.03659601110303])","array('d', [-50.019813537597656, -49.94376255222381, -49.886690271151046, -49.84329728296099, -49.80989545238683, -49.783870396405625, -49.76333821722538, -49.746922066665654, -49.73360387072813, -49.72262406602385, -49.713412848158036, -49.7055426163718, -49.69869496702031, -49.6926378136043, -49.687209582301946, -49.68418473747968])","array('d', [0.6365309357643126, 0.5012166070939856, 0.3787791283617087, 0.2679931066230955, 0.16895644497093432, 0.0968854202192735, 0.04606634321474564, 0.011830237992878611, -0.009752689167037495, -0.022008911916911518, -0.02772497399067015, -0.029181161059754716, -0.028173335278504474, -0.026029273836743406, -0.023621020150827326, -0.02137318481823784])","array('d', [-0.03493634611368168, -0.026062070673572562, -0.01970583253465962, -0.015087377061202023, -0.01169154436960559, -0.009170930669412578, -0.007286436733039549, -0.0058702046435052425, -0.004802219036827921, -0.003995117187824917, -0.003384067352005256, -0.002919872175449555, -0.0025641876616215604, -0.002286177549289738, -0.002060180957561522, -0.0018641292887337474])","array('d', [-0.8122309883448738, -0.8373123216893891, -0.8557650975300353, -0.8688911746525748, -0.8775766830797942, -0.8828017494361459, -0.88559514113648, -0.8867202860916202, -0.8867539850733533, -0.8861267497508236, -0.8851488950401953, -0.8840316180905937, -0.882906344343562, -0.8818433305815574, -0.8808697798899391, -0.8794403111973048])",80.5540491558426,-353.8673104331805,-49.80989545238683,0.16895644497093432,-0.01169154436960559,-0.8775766830797942,25.000000242801566,-1.0,"[-357.98426494944727, 85.16881488715133, 49.9673983857412]","[-338.9684622538688, 80.60554744982473, 45.77504366097551]","[-353.8097805228407, 69.53542891915139, 38.21278554874985]",10000000000.0,0.04829072952270508
5,22.467721700668335,-357.57891845703125,84.45726013183594,50.019649505615234,0.6060644984245301,0.030162401497363912,-0.8598765571925303,23.21998080950073,"array('d', [86.64402770996094, 84.77470621073488, 82.86947338882972, 80.93878732715979, 78.99082959778465, 77.03210615541795, 75.0672791464797, 73.0995484124738, 71.13104793891907, 69.16312349773852, 67.19654619930743, 65.23168420288825, 63.26864142804517, 61.30736670211896, 59.347734713152484, 58.139253116970025])","array('d', [-359.2769775390625, -357.6188039594059, -356.0012055044995, -354.41361569951675, -352.84700412674863, -351.2937224487042, -349.7480806389424, -348.20608512014616, -346.66504099761164, -345.12324205474533, -343.57971304125886, -342.0339932462565, -340.4859585066141, -338.9356807819953, -337.3833245217923, -336.42353776452927])","array('d', [-50.018978118896484, -49.94332296873351, -49.88621771474566, -49.84255545589284, -49.80876504213332, -49.782302202935284, -49.76132393940964, -49.74447615512234, -49.730752399174996, -49.71939806073495, -49.70984443579904, -49.70166293194898, -49.694533136206424, -49.688220565958, -49.68256121255086, -49.679406543403566])","array('d', [0.6376087069511412, 0.5021918148764077, 0.37966153292474775, 0.2687915393261911, 0.1688920220185559, 0.09623173163210043, 0.04503269298612974, 0.010577297708711539, -0.011104230860768588, -0.023372190810157085, -0.029041566960242002, -0.030415920322795595, -0.029309327502494955, -0.02706283698053194, -0.024556952441640294, -0.022220051452335025])","array('d', [-0.034665852785110356, -0.026012061005230114, -0.019780150428395756, -0.015227411382726616, -0.011861898785688692, -0.009350665687100374, -0.007463624048596726, -0.006038480650838949, -0.004958594334892372, -0.0041385871678269, -0.0035147384748485484, -0.0030384221945596443, -0.002671542398478252, -0.002383327146394284, -0.0021480837546848782, -0.0019436670358516214])","array('d', [-0.831987543902125, -0.8571258097392779, -0.8756231859871777, -0.8887859759887594, -0.8974864411405122, -0.9026970044447981, -0.9054570016265804, -0.9065371733853584, -0.9065197381546193, -0.9058392187257579, -0.9048087656825583, -0.9036414155953439, -0.9024696201800322, -0.9013640407286558, -0.9003518557104462, -0.8988660860354976])",78.99082959778465,-352.84700412674863,-49.80876504213332,0.1688920220185559,-0.011861898785688692,-0.8974864411405122,25.000000242463933,-1.0,"[-356.8736766647674, 83.69331286451283, 49.97182655112726]","[-337.9732343124098, 78.72872797784525, 45.71434187255484]","[-353.06113472567614, 67.75945484523828, 38.50113814178275]",10000000000.0,0.025574207305908203
6,22.503861665725708,-357.0272216796875,83.71732330322266,50.02281951904297,0.5737820267677305,0.02672993578016748,-0.8692363937708992,23.23155158792791,"array('d', [86.28191375732422, 84.40462866546493, 82.49165267773353, 80.55338513404172, 78.59796172362638, 76.63185767639195, 74.65971334137957, 72.68471265961703, 70.70897821984315, 68.73384777748456, 66.76008690114833, 64.78805995960391, 62.81786826545064, 60.84945879017355, 58.882704804439726, 57.66976469605667])","array('d', [-358.9884338378906, -357.33925313591277, -355.7308054861101, -354.1524742530035, -352.59518825541267, -351.05125810861335, -349.51496324167465, -347.98229008639754, -346.45053151828995, -344.91797485286713, -343.3836425329825, -341.84707437674933, -340.3081485056273, -338.76694007619585, -337.2236170344406, -336.2693242089192])","array('d', [-50.0189323425293, -49.94389083908052, -49.88716723034004, -49.84373644113817, -49.810080345284604, -49.78368929282673, -49.76274299674583, -49.745902294631044, -49.732170560254566, -49.720799637794805, -49.71122504736839, -49.70302093405547, -49.69586861822622, -49.68953465429959, -49.683855566299414, -49.68068964269501])","array('d', [0.6373738646507263, 0.5019793207556225, 0.3794692602738861, 0.26861756381397073, 0.1685561764793685, 0.09579136221674898, 0.044532232488979, 0.010050940041077837, -0.011630992218104732, -0.023881367598928033, -0.029521537760871526, -0.03086028071969988, -0.029715736928151302, -0.027431883469311594, -0.024891047184591456, -0.022522352904284493])","array('d', [-0.03436273336410515, -0.02582214503349197, -0.019663447491715978, -0.015158118816268733, -0.011823216330746898, -0.00933158838664844, -0.007456920046745977, -0.00603939173863095, -0.004963991249973313, -0.004146417018139996, -0.0035236628800697093, -0.003047581537532031, -0.002680404162634462, -0.0023915903645832567, -0.0021556203728481604, -0.00195048645058226])","array('d', [-0.8368012150141858, -0.8619270690297772, -0.880414723659772, -0.893569512284174, -0.9022594436418913, -0.9074544748538772, -0.9101958998192736, -0.9112559000971442, -0.91121780171594, -0.9105169564097939, -0.9094670921968105, -0.9082816021036111, -0.9070931119085636, -0.9059723179841898, -0.9049463394552704, -0.9034404377977475])",78.59796172362638,-352.59518825541267,-49.810080345284604,0.1685561764793685,-0.011823216330746898,-0.9022594436418913,25.000000242376217,-1.0,"[-356.6005671432493, 83.32113410715236, 49.97441276327264]","[-337.7293657578778, 78.22135587287336, 45.747118092454535]","[-352.8777127536588, 67.23474861895326, 38.68864486210773]",10000000000.0,0.03253769874572754
7,22.547099590301514,-356.4818115234375,82.971435546875,50.029090881347656,0.5316766500473022,0.022352924570441152,-0.8784608085963389,23.242544046589302,"array('d', [85.5554428100586, 83.6628589912368, 81.73534040824345, 79.7830947501305, 77.81412008177996, 75.83479710739046, 73.84970148186109, 71.86197068253833, 69.87369283957698, 67.88617960598664, 65.90017635887634, 63.91603147524342, 61.93383324695474, 59.95351770804677, 57.97494864683588, 56.754647919565116])","array('d', [-358.41851806640625, -356.7868120205771, -355.1957646826435, -353.63472570425995, -352.0945922930219, -350.5676362918369, -349.0481078577002, -347.5319778588827, -346.01653486258516, -344.50007037132553, -342.9816169619051, -341.46072829637905, -339.93729820955485, -338.41141803218227, -336.88327136327257, -335.93813449320544])","array('d', [-50.018516540527344, -49.94572280195811, -49.89054805476514, -49.84819328193019, -49.81529019276862, -49.7894298487794, -49.76886047741472, -49.75229001541265, -49.73875451084979, -49.727528652404494, -49.718064021297835, -49.709946066785704, -49.70286400147549, -49.69658974576977, -49.69096323990271, -49.687826171558065])","array('d', [0.6326222419738768, 0.49767987437115796, 0.37557895995390705, 0.265097474188072, 0.16513086897657347, 0.09246751372720848, 0.04135120459007868, 0.007045408812534117, -0.014438522353113239, -0.026478531287322832, -0.03190508047955069, -0.03303446683698765, -0.03169051267842483, -0.029220991410426753, -0.02651018646377028, -0.023987410841727015])","array('d', [-0.03329266235232347, -0.025087601089016722, -0.01915481607820184, -0.0148032427999874, -0.011573872090239624, -0.00915512642836551, -0.007330988715144961, -0.005948540870531168, -0.0048974503643703406, -0.004096626072402183, -0.0034852951650441418, -0.003016893726701116, -0.002654806417511278, -0.002369365121079612, -0.0021357406742750474, -0.0019324985538400564])","array('d', [-0.8462266167018078, -0.8711021072965642, -0.889393462137749, -0.9023865688624828, -0.9109335503768383, -0.9159938685145426, -0.9186070889721768, -0.9195456745766563, -0.919393583608502, -0.9185867268995755, -0.9174391345021508, -0.9161642024711898, -0.9148942950078672, -0.9136996500846741, -0.9126068085414304, -0.9110030827046104])",77.81412008177996,-352.0945922930219,-49.81529019276862,0.16513086897657347,-0.011573872090239624,-0.9109335503768383,25.000000242200525,-1.0,"[-355.84069541509734, 82.26479271693353, 49.98750503028997]","[-337.05478908291633, 76.7034204479428, 45.967447597339294]","[-352.3748038881237, 65.59525564940685, 39.493977030727244]",10000000000.0,0.03592395782470703
8,22.59094214439392,-356.21136474609375,82.59638977050781,50.03384780883789,0.507768392562866,0.02003535442054263,-0.8830939968440193,23.248391046143176,"array('d', [84.82490539550781, 82.91815357011255, 80.97793262016532, 79.01409595818133, 77.03440313156511, 75.04506837725913, 73.0505565445708, 71.05392623495597, 69.0572049914383, 67.06165549172451, 65.06798197757827, 63.07649730868874, 61.087258508058234, 59.100173703382154, 57.11508154274336, 55.890836362408216])","array('d', [-357.857177734375, -356.24186936103155, -354.66623453064636, -353.11974358034576, -351.5933771563125, -350.0794669712011, -348.57230677772765, -347.0679082756005, -345.5636026213905, -344.0577256622879, -342.54935493608775, -341.03808831532393, -339.52386192911837, -338.0068066761042, -336.4871425511679, -335.5469208859376])","array('d', [-50.018985748291016, -49.95015592891592, -49.89785910135426, -49.85762383957416, -49.82630296478103, -49.80163961556086, -49.781988396840966, -49.76613277139565, -49.75316310103375, -49.7423935487253, -49.73330459828384, -49.72550290965019, -49.71869316216952, -49.71265831361991, -49.70724579501249, -49.70422771244121])","array('d', [0.6178449988365173, 0.4843088706353598, 0.36348037436243985, 0.2541502202474148, 0.15522431147323512, 0.0833768892238517, 0.033012271343274335, -0.000588678837475499, -0.0214090428331654, -0.032826445547910615, -0.03767273007736203, -0.03826546638663787, -0.03642885916897061, -0.03350994573960735, -0.030391183832715392, -0.0274990827983957])","array('d', [-0.03144464641809455, -0.023754589361858966, -0.018178990777030963, -0.014079026306383122, -0.011029215494761846, -0.008739977138546554, -0.007010020672774195, -0.00569647802452297, -0.004695995189916118, -0.00393241152948111, -0.0033485055914409317, -0.0029003318715149396, -0.002553262635141657, -0.0022791928976387058, -0.0020545724679932164, -0.0018590545170549335])","array('d', [-0.8553005894038341, -0.8794066172020886, -0.8970922683020168, -0.9095850834786672, -0.9177042915762904, -0.9223861927432271, -0.924656276099317, -0.925281542301207, -0.9248430985798781, -0.9237749860970874, -0.9223896282225476, -0.9208988101053578, -0.9194332272518141, -0.9180614238530131, -0.9168082776961112, -0.9149697949863206])",77.03440313156511,-351.5933771563125,-49.82630296478103,0.15522431147323512,-0.011029215494761846,-0.9177042915762904,25.000000242029703,-1.0,"[-355.2594106905555, 81.43756259949465, 50.003796787791806]","[-336.54167761271117, 75.47161952822036, 46.25493139985301]","[-351.9927065595533, 64.22755028736736, 40.35267662809427]",10000000000.0,0.03431129455566406
9,22.64572548866272,-355.14764404296875,81.08965301513672,50.07072830200195,0.400352656841278,0.01071895938366639,-0.9012812813136242,23.260918231992278,"array('d', [84.45726013183594, 82.54358319812359, 80.59747234674538, 78.62853741143924, 76.64437760816429, 74.65109741869769, 72.65308718458736, 70.65335170587946, 68.6538765221294, 66.65588949808809, 64.66006481404786, 62.66668870036913, 60.67579424470392, 58.687267895182515, 56.70092859312811, 55.47602005763187])","array('d', [-357.57891845703125, -355.97169851617247, -354.40327406247224, -352.863237986252, -351.3426581110403, -349.83393142520686, -348.3314027787499, -346.8311284482052, -345.33048138953046, -343.82783750304196, -342.3223125506886, -340.8135404007127, -339.3014905931556, -337.7863246637882, -336.2682904555804, -335.32886055145786])","array('d', [-50.019649505615234, -49.95359118602742, -49.9033432165557, -49.86464519444742, -49.83449373293688, -49.810731971143056, -49.79178534412934, -49.77648829291443, -49.76396836964639, -49.75356716432787, -49.74478553482609, -49.7372453045655, -49.73066236356606, -49.724827785833995, -49.71959460833656, -49.71667641129826])","array('d', [0.6060644984245301, 0.47364943209541854, 0.35383531464452594, 0.24542300852812954, 0.14732763008455804, 0.07620104879422918, 0.026481775312884762, -0.006530128466964685, -0.026808785414810615, -0.03772765102536933, -0.04211631187790686, -0.0422905612850374, -0.04007269504159176, -0.03680753254302276, -0.03337502568105433, -0.030198974796730647])","array('d', [-0.030162401497363912, -0.022813125329068148, -0.017477021692627305, -0.013548192841844874, -0.010622378007902104, -0.008423994730904778, -0.006761192442464277, -0.005497604753717208, -0.004534443469561018, -0.0037988166218017112, -0.0032358921558771486, -0.0028035141171292265, -0.002468434541087455, -0.002203649007057544, -0.001986518203579914, -0.0017974764666349018])","array('d', [-0.8598765571925303, -0.883378747065577, -0.900586541953458, -0.9126831743898272, -0.9204627156276013, -0.9248450170403802, -0.9268455282300154, -0.9272262222914814, -0.9265653906142938, -0.9252951559554469, -0.9237263434213827, -0.9220692395250614, -0.9204530847843666, -0.9189450202604416, -0.9175685964805618, -0.9155495506903217])",76.64437760816429,-351.3426581110403,-49.83449373293688,0.14732763008455804,-0.010622378007902104,-0.9204627156276013,25.000000241943457,-1.0,"[-355.2594106905555, 81.43756259949465, 50.003796787791806]","[-336.54167761271117, 75.47161952822036, 46.25493139985301]","[-351.9927065595533, 64.22755028736736, 40.35267662809427]",10000000000.0,0.04924726486206055
10,22.676056623458862,-354.88494873046875,80.7107162475586,50.08409118652344,0.37237825989723206,0.008521335199475207,-0.905415459475245,23.262262094194874,"array('d', [82.971435546875, 81.03088071772282, 79.06368599781823, 77.0781801028749, 75.0811222063973, 73.07804306032129, 71.07293891268483, 69.06852459103084, 67.06655309099769, 65.06805333696923, 63.073522435386465, 61.08308574621225, 59.096628981517696, 57.113903342957315, 55.13460383065736, 53.914891557699335])","array('d', [-356.4818115234375, -354.90649711435833, -353.36421865714345, -351.8453797121878, -350.3416423986045, -348.8458657132167, -347.3527645022936, -345.85871373038236, -344.3613769899857, -342.8594007303735, -341.35215229442, -339.83949736860194, -338.3216169760366, -336.79886410087926, -335.271659109803, -334.325378613182])","array('d', [-50.029090881347656, -49.9800309478922, -49.94254618535409, -49.913565528196315, -49.890907956752805, -49.8729971335547, -49.858675944384046, -49.84708384438691, -49.83757419925485, -49.82965747918953, -49.82296164032857, -49.817204236470985, -49.81217271191342, -49.80771048492254, -49.80370714627836, -49.801474517455176])","array('d', [0.5316766500473022, 0.40634051735008175, 0.29293168451284846, 0.1903151201271847, 0.09756645090174317, 0.031160202931222142, -0.01436517233990644, -0.043583634139617335, -0.06040562442780356, -0.0681701525960117, -0.06968431227376219, -0.06724498558685565, -0.06265578919335905, -0.05724234806472516, -0.05186528857611963, -0.046929658048379716])","array('d', [-0.022352924570441152, -0.01698710129277572, -0.013067242546064358, -0.010166205494457134, -0.007996301529517686, -0.0063597814900418085, -0.005117949370817687, -0.0041715519118144745, -0.0034482487715919567, -0.0028943775623121266, -0.00246938956760832, -0.002141999093566465, -0.001887469308969574, -0.0016856803967365303, -0.0015197597569077774, -0.0013751359210303564])","array('d', [-0.8784608085963389, -0.8983258882115261, -0.9126088644049392, -0.9222525217327628, -0.9279132842755422, -0.93042150708217, -0.9307361888290087, -0.9295892623438334, -0.9275415832663106, -0.9250128807978658, -0.9223033862793466, -0.9196134287388446, -0.9170626895095778, -0.9147092383357349, -0.912568180298637, -0.9094291951375736])",75.0811222063973,-350.3416423986045,-49.890907956752805,0.09756645090174317,-0.007996301529517686,-0.9279132842755422,25.00000024158807,-1.0,"[-354.21678882708534, 79.91353649847682, 50.054650170816316]","[-335.6274218600156, 73.1990689348755, 46.99665064482515]","[-351.30897541548103, 61.7029439765902, 42.31391757208243]",10000000000.0,0.027892112731933594
11,22.708027362823486,-354.3621826171875,79.9503402709961,50.115657806396484,0.3173526227474212,0.004589103627949893,-0.9132525165888927,23.263307406069153,"array('d', [82.59638977050781, 80.64938332961509, 78.67744440813465, 76.68855137136806, 74.68923123358178, 72.68485455242647, 70.67930705328449, 68.6752206713098, 66.67428000510714, 64.67745378826595, 62.68518426096297, 60.69754603179472, 58.71437772697308, 56.73538697366375, 54.76022862896455, 53.54337325738232])","array('d', [-356.21136474609375, -354.6438727764868, -353.10757145135545, -351.59311464165955, -350.09235248815423, -348.59829417205714, -347.10577561270753, -345.61127684526457, -344.11255762836663, -342.6083537412553, -341.0981151717756, -339.58178328026946, -338.05960768493895, -336.53200310981026, -334.99944529823404, -334.04949977521704])","array('d', [-50.03384780883789, -49.98984822955421, -49.95618764559332, -49.930134267041055, -49.90974407273074, -49.89360963486652, -49.88069639370029, -49.87023409613968, -49.86164346257158, -49.854485679397335, -49.84842710008897, -49.843214348081254, -49.83865668906223, -49.834613558228185, -49.8309857568366, -49.828962508898336])","array('d', [0.507768392562866, 0.3847074294217578, 0.27335725531875577, 0.17260344255957802, 0.08160307581363452, 0.01670791474791906, -0.02746975734825804, -0.05546717355453663, -0.07117630328287947, -0.07792602171951145, -0.07851646122690573, -0.07523829355461052, -0.06988880174547624, -0.06378706533284435, -0.05778718661451248, -0.05228801346448373])","array('d', [-0.02003535442054263, -0.015246055011138399, -0.011741699077467879, -0.009144709692716716, -0.007200069509498683, -0.005732060736303511, -0.004617177052956138, -0.003766870408224434, -0.0031164995094711857, -0.002618049989631383, -0.002235204806127019, -0.0019399256434555917, -0.001710038541970524, -0.0015275124123861983, -0.0013772366030346199, -0.001246175626905941])","array('d', [-0.8830939968440193, -0.9018471753365478, -0.9152203058491735, -0.9240913003400396, -0.9290791305628284, -0.9309889377613094, -0.9307632939319646, -0.9291258515729935, -0.9266325663783371, -0.9236995143158754, -0.9206236428326023, -0.9176020940976276, -0.914751445619896, -0.9121268104656016, -0.9097405451874513, -0.9062424587149105])",74.68923123358178,-350.09235248815423,-49.90974407273074,0.08160307581363452,-0.007200069509498683,-0.9290791305628284,25.00000024149632,-1.0,"[-353.9589441532638, 79.53073652427756, 50.07130933841392]","[-335.39983282632153, 72.64687301564226, 47.212671559918526]","[-351.13289580340194, 61.09713561873683, 42.845258661903884]",10000000000.0,0.0276033878326416
12,22.7356014251709,-354.1018981933594,79.56913757324219,50.13390350341797,0.29093557596206654,0.0028349305503069916,-0.9169234474513194,23.263063580782923,"array('d', [81.84443664550781, 79.88466072789609, 77.9035003346318, 75.90824586271519, 73.90496424782751, 71.8987086203464, 69.8931433845126, 67.89073125944805, 65.893014236115, 63.90083314653958, 61.91451192135005, 59.934014600278104, 57.95907652554667, 55.9893093263839, 54.02427917954626, 52.81435750717725])","array('d', [-355.67626953125, -354.12449829157885, -352.5999454297337, -351.09378270624546, -349.59825411501373, -348.10668426375514, -346.61416770191073, -345.1174128765886, -343.61439087319746, -342.1040348476266, -340.5859777251774, -339.0603283021498, -337.52748771694223, -335.98800676567305, -334.44248295137226, -333.48375920402094])","array('d', [-50.048866271972656, -50.01519015493834, -49.989342261318995, -49.96927236308763, -49.95351538075347, -49.941007025780095, -49.930962854156874, -49.922797620870575, -49.916070528555245, -49.91044733768076, -49.90567376224986, -49.90155661693153, -49.89795040245414, -49.89474776065957, -49.89187269195616, -49.8902690925418])","array('d', [0.45565816760063177, 0.3375561437489466, 0.23069300387685293, 0.13399922795971697, 0.04673447799993412, -0.014904993025995628, -0.05616085396808027, -0.08149926591558004, -0.09477778302244105, -0.09930698760183614, -0.0978741748402726, -0.09275778448769212, -0.08574191034829359, -0.07813156217667255, -0.0707666025191698, -0.06403227570265316])","array('d', [-0.015311436727642897, -0.011690687560456355, -0.009032348082205252, -0.007056703131473183, -0.00557370657217958, -0.004451736286927675, -0.003597867036749855, -0.0029452187333799938, -0.002444809442187115, -0.0020601636932540716, -0.0017636454651152648, -0.0015339047876246333, -0.001354067812059889, -0.001210442265540505, -0.0010915957864039323, -0.0009877171047259245])","array('d', [-0.8924082954737805, -0.9088191699731012, -0.9202521929025003, -0.9274609669950495, -0.9309901368436789, -0.9315947027362494, -0.930186084443439, -0.927472440790051, -0.9240004698068535, -0.9201790249435616, -0.9162982198173905, -0.9125483343662022, -0.9090391418964345, -0.9058192217463867, -0.9028948409710902, -0.8986088269444656])",73.90496424782751,-349.59825411501373,-49.95351538075347,0.04673447799993412,-0.00557370657217958,-0.9309901368436789,25.000000241305308,-1.0,"[-353.289476408251, 78.5287500043388, 50.12147906601847]","[-334.805862748728, 71.25329912277374, 47.792565036813535]","[-350.66305148610076, 59.59760109958456, 44.22966327847639]",10000000000.0,0.024895906448364258
13,22.780618906021118,-353.5829772949219,78.80524444580078,50.175048828125,0.24102912843227386,-3.290093081896197e-05,-0.9237119396540782,23.26127182988407,"array('d', [81.08965301513672, 79.11797443132991, 77.12845650918074, 75.12775798773019, 73.12151848873751, 71.11449751466662, 69.11015156895998, 67.1107794417231, 65.11778032273145, 63.131863272973725, 61.15322774552781, 59.18171978821312, 57.21696352713501, 55.258466646455474, 53.30569897806565, 52.10410660589341])","array('d', [-355.14764404296875, -353.61082370956905, -352.0970747152833, -350.5980801139883, -349.1064792760395, -347.6159139144959, -346.12174505116997, -344.6209226472522, -343.1116448266149, -341.5930585093357, -340.06499529072244, -338.5277457073292, -336.9818749730251, -335.42808075225355, -333.86709150982665, -332.8980134762446])","array('d', [-50.07072830200195, -50.04709793817151, -50.02886347986855, -50.0146253576566, -50.0033795326978, -49.99439441110486, -49.98712954447547, -49.98118110438141, -49.97624467065465, -49.9720893472901, -49.96853948970553, -49.96546167678008, -49.96275537165232, -49.96034621180003, -49.95818117838517, -49.95697335025108])","array('d', [0.400352656841278, 0.28751364366300186, 0.18541267321185778, 0.0930278867700285, 0.009607652779987656, -0.04863955333931617, -0.0868218901507505, -0.1093438405469945, -0.1200356973837428, -0.12219480225128582, -0.1185987222233009, -0.11151516419244713, -0.10271535196102148, -0.09348979086709311, -0.08466327655138552, -0.07660650749178344])","array('d', [-0.01071895938366639, -0.008227185667234422, -0.006391141116741631, -0.005022254764115451, -0.003991628751744287, -0.003209531059467803, -0.0026123329092529192, -0.0021540684169569107, -0.001800971474023596, -0.0015278450205190633, -0.001315582934706376, -0.0011494396095343676, -0.0010178008938557623, -0.0009113038539178177, -0.0008222093572274262, -0.0007439661618417726])","array('d', [-0.9012812813136242, -0.9153110773631836, -0.9247401762944666, -0.930211929475106, -0.932201210302527, -0.9314160175495825, -0.928741311384793, -0.9248725416843872, -0.9203486886116653, -0.9155720317576814, -0.9108258915529844, -0.9062933585874208, -0.9020768921984933, -0.8982179711162241, -0.8947162226503118, -0.88958505389903])",73.12151848873751,-349.1064792760395,-50.0033795326978,0.009607652779987656,-0.003991628751744287,-0.932201210302527,25.00000024111276,-1.0,"[-352.9340030693641, 77.99358908980743, 50.15185073998141]","[-334.48837722824953, 70.54003888938432, 48.10161252470538]","[-350.405866935765, 58.84973348976666, 44.94403733560732]",10000000000.0,0.03942561149597168
14,22.853249311447144,-352.5510559082031,77.27987670898438,50.275672912597656,0.1552357524633407,-0.0025333510711790025,-0.9353617866847178,23.25275377569174,"array('d', [80.7107162475586, 78.73358652755768, 76.7403378651668, 74.73734309503847, 72.73004695449514, 70.72307596027908, 68.71979126908657, 66.72241439037883, 64.73227523460419, 62.750017418115576, 60.77577754403237, 58.80934144862973, 56.85027613482731, 54.89803569407385, 52.95204017469707, 51.75502618164329])","array('d', [-354.88494873046875, -353.3550751157693, -351.84619899329425, -350.3502484219065, -348.86005459479776, -347.3694129785127, -345.8738163582442, -344.3703366324973, -342.85728800727554, -341.3339273814862, -339.8001887715164, -338.25645635722185, -336.7033797261118, -335.1417318646185, -333.572308207499, -332.5976200934348])","array('d', [-50.08409118652344, -50.065270546794245, -50.05068366540729, -50.039238469324076, -50.03015022647843, -50.0228464750711, -50.016904013065854, -50.012006518110454, -50.00791555139794, -50.004450334718584, -50.00147342934359, -49.998880483542955, -49.996592840833905, -49.99455218546789, -49.99271664250516, -49.991692435125394])","array('d', [0.37237825989723206, 0.2622013602705944, 0.16250916999020001, 0.07230393817510876, -0.009220993776683334, -0.06577893745000288, -0.10241858455046293, -0.12351868980742241, -0.13289955049514315, -0.13385438897093396, -0.12915750370933224, -0.12107214249466544, -0.11136351897108206, -0.10131500443988939, -0.09174380971202173, -0.08301323941526774])","array('d', [-0.008521335199475207, -0.0065679081213340556, -0.005125722631448755, -0.004048437830903046, -0.0032357301725058013, -0.0026175910931740157, -0.0021442787786547296, -0.0017797999094159719, -0.001497681202908729, -0.00127815513966285, -0.0011062376303483871, -0.0009703856463597699, -0.0008615444489032088, -0.0007724660178045334, -0.000697223667163963, -0.0006308744226143119])","array('d', [-0.905415459475245, -0.9182758443419685, -0.9267094519677668, -0.9313110350755187, -0.9325231126715193, -0.9310319911473302, -0.9277117018824195, -0.9232526954247768, -0.9181908624554528, -0.9129255743243133, -0.9077368811980971, -0.902804257592116, -0.8982264109795366, -0.8940411489210954, -0.890244658763536, -0.8846821631246181])",72.73004695449514,-348.86005459479776,-50.03015022647843,-0.009220993776683334,-0.0032357301725058013,-0.9325231126715193,25.000000241018626,-1.0,"[-351.66076782365866, 76.07265979129855, 50.27947293513975]","[-333.33249373372547, 68.15722214866587, 49.08774485798566]","[-349.4287193028698, 56.43572302624023, 47.212116763133416]",10000000000.0,0.059813499450683594
15,22.880027770996094,-352.29345703125,76.89848327636719,50.30324172973633,0.13654744625091553,-0.0026434084866196784,-0.9381131370875497,23.249846705348496,"array('d', [79.1874008178711, 77.19074344913082, 75.18420432269791, 73.17322967303757, 71.16262040338296, 69.15655529760971, 67.15808020822296, 65.1691528916138, 63.190854824120514, 61.223585919231915, 59.267242856828325, 57.32137814098145, 55.385335496194955, 53.458358543889695, 51.53967132732489, 50.361089648544734])","array('d', [-353.8421936035156, -352.3377631544908, -350.84652826821036, -349.36127606182635, -347.87552909260603, -346.3836544142737, -344.8816301369108, -343.3669875552645, -341.83848887365906, -340.2958208254097, -338.7393197533972, -337.169737825921, -335.5880554069921, -333.9953396304244, -332.39264627446033, -331.39589720312614])","array('d', [-50.153724670410156, -50.15081544125709, -50.14827644799544, -50.1460232871221, -50.14399694275608, -50.14215585827301, -50.140470622357384, -50.138920394657596, -50.13749046783772, -50.13617054065936, -50.13495342331645, -50.13383399226956, -50.132808275363914, -50.13187259260611, -50.13102271167237, -50.130547476582095])","array('d', [0.26544910669326777, 0.16544785261434294, 0.07496296800920718, -0.006911148374339361, -0.08099389274574029, -0.1313493557452958, -0.16223704399033922, -0.17797436842830805, -0.18237022977055006, -0.17872105573997787, -0.16980136450145314, -0.15786534042230843, -0.14465983936458976, -0.1314433407975319, -0.11900505511272835, -0.10768023654954516])","array('d', [-0.0012492872774600204, -0.0010809054937265708, -0.0009524326295718179, -0.0008517754584420542, -0.0007706534729007595, -0.0007033372022413478, -0.0006458112667860543, -0.0005952150071924235, -0.0005494892962516693, -0.0005071586451999328, -0.00046720181804700306, -0.0004289806465137573, -0.0003922063620829931, -0.00035692836270961084, -0.00032353348587237525, -0.000292745533520299])","array('d', [-0.9204515655848643, -0.9290122941286371, -0.9337252560597159, -0.9350348700350574, -0.9332839717387071, -0.9290845052371783, -0.9232718024184514, -0.9165262719075231, -0.9093773040953669, -0.9022159235638384, -0.8953108084478412, -0.8888277779310705, -0.8828508798824127, -0.8774033854208982, -0.8724678118016225, -0.8652393861420582])",71.16262040338296,-347.87552909260603,-50.14399694275608,-0.08099389274574029,-0.0007706534729007595,-0.9332839717387071,25.000000240647314,-1.0,"[-351.4391378387802, 75.73809882625811, 50.303642004760086]","[-333.13011759179386, 67.76056131083763, 49.2365558856945]","[-349.25476141588126, 56.04854869329391, 47.555894708414776]",10000000000.0,0.024766206741333008
16,22.91848397254944,-351.5201721191406,75.75350189208984,50.388954162597656,0.08564944565296169,-0.0010735054966063086,-0.9453763206813,23.24605580831406,"array('d', [78.80524444580078, 76.80441989586875, 74.79507563060271, 72.78247844461316, 70.77130245908218, 68.7656372495617, 66.7684671229505, 64.78169618657776, 62.80635240312301, 60.84278103643103, 58.89082361653997, 56.949978247948025, 55.01953619910591, 53.098691451415945, 51.18662173431257, 50.012497134734176])","array('d', [-353.5829772949219, -352.0840879226593, -350.59663154598223, -349.1135768716719, -347.6285964461049, -346.13618431338307, -344.6324259142927, -343.1149567122137, -341.582642878226, -340.03527204250764, -338.47327536954685, -336.89749172258274, -335.3089791646258, -333.70887362720305, -332.0982914830232, -331.09632806536575])","array('d', [-50.175048828125, -50.17493958136429, -50.174508276940415, -50.17384867106193, -50.17303145795788, -50.17211083390113, -50.17112893684305, -50.170118931294226, -50.16910719098786, -50.16811482902639, -50.16715871894325, -50.166252095119646, -50.16540479456983, -50.16462319258537, -50.1639098858177, -50.16351060259635])","array('d', [0.24102912843227386, 0.1433517405351707, 0.054969577195007946, -0.02500191814269843, -0.09736310759208373, -0.14635861125218924, -0.17596434470428166, -0.1904919268297078, -0.19375378313876684, -0.18905146595620462, -0.17916250366166753, -0.1663408654568153, -0.15233027988302286, -0.13838408295684715, -0.12528530928593637, -0.11336284603476562])","array('d', [3.290093081896197e-05, -0.00011778460385884479, -0.00022546264952790464, -0.000300962565438784, -0.0003519572306352148, -0.0003840073643040638, -0.00040122310205932104, -0.0004066901500293681, -0.00040276754632881124, -0.000391313118889121, -0.00037386601166115467, -0.00035180114245208306, -0.0003264620115348026, -0.000299273145451097, -0.0002718300776082481, -0.0002459623508917006])","array('d', [-0.9237119396540782, -0.9313208967752445, -0.9351981309091263, -0.9357602741462515, -0.9333316404685454, -0.9285087513547085, -0.9221190226490545, -0.9148425434598209, -0.907208380764793, -0.8996062425233993, -0.8923024253299526, -0.8854596283660876, -0.8791584444643572, -0.8734186817525152, -0.8682195943556713, -0.8606060454449281])",70.77130245908218,-347.6285964461049,-50.17303145795788,-0.09736310759208373,-0.0003519572306352148,-0.9333316404685454,25.000000240559277,-1.0,"[-351.1661163373464, 75.32650864533502, 50.333526808991685]","[-332.8790547233102, 67.28156799431187, 49.404921701338125]","[-349.0358542467403, 55.58300270569162, 47.95530128633998]",10000000000.0,0.027542591094970703
17,22.95250177383423,-351.2620849609375,75.37166595458984,50.41791534423828,0.07037544250488278,-4.3018895667120644e-05,-0.9474395950648449,23.24514612743595,"array('d', [77.66108703613281, 75.64899037984723, 73.63197325892183, 71.61486440779441, 69.6020255993538, 67.5973263644895, 65.60360227464271, 63.62262339387338, 61.65527799947863, 59.701764588703675, 57.761774135454836, 55.83465492339376, 53.9195531145044, 52.01552510117029, 50.121620149125796, 48.95973320799331])","array('d', [-352.80865478515625, -351.3249323037026, -349.84789778175235, -348.3709865372598, -346.8882630244423, -345.3945567008959, -343.88623602721543, -342.3612170252995, -340.8186509703679, -339.2586046476715, -337.6817724404049, -336.08923387816753, -334.4822623122803, -332.8621837396303, -331.2302813594918, -330.2142230216747])","array('d', [-50.24885559082031, -50.253294354282474, -50.256214853713914, -50.258017782369805, -50.25899942539884, -50.25938185715629, -50.25933350524323, -50.25898339172382, -50.25843115389301, -50.257754155320846, -50.25701249706224, -50.25625244798055, -50.25550864773598, -50.25480534447133, -50.25415688252637, -50.25379308417419])","array('d', [0.17500099539756772, 0.08360700971030142, 0.0009103043124433761, -0.07391677549734155, -0.14162311448624704, -0.18705963170928408, -0.21326545917272383, -0.22455279958322094, -0.22475625721327283, -0.21720057072344143, -0.20467783746589094, -0.189445567224104, -0.17324147181216393, -0.15730627614227569, -0.1424068820397111, -0.12885508712072596])","array('d', [0.0021320939995348905, 0.0014306206469037889, 0.0009143911687308075, 0.0005342926755470328, 0.0002556697481043768, 5.364581808857577e-05, -8.993218126293837e-05, -0.0001885140900787426, -0.0002522135403812408, -0.0002887753943721656, -0.0003042923617812918, -0.0003037558573357553, -0.00029148897778622765, -0.0002714873043967518, -0.00024767941683777046, -0.00022410992741127837])","array('d', [-0.9325651367518567, -0.9376407063006605, -0.9392737603501862, -0.9378155394461839, -0.933546128935998, -0.9270222468133151, -0.9190518577391106, -0.9103179921574666, -0.9013511179245838, -0.8925385237784613, -0.8841404492382627, -0.8763110990392036, -0.8691214544957521, -0.8625816229880429, -0.8566617084911465, -0.84799532780203])",69.6020255993538,-346.8882630244423,-50.25899942539884,-0.14162311448624704,0.0002556697481043768,-0.933546128935998,25.00000024030309,-1.0,"[-350.6420158789535, 74.53742663747369, 50.39056442053329]","[-332.39477268159374, 66.3781069130035, 49.70966991307956]","[-348.60910940980915, 54.71375976720942, 48.69070468970308]",10000000000.0,0.028518199920654297
18,22.98721694946289,-351.0037536621094,74.98980712890625,50.44683074951172,0.05572208017110821,0.0010588733712210536,-0.949363394579615,23.243727271413345,"array('d', [77.27987670898438, 75.26420444339293, 73.24466956652728, 71.22598096479045, 69.21241412614064, 67.20777775524637, 65.21486755170713, 63.235416447461674, 61.27027226548287, 59.31958983123409, 57.38301464892675, 55.45984940734382, 53.54919594735592, 51.65006857307623, 49.76147723545559, 48.60318021717558])","array('d', [-352.5510559082031, -351.0721962145919, -349.59860708447957, -348.1238567739621, -346.64212318510494, -345.1483337659515, -343.6389392444875, -342.11193907878453, -340.5665710272422, -339.0029874061884, -337.42196358865226, -335.824653216625, -334.2123958616276, -332.5865758461568, -330.94852741119513, -329.928392157617])","array('d', [-50.275672912597656, -50.28096900493366, -50.284497404985046, -50.286722696934, -50.28798871693186, -50.2885532992745, -50.28861200596318, -50.288314600669835, -50.28777666649986, -50.28708787037456, -50.28631780506079, -50.28552000665155, -50.28473455562991, -50.28398956437671, -50.283301799830554, -50.2829158475668])","array('d', [0.1552357524633407, 0.06572267670630283, -0.01527211085431642, -0.08855923159118381, -0.1548721593456426, -0.19928203130634844, -0.22449232004682965, -0.2348203452740134, -0.2341113088982083, -0.2256998758624822, -0.21238460678320303, -0.19642545359934058, -0.17955917306660793, -0.1630231870892895, -0.14757979121960063, -0.13353572933059027])","array('d', [0.0025333510711790025, 0.00171714203572828, 0.001115613649219934, 0.0006720201651362899, 0.0003462306884114533, 0.00010938622357603492, -5.960181600090867e-05, -0.00017637441757882802, -0.000252699660713161, -0.0002975884076729332, -0.0003181213175399529, -0.0003200846623374683, -0.00030846991681028634, -0.0002878667907515549, -0.00026276362024233563, -0.0002377586803023516])","array('d', [-0.9353617866847178, -0.9396880154979365, -0.9406520828070373, -0.9385881074085265, -0.9337644333541065, -0.9267261813535502, -0.9182759206148815, -0.909098707339788, -0.8997261258588131, -0.8905450944745871, -0.8818141598154151, -0.8736849669738941, -0.8662255366562406, -0.8594429667762851, -0.8533045188876788, -0.8443191678754759])",69.21241412614064,-346.64212318510494,-50.28798871693186,-0.1548721593456426,0.0003462306884114533,-0.9337644333541065,25.00000024021682,-1.0,"[-350.1304529572676, 73.77024025653105, 50.445242439751695]","[-331.9159992009556, 65.52378989088766, 49.96594010703262]","[-348.17689083262485, 53.89688739405153, 49.33463853712115]",10000000000.0,0.029782533645629883
19,23.027065992355347,-350.22784423828125,73.84709930419922,50.531856536865234,0.015777170658111555,0.005171836819499661,-0.9549359520289562,23.239791597897312,"array('d', [76.89848327636719, 74.87927985191192, 72.85720707836833, 70.83686448594179, 68.82244850709048, 66.81771213970539, 64.82541526149649, 62.84725695506219, 60.884047379377726, 58.935900195055886, 57.00241776364326, 55.08285936933836, 53.17628459680548, 51.28166759907057, 49.397980816346625, 48.24300387378683])","array('d', [-352.29345703125, -350.81942214689263, -349.34931759327776, -347.87683451305105, -346.39625645198964, -344.90260245156935, -343.39239983996356, -341.8637266601902, -340.31590294962706, -338.7491628178575, -337.164359267232, -335.562717023804, -333.9456391535206, -332.3145658533934, -330.67088020013017, -329.64699413866964])","array('d', [-50.30324172973633, -50.308752811740064, -50.31239345377989, -50.31465517873204, -50.31590239340737, -50.31640873735679, -50.31638198006661, -50.31598135629894, -50.31532982556476, -50.31452281323182, -50.31363439829898, -50.312721568164584, -50.31182696538995, -50.31098044381995, -50.31019969687039, -50.30976165913711])","array('d', [0.13654744625091553, 0.04881279643313651, -0.030572804648466987, -0.10240387312280587, -0.1673993112989718, -0.21085695480981323, -0.2351367075826062, -0.24456295266507677, -0.24299273905411878, -0.23377151962487616, -0.21970496902977787, -0.20305601898343534, -0.18556094241208368, -0.16845427879682892, -0.15249408689615124, -0.1379823683446355])","array('d', [0.0026434084866196784, 0.0017798663839560685, 0.0011432680268142763, 0.0006739414822813247, 0.00032957501317551865, 7.966907499991935e-05, -9.810921113526984e-05, -0.0002203505721910674, -0.00029955276594452175, -0.00034529404990341463, -0.00036510737894484966, -0.00036515592821204643, -0.00035076634726809776, -0.00032684989013045506, -0.00029822519237169003, -0.0002698456405504401])","array('d', [-0.9381131370875497, -0.941733762164402, -0.9420658438044446, -0.9394282404505854, -0.9340787704874738, -0.9265516353732938, -0.9176444329204693, -0.9080446495424345, -0.898285243294591, -0.8887529449956947, -0.879704756288146, -0.871289894378417, -0.8635735419843913, -0.8565599023337455, -0.850213501029693, -0.840924731954332])",68.82244850709048,-346.39625645198964,-50.31590239340737,-0.1673993112989718,0.00032957501317551865,-0.9340787704874738,25.000000240129367,-1.0,"[-349.61787812836263, 73.00477835387987, 50.4985489936584]","[-331.43416530588075, 64.6825207055699, 50.19422084074628]","[-347.73784487133656, 53.101639388267486, 49.923627896465156]",10000000000.0,0.0384984016418457
20,23.055179834365845,-349.9686584472656,73.4665756225586,50.55917739868164,0.0033170944079756516,0.006546560674905708,-0.956794663271632,23.24031556472863,"array('d', [75.75350189208984, 73.7250618682028, 71.69642519759434, 69.67191618291794, 67.65553186183004, 65.65088557700092, 63.66065054195476, 61.686440434125544, 59.72896557560732, 57.78822749258262, 55.86370936072426, 53.95454972377302, 52.059690256035395, 50.17799295237639, 48.308325462147174, 47.162816701578315])","array('d', [-351.5201721191406, -350.05886290200544, -348.5978252596012, -347.1310759482598, -345.6531824011883, -344.15941175246314, -342.64649786489866, -341.1127341135298, -339.55766887394236, -337.9817644093875, -336.3860904561135, -334.77206991857685, -333.1412824111759, -331.49532298700046, -329.8357096059396, -328.80125649068486])","array('d', [-50.388954162597656, -50.3909152314954, -50.39165079205595, -50.391496872915454, -50.39070549799104, -50.38946797902128, -50.38793104048307, -50.38620820966059, -50.384387992885415, -50.382539746646536, -50.380717790002066, -50.37896410793492, -50.37730989284042, -50.375776123303645, -50.374373364644434, -50.373587810997])","array('d', [0.08564944565296169, 0.002758376814372509, -0.07224457056834321, -0.14011004964996146, -0.201517275877904, -0.24245429615536393, -0.264240390857768, -0.27122903304177914, -0.2673175452121784, -0.2558867341447023, -0.23976572494622833, -0.22122811109449336, -0.20201029368320383, -0.18333968384792754, -0.16596308432017287, -0.15016962230078015])","array('d', [0.0010735054966063086, 0.0005048363227538464, 9.05236924413688e-05, -0.00020866789273629559, -0.0004208917361350085, -0.000566691245335824, -0.0006612816943444909, -0.000716069096810751, -0.0007397100598855352, -0.000738900556141253, -0.0007189969074118226, -0.0006845239265500324, -0.0006395976929650561, -0.0005882741816126304, -0.0005348244450893246, -0.000483929516705165])","array('d', [-0.9453763206813, -0.9470858298248305, -0.945696739491156, -0.9414905170823064, -0.9346989314629157, -0.9258268627586143, -0.915659172618948, -0.9048923152688028, -0.8940643830957142, -0.8835622385329156, -0.8736388159796988, -0.864436582107204, -0.856012733362266, -0.848363309385712, -0.8414451297672048, -0.8313226007811815])",67.65553186183004,-345.6531824011883,-50.39070549799104,-0.201517275877904,-0.0004208917361350085,-0.9346989314629157,25.00000023988212,-1.0,"[-349.2255924400943, 72.42075567766639, 50.53744339325319]","[-331.0659630921106, 64.04257351647028, 50.35325431196882]","[-347.40252973758896, 52.50496123820586, 50.34360266511098]",10000000000.0,0.02695488929748535
21,23.103768348693848,-349.18878173828125,72.32472229003906,50.63776397705078,-0.03345242515206339,0.010453231632709434,-0.961872025332179,23.24192453218347,"array('d', [75.37166595458984, 73.34063821322172, 71.31020748626622, 69.28462217259191, 67.26782425926187, 65.26338884935313, 63.27396643161631, 61.30114705335308, 59.34561182018194, 57.40732849447651, 55.48574386052625, 53.57995935183166, 51.68888029988189, 49.81133409964849, 47.94615607669866, 46.80366878020281])","array('d', [-351.2620849609375, -349.804372847435, -348.3458299660386, -346.880569015643, -345.4032421318321, -343.90919097708854, -342.395211133412, -340.85966123289273, -339.30215959327865, -337.72323862482614, -336.12403469776234, -334.50603152010666, -332.87086270497076, -331.22017050034094, -329.55551382396544, -328.51772863689087])","array('d', [-50.41791534423828, -50.41757227865402, -50.41647198417779, -50.414836850376915, -50.412835498594326, -50.41059730534567, -50.408222523791814, -50.40578952405702, -50.403360063197056, -50.40098308192217, -50.398697308296455, -50.39653284510693, -50.39451187244409, -50.39264858472062, -50.39094848964019, -50.38999692861496])","array('d', [0.07037544250488278, -0.011062114010171497, -0.08474986893756356, -0.15142531257318975, -0.2117557505319939, -0.25195678233474306, -0.27300586915646186, -0.2792680264515935, -0.2746549649618984, -0.26255981311891374, -0.24581988920626213, -0.2267126954073902, -0.20697506275107636, -0.18783244980601405, -0.17002834790798493, -0.15384802524226068])","array('d', [4.3018895667120644e-05, -0.0003115563416446955, -0.0005644603195886283, -0.0007407066634439911, -0.0008584113702487599, -0.000930933635291446, -0.0009682690464572811, -0.0009779692120316446, -0.0009658027246980969, -0.0009362751427707028, -0.0008930648297640827, -0.0008394011397312358, -0.0007783948587222599, -0.0007133210072040225, -0.0006478473832599417, -0.0005861969094356417])","array('d', [-0.9474395950648449, -0.9485776324547103, -0.9466713300915741, -0.9419920248936392, -0.9347643600054564, -0.9254844929223273, -0.9149336750040469, -0.9038117288946205, -0.8926586851683372, -0.881861621477208, -0.8716722803554716, -0.8622310515276804, -0.8535926515202831, -0.8457505827638538, -0.8386592744598997, -0.8282844440378839])",67.26782425926187,-345.4032421318321,-50.412835498594326,-0.2117557505319939,-0.0008584113702487599,-0.9347643600054564,25.000000239806287,-1.0,"[-348.84721159262625, 71.85844340863571, 50.57412030212967]","[-330.71050147164704, 63.4290170270946, 50.50691267049623]","[-347.0779031585876, 51.93754894965755, 50.73998657203743]",10000000000.0,0.032198429107666016
