,current_time,x_pos,y_pos,z_pos,roll,pitch,yaw,vel,x_traj,y_traj,z_traj,roll_traj,pitch_traj,yaw_traj,x_cmd,y_cmd,z_cmd,roll_cmd,pitch_cmd,yaw_cmd,vel_cmd,effector_dmg,effector_x,effector_y,effector_z,cost,time_solution
0,9.556565761566162,-185.58961486816406,-72.02862548828125,49.988922119140625,0.3457138538360595,0.029457814991474072,-0.20344726642104602,15.83718591841633,"array('d', [-71.49080657958984, -71.95689996996737, -72.44647781238172, -72.94973432886172, -73.45831011800857, -73.96587772611626, -74.46803077774895, -74.96190689269167, -75.44585072908868, -75.91912293925617, -76.38164680821642, -76.83379235349375, -77.27619892776177, -77.70963651686942, -78.13490499831305, -78.46848058210726])","array('d', [-187.7600860595703, -185.30463496189435, -182.85340154818368, -180.40476395533068, -177.95713767626523, -175.5092577369204, -173.06023859705718, -170.60952500176413, -168.15682430658222, -165.7020384171173, -163.24520245031093, -160.7864338936161, -158.32589336024915, -155.86375635361358, -153.4001946901933, -151.42821480857475])","array('d', [-49.99062728881836, -49.93223920464539, -49.89074486436844, -49.86090023192341, -49.83918142397482, -49.82318699134043, -49.811258556687044, -49.802236513277535, -49.795300474793954, -49.78986388349692, -49.78550385863596, -49.781914367044976, -49.77887506205833, -49.77623076256555, -49.77387816569121, -49.77218154129349])","array('d', [0.34490409493446333, 0.23734170566299065, 0.14001522262421176, 0.05195057742184737, -0.013491550236354108, -0.05870582810839782, -0.08780238509069577, -0.10435855530890298, -0.11148501424744782, -0.11185048205320067, -0.10769457263213818, -0.10084014908089735, -0.09270744781667525, -0.084328587493667, -0.07636036063229032, -0.06909371781085745])","array('d', [-0.02744568139314642, -0.0194033223066786, -0.013885760216579826, -0.010054441359492875, -0.007365682511609259, -0.005461714681396456, -0.004103723885055264, -0.0031301675833428546, -0.0024303448194096114, -0.0019273230550130073, -0.0015667142602609739, -0.0013091762271149954, -0.0011253351767064644, -0.000992323690959501, -0.0008914370619103932, -0.0008066059847681187])","array('d', [-0.18133787711593116, -0.193069664217741, -0.20053568262229926, -0.2042870470357944, -0.20502054936010042, -0.20358836019449963, -0.20069893651735385, -0.1969115376667995, -0.1926577904940008, -0.18825752222059436, -0.18393403321504062, -0.1798299419653733, -0.17602330476815614, -0.1725435006505731, -0.1693865901228867, -0.1658159921106369])",-73.96587772611626,-175.5092577369204,-49.82318699134043,-0.05870582810839782,-0.005461714681396456,-0.20358836019449963,25.000000244272936,-1.0,[],[],[],10000000000.0,0.0225832462310791
1,9.583420991897583,-185.28102111816406,-72.10908508300781,49.98810958862305,0.3458482027053832,0.029650332406163115,-0.20667974551650486,15.838222305975126,"array('d', [-71.63998413085938, -72.12133890011096, -72.62616051089147, -73.14465137014717, -73.66845418083334, -74.19121837529093, -74.70851580114633, -75.2174700973708, -75.7164181773761, -76.20461783674544, -76.68199312637802, -77.14891729726797, -77.60603441250089, -78.05411985456625, -78.49397900589729, -78.83918049364331])","array('d', [-187.13804626464844, -184.68557665876648, -182.23745609545418, -179.7920092920233, -177.34760211858594, -174.90292569097394, -172.45706253556426, -170.00943701176166, -167.5597452618772, -165.10788491331164, -162.65389172258855, -160.19788701527438, -157.7400370579833, -155.2805237765138, -152.81952544903692, -150.8495476978828])","array('d', [-49.99080276489258, -49.930959098233565, -49.888372655930354, -49.857702316447735, -49.835354289260756, -49.81887628980192, -49.8065726387819, -49.79725614183029, -49.79008587578084, -49.78445991936166, -49.77994387110926, -49.77622307737957, -49.773070807463014, -49.77032727033905, -49.76788600987113, -49.76612538403059])","array('d', [0.34497067332267756, 0.23740194827946257, 0.14006973238255452, 0.051999898415085864, -0.013849282868735583, -0.05934076776807591, -0.08861039772474337, -0.10525800875330409, -0.11241431128329255, -0.11276559946953049, -0.10856644120443237, -0.1016519331355636, -0.09345182609736888, -0.08500510563357162, -0.0769728796054383, -0.06964794794720079])","array('d', [-0.0281137898564338, -0.019902826840443467, -0.014262118266355765, -0.010340209668491775, -0.007584427646824062, -0.005630662052034214, -0.004235572083750405, -0.003234345423705352, -0.002513893915173003, -0.0019955224937573584, -0.0016235237393330659, -0.0013575493070814215, -0.001167438698232696, -0.0010296893568224488, -0.0009250646614681295, -0.0008370334978513388])","array('d', [-0.18755821784469112, -0.1992927177156844, -0.20676106979466807, -0.2105144899225056, -0.2112418070121037, -0.2097900180928453, -0.2068720672137064, -0.2030508210244967, -0.19876075832646364, -0.19432384849680429, -0.18996488383929966, -0.18582741448945808, -0.18198997747007656, -0.17848209623727831, -0.17529975045890536, -0.17170040832166117])",-74.19121837529093,-174.90292569097394,-49.81887628980192,-0.05934076776807591,-0.005630662052034214,-0.2097900180928453,25.00000024422101,-1.0,[],[],[],10000000000.0,0.021963119506835938
2,9.623653888702393,-184.66490173339844,-72.27278137207031,49.98637008666992,0.34608089923858637,0.029865400865673894,-0.2132449587199352,15.84119439206989,"array('d', [-71.71591186523438, -72.20495462034204, -72.71745932646083, -73.24363208527761, -73.7751163847061, -74.30554987771502, -74.8304933171485, -75.34706314681088, -75.85359220145607, -76.34933664405412, -76.83422071106793, -77.30861908365272, -77.77317800679849, -78.2286754024125, -78.67591926099355, -79.02700628691389])","array('d', [-186.82762145996094, -184.3766907393455, -181.9301764207809, -179.48637608884857, -177.04363043452256, -174.600608202262, -172.15637561159994, -169.7103465854188, -167.26221149478857, -164.81186572722845, -162.35934530760142, -159.9047734648457, -157.4483193004004, -154.990167973344, -152.5305010212419, -150.56156378215357])","array('d', [-49.990760803222656, -49.930214116832325, -49.88709799214331, -49.8560257345094, -49.8333704987508, -49.81665580537768, -49.80416811599726, -49.79470695770364, -49.78742147568444, -49.781702287924475, -49.77710937816808, -49.77332387855449, -49.77011592947851, -49.76732347584361, -49.764838510297714, -49.763046336080556])","array('d', [0.3450509309768676, 0.23747456841175796, 0.14013544179182497, 0.05205935426168408, -0.013997324607365118, -0.059630843929809774, -0.08899000139762986, -0.10568594695257895, -0.11285945703258544, -0.11320565587491256, -0.10898662857345263, -0.10204362581895401, -0.09381118908331093, -0.08533176597506768, -0.07726864502535438, -0.06991556759033328])","array('d', [-0.028435850515961533, -0.02014468724365184, -0.014445050599197566, -0.010479563906335294, -0.007691390782380685, -0.005713461402329483, -0.004300306620509556, -0.0032855662250976447, -0.0025550147667865136, -0.002029112537288884, -0.0016515163773279736, -0.0013813906857627698, -0.00118819219494321, -0.0010481080418970616, -0.0009416407929957299, -0.000852032203246844])","array('d', [-0.1906936605784558, -0.20243143072517247, -0.2099025960267424, -0.21365849429243586, -0.2143840058711031, -0.21292355962896506, -0.20999236493925105, -0.20615510703135986, -0.20184770298287022, -0.19739320424710594, -0.19301715901473604, -0.18886359202159675, -0.18501128824169655, -0.18148984979380595, -0.17829522136982237, -0.17468199874622206])",-74.30554987771502,-174.600608202262,-49.81665580537768,-0.059630843929809774,-0.005713461402329483,-0.21292355962896506,25.000000244194347,-1.0,[],[],[],10000000000.0,0.029310941696166992
3,9.647758722305298,-184.052490234375,-72.43959045410156,49.983985900878906,0.3460879325866698,0.02984247542917715,-0.21976904471847036,15.844581398917445,"array('d', [-71.87044525146484, -72.374951980965, -72.90291819424858, -73.44455670210645, -73.9915121062975, -74.53739815538489, -75.0777530816611, -75.60967858676136, -76.1314989753366, -76.64246676288185, -77.14250617841836, -77.63199439930118, -78.11158169199004, -78.58205074082501, -79.0442144636785, -79.40719511390314])","array('d', [-186.20790100097656, -183.76013918877615, -181.3169324930722, -178.87652306385192, -176.4372003830128, -173.99758759310237, -171.5567176215743, -169.113983037663, -166.66906234412824, -164.22184624509143, -161.77237119206268, -159.32076417857516, -156.86719997908165, -154.41187024965416, -151.95496308956157, -149.98818396611446])","array('d', [-49.990394592285156, -49.928557635937345, -49.88446232154075, -49.85264248542796, -49.829412857286066, -49.81225368107997, -49.79941913868644, -49.7896845355898, -49.78218075547777, -49.776284603687095, -49.77154560810278, -49.76763701481749, -49.764323085605845, -49.761437497613535, -49.75886931139532, -49.75701706368841])","array('d', [0.345301568508148, 0.23770135443669896, 0.1403406458563922, 0.05224502705334229, -0.01423359795046141, -0.060157313968573704, -0.08970098318784299, -0.10649846726269595, -0.11371073418797362, -0.11405062148318486, -0.1097953007575334, -0.10279838192835816, -0.09450403613045541, -0.08596167870270041, -0.07783899657124099, -0.07043164305900841])","array('d', [-0.02902494929730879, -0.020590511817500858, -0.014784474820945815, -0.010739575610706866, -0.00789190527250381, -0.005869286995265934, -0.004422527648287824, -0.003382524114404227, -0.002633012418407065, -0.0020929231623455797, -0.0017047510460594308, -0.0014267622422800496, -0.001227702593328023, -0.0010831792303754057, -0.0009732046820323855, -0.0008805922011050122])","array('d', [-0.19700448115798438, -0.20875246505212203, -0.21623241626356593, -0.21999605366538644, -0.22072043709518627, -0.21924490390067852, -0.21628922860269803, -0.21242175611250422, -0.20808129880091053, -0.20359308975266277, -0.1991842054747711, -0.19499963521618105, -0.1911186736470885, -0.18757109237812108, -0.1843527767625825, -0.1807127854934329])",-74.53739815538489,-173.99758759310237,-49.81225368107997,-0.060157313968573704,-0.005869286995265934,-0.21924490390067852,25.00000024787398,-1.0,[],[],[],10000000000.0,0.021409034729003906
4,9.686296463012695,-183.4432373046875,-72.60972595214844,49.98180389404297,0.34202855825424183,0.029379775747656753,-0.22637383540603145,15.854398704845392,"array('d', [-72.02862548828125, -72.54890813931668, -73.09266047533119, -73.65010098356876, -74.21287459893756, -74.77457027543531, -75.33070287638824, -75.87835856976103, -76.41585237771626, -76.94243245866227, -77.4580223748355, -77.96300119557357, -78.45802266063225, -78.94387372235927, -79.42137178090903, -79.79658096423444])","array('d', [-185.58961486816406, -183.145182350416, -180.70545411188255, -178.26861332084954, -175.83289579195176, -173.39687695838302, -170.95955488977853, -168.5202997264857, -166.07877739742227, -163.63487349966638, -161.18862469744963, -158.74016168332707, -156.28966493634573, -153.83733269759952, -151.38335974333535, -149.41887701101746])","array('d', [-49.988922119140625, -49.926126415047754, -49.8812864433392, -49.84888740786953, -49.82520614132335, -49.807693445444194, -49.79458065409939, -49.78462535159534, -49.77694468632126, -49.77090483197139, -49.76604711299906, -49.7620384904889, -49.75863848185474, -49.7556772866378, -49.75304156061369, -49.751140561902965])","array('d', [0.3457138538360595, 0.23807440586493775, 0.14067819718808275, 0.05255046424345154, -0.014366750868166833, -0.06059446879824895, -0.09033416952425416, -0.10724281939218995, -0.11450189601295392, -0.11484222735075954, -0.11055631794234223, -0.10351035306299883, -0.09515831690942347, -0.08655674052381, -0.07837781956807945, -0.07091919031051853])","array('d', [-0.029457814991474072, -0.02092650449804017, -0.01504555411289124, -0.010942859006636151, -0.00805069113543056, -0.005993893972119593, -0.004520959534944312, -0.0034609862789025617, -0.0026963119871935204, -0.002144776911132269, -0.001748019405406009, -0.0014636242345537878, -0.0012597839516148414, -0.001111644024283575, -0.0009988193076139746, -0.0009037694812857636])","array('d', [-0.20344726642104602, -0.21521205460390602, -0.22270645980486403, -0.2264828286555183, -0.22721045477479, -0.22572361111984454, -0.22274674674654493, -0.21885194392766816, -0.21448097273110525, -0.20996130051759654, -0.2055215765114785, -0.20130779113468503, -0.19739977825253974, -0.19382750221650502, -0.19058680724380345, -0.186921525120092])",-74.77457027543531,-173.39687695838302,-49.807693445444194,-0.06059446879824895,-0.005993893972119593,-0.22572361111984454,25.000000244080944,-1.0,[],[],[],10000000000.0,0.03607654571533203
5,9.716216564178467,-183.1387939453125,-72.6962890625,49.980804443359375,0.3366494476795194,0.028759401291608686,-0.22969858249160235,15.862168795176627,"array('d', [-72.19047546386719, -72.72669177498744, -73.28637109471599, -73.85974029512148, -74.43844670972312, -75.01605619116715, -75.5880615793529, -76.15153459417532, -76.70478188000867, -77.24704800738778, -77.7782565334157, -78.29878899290603, -78.80930309959724, -79.31059051477644, -79.80347351320675, -80.19094867801988])","array('d', [-184.97279357910156, -182.53182679546518, -180.0957143087831, -177.6625786938638, -175.2306012052851, -172.79830881656346, -170.3646642922235, -167.9290151699166, -165.4910148136337, -163.05054384060955, -160.6076393251309, -158.16243589059243, -155.71511996165174, -153.2658965978145, -150.8149674675079, -148.85286740451855])","array('d', [-49.98725509643555, -49.92369288269728, -49.87824292325662, -49.84536020983101, -49.821295917891874, -49.803479642216544, -49.79012547543367, -49.77997714098006, -49.77214073858683, -49.76597369901226, -49.7610104821709, -49.75691271748369, -49.75343585425903, -49.75040708459257, -49.74771096938266, -49.74576637756355])","array('d', [0.34596195816993697, 0.23829889996465156, 0.14088132785002713, 0.05273426070874705, -0.014609323222155307, -0.06113029018912743, -0.09105641655879798, -0.10806758705037468, -0.11536567575252793, -0.11569942174732212, -0.11137659485809179, -0.10427589004312139, -0.09586103890163004, -0.08719562456206773, -0.07895629327981318, -0.07144261501765052])","array('d', [-0.029799746349453825, -0.021199137203021485, -0.015261931348319007, -0.01111420894531459, -0.008186370805968388, -0.00610155177206822, -0.004606769304298095, -0.003529885438210908, -0.0027522198510046866, -0.002190782718943225, -0.0017865369750955395, -0.0014965143769400263, -0.0012884480385423592, -0.0011370931671095485, -0.0010217239873000876, -0.0009244944943706537])","array('d', [-0.20996670325728875, -0.2217416058163324, -0.22924471005818003, -0.23302874061539683, -0.2337550767039552, -0.2322528365594621, -0.2292510796162853, -0.225325587202837, -0.22092105918843408, -0.2163671722990609, -0.21189412388640264, -0.2076488810821227, -0.20371179334120496, -0.2001129957893211, -0.19684827164124924, -0.19315583544137543])",-75.01605619116715,-172.79830881656346,-49.803479642216544,-0.06113029018912743,-0.00610155177206822,-0.2322528365594621,25.000000244021795,-1.0,[],[],[],10000000000.0,0.027003765106201172
6,9.771369218826294,-182.22561645507812,-72.96198272705078,49.97835159301758,0.3028632402420043,0.025841196998953743,-0.2397957285258435,15.903178551186105,"array('d', [-72.27278137207031, -72.81700209276615, -73.38468098286741, -73.96604961921217, -74.55275689805991, -75.13835742070984, -75.7183332256019, -76.28974894228425, -76.85090710632106, -77.4010505373791, -77.94010280812348, -78.46844668814255, -78.98674187060749, -79.49578235882856, -79.99639285079859, -80.39002912973683])","array('d', [-184.66490173339844, -182.22571124683884, -179.79145317767447, -177.36021825325685, -174.93015961934339, -172.49977945120193, -170.06802250273873, -167.63422480295122, -165.19803332217194, -162.75932613995025, -160.3181405294725, -157.87461309953207, -155.4289332823994, -152.9813095883699, -150.53194717486986, -148.57107392701937])","array('d', [-49.98637008666992, -49.922648752851984, -49.87705334332978, -49.84404371555899, -49.81987167495354, -49.801965403504276, -49.78853672911387, -49.77832689276949, -49.77043961753449, -49.764230212671634, -49.75923132687345, -49.755103095732686, -49.751599777485175, -49.748547653761676, -49.745830633151115, -49.74387094501259])","array('d', [0.34608089923858637, 0.23840652230120415, 0.140978708567427, 0.05282237354000836, -0.014733686315278636, -0.0614007364024673, -0.09141966021393999, -0.10848176913282437, -0.11579911170419097, -0.11612936543900734, -0.11178792005229708, -0.10465971536440047, -0.09621334864227325, -0.08751592270839349, -0.07924630448840095, -0.07170502803459397])","array('d', [-0.029865400865673894, -0.02126088571406254, -0.015316679279569279, -0.011161131986803978, -0.00822577618451077, -0.006134256657036404, -0.004633766587371178, -0.0035521687199353107, -0.002770698514749514, -0.0022062466817073436, -0.0017996474948021467, -0.0015078073729796794, -0.0012983424131163543, -0.0011459001910420867, -0.0010296558923141026, -0.000931671579466789])","array('d', [-0.2132449587199352, -0.22502471061815144, -0.23253198542990297, -0.23631968912610724, -0.23704524569407742, -0.23553519698228656, -0.23252090108369283, -0.22857998453653222, -0.22415860936424184, -0.21958755512142253, -0.21509779181825336, -0.21083677378185176, -0.206885107291862, -0.20327301207615228, -0.19999624024060225, -0.19629018983602833])",-75.13835742070984,-172.49977945120193,-49.801965403504276,-0.0614007364024673,-0.006134256657036404,-0.23553519698228656,25.000000243991433,-1.0,[],[],[],10000000000.0,0.05291557312011719
7,9.802756786346436,-181.61630249023438,-73.14389038085938,49.978477478027344,0.265786975622177,0.023124026134610075,-0.24629692634078484,15.947605847317226,"array('d', [-72.52415466308594, -73.09225402822491, -73.68365932717937, -74.28863548452091, -74.89885036709632, -75.507836901991, -76.11105468104611, -76.70555549154791, -77.28963694948683, -77.86254323145678, -78.4242038749353, -78.97501064738474, -79.51563390995256, -80.04687892099578, -80.56958143984306, -80.9807997088102])","array('d', [-183.747802734375, -181.3140542368204, -178.88544875574277, -176.45997987461442, -174.03571761170204, -171.61109194578952, -169.1849962016592, -166.7567345582096, -164.32593733145612, -161.89247724168908, -159.45639408757444, -157.01783203680978, -154.57699085277045, -152.13409046018538, -149.68934735132777, -147.7320858585358])","array('d', [-49.982872009277344, -49.91947167596169, -49.874013624222464, -49.84104091114854, -49.816853613013116, -49.79890748206458, -49.785429660466214, -49.77516949935074, -49.76723466385208, -49.760982056932725, -49.755944656556565, -49.75178230244867, -49.748248703223084, -49.74516954807544, -49.74242822645046, -49.740450974751184])","array('d', [0.34497395157814015, 0.23740491454026877, 0.14007241628185388, 0.052002324922217964, -0.01607039980189855, -0.06307156424442223, -0.09327788900292272, -0.1104128012226682, -0.11771736234865865, -0.1179748591480587, -0.11352247592735538, -0.10626290621742922, -0.09767844633043772, -0.08884596552624262, -0.08045033388375089, -0.07279447898257045])","array('d', [-0.029688673093914892, -0.02117914127915675, -0.015287638939854225, -0.011160169327158945, -0.008238713498074266, -0.006153109077602084, -0.0046542060290132165, -0.0035719995868615005, -0.002788942522512196, -0.0022225960337203454, -0.0018141408295032897, -0.0015206401508882752, -0.001309758081767919, -0.0011561294691976736, -0.0010388841364036834, -0.0009400216407706717])","array('d', [-0.2230678041789196, -0.23480243762620087, -0.24227090461165296, -0.2460244259189137, -0.24670747197310677, -0.2451382000579353, -0.24205417606152482, -0.23803812318814213, -0.233540253551301, -0.2288943602481727, -0.224333458475608, -0.22000621213419497, -0.21599377036826461, -0.2123264061583257, -0.2089996044662358, -0.20523702653895917])",-75.507836901991,-171.61109194578952,-49.79890748206458,-0.06307156424442223,-0.006153109077602084,-0.2451382000579353,25.000000243898832,-1.0,[],[],[],10000000000.0,0.023084640502929688
8,9.82918643951416,-181.61630249023438,-73.14389038085938,49.978477478027344,0.265786975622177,0.023124026134610075,-0.24629692634078484,15.947605847317226,"array('d', [-72.6962890625, -73.28010273565951, -73.88642259366156, -74.50562898661742, -75.12947138295137, -75.75152465643812, -76.36728027850205, -76.97382222568244, -77.56948165734016, -78.15353733758488, -78.72595356417398, -79.2871560875163, -79.83784768930467, -80.37886394979613, -80.91106856149015, -81.32966998064437])","array('d', [-183.1387939453125, -180.70871567675516, -178.2837652039548, -175.8618772091499, -173.44107929139767, -171.01976959364126, -168.59682387797935, -166.17154097852716, -163.74355449375028, -161.31274606199463, -158.87916764081908, -156.442976993567, -154.00438764840206, -151.56363264537882, -149.12094047871614, -147.16524463809353])","array('d', [-49.980804443359375, -49.91935416176848, -49.87523934384387, -49.84320530614402, -49.8196835912306, -49.80221658544204, -49.78908927704581, -49.77909013543367, -49.77135361105795, -49.7652551673565, -49.760340777059454, -49.756279436898254, -49.752831296493675, -49.74982649330829, -49.74715133313794, -49.74522179825255])","array('d', [0.3366494476795194, 0.22987259123975512, 0.1332568876787213, 0.045835377986979335, -0.021991745768888578, -0.06869988546724401, -0.09857408461919022, -0.11535016159437299, -0.12228258740945831, -0.12216706814565684, -0.11735110939226785, -0.10974520241413535, -0.1008369217542501, -0.09170611023187394, -0.08303858084753658, -0.07513642189462527])","array('d', [-0.028759401291608686, -0.020542980574778706, -0.014845793649009521, -0.010848832037149944, -0.008016079630288015, -0.0059914163700341425, -0.004534779049914491, -0.0034821163711331628, -0.002719829560814666, -0.00216813364067246, -0.0017700224056619272, -0.0014838254676656855, -0.0012781192984199386, -0.0011282243555872096, -0.0010138127862560655, -0.0009173361291296106])","array('d', [-0.22969858249160235, -0.24109482540085786, -0.24827189933531377, -0.2517685415728535, -0.2522143526002276, -0.2504181170172583, -0.2471184336838738, -0.24289950533779356, -0.23821276580509107, -0.23339267555823404, -0.22867232272754603, -0.22419994461676293, -0.22005590776213083, -0.21626948896490633, -0.21283508402375476, -0.20895095795978524])",-75.75152465643812,-171.01976959364126,-49.80221658544204,-0.06869988546724401,-0.0059914163700341425,-0.2504181170172583,25.000000243840354,-1.0,[],[],[],10000000000.0,0.02471446990966797
9,9.863762855529785,-180.70321655273438,-73.42203521728516,49.983741760253906,0.19462151825428,0.018137238919734837,-0.2554905851695201,16.039146861605087,"array('d', [-72.87242889404297, -73.47178077294733, -74.0918308337166, -74.72320406840254, -75.35782774638896, -75.98939710261723, -76.61350134087625, -77.22731485470591, -77.82925569154997, -78.41868650509558, -78.99565173736329, -79.56065257432647, -80.11446181597718, -80.65797931597737, -81.19212730814561, -81.61183082915724])","array('d', [-182.53004455566406, -180.10365538935872, -177.68213021486105, -175.26336007539464, -172.84535275746384, -170.42650068566698, -168.00568822559836, -165.5822335124212, -163.15579566603034, -160.72628452489244, -158.29378036111797, -155.85846771702882, -153.4205844671262, -150.9803852197633, -148.5381172748931, -146.58265741983035])","array('d', [-49.97890090942383, -49.921268866312154, -49.87985088492198, -49.849749094027956, -49.82763131942107, -49.81119887805252, -49.798845255185064, -49.78943403190658, -49.78215234726304, -49.77641306763675, -49.77178897283287, -49.76796836751358, -49.764725254204905, -49.76189950898677, -49.75938393154142, -49.75756952875678])","array('d', [0.3171921670436858, 0.21226691407317788, 0.11732661076751016, 0.03142106653077349, -0.03531451922718464, -0.08098507434195307, -0.1098631767480404, -0.12568542443639977, -0.13171227320439824, -0.13074599959067137, -0.12513897530043272, -0.11680407097068801, -0.1072288227491189, -0.09749106720899414, -0.08827318434775124, -0.07987288743900268])","array('d', [-0.02695877850055687, -0.019279165453402875, -0.013945746823784829, -0.010198788476057465, -0.007540020653878323, -0.005637762422868459, -0.004268026691609878, -0.0032774940077443244, -0.002559834010726208, -0.0020402612391786303, -0.0016652722620615031, -0.0013957099982395214, -0.0012020126135442138, -0.001060937437313247, -0.0009533201115432587, -0.0008626001025063822])","array('d', [-0.23649136622878522, -0.24710270013094324, -0.25360164079261244, -0.25649900745695653, -0.25640074616778147, -0.25410097366476786, -0.2503353210672111, -0.24568702075926127, -0.24060678817405104, -0.2354279136225136, -0.23038172816174332, -0.22561425381218514, -0.2212033905175618, -0.21717588767601897, -0.21352369273546595, -0.20939359473864658])",-75.98939710261723,-170.42650068566698,-49.81119887805252,-0.08098507434195307,-0.005637762422868459,-0.25410097366476786,25.000000243783248,-1.0,[],[],[],10000000000.0,0.031185388565063477
10,9.89448618888855,-180.39825439453125,-73.51600646972656,49.98705291748047,0.1682864874601364,0.01638260670006261,-0.2583742578837534,16.076983874766825,"array('d', [-72.96198272705078, -73.5686498448085, -74.19470450891849, -74.83094230255347, -75.46941591912832, -76.10391118751124, -76.73009236011129, -77.34520269538244, -77.94772568262486, -78.5370864322464, -79.1133884251722, -79.67718791741933, -80.22930845616972, -80.77069623091356, -81.30231553179445, -81.71967250486811])","array('d', [-182.22561645507812, -179.80098881043523, -177.38097982334992, -174.9634694500412, -172.54646781942304, -170.1283773647022, -167.70809908827624, -165.28497207084223, -162.85867816184918, -160.42914977311037, -157.99648829521476, -155.5608972247285, -153.122630978752, -150.68195836055193, -148.23913875556647, -146.28317659596706])","array('d', [-49.97835159301758, -49.92309645109299, -49.88336893548116, -49.85448644182252, -49.83326016196575, -49.817488451939234, -49.80563149085236, -49.7965993586537, -49.78961204699587, -49.784105909655494, -49.77967067421201, -49.776006928141484, -49.772897535236275, -49.770188630709306, -49.767777205092706, -49.76603794614799])","array('d', [0.3028632402420043, 0.19930156376883743, 0.10559507561025533, 0.020805933537147492, -0.04503552663488978, -0.08987943719006705, -0.11798432126577041, -0.13308284625259947, -0.13843566528351056, -0.13684604553545332, -0.13066655588760767, -0.12180897355938641, -0.11175854599239822, -0.10158997335835608, -0.09198205040315609, -0.08322880852827227])","array('d', [-0.025841196998953743, -0.018489260983923714, -0.013379366966846714, -0.009787080750783625, -0.0072366971059423454, -0.0054112090259871674, -0.004096330787266882, -0.003145256703974921, -0.0024560965209788617, -0.00195714049582932, -0.0015970566212045129, -0.001338258531723661, -0.0011523576109126272, -0.001017024048804723, -0.0009138380733935685, -0.0008268752738488794])","array('d', [-0.2397957285258435, -0.24983412128731883, -0.25583611725255234, -0.2582930507110518, -0.2577959166173652, -0.2551296696129561, -0.2510270621983757, -0.24606996837813708, -0.2407080066306147, -0.23527314065157456, -0.22999505937948528, -0.22501791995713247, -0.22041767315435862, -0.21621915453101562, -0.21241251252803328, -0.2081080118718309])",-76.10391118751124,-170.1283773647022,-49.817488451939234,-0.08987943719006705,-0.0054112090259871674,-0.2551296696129561,25.000000243758556,-1.0,[],[],[],10000000000.0,0.026317834854125977
11,9.928255319595337,-180.09254455566406,-73.61054229736328,49.99119567871094,0.14141479134559623,0.014588587917387378,-0.26114980777236446,16.11844872622426,"array('d', [-73.05248260498047, -73.66631220468409, -74.29796600309031, -74.93843750485968, -75.57992587046985, -76.21632498488562, -76.84338965980076, -77.45844656040222, -78.06005850163362, -78.64772622034172, -79.22162454110534, -79.78237611288883, -80.33086552846594, -80.86809461267029, -81.39507808317492, -81.80833946391043])","array('d', [-181.9210662841797, -179.4981795899647, -177.07959394754593, -174.66318502950924, -172.24697298685948, -169.82937827600162, -167.40932636483484, -164.98618458753043, -162.5596640574165, -160.12972536124218, -157.69649563432438, -155.26020103532142, -152.82111543515197, -150.3795240970903, -147.93570026081667, -145.97886853895182])","array('d', [-49.978179931640625, -49.92564020967221, -49.887849729011386, -49.860368142712765, -49.8401685332881, -49.825159214741674, -49.81387620339688, -49.80528263634214, -49.79863611798064, -49.79339997897617, -49.789183470431375, -49.78570136706785, -49.78274679126566, -49.78017313767414, -49.77788226354804, -49.77622997849502])","array('d', [0.2856101095676421, 0.18369028414319896, 0.09146940438131415, 0.008024496407304776, -0.05671187182739184, -0.10053967912661631, -0.12769969142101176, -0.1419188423632041, -0.1464569128958287, -0.14411722013462575, -0.13725147445232938, -0.12776915564186395, -0.11715193855101311, -0.10647012513504851, -0.09639778464729372, -0.08722433046223838])","array('d', [-0.024566167965531266, -0.01758524540877761, -0.01272932657161799, -0.009313380587096813, -0.006886964074341614, -0.005149547862057165, -0.0038977744352551875, -0.0029921997063754643, -0.0023359685336338545, -0.0018608712994465535, -0.001518055962041538, -0.0012717367053118028, -0.0010948748744421149, -0.0009661949808059721, -0.0008681403066617681, -0.0007855262208862318])","array('d', [-0.24309568007918816, -0.2524495257502236, -0.25785566432921914, -0.2597831091428489, -0.25880613727662927, -0.25569955399732086, -0.25119266840073967, -0.24586564136081066, -0.2401666438625899, -0.23442590398951582, -0.2288710090274913, -0.22364377383265463, -0.21881773714799901, -0.2144153944345168, -0.21042471544015978, -0.20591243130586978])",-76.21632498488562,-169.82937827600162,-49.825159214741674,-0.10053967912661631,-0.005149547862057165,-0.25569955399732086,25.00000024373546,-1.0,[],[],[],10000000000.0,0.02737569808959961
12,9.964165925979614,-179.4783935546875,-73.80103302001953,50.00135040283203,0.08747385442256916,0.010730435140430806,-0.26617447932692967,16.215869056179027,"array('d', [-73.14389038085938, -73.76452196673941, -74.4011978648735, -75.04513011880489, -75.68868066735102, -76.32586538378051, -76.95254257815816, -77.56613491026654, -78.16529681420414, -78.74961645718628, -79.31935109617396, -79.87519999125607, -80.41811806652184, -80.94917115103989, -81.46943190655158, -81.87687186222607])","array('d', [-181.61630249023438, -179.19508231293082, -176.77777941717287, -174.36227245314592, -171.946599418342, -169.52920672367608, -167.10905193001426, -164.68553764752193, -162.25841043580894, -159.8276642631288, -157.39345622169407, -154.9560384273739, -152.51570671932132, -150.07276471356664, -147.62750092850186, -145.66944868246694])","array('d', [-49.978477478027344, -49.92901268588816, -49.89342126950946, -49.8675334763343, -49.84850387391401, -49.83436447576067, -49.82373689960013, -49.81564436131097, -49.80938718188511, -49.80445941244919, -49.80049259078001, -49.79721772087764, -49.79443968080281, -49.79202019499016, -49.78986670876537, -49.78831354033473])","array('d', [0.265786975622177, 0.16575356918296277, 0.07523959205811387, -0.006660846469734046, -0.07010926845604042, -0.11275529893692075, -0.13881947415435258, -0.15202192452750252, -0.15562093978679548, -0.15241923449240877, -0.1447668028124206, -0.13456977299511896, -0.12330508800484224, -0.11203749991001015, -0.10143531207572581, -0.09178247418657459])","array('d', [-0.023124026134610075, -0.016559962735152763, -0.011990386554290177, -0.008773884561847375, -0.0064880793560247755, -0.004850813487454137, -0.0036709558364035246, -0.002817326473274635, -0.002198741553547188, -0.0017509466534158763, -0.0014279010407731347, -0.0011958664106102867, -0.0010293440128645766, -0.0009082647647429503, -0.000816062528674253, -0.0007384042944949601])","array('d', [-0.24629692634078484, -0.25487088941705416, -0.25959544262989737, -0.26091540417612324, -0.2593871277091651, -0.2557746655335796, -0.2508036160537177, -0.24505224106510118, -0.23896701455001002, -0.23287608603234236, -0.22700453054469147, -0.22149138418808426, -0.21640734786894528, -0.2117721853170972, -0.2075713404581949, -0.20282181708351382])",-76.32586538378051,-169.52920672367608,-49.83436447576067,-0.11275529893692075,-0.004850813487454137,-0.2557746655335796,25.000000243714577,-1.0,[],[],[],10000000000.0,0.03135514259338379
13,10.013194799423218,-178.54901123046875,-74.08902740478516,50.02384948730469,0.010971305891871366,0.005034962669014812,-0.27271298964950047,16.383598146777683,"array('d', [-73.32872772216797, -73.96230151250197, -74.6078499394021, -75.25705966775138, -75.90264967684759, -76.53890693731194, -77.16192445235835, -77.76934624312398, -78.3600401718291, -78.93379909399596, -79.49107357291295, -80.03274247744199, -80.55992541876991, -81.07383786722923, -81.57568775557696, -81.96736955870426])","array('d', [-181.00750732421875, -178.58950663997763, -176.1744886161375, -173.76035857987156, -171.34521099846444, -168.9275644018504, -166.50646016090357, -164.0813897806101, -161.6521869847196, -159.218926228696, -156.78183558178526, -154.3412276550851, -151.89744867866474, -149.4508437275018, -147.0017353433352, -145.04046988408777])","array('d', [-49.981201171875, -49.93860041452219, -49.90792706699099, -49.88560800085147, -49.869199609877995, -49.857008847066176, -49.84784826205583, -49.84087550343572, -49.83548674958743, -49.83124516544414, -49.827832541038, -49.825016544447884, -49.82262865148945, -49.820549449702604, -49.81869903398036, -49.81736448232901])","array('d', [0.2198729366064071, 0.12420882490715313, 0.037648349507726296, -0.04067481255061439, -0.10113791548520336, -0.14103730153231614, -0.16455190638190165, -0.17538928987434566, -0.1768059300879225, -0.17160363469011558, -0.16212813585178312, -0.1502770814657098, -0.13751558678805195, -0.12489473753595431, -0.11306886824184034, -0.10230895206359525])","array('d', [-0.019907876849174364, -0.01426849974186562, -0.010336404824922207, -0.007565318097006163, -0.005594370271508431, -0.004181843114435578, -0.003163627405810126, -0.0024268772546557574, -0.0018930347281684928, -0.0015066793792347674, -0.0012280687558891713, -0.001028065428232575, -0.0008846418036610423, -0.0007804577986259075, -0.0007011971255439298, -0.0006344697703973193])","array('d', [-0.2525442083689829, -0.25933562627653417, -0.26249170802616484, -0.26240666221495373, -0.25959887668655157, -0.25481014116798634, -0.2487592172670705, -0.24202087162519775, -0.23503799671295647, -0.22813394127625494, -0.22152780469346936, -0.2153519727650542, -0.20967036817968981, -0.20449626190678027, -0.19980912898684206, -0.19451086763845682])",-76.53890693731194,-168.9275644018504,-49.857008847066176,-0.14103730153231614,-0.004181843114435578,-0.25481014116798634,25.000000243677437,-1.0,[],[],[],10000000000.0,0.03711986541748047
14,10.043025970458984,-177.92408752441406,-74.28084564208984,50.04330825805664,-0.03431684896349915,0.0013237291714175393,-0.2764363725993295,16.504893298033263,"array('d', [-73.61054229736328, -74.26126620949158, -74.91713114555228, -75.57054821352892, -76.21479063967901, -76.84457090752124, -77.45636508090125, -78.04819195442678, -78.61928887674311, -79.16980715745603, -79.70053744844124, -80.2126748011295, -80.70762830126071, -81.18687580276897, -81.6518617972741, -82.01227183416934])","array('d', [-180.09254455566406, -177.67892380878126, -175.26659529503897, -172.85355338167068, -170.43802201520833, -168.01866846025382, -165.59469866205717, -163.1657735107252, -160.73188883665094, -158.29326547342993, -155.85025774671598, -153.40328346341747, -150.95277443473458, -148.49914444580918, -146.04277104065022, -144.07551865680472])","array('d', [-49.99119567871094, -49.95995851785066, -49.9374400876355, -49.92104086140453, -49.90897720939807, -49.9000101899785, -49.89326921328893, -49.88813591948983, -49.88416673378186, -49.88104067374249, -49.87852395109167, -49.87644593555505, -49.87468291785888, -49.87314727678879, -49.87178038681692, -49.87079452395111])","array('d', [0.14141479134559623, 0.053216952894437806, -0.026587758499755376, -0.09879805253815338, -0.15425766764316529, -0.18950407097362368, -0.20866853331418528, -0.2154535554310425, -0.2131233426917279, -0.20448448163801322, -0.19187842687523418, -0.17718915199569313, -0.1618611459712647, -0.14692121601710328, -0.1329988961253467, -0.12034238866794426])","array('d', [-0.014588587917387378, -0.010470506379178937, -0.007592498382371464, -0.005560870432119773, -0.004114222350026852, -0.0030767164847667816, -0.0023285523433060973, -0.0017871177985802776, -0.0013947771154341597, -0.00111080871059214, -0.0009059865754905196, -0.0007588800606132013, -0.0006532955604970408, -0.0005764984901891524, -0.0005179895784435434, -0.0004686966978046494])","array('d', [-0.26114980777236446, -0.2649539610420488, -0.26545061001600584, -0.2629625038252592, -0.25795113217557514, -0.2511267001347447, -0.24320289709304171, -0.23475224310839385, -0.22621324278643065, -0.21790148775767773, -0.21002559406701865, -0.202705998340577, -0.19599439323562903, -0.18989237476304727, -0.18436875392193772, -0.1781272832803804])",-76.84457090752124,-168.01866846025382,-49.9000101899785,-0.18950407097362368,-0.0030767164847667816,-0.2511267001347447,25.00000024363488,-1.0,[],[],[],10000000000.0,0.02440619468688965
15,10.088233470916748,-177.29443359375,-74.47177124023438,50.06690216064453,-0.07323320955038079,-0.0019551585428417844,-0.2797565897318978,16.631106493289423,"array('d', [-73.80103302001953, -74.4614122137279, -75.12228479729498, -75.77650732254367, -76.41769948373202, -77.04084008273284, -77.64265607465205, -78.22142261205467, -78.77663622932444, -79.30870286486122, -79.81865594475667, -80.30791635583873, -80.77809958154509, -81.23087003442298, -81.6678398860988, -82.00459192307495])","array('d', [-179.4783935546875, -177.0673017929141, -174.65629201106574, -172.2434439195899, -169.82708920143028, -167.4060117369203, -164.97954350695684, -162.5474731399588, -160.10991681329844, -157.66720220532673, -155.2197741011961, -152.76812414447312, -150.31274286061853, -147.85408999865476, -145.39257889454495, -143.4211396355622])","array('d', [-50.00135040283203, -49.978360853693154, -49.96176636947085, -49.949666027144666, -49.94075282798467, -49.934117504414054, -49.929120450098715, -49.925307094857445, -49.9223512992941, -49.92001710706486, -49.91813274426431, -49.916572926860155, -49.91524688325087, -49.914090343037316, -49.91306027380723, -49.91231723837288])","array('d', [0.08747385442256916, 0.004409170185510215, -0.07075087094851078, -0.13875849417091385, -0.19089091547100348, -0.22299553875286393, -0.23919047049894035, -0.2431893738344304, -0.2382720669171424, -0.22725503207196884, -0.21248054348062073, -0.19582495844022726, -0.17871915075346223, -0.16217315801313628, -0.14679914556534626, -0.132829371873524])","array('d', [-0.010730435140430806, -0.007711826633753153, -0.005599104990138556, -0.004106113546398673, -0.003042209198671755, -0.002278791297916955, -0.0017280424156120304, -0.0013292948538888862, -0.0010401653878566281, -0.0008306832313742266, -0.0006793319786961883, -0.000570340213657934, -0.0004918048398699953, -0.0004343852286597612, -0.00039040386784594007, -0.00035325216960134645])","array('d', [-0.26617447932692967, -0.2679522933950832, -0.2666249470007689, -0.2624751495567412, -0.25592915284611, -0.2476790458040678, -0.2384401999085871, -0.2287866116261772, -0.21915521801248974, -0.20985668012659092, -0.2010922103729795, -0.1929735631301588, -0.1855434897962576, -0.17879506840823708, -0.17268937166412482, -0.1657921499841423])",-77.04084008273284,-167.4060117369203,-49.934117504414054,-0.22299553875286393,-0.002278791297916955,-0.2476790458040678,25.000000247682753,-1.0,[],[],[],10000000000.0,0.03735780715942383
16,10.117003440856934,-176.97740173339844,-74.56703186035156,50.0799446105957,-0.090245544910431,-0.0032899624202401643,-0.2812142809245248,16.69545203407162,"array('d', [-73.99285125732422, -74.66162307149678, -75.32642179468802, -75.98049934915409, -76.61778669007492, -77.23350000619645, -77.82459912027004, -78.38960645430737, -78.92827384742452, -79.4412605696978, -79.92984245865105, -80.39566592019537, -80.8405521885705, -81.2663511740175, -81.6748413108209, -81.98759089284785])","array('d', [-178.8599853515625, -176.45114230427504, -174.041179108353, -171.62827554639443, -169.21088076795684, -166.78790120784254, -164.3587998442438, -161.92349713156278, -159.4822323077635, -157.0354410854476, -154.58365851866265, -152.12744881652782, -149.66735919792615, -147.20389289357928, -144.73749630775222, -142.7621067039374])","array('d', [-50.015380859375, -50.000657794021606, -49.98999780692218, -49.98219711867901, -49.976426520852826, -49.97210839138459, -49.96883610336826, -49.966320598960564, -49.96435455215256, -49.962788090560785, -49.96151224816614, -49.96044767197397, -49.95953694607756, -49.95873942588957, -49.95802781003331, -49.95751427247588])","array('d', [0.03548324480652802, -0.04263388285240823, -0.11331718911140988, -0.17727409375382766, -0.2263100541621119, -0.2554460813881851, -0.26880414250967766, -0.2701216057543544, -0.26270278116280965, -0.24937998928981675, -0.2325000935737971, -0.2139341322704007, -0.19510074024278903, -0.17699402643940196, -0.16020934171526283, -0.14496342022828687])","array('d', [-0.0068635484203695115, -0.004946946385249363, -0.0036034813698298776, -0.0026529365074715984, -0.001974857603023595, -0.0014877732271243195, -0.0011359274102660606, -0.000880733582482071, -0.0006951990975574039, -0.0005602219343432582, -0.00046208906758523396, -0.000390761784593071, -0.00033868764153505555, -0.00029997432778245515, -0.0002698213687052424, -0.00024414480942776045])","array('d', [-0.27063862880202766, -0.27047269208589125, -0.2673821480987239, -0.26161689383243575, -0.2535709094507756, -0.24392086139473568, -0.23338797951413248, -0.22255021240514947, -0.21184419857609713, -0.20157616437440087, -0.19193999030489714, -0.1830386357351257, -0.17490575272113196, -0.16752576483468518, -0.160851915126869, -0.15331515259393116])",-77.23350000619645,-166.78790120784254,-49.97210839138459,-0.2554460813881851,-0.0014877732271243195,-0.24392086139473568,25.00000024359213,-1.0,[],[],[],10000000000.0,0.021524667739868164
17,10.142080783843994,-176.33883666992188,-74.75701141357422,50.10773849487305,-0.12011522799730308,-0.005468199495226258,-0.28377942641707843,16.827080123249907,"array('d', [-74.08902740478516, -74.76167927689491, -75.42825096569847, -76.08217066826211, -76.7175092133546, -77.32958808975539, -77.91547380158825, -78.47380557576416, -79.00445780175285, -79.50821225903191, -79.98646232244955, -80.44096374819615, -80.87363740435171, -81.28642285400572, -81.68117871790507, -81.98235893612119])","array('d', [-178.54901123046875, -176.14122797248316, -173.7317443171063, -171.31879323302178, -168.90088373386865, -166.4769832450454, -164.04661965746396, -161.60977860552367, -159.16675989663125, -156.71805207474122, -154.26423398179367, -151.8059046864435, -149.34363832736162, -146.87795849434002, -144.4093268142288, -142.43214035545773])","array('d', [-50.02384948730469, -50.013034624560504, -50.00517765720886, -49.9994040740367, -49.99511100919392, -49.99187831180484, -49.98941016366767, -49.98749631768593, -49.98598606295483, -49.98477056317958, -49.98377079907009, -49.98292931913903, -49.98220461036394, -49.98156728357727, -49.98099751210509, -49.980586155877795])","array('d', [0.010971305891871366, -0.06481320438281395, -0.13338587096556792, -0.19543298980956167, -0.2430546792194808, -0.27081670488819254, -0.28284897021787697, -0.2829049731865169, -0.27430428526954964, -0.2598892456925109, -0.242010484139961, -0.2225374443792994, -0.20288344951026296, -0.18403528276191147, -0.1665804031076228, -0.15072819549064467])","array('d', [-0.005034962669014812, -0.003640222180703996, -0.002661686167688477, -0.0019687441757688167, -0.001473963317961831, -0.0011181312892051209, -0.0008606822894089001, -0.0006735169237606861, -0.0005369648836127868, -0.0004371008958516978, -0.00036393102437692323, -0.0003101500992959406, -0.0002702820019969162, -0.00024008320304321585, -0.00021613350068871824, -0.0001955660132030323])","array('d', [-0.27271298964950047, -0.27163102453580845, -0.2677053604372122, -0.2611721461683818, -0.25241036701988345, -0.24208990513435014, -0.23093630521436612, -0.21953032500688116, -0.20830892163947132, -0.19757635380581015, -0.18752297386543693, -0.17824743492487463, -0.16977891722012356, -0.16209759467036192, -0.15515287594714885, -0.1473114032901917])",-77.32958808975539,-166.4769832450454,-49.99187831180484,-0.27081670488819254,-0.0011181312892051209,-0.24208990513435014,25.000000243583322,-1.0,[],[],[],10000000000.0,0.022656917572021484
18,10.169031620025635,-176.33883666992188,-74.75701141357422,50.10773849487305,-0.12011522799730308,-0.005468199495226258,-0.28377942641707843,16.827080123249907,"array('d', [-74.28084564208984, -74.96039197032262, -75.62995345172537, -76.2832687616324, -76.91465675211069, -77.51962281503975, -78.09542590154041, -78.64092222900062, -79.15621717512788, -79.64232488471214, -80.10086208697724, -80.53379224505828, -80.94322517771256, -81.3312701164478, -81.69993710304955, -81.97915841176047])","array('d', [-177.92408752441406, -175.51821889231582, -173.10955396900235, -170.69643501671501, -168.27749013161753, -165.8518056324292, -163.41903536355764, -160.97929104881166, -158.53298906048573, -156.08071890990746, -153.62314240998768, -151.16092401025537, -148.69468772340625, -146.22499429993556, -143.75233264686238, -141.77192611841818])","array('d', [-50.04330825805664, -50.04042503954647, -50.03825430618998, -50.03658815958885, -50.035283341311946, -50.034240182196484, -50.03338874393187, -50.03267960174165, -50.03207764136474, -50.03155783245124, -50.03110231321666, -50.03069835194562, -50.03033689624284, -50.03001151464519, -50.02971759741781, -50.02950490053448])","array('d', [-0.03431684896349915, -0.10579162520795765, -0.1704646828375175, -0.2289832894657251, -0.2740701022931164, -0.29933712707880106, -0.30893943060693085, -0.30666896588891335, -0.29588000831309763, -0.27943784667322563, -0.25970281647391996, -0.23854294399549417, -0.2173624750768744, -0.19713492841156705, -0.17843321042673194, -0.16145306003277302])","array('d', [-0.0013237291714175393, -0.0009884394366630003, -0.000752090229167986, -0.0005836372697012482, -0.00046224249615947784, -0.000373760862334906, -0.0003084787908541517, -0.0002596495326138682, -0.0002225378652681501, -0.0001937888550211897, -0.00017100658447564095, -0.00015247163015089763, -0.0001369518307781687, -0.00012357657038995968, -0.00011175442412621616, -0.00010111991061513659])","array('d', [-0.2764363725993295, -0.27365824493315277, -0.26817983498884, -0.2602144586629388, -0.2501134420831504, -0.2385347945164449, -0.2262147296274685, -0.21374082857548504, -0.20155139817939574, -0.18994722194652328, -0.1791119541907333, -0.16913596685646595, -0.1600398260844966, -0.15179553448429378, -0.14434515103297918, -0.1359351959267622])",-77.51962281503975,-165.8518056324292,-50.034240182196484,-0.29933712707880106,-0.000373760862334906,-0.2385347945164449,25.00000024356729,-1.0,[],[],[],10000000000.0,0.022195816040039062
19,10.202687740325928,-175.36968994140625,-75.04032135009766,50.15375518798828,-0.15622751414775857,-0.007264274638146283,-0.2866166075083874,17.021539456438024,"array('d', [-74.37635803222656, -75.05897118770214, -75.72984112902287, -76.3828398587622, -77.01239335237649, -77.61408478052304, -78.18525728501525, -78.72486492669722, -79.23311874982346, -79.71113985138773, -80.16064795618762, -80.58370227142628, -80.98249958426422, -81.35922706498293, -81.71596416561852, -81.98514789101355])","array('d', [-177.6099853515625, -175.20498401835354, -172.79668316054338, -170.3834791156503, -167.9640571454138, -165.5375595323302, -163.1036992063937, -160.66264693792203, -158.21487346739036, -155.76101512617421, -153.30177191892716, -150.83783812037288, -148.3698602455454, -145.8984155827809, -143.42400496962847, -141.44220932373005])","array('d', [-50.05467224121094, -50.055595473167095, -50.05615034648221, -50.05644890381967, -50.05656907185271, -50.056565729239786, -50.056478027456954, -50.056334290571755, -50.05615532469553, -50.05595665624686, -50.055750026463556, -50.05554435272889, -50.055346295816385, -50.05516052940187, -50.05498978471752, -50.054865743763074])","array('d', [-0.054624523967504585, -0.12416677109262701, -0.18709120391095818, -0.2440275893200444, -0.28801546706580156, -0.3121852435230452, -0.3207079929522124, -0.31739689713949465, -0.30562484307807947, -0.2882695290271034, -0.267696986034353, -0.2457753815724338, -0.22390529288619465, -0.20305446401380925, -0.1837893218450674, -0.1662994704980537])","array('d', [0.00045792511082265355, 0.0002835690705270999, 0.00016235172780773008, 7.79029148546437e-05, 1.921061516526928e-05, -2.1210402347938615e-05, -4.8495847594759504e-05, -6.619834645870215e-05, -7.679753747257867e-05, -8.204960491603783e-05, -8.323445434476626e-05, -8.133619821693186e-05, -7.717868530037607e-05, -7.152869686395177e-05, -6.517307115735897e-05, -5.897135569306859e-05])","array('d', [-0.27809862693282555, -0.2745569862514902, -0.2683771240633921, -0.2597631067759815, -0.249053679271637, -0.23690169106660958, -0.22404936173970927, -0.2110880828040995, -0.1984571207308922, -0.18645577941390623, -0.17526463159174008, -0.1649701899214574, -0.1555889983854399, -0.14708924962654762, -0.13940958499537337, -0.13074202582850522])",-77.61408478052304,-165.5375595323302,-50.056565729239786,-0.3121852435230452,-2.1210402347938615e-05,-0.23690169106660958,25.0000002435601,-1.0,[],[],[],10000000000.0,0.024634361267089844
20,10.22841501235962,-175.36968994140625,-75.04032135009766,50.15375518798828,-0.15622751414775857,-0.007264274638146283,-0.2866166075083874,17.021539456438024,"array('d', [-74.56703186035156, -75.25549151348115, -75.9291084061831, -76.58198083550535, -77.20871709541069, -77.80502860325271, -78.36840194096986, -78.89796309966877, -79.39411153493768, -79.85816029531107, -80.29201439514443, -80.69790532064826, -81.07818620286204, -81.4351841167652, -81.77110289893355, -82.02275496214163])","array('d', [-176.97740173339844, -174.57407873552216, -172.16655149340727, -169.75331793662326, -167.33316841142184, -164.9053463963451, -162.4696719063574, -160.02642306331097, -157.57616945381574, -155.11963235823438, -152.65758083541076, -150.1907628362106, -147.7198651312268, -145.24549436343548, -142.7681723243282, -140.784074704361])","array('d', [-50.0799446105957, -50.0869120787975, -50.09178171264176, -50.09517637235192, -50.09752802828493, -50.09913943291136, -50.10022497353952, -50.100938015875485, -50.10138938967684, -50.101659970392575, -50.10180924216423, -50.10188106898883, -50.101907490728294, -50.10191110418445, -50.101906431795584, -50.10190175742446])","array('d', [-0.090245544910431, -0.1563980066370107, -0.21625523452303735, -0.27041629808654877, -0.31255226712872064, -0.3348426143946482, -0.3414946130320113, -0.3363658134304864, -0.3228674176483766, -0.30390300481958243, -0.2818513592245982, -0.2585826296506331, -0.23549197298402386, -0.2135375434007737, -0.1932746370624352, -0.1748821394057421])","array('d', [0.0032899624202401643, 0.0023005253122977045, 0.0016067576923969001, 0.0011171387302443701, 0.0007699776232925554, 0.0005232618679158935, 0.00034809282305020323, 0.00022440441719749792, 0.000138133788345813, 7.93120463993575e-05, 4.074868354644634e-05, 1.71071632373453e-05, 4.244798003142812e-06, -1.2621659728443807e-06, -2.455832362817318e-06, -2.222432350101459e-06])","array('d', [-0.2812142809245248, -0.2763266574719546, -0.26890681048618004, -0.25914391855988705, -0.24735380248212765, -0.23418013708106739, -0.22037780183105632, -0.2065462332478251, -0.19312707077409774, -0.18041723001700652, -0.16859180032135748, -0.15773031335579732, -0.1478420078560869, -0.1388881545557597, -0.13080119331996745, -0.12167628239353766])",-77.80502860325271,-164.9053463963451,-50.09913943291136,-0.3348426143946482,0.0005232618679158935,-0.23418013708106739,25.00000024354571,-1.0,[],[],[],10000000000.0,0.024156570434570312
21,10.279955863952637,-174.3881072998047,-75.3203353881836,50.203338623046875,-0.18594543635845193,-0.008329248987138407,-0.28855149348708603,17.21693306239343,"array('d', [-74.75701141357422, -75.45024405992068, -76.12601453155872, -76.7786039707086, -77.40276849519451, -77.99431977911136, -78.55086143220873, -79.07166484456101, -79.55729131698902, -80.0092198162483, -80.42951577997763, -80.8205597549677, -81.18483990487614, -81.52480386652051, -81.84276241014976, -82.07930085091903])","array('d', [-176.33883666992188, -173.93690554092004, -171.52999271579407, -169.11668926030728, -166.69587985455814, -164.26689724623228, -161.82965567540862, -159.3845275716146, -156.93216897633818, -154.47337498558582, -152.00897416125758, -149.53976023102248, -147.06645385960508, -144.58968600466582, -142.1099954428156, -140.1240398055276])","array('d', [-50.10773849487305, -50.11934736169263, -50.12751492588772, -50.13325979607565, -50.13728913552882, -50.140098865015084, -50.142040210692855, -50.143364339099, -50.14425258803499, -50.14483708237574, -50.14521479992581, -50.14545708748861, -50.14561596232664, -50.14572811651289, -50.14581728281314, -50.14587983083747])","array('d', [-0.12011522799730308, -0.18342521601291892, -0.24071046709976174, -0.2925443096255707, -0.33319234848536117, -0.3539443835922593, -0.35904563874200784, -0.3523975458595688, -0.33744865199731267, -0.3171279034919297, -0.293827124377761, -0.2694194990401521, -0.2452963672098883, -0.22240817235683458, -0.20130098091372492, -0.1821446763098736])","array('d', [0.005468199495226258, 0.0038459899552996057, 0.0027070727229881048, 0.0019022535386585967, 0.0013307531958933077, 0.000923819327311433, 0.0006340906133076276, 0.0004286394867421771, 0.00028436643272450226, 0.00018488852956283973, 0.00011839475765692459, 7.614018199937209e-05, 5.137285637251737e-05, 3.856416755392039e-05, 3.286396567994629e-05, 2.9736231524443332e-05])","array('d', [-0.28377942641707843, -0.27775454265894933, -0.26928391869287205, -0.25854545268393136, -0.24583494834869243, -0.23178833756816455, -0.21717316782881005, -0.2025968984373537, -0.18850375388282853, -0.17518876432432468, -0.16282226959719123, -0.15147768363896777, -0.141157836751357, -0.1318179395201745, -0.12338501891760442, -0.1138719012106795])",-77.99431977911136,-164.26689724623228,-50.140098865015084,-0.3539443835922593,0.000923819327311433,-0.23178833756816455,25.000000243528735,-1.0,[],[],[],10000000000.0,0.05004119873046875
22,10.318617105484009,-173.7263946533203,-75.50537872314453,50.237525939941406,-0.20449844002723702,-0.009104988537728917,-0.28929345210525004,17.34828704583416,"array('d', [-74.85169982910156, -75.5470536403106, -76.2237904376909, -76.87626983474242, -77.49931141630901, -78.08876845490033, -78.64229469499621, -79.15922551994859, -79.64019428627556, -80.08675417737338, -80.5010424918078, -80.88550653308691, -81.24269487697413, -81.57510902273862, -81.88510744163922, -82.11494779742739])","array('d', [-176.0172882080078, -173.61598012279256, -171.20934421941521, -168.79601427117217, -166.37491784796887, -163.9454278877738, -161.50750111387146, -159.06155253003195, -156.60827715410076, -154.14850325718245, -151.68308602541646, -149.21283955243072, -146.73849947299118, -144.2607073816475, -141.78000938866614, -139.79326767757965])","array('d', [-50.122596740722656, -50.13594912918588, -50.14534715467546, -50.15196032027368, -50.15660101816449, -50.15983920514278, -50.16207865471404, -50.16360815277148, -50.16463620207029, -50.16531470721375, -50.165755145712815, -50.166039515144845, -50.16622758684268, -50.16636151895053, -50.16646858534365, -50.16654379841097])","array('d', [-0.13320352137088778, -0.19526799467123493, -0.25142625734117263, -0.30224035852468867, -0.3422588931000973, -0.36235023989464554, -0.3667786500864276, -0.35946694803756957, -0.34388177438896395, -0.3229644366914567, -0.29911329608348586, -0.27420337200937667, -0.24962461833554292, -0.22632424618888497, -0.20484433732058369, -0.18535083806251695])","array('d', [0.006288406904786933, 0.004424647323533589, 0.003115628286864952, 0.002190346050116581, 0.0015331773088445994, 0.0010651801217369202, 0.000731938893120113, 0.0004956021871356447, 0.0003296064083745745, 0.0002151077735737287, 0.00013852065025788115, 8.978785426253408e-05, 6.114728520397968e-05, 4.624696837426662e-05, 3.951839432750758e-05, 3.575740809680372e-05])","array('d', [-0.28491775592299906, -0.27839154054077553, -0.26945689687269764, -0.2582870992911599, -0.24516882518864375, -0.2307345218712984, -0.21575794730007178, -0.20085049694444765, -0.1864577325698225, -0.1728739083690211, -0.16026724467686532, -0.14870839763452268, -0.13819730378107478, -0.1286864390076902, -0.12010039142499576, -0.11041552905604128])",-78.08876845490033,-163.9454278877738,-50.15983920514278,-0.36235023989464554,0.0010651801217369202,-0.2307345218712984,25.000000243521335,-1.0,[],[],[],10000000000.0,0.03557276725769043
23,10.363232851028442,-172.7223358154297,-75.78065490722656,50.28944778442383,-0.23327961564064034,-0.010351795703172803,-0.28960125049087,17.542052414456403,"array('d', [-75.04032135009766, -75.73867141137043, -76.41635841576317, -77.06787776789801, -77.68815911155627, -78.27312692404693, -78.82052299961735, -79.32979694579195, -79.80171145071903, -80.23795306598913, -80.64078812515358, -81.01278360481656, -81.3565961680222, -81.67482349220211, -81.96990906816262, -82.18723564288454])","array('d', [-175.36968994140625, -172.96926532388915, -170.5629045328452, -168.149320043083, -165.72751845394936, -163.29694649416422, -160.85763835494103, -158.41008608382322, -155.95505464027886, -153.4934312577336, -151.02611791175727, -148.55396400214602, -146.07773067363595, -143.5980772425647, -141.11556166458553, -139.12741272796563])","array('d', [-50.15375518798828, -50.169168187505775, -50.1799932315258, -50.187586269291515, -50.19289023738053, -50.19656724373977, -50.19908665329819, -50.2007843382163, -50.201902904957024, -50.20261918229699, -50.20306300232002, -50.20332991272325, -50.20348958706723, -50.20359115106346, -50.20366630286775, -50.20371798468935])","array('d', [-0.15622751414775857, -0.2161009667406797, -0.2702767117186561, -0.3192969566142743, -0.35822333680957685, -0.3771596560469906, -0.3804063649182358, -0.37192624872149954, -0.3552194554663792, -0.3332500575458382, -0.30842841804944043, -0.2826329484457631, -0.2572511434698156, -0.23322443068668938, -0.2110877781419891, -0.19100013744649214])","array('d', [0.007264274638146283, 0.0051022718962787095, 0.0035831333896973274, 0.0025092213870218445, 0.001746677086782244, 0.0012039822986119881, 0.0008179848877693759, 0.000544721716126374, 0.00035332458445935837, 0.00022188988301445422, 0.00013462193740667303, 7.98205798153848e-05, 4.844234641122351e-05, 3.3065369703256245e-05, 2.7154678185843683e-05, 2.4570254098371196e-05])","array('d', [-0.2866166075083874, -0.2792033552409268, -0.2694465805116379, -0.25751186417277105, -0.24366965057844456, -0.2285463818013392, -0.21292752594190084, -0.19743183872253392, -0.1825073732445893, -0.168446965162675, -0.15541496117271655, -0.14347699868602462, -0.13262777095746742, -0.1228148190703228, -0.11395834666124009, -0.1039703064287941])",-78.27312692404693,-163.29694649416422,-50.19656724373977,-0.3771596560469906,0.0012039822986119881,-0.2285463818013392,25.00000024350991,-1.0,[],[],[],10000000000.0,0.03961300849914551
