,x_pos,y_pos,z_pos,roll,pitch,yaw,vel,x_traj,y_traj,z_traj,roll_traj,pitch_traj,yaw_traj,x_cmd,y_cmd,z_cmd,roll_cmd,pitch_cmd,yaw_cmd,vel_cmd,effector_dmg,effector_x,effector_y,effector_z,cost,time_solution
0,-189.0877685546875,-185.257568359375,39.764381408691406,0.6162829995155332,0.0376005098223686,0.9067490855839591,23.051334584645243,"array('d', [-188.80528259277344, -187.55867511765575, -185.62020700389994, -183.7230025773756, -181.86480968156425, -180.04320349641853, -178.25565822741552, -176.49969514825744, -174.77297610730093, -173.07334198956607, -171.39881672141522, -169.74759266386584, -168.1180060862648, -166.50850683815494, -164.91762402303445, -163.34392842217397])","array('d', [-191.99993896484375, -191.0735570833882, -189.53016154718907, -187.9462469442919, -186.3267570132885, -184.67579207476592, -182.99672055619115, -181.29236927758862, -179.56517578034934, -177.81729207412445, -176.0506526901209, -174.26701982212518, -172.468013854122, -170.65513411715986, -168.82977278671038, -166.99322389002418])","array('d', [-39.999999600002816, -39.999999599999995, -40.0380144425444, -40.10900015283703, -40.20955387214632, -40.33180277343139, -40.46715797212249, -40.607883737468434, -40.7475363994903, -40.88094622049494, -41.00406693486641, -41.11382205600986, -41.20798520413882, -41.285097956124815, -41.34441968408985, -41.385903434980165])","array('d', [0.6163430809974667, 0.5720714602310044, 0.5298727987523608, 0.49048461668331783, 0.45384168511341466, 0.41984183426712296, 0.3883533261828314, 0.35922055553808535, 0.3322680298342091, 0.307302803181496, 0.2841155687076861, 0.26248059354738973, 0.24215464351518762, 0.22287500580371103, 0.204356682295093, 0.1862887943132872])","array('d', [-0.008872226444971359, 0.008581067248312426, 0.021877714539230358, 0.03532507741473855, 0.046038752249165274, 0.053210681219008626, 0.05699580761329694, 0.05787684958112554, 0.05638494463786885, 0.05300354733291164, 0.04815208229287789, 0.04219608266038352, 0.035462505455710815, 0.028253710043368616, 0.020858929192136617, 0.013563824639580817])","array('d', [0.9533760110524037, 0.910726614367649, 0.8864181338209229, 0.8642293290404267, 0.8439340945137441, 0.8253369852877188, 0.8082684371248724, 0.7925806952237971, 0.7781448190229086, 0.764848520976371, 0.7525946466763987, 0.7413001681860738, 0.730895603652815, 0.7213248038309715, 0.7125450653550738, 0.7045275444836394])",-180.04320349641853,-184.67579207476592,-40.33180277343139,0.41984183426712296,0.053210681219008626,0.8253369852877188,24.562316541454436,-1.0,[],[],[],10000000000.0,0.11301088333129883
1,-187.26129150390625,-183.1931610107422,39.77180099487305,0.6171414852142333,0.035908237099647466,0.8790164748814443,23.0536267254505,"array('d', [-187.01528930664062, -185.79042385033537, -183.88764461319823, -182.02681943362128, -180.20535427072895, -178.4206402043547, -176.6700255867175, -174.9509541961979, -173.2610450808949, -171.59811950444487, -169.9601964672922, -168.34547208717836, -166.752290820107, -165.17911215608044, -163.62447431610158, -162.08695554673244])","array('d', [-190.56417846679688, -189.60963185053924, -188.0227783148483, -186.3969973583585, -184.73711894039627, -183.04716048761253, -181.3303850243367, -179.58951053206027, -177.82686980765598, -176.04451690852497, -174.24429605456245, -172.427886859328, -170.59683450192253, -168.75256978795372, -166.8964220748192, -165.0296270833667])","array('d', [-39.999999600002816, -39.999999599999995, -40.03801789225146, -40.109109651995226, -40.2098067633673, -40.33197464741508, -40.466885945274015, -40.60677027986721, -40.74519901330494, -40.877030189634475, -40.99824026513546, -41.10576369933586, -41.19737122857418, -41.27158701760148, -41.32763769123658, -41.36542669179624])","array('d', [0.6155220866203304, 0.5687644838368863, 0.5249609798635174, 0.48454841451635233, 0.4473364371062346, 0.41311744321281973, 0.3816713354916254, 0.3527689611280037, 0.3261741544519777, 0.30164455377140337, 0.27893137133669277, 0.2577782675332671, 0.23791944375496252, 0.21907703299047915, 0.20095783574096848, 0.18324942145682172])","array('d', [-0.008872226444972956, 0.00858106724831098, 0.021883059917512993, 0.035415089973142126, 0.046083793164959204, 0.053124855587438194, 0.05674747605448202, 0.05746506066558232, 0.055819820144992684, 0.052295760907768496, 0.047308509581166364, 0.0412183109527692, 0.034346359479292064, 0.026988952396391628, 0.01942877036579776, 0.011944094449279003])","array('d', [0.9303917447712753, 0.8879259532032162, 0.8638392330832043, 0.8419282102819475, 0.8219395958956065, 0.8036584085586123, 0.7869017684605113, 0.7715130625844547, 0.7573577587295212, 0.7443204014280717, 0.7323024730258938, 0.7212209130008523, 0.7110071573213594, 0.7016066045716797, 0.6929784459369013, 0.6850958172919284])",-178.4206402043547,-183.04716048761253,-40.33197464741508,0.41311744321281973,0.053124855587438194,0.8036584085586123,24.556706369753066,-1.0,[],[],[],10000000000.0,0.11505270004272461
2,-185.0493621826172,-180.8536376953125,39.790489196777344,0.5787704586982725,0.013676236383616786,0.8457564870503284,23.070060421180937,"array('d', [-184.9101104736328, -183.71365408556653, -181.85649880809183, -180.04212399256355, -178.26748025439073, -176.52971090669448, -174.8259919919954, -173.15365297994478, -171.5102397205998, -169.89352822555065, -168.30151044345638, -166.73236646811625, -165.1844304780856, -163.6561536077919, -162.14606502033598, -160.65273163194294])","array('d', [-188.78758239746094, -187.7992224214886, -186.15916626852595, -184.48206133687864, -182.7726320271236, -181.03483563498358, -179.2718410414508, -177.48625953961235, -175.6803152915069, -173.85595712433596, -172.01493014060196, -170.158822213481, -168.28909453278308, -166.40710144079233, -164.51410271245854, -162.61127043005308])","array('d', [-39.999999600002816, -39.999999599999995, -40.037725304134355, -40.10824435651357, -40.20831626536891, -40.32971373551857, -40.46368418341288, -40.602476667752654, -40.73969898364425, -40.870245468600935, -40.99012082792668, -41.096276851441864, -41.18649001336417, -41.25927872089734, -41.313852509016094, -41.35008625418043])","array('d', [0.6165081858634949, 0.5660207234774706, 0.5196582632617831, 0.4774785726274686, 0.43912459584843017, 0.40424806653796985, 0.37251056370250496, 0.343583851880446, 0.3171493486550947, 0.2928968246621307, 0.2705224532692753, 0.24972630483910413, 0.23020935121521563, 0.21167001834479718, 0.19380030064947149, 0.17628142952327316])","array('d', [-0.008872226444981007, 0.008581067248303698, 0.021650490717940094, 0.03519000490879969, 0.0458126441264081, 0.052783191789108244, 0.05633577064662148, 0.056995986881673705, 0.05530893801104632, 0.051756745084219694, 0.046751156257756915, 0.04064785437639086, 0.03376332787190048, 0.026389184703812317, 0.01880339359171555, 0.011279342337394312])","array('d', [0.9019504348423818, 0.8595390009017801, 0.8356707603606782, 0.8140771860213957, 0.7944656247885038, 0.7765927903548139, 0.7602562667262164, 0.7452861729959603, 0.731539313986664, 0.7188950160885318, 0.7072521446469398, 0.6965269815527654, 0.6866517525967023, 0.6775736646786786, 0.6692543593028315, 0.6616697201515092])",-176.52971090669448,-181.03483563498358,-40.32971373551857,0.40424806653796985,0.052783191789108244,0.7765927903548139,24.55381150923221,-1.0,[],[],[],10000000000.0,0.12435698509216309
3,-184.0576629638672,-179.86512756347656,39.81700134277344,0.543966770172119,-0.004160885699093438,0.8276396552708486,23.067577324738345,"array('d', [-182.51649475097656, -181.3383648777607, -179.52900240250898, -177.7629129948652, -176.0371578902831, -174.34898708656357, -172.69571217799054, -171.07482586846064, -169.48405080131124, -167.92134186038925, -166.38486594203158, -164.87297220823223, -163.38415858811473, -161.9170368475222, -160.47029707039175, -159.04267178445278])","array('d', [-186.63876342773438, -185.6013819909193, -183.90076982067865, -182.16428478138042, -180.39656752855223, -178.60144622146947, -176.78195321669418, -174.94057504314904, -173.07942104487697, -171.20032944108806, -169.30493497480347, -167.39471354018136, -165.4710121837841, -163.53506909581353, -161.58802634777834, -159.63093722334222])","array('d', [-39.99999960000275, -39.99999960000136, -40.037640114935165, -40.10750099768626, -40.20546776764555, -40.322731042075105, -40.45073611401239, -40.58228090593482, -40.7115845995258, -40.83408335572994, -40.94620891117554, -41.04521594992808, -41.129060658699096, -41.196318916972345, -41.246132818785924, -41.27817710938431])","array('d', [0.6132769584655761, 0.5627372014052014, 0.5171273977535924, 0.47611654308275686, 0.4392446861312704, 0.4060796091409088, 0.37621532566224425, 0.34927037161575925, 0.3248856935899989, 0.30272216060206136, 0.28245775294902736, 0.2637844740843583, 0.24640501483228766, 0.23002918196085606, 0.21437008734972815, 0.19914007987495194])","array('d', [-0.008872226443940314, 0.008581067249245355, 0.02151723831106412, 0.034660082448846136, 0.04444519811404986, 0.05055263329862312, 0.05343975108350061, 0.05369790972490215, 0.05185867396769336, 0.048360405746130035, 0.043563121978310484, 0.0377703376861857, 0.031247156199948403, 0.02423354041200808, 0.016953722994309202, 0.009622939789192746])","array('d', [0.8700393001225328, 0.8284052351819521, 0.804745593637422, 0.7833038540848, 0.7637725164886412, 0.7458990567181275, 0.7294755940594683, 0.7143292481993069, 0.7003154414308698, 0.6873131497922077, 0.6752214760903203, 0.6639571546036126, 0.6534527386430552, 0.6436553088651075, 0.6345255950879486, 0.6260374401379006])",-174.34898708656357,-178.60144622146947,-40.322731042075105,0.4060796091409088,0.05055263329862312,0.7458990567181275,24.617876544267315,-1.0,[],[],[],10000000000.0,0.06407856941223145
4,-182.3689422607422,-178.26992797851562,39.916378021240234,0.4800452291965481,-0.03498823940753951,0.7969984571125841,23.05367848441135,"array('d', [-181.5135040283203, -180.01221348805095, -178.20684995548297, -176.4425242736685, -174.71717610581115, -173.02881376842393, -171.37559421321012, -169.7558546224356, -168.1681210985484, -166.61110277098504, -165.08367463433734, -163.58484992163284, -162.11374054477574, -160.66950132217426, -159.25123459777055, -157.85771564286105])","array('d', [-185.6910858154297, -184.3456170976337, -182.63659945953776, -180.8904587622503, -179.1117043911655, -177.30408907950095, -175.47080775714505, -173.61463755952246, -171.73804138909503, -169.843243604383, -167.93228201586305, -166.0070375173531, -164.06923946548324, -162.1204404903381, -160.16192701725836, -158.1943634701091])","array('d', [-39.9999996000019, -39.99999960000174, -40.04005525203706, -40.10856589479827, -40.19076934726992, -40.275070393653834, -40.3526231219437, -40.41659942441342, -40.46162675830195, -40.48341078618141, -40.478520931612394, -40.44432245371467, -40.3790448223091, -40.282000069833636, -40.154220614127134, -40.00118973734909])","array('d', [0.5966978073120113, 0.5522996835342343, 0.5122986901943793, 0.47634809299757014, 0.4440677878000156, 0.41509857925644655, 0.3891022696396962, 0.365761131844726, 0.3447768433601073, 0.32586898515890705, 0.3087731931751965, 0.2932390272999987, 0.27902760246000025, 0.2659090096790363, 0.2536595414308349, 0.2420587246320341])","array('d', [-0.008872226442288533, 0.008581067250739951, 0.023393600769081105, 0.031652717795513235, 0.03461738323010884, 0.03353758863878869, 0.029341984531244984, 0.022695642739387335, 0.014078783290794882, 0.0038561752259918714, -0.007661613096838348, -0.02016071141353453, -0.03326883124580552, -0.04648400518637744, -0.058895627238293766, -0.0677272798285051])","array('d', [0.8560760776188706, 0.8245958681154699, 0.8013700385892577, 0.780091619379698, 0.7604900960442053, 0.7423416049859036, 0.7254593804129253, 0.7096864457500246, 0.6948901122013585, 0.6809578923092375, 0.6677944833025093, 0.655319547760727, 0.6434660937613979, 0.6321793228635144, 0.6214159298874277, 0.6111442465688977])",-173.02881376842393,-177.30408907950095,-40.275070393653834,0.41509857925644655,0.03353758863878869,0.7423416049859036,24.6986310501407,-1.0,[],[],[],10000000000.0,0.0957789421081543
5,-180.6441650390625,-176.73207092285156,40.09116744995117,0.42552518844604476,-0.06108885630965246,0.7699263254788261,23.0150437054406,"array('d', [-179.86512756347656, -178.04993049118937, -176.2747560835683, -174.5384936160234, -172.84003092455734, -171.178428095065, -169.55293048769056, -167.9629227467416, -166.4078935006923, -164.88742521043773, -163.40119373950745, -161.9489602987222, -160.53054402444582, -159.14577674337596, -157.79441267563917, -156.4757969460698])","array('d', [-184.0576629638672, -182.3502512028217, -180.60400830892755, -178.8223957698453, -177.00837963148317, -175.16465905227707, -173.29374153864046, -171.39794672881885, -169.47941088200395, -167.54011311963947, -165.58190946213506, -163.60655417060303, -161.6156909414201, -159.6108120079267, -157.5931402440582, -155.5631214725614])","array('d', [-39.99999960000091, -40.03082432513209, -40.09630217743342, -40.18298989162675, -40.277153141237314, -40.36857112774405, -40.44944398181604, -40.51361461630393, -40.55605749621341, -40.57256547108166, -40.559609079835234, -40.5143861911541, -40.43507839945291, -40.321141065022836, -40.17409132654518, -40.001578434105504])","array('d', [0.543966770172119, 0.5164756712816965, 0.49158761077670676, 0.46910840839812623, 0.4488537819034485, 0.43065006728480465, 0.4143344662108774, 0.3997548990523871, 0.38676953198754704, 0.3752460367215129, 0.3650606252729438, 0.3560968855244863, 0.3482444289627083, 0.34139734956464035, 0.3354524791702278, 0.3303074094005596])","array('d', [0.004160885699093438, 0.02030664070468416, 0.0320743950137345, 0.03749821497573441, 0.03823609026202273, 0.03544152374111534, 0.02988867378219147, 0.022098741569153292, 0.012431112526710536, 0.001154444893587332, -0.011484159076894337, -0.025173443021387434, -0.03945248672614173, -0.05376072121066465, -0.06697781872232166, -0.0751758976707997])","array('d', [0.8276396552708486, 0.8045757031418894, 0.7828641502129401, 0.7623382343197943, 0.7428516263977912, 0.7242756294861645, 0.7064968215654694, 0.6894152292295891, 0.6729426124025979, 0.6570008156374647, 0.6415203375410254, 0.6264392164895226, 0.6117022347227709, 0.5972603553834683, 0.5830704962119699, 0.569096411418368])",-171.178428095065,-175.16465905227707,-40.36857112774405,0.43065006728480465,0.03544152374111534,0.7242756294861645,24.797768169848734,-1.0,[],[],[],10000000000.0,0.0814969539642334
6,-179.2350311279297,-175.52871704101562,40.283538818359375,0.3955022692680356,-0.07387028634548191,0.753452614941869,22.98001852706982,"array('d', [-178.26992797851562, -176.51724216956944, -174.79412664104953, -173.1027519175486, -171.44241312830997, -169.81210684588046, -168.21092040411324, -166.6381057734119, -165.09308226784353, -163.57541938078776, -162.08480897069262, -160.62101669143578, -159.18378603536772, -157.7727205908702, -156.38752082441326, -155.02818741466172])","array('d', [-182.3689422607422, -180.62163992838282, -178.836657734187, -177.02060857412056, -175.17664282135948, -173.30709445795932, -171.41395569211954, -169.49902235580257, -167.56395552306918, -165.61031289980713, -163.6395592910082, -161.65304088244213, -159.6518821877596, -157.63683235205716, -155.60860764214667, -153.56821930395392])","array('d', [-39.99999960000251, -40.09769642716267, -40.21228843942783, -40.33358737630322, -40.45272842983044, -40.56264829660389, -40.65768772795665, -40.73317998207139, -40.78520473902491, -40.81056991079542, -40.80713403287266, -40.77475842304136, -40.717451959184785, -40.645230174577655, -40.560905256072374, -40.455025019540955])","array('d', [0.4800452291965481, 0.4509415089447119, 0.42516911773785193, 0.4024200932278588, 0.38239843156545916, 0.3648241568378154, 0.34943587403420817, 0.335992272303366, 0.32427291502796257, 0.3140785461321803, 0.3052310659672596, 0.2975732720199427, 0.29096841186833344, 0.28529955703720683, 0.28046878660741004, 0.2763961895459727])","array('d', [0.03498823940753951, 0.04377405471680856, 0.048457109087641, 0.049206557084878595, 0.04678949467322642, 0.04185945622820753, 0.0348798522171916, 0.026174859079334676, 0.016008024617636174, 0.004686469345600082, -0.007267996724310703, -0.01877909680145184, -0.02758427176904114, -0.03105781039073486, -0.03747326080816167, -0.04865796597982756])","array('d', [0.7969984571125841, 0.7771138437453013, 0.7586217882845335, 0.7412913515398493, 0.7249547493690238, 0.7094726916726158, 0.6947262925178497, 0.6806131555857284, 0.6670447516925876, 0.6539443992792472, 0.6412455953165322, 0.6288905786933751, 0.6168290616364719, 0.6050170504019078, 0.5934155956798106, 0.581989903010585])",-169.81210684588046,-173.30709445795932,-40.56264829660389,0.3648241568378154,0.04185945622820753,0.7094726916726158,24.813185056680318,-1.0,[],[],[],10000000000.0,0.11306381225585938
7,-178.1731414794922,-174.64382934570312,40.44530487060547,0.382349520921707,-0.07731331884860997,0.7438591281559804,22.95009377844339,"array('d', [-177.03536987304688, -175.3040524588944, -173.600317218192, -171.92100096105997, -170.26322781859974, -168.6244612864041, -167.00249546779574, -165.39542495376182, -163.80160834181714, -162.2196312974966, -160.64827161473997, -159.0864673990677, -157.53328896437338, -155.987914805447, -154.44961190151693, -152.91772333720954])","array('d', [-180.99143981933594, -179.19230205588218, -177.36533857732195, -175.51504623413814, -173.64495936488385, -171.7579208270097, -169.85625036999468, -167.9418593086114, -166.01633439063866, -164.08100230599908, -162.13698095688085, -160.18522095738152, -158.22653941214855, -156.26164720590714, -154.29117053612953, -152.31567068070322])","array('d', [-40.05044937133789, -40.174545718156125, -40.27119612189245, -40.35003738840386, -40.41707166738634, -40.47605361797593, -40.529327382739176, -40.5783363740613, -40.623937946714406, -40.66660202236061, -40.70654181442755, -40.74380661245063, -40.77835562029711, -40.81012482921251, -40.839093863006134, -40.86535541445186])","array('d', [0.4350196421146389, 0.37916797281828696, 0.33084263710543305, 0.28920215983332287, 0.25344929323078297, 0.2228364519111477, 0.19666885136827325, 0.17430660523298688, 0.15516635669376377, 0.13872270660985414, 0.1245095630706107, 0.11212148180067057, 0.10121504824546737, 0.09151034833221368, 0.0827925759358527, 0.07491382742754125])","array('d', [0.056481730192899815, 0.04306079919908709, 0.03442313190710004, 0.02875498118549004, 0.024942502063002383, 0.02229167144840668, 0.020362750982278306, 0.018871828549025506, 0.017632135420274007, 0.016519346977365824, 0.015451658388302612, 0.014379176379868552, 0.013279259662826174, 0.012155538552926722, 0.01103883693987228, 0.009988353540209322])","array('d', [0.7748598019268848, 0.7579567212977061, 0.7434247703840241, 0.7308671655751948, 0.7199624987273808, 0.7104468369546848, 0.7021017261872132, 0.6947458062123144, 0.6882286612051739, 0.6824260599162199, 0.6772360569721224, 0.672575621366176, 0.6683775794117507, 0.6645877353778428, 0.6611620805069105, 0.6580640248534101])",-168.6244612864041,-171.7579208270097,-40.47605361797593,0.2228364519111477,0.02229167144840668,0.7104468369546848,25.00000024899057,-1.0,[],[],[],10000000000.0,0.04389500617980957
8,-177.10861206054688,-173.77027893066406,40.615318298339844,0.37706995010375954,-0.07600373029708869,0.7357127825405935,22.919574476174855,"array('d', [-176.1266326904297, -174.4201448994908, -172.73905210791472, -171.0805255449565, -169.44189086452445, -167.82075826656043, -166.21504446607804, -164.6229546426513, -163.0429505118263, -161.47371488680156, -159.914117035588, -158.36318074638808, -156.82005603549405, -155.2839950093355, -153.75433219798958, -152.23047235266466])","array('d', [-179.94081115722656, -178.12001134004396, -176.2731355033602, -174.40468064298503, -172.51807559457814, -170.61602526383766, -168.7007074982536, -166.77389848825274, -164.83706026611222, -162.89140602957082, -160.937951137123, -158.97755393841712, -157.01094876317833, -155.03877240334455, -153.06158485487688, -151.07988832999422])","array('d', [-40.18303298950195, -40.33234788260219, -40.44554913871904, -40.535366290945156, -40.60974704237993, -40.673684549594384, -40.73032184295668, -40.78162512072135, -40.828799200179304, -40.87254875782578, -40.91324819022275, -40.95105888629336, -40.98601826695965, -41.018115877115186, -41.047365561629206, -41.07387774484338])","array('d', [0.4089046120643614, 0.3543038157150907, 0.30739172533878006, 0.2672552464197968, 0.2330440184919788, 0.20397057818799413, 0.17931015904941067, 0.15840057752283832, 0.1406423280036144, 0.12549889040090237, 0.11249722550744426, 0.10122844116612131, 0.09134862991838871, 0.08257989550815283, 0.07471159797866349, 0.0676018555352837])","array('d', [0.06874911487102514, 0.0510704141059564, 0.03971154368607357, 0.03228175369906566, 0.027314553551139136, 0.02389804850014961, 0.021456405256217045, 0.01961974274935514, 0.018146343062494172, 0.016876278918699264, 0.015704258566930623, 0.014564466941895353, 0.013422992473003563, 0.01227495390461678, 0.011144191980553596, 0.01008368273063163])","array('d', [0.7610754529621939, 0.7453456435646116, 0.731882176835638, 0.720299330610145, 0.7102843409573616, 0.7015803351222107, 0.6939749078751739, 0.6872921146957242, 0.6813865591487657, 0.6761387697195073, 0.6714513685635465, 0.6672457212240325, 0.6634588712351062, 0.6600406345299497, 0.6569507722631169, 0.6541561821192461])",-167.82075826656043,-170.61602526383766,-40.673684549594384,0.20397057818799413,0.02389804850014961,0.7015803351222107,25.00000024898974,-1.0,[],[],[],10000000000.0,0.034539222717285156
9,-175.67689514160156,-172.60935974121094,40.84154510498047,0.3767695724964138,-0.06904960423707963,0.7276948253300524,22.889844431643695,"array('d', [-175.23228454589844, -173.5457342765024, -171.88305080412871, -170.24161257160569, -168.61887087556963, -167.0125300147888, -165.42058833624293, -163.84132719344723, -162.2732812583582, -160.71520346220197, -159.1660300623158, -157.62484824810818, -156.0908674324191, -154.56339482775505, -153.0418156576877, -151.5255809715055])","array('d', [-178.88143920898438, -177.04336354240914, -175.18047820339103, -173.29728823152553, -171.39715218750084, -169.4826794425751, -167.55594789868576, -165.61863742868067, -163.6721202795115, -161.71752723850457, -159.75579864988435, -157.78772494482456, -155.8139792068006, -153.83514318279043, -151.85172753361852, -149.86419032854687])","array('d', [-40.336151123046875, -40.499549461375416, -40.621903803387504, -40.71770093285719, -40.795995734726155, -40.862487173549376, -40.92077436026729, -40.97312271359684, -41.02093669955448, -41.06505666964599, -41.10595094099232, -41.14384690675658, -41.178828563242746, -41.21091760524534, -41.240148309504924, -41.26664103453813])","array('d', [0.39014887809753385, 0.336266018932291, 0.29023910682654, 0.2510947560502424, 0.2179365630233986, 0.18994144825324724, 0.1663570088673712, 0.14649976448863386, 0.12975409787022327, 0.11557170894468906, 0.1034714510914059, 0.0930394714913601, 0.08392962116293484, 0.07586413154233732, 0.06863457472110003, 0.06210313700352857])","array('d', [0.075626015663147, 0.05552347084695108, 0.04261514146691717, 0.0341822348469791, 0.028557760000638338, 0.024705952667932515, 0.021973617173300007, 0.01994202425453161, 0.018338254675979278, 0.016982178238820513, 0.015755168682330723, 0.014582331763651719, 0.013423243925230347, 0.012267968114380504, 0.011136012444581844, 0.010076281579012157])","array('d', [0.7500866214421131, 0.7351887409700218, 0.7224923699620797, 0.7116164948189593, 0.7022521614887073, 0.6941457719776387, 0.6870879214679615, 0.6809055609623859, 0.6754561812800958, 0.6706232320259851, 0.6663122939021733, 0.6624477062182254, 0.6589694632337302, 0.6558302612102306, 0.6529926194601691, 0.6504260188120712])",-167.0125300147888,-169.4826794425751,-40.862487173549376,0.18994144825324724,0.024705952667932515,0.6941457719776387,25.000000248988975,-1.0,[],[],[],10000000000.0,0.0636146068572998
10,-175.3187713623047,-172.3212432861328,40.897464752197266,0.37661370635032626,-0.06660864502191552,0.7260754863407948,22.883367177881272,"array('d', [-174.0603790283203, -172.3954079522886, -170.75351206250505, -169.1320620689423, -167.5285119777199, -165.94058160769023, -164.36629616485303, -162.80397265496978, -161.2521875481081, -159.70973930788486, -158.17561139198008, -156.64893816349348, -155.128974855623, -153.61507217509472, -152.10665587830655, -150.60321511184762])","array('d', [-177.4636993408203, -175.606265217911, -173.7251179449984, -171.82472169716357, -169.90836878306803, -167.97859412941594, -166.03740017785432, -164.08639344432214, -162.12687635398916, -160.15991410784966, -158.18638605551047, -156.2070263926579, -154.22245676513214, -152.2332122122505, -150.23976125037885, -148.24252526491205])","array('d', [-40.55793762207031, -40.72370854192017, -40.847376988494744, -40.94380740210047, -41.022293809141374, -41.08868897743479, -41.146692884368186, -41.198638731619916, -41.2459779359337, -41.28958454852268, -41.329951978957176, -41.36732683523719, -41.40180787323289, -41.433427576139735, -41.46222682947454, -41.48832770541242])","array('d', [0.37812218070030185, 0.32391363161047554, 0.2779013085901631, 0.23902537226700782, 0.2063208522479284, 0.1789094324533885, 0.15599386498266035, 0.13685424738924068, 0.12084558849519972, 0.10739626023540864, 0.09600707424918051, 0.08625082897216464, 0.07777224843316191, 0.0702882834789056, 0.06358877659779393, 0.05753750964418163])","array('d', [0.07684165984392172, 0.05621884811278287, 0.04297791477989464, 0.03433006277711963, 0.028565630780896713, 0.024622562204517518, 0.02183130596795117, 0.019762875261742942, 0.018137863980228222, 0.016771983271065015, 0.015543853907181365, 0.014376618227375024, 0.013228245222735458, 0.012087227157205048, 0.010971301942901872, 0.009927245339873457])","array('d', [0.7381921569493152, 0.7238392687321592, 0.7116760306345505, 0.7013140939237729, 0.6924394802980604, 0.6847951958244619, 0.6781696959342259, 0.6723888176825495, 0.6673097957900957, 0.6628165394409721, 0.658815672313291, 0.6552330317097397, 0.6520104388169682, 0.6491026219760245, 0.6464742165571927, 0.6440967839068913])",-165.94058160769023,-167.97859412941594,-41.08868897743479,0.1789094324533885,0.024622562204517518,0.6847951958244619,25.000000248988027,-1.0,[],[],[],10000000000.0,0.030618667602539062
11,-174.60218811035156,-171.74700927734375,41.00664138793945,0.37347954511642434,-0.0608564168214799,0.7230703393605092,22.873553101524386,"array('d', [-173.77027893066406, -172.10979225114158, -170.47237001797558, -168.8553391863074, -167.2561303542539, -165.67245116907543, -164.10232151253805, -162.54405752757458, -160.99623781181623, -159.4576649386478, -157.92732771626768, -156.40436653480523, -154.88804290049634, -153.3777137196775, -151.87281065389914, -150.37282833839967])","array('d', [-177.10861206054688, -175.2470102219583, -173.36188622922884, -171.45768279271914, -169.5376779156198, -167.60439481074263, -165.65982512750514, -163.70556497115547, -161.74290663273916, -159.77290550939134, -157.796431577496, -155.81421019079627, -153.82685476569515, -151.83489277795067, -149.83878586830406, -147.83894925194303])","array('d', [-40.615318298339844, -40.77932776759194, -40.90176164618698, -40.99729706901095, -41.07511035909045, -41.140979713299714, -41.19855746629846, -41.25014616983116, -41.29717745012197, -41.34051260113143, -41.380636884456145, -41.417791795570935, -41.45207294928559, -41.48351089350032, -41.512145186231265, -41.53809667360434])","array('d', [0.37706995010375954, 0.32259917855032455, 0.27642405602912856, 0.2374626880422824, 0.20473236600160055, 0.17734025768831055, 0.154477118199387, 0.13541310081288546, 0.11949500191883014, 0.10614448350731079, 0.09485697980689936, 0.08520111480707869, 0.07681854066750261, 0.06942416111748072, 0.06280673702252242, 0.05682989090999965])","array('d', [0.07600373029708869, 0.055640133972975014, 0.042564985154687686, 0.03402466940674421, 0.02833108258275921, 0.024435518322202796, 0.021676792449589557, 0.019631230818441446, 0.018022847814134973, 0.016669586749507418, 0.015451539300764256, 0.014292815128857675, 0.013151999670594964, 0.012017938119046308, 0.010908505462585136, 0.00987042472951655])","array('d', [0.7357127825405935, 0.7214125914972493, 0.709309416772753, 0.6990112894355223, 0.6902016547111531, 0.68262165330908, 0.6760583956461047, 0.6703367759245958, 0.6653134077808289, 0.6608718406276263, 0.6569185499697641, 0.6533793928438598, 0.6501963379998236, 0.6473243514449898, 0.64472836022933, 0.6423802365076787])",-165.67245116907543,-167.60439481074263,-41.140979713299714,0.17734025768831055,0.024435518322202796,0.68262165330908,25.00000024898781,-1.0,[],[],[],10000000000.0,0.027298450469970703
12,-174.24375915527344,-171.4607391357422,41.059654235839844,0.3700759708881376,-0.05768758803606037,0.7218235890057423,22.868938074070638,"array('d', [-173.18797302246094, -171.5351915594421, -169.90559629339717, -168.29639379690886, -166.70495036773397, -165.1289382958639, -163.56635868764934, -162.01551924676673, -160.47499690987107, -158.94359709268593, -157.4203143580664, -155.9042965890372, -154.39481364039358, -152.8912309692203, -151.39298853276406, -149.8995876624761])","array('d', [-176.39292907714844, -174.52396384533807, -172.63180750775814, -170.72084125220803, -168.7943112427992, -166.85472003621277, -164.90404265277792, -162.94385994215463, -160.97544945389203, -158.99985220344686, -157.01792425010004, -155.03037767227133, -153.03781342276625, -151.04074745361962, -149.0396308932862, -147.03486807150358])","array('d', [-40.72904968261719, -40.88709638607129, -41.0054452380558, -41.098105464123556, -41.17383323481152, -41.2381399385646, -41.29450673330073, -41.34512525467122, -41.39135464153942, -41.43400852647564, -41.47354076031341, -41.51017218728059, -41.54398493227266, -41.575000771021365, -41.603253457683586, -41.62885968240591])","array('d', [0.37635260820388766, 0.32127825934384574, 0.2746941302305823, 0.23547679348220804, 0.2026100419130625, 0.17517352299012226, 0.15233513709197719, 0.13334598350461746, 0.11753701564733458, 0.10431684652486954, 0.09317034992395748, 0.08365784784687098, 0.075414772802716, 0.06815175643320404, 0.06165513407727319, 0.05578787738003912])","array('d', [0.07314409315586098, 0.05370394744516968, 0.04121941792321437, 0.03306203310690484, 0.027620305230405637, 0.023892941915339517, 0.02124844357458825, 0.019281952037960834, 0.01772956575852648, 0.016417094679366216, 0.015229818218395445, 0.014095299402797353, 0.012974421005056238, 0.011857519742918078, 0.010763364323343967, 0.00973909558378458])","array('d', [0.7314227382328847, 0.7171679790694908, 0.7051304430835699, 0.6949102852379498, 0.6861853254718837, 0.6786925986351181, 0.6722162079985987, 0.6665788797906591, 0.6616357247299561, 0.6572693262979976, 0.6533856283145881, 0.6499103020332575, 0.6467853965699466, 0.6439661501321102, 0.6414178831014464, 0.6391129155395109])",-165.1289382958639,-166.85472003621277,-41.2381399385646,0.17517352299012226,0.023892941915339517,0.6786925986351181,25.000000248987412,-1.0,[],[],[],10000000000.0,0.03380274772644043
13,-173.5265350341797,-170.8895721435547,41.16206741333008,0.35925832390785195,-0.05105246230959903,0.7196135679867605,22.862996039533197,"array('d', [-172.8982391357422, -171.2489246960321, -169.62291461390294, -168.0173421643241, -166.4295342341333, -164.85714073161057, -163.29814988614, -161.75086233608872, -160.21385173341594, -158.68592273515605, -157.1660708176777, -155.65344583048739, -154.1473201860193, -152.6470621480669, -151.15211448794665, -149.6619812806523])","array('d', [-176.0349578857422, -174.16259736857995, -172.26719097872066, -170.35308300747164, -168.42350296295467, -166.48094438499305, -164.5273759883421, -162.5643731560658, -160.59320816346957, -158.61491678617864, -156.63034990646534, -154.64021457682946, -152.64510696939578, -150.64553857743465, -148.6419564417052, -146.6347613034452])","array('d', [-40.7855339050293, -40.93960149825429, -41.05524706440217, -41.146025864987564, -41.220408455184455, -41.28372472093522, -41.33933921263071, -41.38936782828839, -41.435120013048355, -41.47737651645339, -41.51656930616423, -41.55290463985984, -41.586454952467875, -41.61723563146359, -41.64527624305928, -41.67069068508248])","array('d', [0.37656188011169417, 0.32114231961423134, 0.27431186170942673, 0.23492663788035487, 0.20195392458757624, 0.17445976145706152, 0.15160070446704577, 0.13261835003313274, 0.11683570521980031, 0.10365479387774044, 0.09255511367417156, 0.0830927163376101, 0.07489978899458917, 0.06768468173108129, 0.06123236719766626, 0.05540534205361697])","array('d', [0.07123040407896052, 0.0524174894045862, 0.040334130333819294, 0.032436810982667263, 0.027166039851497993, 0.023552694377009607, 0.020985408700520264, 0.019072079431342794, 0.017556989672600304, 0.0162712732505204, 0.01510372155657384, 0.013984245229759436, 0.012875310924280004, 0.011768322258558462, 0.010682747828153868, 0.009666150755757425])","array('d', [0.7294824282315119, 0.7152261162147773, 0.7031997684228783, 0.6929991926679563, 0.6842991001303034, 0.6768342459419552, 0.6703870471115642, 0.6647789923697143, 0.6598643077335475, 0.6555249754174338, 0.6516665668626613, 0.6482145637638155, 0.6451109674646434, 0.6423110722807401, 0.6397803226863193, 0.6374911961246089])",-164.85714073161057,-166.48094438499305,-41.28372472093522,0.17445976145706152,0.023552694377009607,0.6768342459419552,25.000000248987227,-1.0,[],[],[],10000000000.0,0.03092217445373535
14,-172.44386291503906,-170.02886962890625,41.30155944824219,0.33373540639877297,-0.04105185717344297,0.7165229479458671,22.861621354816986,"array('d', [-172.3212432861328, -170.67792934903937, -169.05814843057883, -167.45888405409045, -165.8773857734536, -164.31126136123638, -162.7584758123917, -161.2173176578307, -159.68635544703054, -158.1643932918771, -156.6504290736042, -155.1436168630718, -153.64323428211202, -152.1486551868968, -150.65932790084764, -149.17476175816833])","array('d', [-175.3187713623047, -173.44037167430642, -171.5392521242848, -169.61966192628444, -167.68478646865847, -165.7370955548129, -163.77854225882876, -161.81068949935238, -159.83479835795916, -157.85189402522553, -155.86281725254074, -153.868265454877, -151.86882575565932, -149.86500127828458, -147.85723142881483, -145.8459100938341])","array('d', [-40.897464752197266, -41.041935001334636, -41.151088522340615, -41.23737527075256, -41.308570489115766, -41.369562090117334, -41.42343048877038, -41.47210681690771, -41.51677905108775, -41.55814731205161, -41.596589656643545, -41.63227617095396, -41.66525507064156, -41.695525674077984, -41.72310705436063, -41.74810636685968])","array('d', [0.37661370635032626, 0.3206260071067601, 0.2733960490965763, 0.23374468926906053, 0.20061076564142116, 0.17303692678589586, 0.15016025661356924, 0.13120606377496677, 0.11548375691444757, 0.10238410491707746, 0.09137744343687616, 0.08201256835830369, 0.07391617550183947, 0.06679278083310945, 0.060425100549733386, 0.054674896918076])","array('d', [0.06660864502191552, 0.049321806078345035, 0.0382145213218943, 0.03094992997862304, 0.026094991817182434, 0.02275880700285229, 0.020378957761019847, 0.018594341363539633, 0.01716912619346341, 0.015947376018365062, 0.014826412952158502, 0.013741861733439062, 0.012660070722581854, 0.011575104151546133, 0.010508245875241807, 0.009508254844843623])","array('d', [0.7260754863407948, 0.7118296174564698, 0.699834108357746, 0.6896775399344535, 0.6810294630672985, 0.6736208547583963, 0.6672313445829255, 0.661680384954479, 0.656820757760235, 0.6525334779451022, 0.6487235352615592, 0.6453161376712077, 0.6422532512060725, 0.6394903087976769, 0.6369930062435399, 0.6347341259567124])",-164.31126136123638,-165.7370955548129,-41.369562090117334,0.17303692678589586,0.02275880700285229,0.6736208547583963,25.000000248986883,-1.0,[],[],[],10000000000.0,0.0299532413482666
15,-171.72216796875,-169.4569549560547,41.38872146606445,0.31202757358551003,-0.03416729718446738,0.714532570042882,22.863462023600526,"array('d', [-171.4607391357422, -169.82448973353766, -168.21166787666976, -166.6190884187334, -165.0439373192791, -163.48380489963372, -161.9366601405687, -160.4008059802143, -158.8748304971466, -157.35755967386365, -155.84801401474004, -154.3453699943295, -152.84892680269277, -151.3580786426691, -149.87229274146793, -148.39109579700718])","array('d', [-174.24375915527344, -172.35786143970432, -170.4501565491467, -168.52464925465463, -166.5843901783623, -164.6317647048164, -162.66866632678622, -160.6966117984597, -158.7168240989077, -156.73029573346992, -154.73783879962767, -152.7401253097003, -150.73771975467497, -148.7311050627409, -146.720702619622, -144.70689024014672])","array('d', [-41.059654235839844, -41.18562497908522, -41.28232775667441, -41.36005789802128, -41.42523590334569, -41.48188844646522, -41.53254192903413, -41.57876678517645, -41.62151337197498, -41.66132355880941, -41.69846906013007, -41.7330481149603, -41.76506043343653, -41.79447293666625, -41.82128362697119, -41.84558664634916])","array('d', [0.3700759708881376, 0.31424801426988247, 0.2672604911910568, 0.22790935644109114, 0.19511384631492235, 0.1679009475960152, 0.14539517235728724, 0.12681178623554556, 0.11145228916267151, 0.098701380054113, 0.08802492983124793, 0.07896868378774996, 0.07115754241325266, 0.06429534962179938, 0.05816516476403783, 0.05263002227160905])","array('d', [0.05768758803606037, 0.04337138876030389, 0.03416400984960553, 0.0281308657278493, 0.024084975995205114, 0.0212876182660525, 0.019271578938689575, 0.017736032651596095, 0.016483795064654624, 0.015384047814362482, 0.014350686307066146, 0.01333046002960616, 0.01229733021480384, 0.011250676339931443, 0.010215555687580478, 0.009243417787079588])","array('d', [0.7218235890057423, 0.7078639084660951, 0.6961363422236119, 0.6862299442676051, 0.6778146401931716, 0.6706217755883613, 0.664431409357138, 0.6590635235421579, 0.6543715459505692, 0.6502372515387295, 0.6465664890926837, 0.6432854012293362, 0.6403369360320447, 0.6376775253078046, 0.6352738492297155, 0.6330996290586927])",-163.48380489963372,-164.6317647048164,-41.48188844646522,0.1679009475960152,0.0212876182660525,0.6706217755883613,25.00000024898645,-1.0,[],[],[],10000000000.0,0.0422062873840332
16,-171.0005645751953,-168.88623046875,41.471160888671875,0.28811073303222634,-0.027353798970580163,0.7120667258885244,22.863601584218355,"array('d', [-170.8895721435547, -169.25662231193033, -167.6465469616517, -166.05612658133103, -164.48256526875602, -162.9234901970222, -161.37691254713934, -159.84117744171652, -158.3149130000993, -156.79698232973323, -155.28643996099368, -153.78249337535587, -152.28446994671143, -150.79178947892353, -149.30394246305656, -147.82047674359458])","array('d', [-173.5265350341797, -171.63690275968642, -169.72642956936843, -167.79889146189825, -165.85719784385893, -163.9036376251047, -161.94003292058613, -159.96784457248037, -157.98825002209247, -156.0022036961617, -154.01048526804024, -152.01373878063663, -150.0125043627857, -148.0072435595497, -145.99835887020424, -143.98621132341842])","array('d', [-41.16206741333008, -41.27428468584883, -41.36175254564664, -41.43315563646987, -41.4939023448754, -41.547376005017824, -41.595689100825965, -41.64014245445091, -41.68150866037494, -41.72021103922917, -41.756441476931585, -41.790244121723475, -41.82158203754467, -41.85039759761955, -41.87667286069097, -41.900492285186274])","array('d', [0.35925832390785195, 0.3044885750824336, 0.2584590760069621, 0.21997427066440148, 0.18796096300376572, 0.1614531068696987, 0.13958178345036654, 0.12156854081235875, 0.10672091772405193, 0.09442940314620367, 0.08416537216765471, 0.07547973224917703, 0.06800213835671311, 0.06144071239752065, 0.0555822473133119, 0.05029290170281336])","array('d', [0.05105246230959903, 0.03895390793464418, 0.0311647791239451, 0.026050835385980547, 0.022608759113882795, 0.020213400825746485, 0.01846859339304292, 0.017118488580771855, 0.01599473428885113, 0.014985246920818712, 0.0140162829996971, 0.013042895712844376, 0.012044745473616548, 0.011025221517410134, 0.010012274620637448, 0.009059481454637665])","array('d', [0.7196135679867605, 0.7061069550724842, 0.6947748259064914, 0.6852168029853335, 0.6771104433377468, 0.6701928542537375, 0.6642486177778238, 0.6591013836737157, 0.6546076295389299, 0.6506517126322011, 0.6471416947613212, 0.64400562940937, 0.641188122393913, 0.6386470490045779, 0.636350352218245, 0.63427286677082])",-162.9234901970222,-163.9036376251047,-41.547376005017824,0.1614531068696987,0.020213400825746485,0.6701928542537375,25.000000248986233,-1.0,[],[],[],10000000000.0,0.03636956214904785
17,-170.2789764404297,-168.3164520263672,41.54850387573242,0.26383969187736495,-0.021377161145210346,0.7093031565335134,22.867756423366956,"array('d', [-170.02886962890625, -168.400190630022, -166.7928407991379, -165.20367026552236, -163.62999822764397, -162.0695755660383, -160.52053224057465, -158.9813226398394, -157.45067355707064, -155.92753649021978, -154.4110449239786, -152.9004768862611, -151.39522293616, -149.89475968265873, -148.3986289073647, -146.90642495740755])","array('d', [-172.44386291503906, -170.54942030627421, -168.63606198348185, -166.70716132357353, -164.76535894154213, -162.81274931164924, -160.85100551664195, -158.88146950464977, -156.9052212106444, -154.9231335073846, -152.93591684221568, -150.94415579889304, -148.94833892304882, -146.948882614326, -144.94614955348393, -142.94046540391247])","array('d', [-41.30155944824219, -41.39305059540656, -41.46662275516368, -41.528524165906354, -41.582633095148225, -41.631360449422594, -41.676193046912715, -41.71802409326898, -41.757357323951936, -41.79443663708422, -41.82933296879631, -41.862008387147206, -41.89237024273415, -41.920323530719976, -41.945826054714104, -41.96894768450736])","array('d', [0.33373540639877297, 0.28180117459050547, 0.23827142194817522, 0.2019907075002865, 0.1719200973363218, 0.14712365667189015, 0.1267594892434583, 0.11007371143210763, 0.09639632406353335, 0.08513833019556435, 0.07578970729835269, 0.06791801440462332, 0.0611675241751757, 0.05525883538890376, 0.049988958160288144, 0.045231883928869426])","array('d', [0.04105185717344297, 0.03230358107417979, 0.026656921315239064, 0.022931445436290884, 0.020401297349640357, 0.018612893639179166, 0.01727738822586248, 0.016206870245588832, 0.015276533332172541, 0.014402584699288476, 0.01352994528842761, 0.012626210436512995, 0.011679662149003, 0.010699781278498391, 0.009718954542405569, 0.008794074448327005])","array('d', [0.7165229479458671, 0.7040653998684548, 0.6936386718705151, 0.6848698988197729, 0.6774566975440266, 0.6711514088813324, 0.6657505779484455, 0.661087497030655, 0.657026562761059, 0.653458716315074, 0.650297532798249, 0.6474756999019509, 0.6449417279229003, 0.6426567927402776, 0.6405916475903594, 0.6387235555338852])",-162.0695755660383,-162.81274931164924,-41.631360449422594,0.14712365667189015,0.018612893639179166,0.6711514088813324,25.000000248985963,-1.0,[],[],[],10000000000.0,0.03198051452636719
18,-169.1990509033203,-167.46401977539062,41.657230377197266,0.22842243313789348,-0.013852194882929396,0.7054460803654531,22.8774519079646,"array('d', [-169.4569549560547, -167.83087833764944, -166.22474535983915, -164.63551278849783, -163.06061947496372, -161.4979320823872, -159.94568687174285, -158.40243370085975, -156.86698427235135, -155.33836531139346, -153.81577692545858, -152.29855626589733, -150.78614656599612, -149.2780716082091, -147.77391566243278, -146.27331154201846])","array('d', [-171.72216796875, -169.82484901113133, -167.91012180235117, -165.98107166794375, -164.0401367871565, -162.08925990445144, -160.12999517506762, -158.1635884212522, -156.19104018198237, -154.21315669119826, -152.23059174813514, -150.24388125720472, -148.25347152389486, -146.2597419654023, -144.26302261874096, -142.26361011039165])","array('d', [-41.38872146606445, -41.46594634297135, -41.52996609171699, -41.585346693080595, -41.63491034303847, -41.68039686242807, -41.72286126685772, -41.7629153940973, -41.80087732748596, -41.83686699700299, -41.87087169356265, -41.90279664658283, -41.93251056571895, -41.95989248944369, -41.984883391972915, -42.00754310591264])","array('d', [0.31202757358551003, 0.262592533065946, 0.22125246438300158, 0.18689008367056975, 0.1584991749584439, 0.13517259963307263, 0.11609427717126236, 0.10053371963903987, 0.08784221154044419, 0.0774500708892298, 0.06886465992025968, 0.06166896658700398, 0.055520673384573206, 0.05015168561009528, 0.04536812094399456, 0.04105077713421691])","array('d', [0.03416729718446738, 0.027729928310830307, 0.023561051853004805, 0.02079323994966455, 0.01889200000640789, 0.017522079046297406, 0.01646865275213552, 0.015590667340859789, 0.014793347960023026, 0.014012410262109034, 0.013205644813288255, 0.012349297900083262, 0.01143760654205285, 0.010484274532069817, 0.009524787212683851, 0.008618384567116624])","array('d', [0.714532570042882, 0.7029527266146789, 0.6932829337169941, 0.6851730237322903, 0.6783374057699666, 0.672541327116477, 0.6675915595699254, 0.6633296844808275, 0.6596269210710982, 0.6563798776786361, 0.6535068576475802, 0.6509444992563147, 0.6486446154900668, 0.646571149527603, 0.6446971903352536, 0.6430020056874817])",-161.4979320823872,-162.08925990445144,-41.68039686242807,0.13517259963307263,0.017522079046297406,0.672541327116477,25.00000024898581,-1.0,[],[],[],10000000000.0,0.03468585014343262
19,-168.84056091308594,-167.18069458007812,41.69136428833008,0.21747642755508395,-0.011812477372586824,0.7040466229107715,22.880796592488004,"array('d', [-168.88623046875, -167.26364568263895, -165.65944660609657, -164.07072527396198, -162.49505831567714, -160.9304417003248, -159.37522918932302, -157.82807588779121, -156.28788714123615, -154.75377276773108, -153.22500659783702, -151.7009913174635, -150.18122862299575, -148.66529469971556, -147.15282103420188, -145.64348318905505])","array('d', [-171.0005645751953, -169.09973106330534, -167.18308755300978, -165.25344008613118, -163.31302243342532, -161.3636196085386, -159.40665957132265, -157.44328462628926, -155.474408864886, -153.50076534399196, -151.52294523514456, -149.54143033151837, -147.55661977916395, -145.56885156212212, -143.57841904621267, -141.58558617664988])","array('d', [-41.471160888671875, -41.53426732605592, -41.588840489323964, -41.63777862194152, -41.682857190679385, -41.72515090278514, -41.76528680117559, -41.80359782501978, -41.84021800281776, -41.8751443275107, -41.908281103748635, -41.939477135615334, -41.968562745963496, -41.995391175075056, -42.019886681681385, -42.04209917499455])","array('d', [0.28811073303222634, 0.24137077777898927, 0.20240404187653074, 0.17013049173140823, 0.1435763246140346, 0.12186332395422887, 0.10420166193879438, 0.0898849044424435, 0.0782864273941249, 0.06885676237552715, 0.06112159683166143, 0.05468028874569725, 0.04920483757638619, 0.044439299079032275, 0.040199654512752404, 0.03637415488978869])","array('d', [0.027353798970580163, 0.02320594424535243, 0.020501188105259867, 0.018682168668643223, 0.017403965881810833, 0.01644855702340779, 0.015674455190831965, 0.014987031490454114, 0.01432126506983015, 0.013632198939545603, 0.01289037380809112, 0.01208060834301983, 0.011203044913155312, 0.01027558282379759, 0.00933679737756876, 0.008448284314687821])","array('d', [0.7120667258885244, 0.7014429292692385, 0.6926025252232174, 0.6852179472649212, 0.6790205744312379, 0.67378887608609, 0.669340232057641, 0.6655249188470829, 0.6622213846355963, 0.6593322966321066, 0.656781054477227, 0.6545085864866489, 0.6524703171125978, 0.6506332350370044, 0.648973014341541, 0.6474711511711595])",-160.9304417003248,-161.3636196085386,-41.72515090278514,0.12186332395422887,0.01644855702340779,0.67378887608609,25.00000024898562,-1.0,[],[],[],10000000000.0,0.02243804931640625
20,-168.1230926513672,-166.61424255371094,41.757755279541016,0.19690659642219518,-0.007998669520020573,0.7013210813191272,22.89019921348201,"array('d', [-168.3164520263672, -166.69800625343007, -165.0963377455254, -163.50869035427726, -161.9327853770885, -160.3667514396327, -158.8090619090874, -157.25847883893138, -155.71400280019586, -154.17482824432355, -152.64030422477114, -151.10990040040886, -149.58317828489373, -148.05976771872528, -146.53934854585472, -145.02164013127947])","array('d', [-170.2789764404297, -168.37424296393894, -166.45526365738863, -164.52459559441726, -162.5842824303046, -160.6359581626739, -158.68092748211913, -156.72023011196683, -154.75469355105037, -152.7849769395056, -150.81160776284815, -148.83501248925322, -146.85554183527572, -144.87349108612796, -142.88911571166528, -140.90264584806863])","array('d', [-41.54850387573242, -41.59922175368236, -41.64550154742339, -41.688779462435775, -41.72991347143068, -41.769395331363334, -41.80747701462899, -41.84424707503019, -41.87967830678624, -41.913660055891334, -41.946024009120336, -41.97656963750189, -42.005093734624175, -42.03142702385131, -42.05547916838539, -42.07729137437911])","array('d', [0.26383969187736495, 0.21977578066364922, 0.18317780199393585, 0.1529988470256494, 0.12829440819666477, 0.10821281394305476, 0.09198867075600589, 0.0789382092115161, 0.06845584277879335, 0.06001152830782904, 0.05314870360580607, 0.0474826959958109, 0.04269956565263023, 0.03855538450258948, 0.034875968103183594, 0.03155708378822279])","array('d', [0.021377161145210346, 0.019235656854762827, 0.017814011721275336, 0.0168265240989168, 0.016094382054168903, 0.01550229631705235, 0.01497305739880992, 0.014452731710226891, 0.013902383652570361, 0.013294002004990979, 0.012609306148891402, 0.011840628043916718, 0.010993280686077718, 0.01008882884688216, 0.009168536437818666, 0.008296035506614669])","array('d', [0.7093031565335134, 0.6996388867077888, 0.6916357384742163, 0.6849867638700595, 0.6794390672020336, 0.6747835500615766, 0.6708477006357145, 0.6674901809987068, 0.6645964856326414, 0.6620752437044712, 0.6598549123758694, 0.6578807103479478, 0.6561116995565668, 0.6545179560719524, 0.6530777894787414, 0.6517749774381142])",-160.3667514396327,-160.6359581626739,-41.769395331363334,0.10821281394305476,0.01550229631705235,0.6747835500615766,25.000000248985405,-1.0,[],[],[],10000000000.0,0.025201797485351562
21,-167.4050750732422,-166.04800415039062,41.82170486450195,0.17853121459484075,-0.004423755221068968,0.6989263455059865,22.898494465303585,"array('d', [-168.0318603515625, -166.41531538904943, -164.8147436224149, -163.22746934005883, -161.65128784113105, -160.08439459037209, -158.5253227763779, -156.97288772164654, -155.42613729595686, -153.88430789862318, -152.34678580007414, -150.81307374360608, -149.28276275425688, -147.75550911642384, -146.23101648852492, -144.70902579098836])","array('d', [-169.91819763183594, -168.01170471491537, -166.09172052121838, -164.16068782960048, -162.2205607580903, -160.27290104602037, -158.31895381578758, -156.35970890593606, -154.39595153098534, -152.42830463511137, -150.45726445566495, -148.4832302742763, -146.5065289798367, -144.5274348256835, -142.5461845948969, -140.5629917273987])","array('d', [-41.585906982421875, -41.63087441529578, -41.67330305879596, -41.71395105362995, -41.753250871619294, -41.79142392281455, -41.828548244928534, -41.864599070944436, -41.89947444378295, -41.9330138160254, -41.965015230322955, -41.995255313576145, -42.02351534224034, -42.04961562295911, -42.07345906375304, -42.09508283011642])","array('d', [0.2518061101436613, 0.20907622042391255, 0.1736585089503836, 0.1445224604699082, 0.12073816640709191, 0.10146725730354429, 0.08595663361898336, 0.07353395943093032, 0.0636042758801004, 0.05564735745531847, 0.04921561040152787, 0.04393242317977195, 0.03949094294067539, 0.03565328471018272, 0.03225019364581912, 0.02918118459268304])","array('d', [0.01860361732542524, 0.017392475151032885, 0.016565859518680122, 0.015964009512832163, 0.015485128580847904, 0.015061564977418935, 0.014645918085333524, 0.014203128924950672, 0.013706361437143093, 0.013135465075170539, 0.012477344528778864, 0.01172781600956002, 0.010894588750898375, 0.01000092375721205, 0.00908932581649795, 0.00822436276604347])","array('d', [0.7080266634610035, 0.6988338863298517, 0.6912428004384396, 0.6849562067872427, 0.6797287313548226, 0.6753572817668063, 0.6716742692095924, 0.6685424648435268, 0.6658508308228236, 0.6635109382291661, 0.6614537431917727, 0.6596265848947949, 0.6579903220788692, 0.656516554224378, 0.6551848896710106, 0.6539802292449091])",-160.08439459037209,-160.27290104602037,-41.79142392281455,0.10146725730354429,0.015061564977418935,0.6753572817668063,25.000000248985312,-1.0,[],[],[],10000000000.0,0.0352015495300293
22,-166.32717895507812,-165.1988525390625,41.913063049316406,0.15522316098213174,-0.0002599362633191884,0.695373431840215,22.911813677163373,"array('d', [-167.18069458007812, -165.57030786858377, -163.9735808777964, -162.38807572915084, -160.8118010932988, -159.24314348181707, -157.68080672516191, -156.1237581991112, -154.57118101034945, -153.02243172426398, -151.47700341447003, -149.93449390690367, -148.39457912903083, -146.85699148696975, -145.32150320135688, -143.7879185160293])","array('d', [-168.84056091308594, -166.928580739977, -165.00521037367727, -163.07259798304761, -161.13245901273098, -159.18615830281877, -157.23477615504007, -155.27916281515706, -153.31998413463398, -151.3577601621316, -149.39289779363614, -147.4257182141642, -145.4564795999911, -143.48539536520806, -141.5126481046799, -139.53840439599074])","array('d', [-41.69136428833008, -41.72224277619614, -41.755221217437544, -41.78940186786644, -41.824178102971274, -41.859111170493044, -41.89385444782107, -41.92810659398081, -41.96158332807752, -41.99400253562088, -42.02508041148653, -42.054538124500745, -42.082119370093835, -42.10761927125259, -42.130924382461515, -42.15206195265645])","array('d', [0.21747642755508395, 0.17847566250638935, 0.14637310393222408, 0.1201791765358155, 0.09900106162747578, 0.08203473981751853, 0.06855932655593734, 0.05793282838496863, 0.0495887954166449, 0.04303357887208133, 0.03784405307639375, 0.03366575193765438, 0.030211418784429896, 0.02725999012731805, 0.024656039899228238, 0.02230970950165269])","array('d', [0.011812477372586824, 0.012873246239810184, 0.013499819646698235, 0.013839879672431478, 0.013979673433720351, 0.01396788644669774, 0.013829931294287326, 0.013576864446501198, 0.013211419495375297, 0.01273266013284607, 0.012140165066334845, 0.01143826013266158, 0.01064049270065288, 0.009774233352625023, 0.0088849609393382, 0.008039445616653729])","array('d', [0.7040466229107715, 0.6961871668355621, 0.6897672078122061, 0.6845146857836258, 0.6802039223366191, 0.67664777948619, 0.673691917658381, 0.671210295638235, 0.6691014132419013, 0.6672850055725722, 0.66569901864044, 0.6642967653500801, 0.663044199462511, 0.6619172659420888, 0.660899296868863, 0.6599784250321936])",-159.24314348181707,-159.18615830281877,-41.859111170493044,0.08203473981751853,0.01396788644669774,0.67664777948619,25.000000247202205,-1.0,[],[],[],10000000000.0,0.05304288864135742
23,-165.6101531982422,-164.63328552246094,41.97169876098633,0.14220419526100136,0.0021225111559032154,0.6928370157864431,22.919377350608812,"array('d', [-166.61424255371094, -165.00824320197768, -163.41450898194472, -161.83074607431507, -160.25509037025572, -158.68604194381027, -157.1224062617419, -155.56324160740297, -154.00781227867958, -152.4555472695941, -150.90600425013454, -149.35883871406398, -147.8137781869693, -146.27060139416253, -144.72912229580183, -143.18918156141729])","array('d', [-168.1230926513672, -166.20731348985416, -164.28137789788752, -162.3472757529806, -160.40658939382055, -158.46057119500685, -156.510205722326, -154.55626110230878, -152.5993322512213, -150.63987755472442, -148.67824999309204, -146.71472334705675, -144.7495138861536, -142.7827977791371, -140.81472435021425, -138.84542860642102])","array('d', [-41.757755279541016, -41.780717231206296, -41.80837831052945, -41.83891319052471, -41.87113311324203, -41.904229470312245, -41.9376177391015, -41.970841673426335, -42.003514922738134, -42.035287370801555, -42.06582948575884, -42.094831506392616, -42.12201621059636, -42.14716472595522, -42.170154509005805, -42.19100726458091])","array('d', [0.19690659642219518, 0.16007009615539564, 0.129905609972364, 0.10544324013417865, 0.08580849596333513, 0.07021478990910125, 0.05795798261467074, 0.048412183532417954, 0.041026341943859186, 0.03532138099559861, 0.030887764994379143, 0.02738347035709001, 0.02453237135244142, 0.022123067535922233, 0.020008181678445803, 0.018104153089274905])","array('d', [0.007998669520020573, 0.010332225725778361, 0.01177305506226284, 0.012640978176064433, 0.013127556516492602, 0.013346647507316022, 0.013364464141616076, 0.01321791031879426, 0.012926297805721656, 0.012499465295659616, 0.011944099189747854, 0.011269295045229872, 0.010491866315690527, 0.009641471978448501, 0.008765231538015303, 0.007931110109307207])","array('d', [0.7013210813191272, 0.6942534804232802, 0.6885335906913669, 0.6839024969636919, 0.6801450213956385, 0.6770826916908652, 0.6745684898960265, 0.6724826544687297, 0.6707291141321228, 0.6692323096490195, 0.6679342620473184, 0.6667918035623349, 0.6657739190187314, 0.6648591617870081, 0.6640331165918019, 0.6632858839717842])",-158.68604194381027,-158.46057119500685,-41.904229470312245,0.07021478990910125,0.013346647507316022,0.6770826916908652,25.000000248984808,-1.0,[],[],[],10000000000.0,0.024942398071289062
