,x_pos,y_pos,z_pos,roll,pitch,yaw,vel,x_traj,y_traj,z_traj,roll_traj,pitch_traj,yaw_traj,x_cmd,y_cmd,z_cmd,roll_cmd,pitch_cmd,yaw_cmd,vel_cmd,effector_dmg,effector_x,effector_y,effector_z,cost,time_solution
0,-225.0441436767578,-183.58863830566406,49.752925872802734,0.6168562769889829,0.03828711807727792,0.5874563614514211,23.101702294611858,"array('d', [-186.5879364013672, -185.12192213885604, -183.70164459907255, -182.31970184094538, -180.97015384902411, -179.64819414473732, -178.34991253249066, -177.07211624503438, -175.81218961698997, -174.56798039727101, -173.33770571529095, -172.11987367885345, -170.9132183469288, -169.71664686256491, -168.52919814516935, -167.350014888327])","array('d', [-229.77862548828125, -227.755024989152, -225.69827919253757, -223.61524699236324, -221.51093404541044, -219.3891132310213, -217.25269004536545, -215.10393583768155, -212.9446469147581, -210.77625888495285, -208.599932024349, -206.4166165828633, -204.22710328329683, -202.03206221551116, -199.83207213295194, -197.62764512301675])","array('d', [-49.74829864501953, -49.67457484468173, -49.62602546579358, -49.59366598160682, -49.571854643506576, -49.55700156443359, -49.546790439337045, -49.53970460932282, -49.534735513607075, -49.53120166862913, -49.528635481403846, -49.526712296243886, -49.525206152331755, -49.523962689932794, -49.52288315159911, -49.521915453811864])","array('d', [0.6155037283897399, 0.5198355434307214, 0.440473899000062, 0.3746762169831107, 0.32022748318735433, 0.2752726451159467, 0.23822348030903315, 0.20770416653948393, 0.1825184298892325, 0.16162931312355114, 0.14414659007042, 0.12931896444628047, 0.11652938093248762, 0.10529247112021925, 0.09525357162900787, 0.08618900361792148])","array('d', [-0.035763010382652206, -0.023430685215397123, -0.015542943781588148, -0.010430677405371482, -0.0070746084288032755, -0.00484511941090864, -0.0033487662164815545, -0.0023367873936971837, -0.0016499496566950616, -0.0011848854615286023, -0.0008732631479303237, -0.0006686976786244016, -0.000538391283089355, -0.00045772435264119246, -0.00040675657692053465, -0.00036804868624776597])","array('d', [0.6398978988316396, 0.6148921318159258, 0.5944749513222829, 0.577551294403227, 0.5633569514769609, 0.5513291356042587, 0.5410386657707292, 0.5321514154478504, 0.5244047303448913, 0.517591897047832, 0.5115510880918559, 0.5061568488648761, 0.5013130440239288, 0.49694664220336027, 0.49300197356076686, 0.4894352322541712])",-179.64819414473732,-219.3891132310213,-49.55700156443359,0.2752726451159467,-0.00484511941090864,0.5513291356042587,25.000000248980964,-1.0,"[-225.3583321663803, -183.71688298966026, 49.69524506654376]","[-208.23869574496632, -153.85304934366008, 70.06849931721817]","[-185.5174345850388, -180.21308201473286, 50.34812992710926]",10000000000.0,0.05069875717163086
1,-225.0441436767578,-183.58863830566406,49.752925872802734,0.6168562769889829,0.03828711807727792,0.5874563614514211,23.101702294611858,"array('d', [-183.58863830566406, -182.23070289233885, -180.91934058169423, -179.64623520072826, -178.4048652582992, -177.1900572943151, -175.99768220366644, -174.82443431524433, -173.667661652213, -172.52523013807152, -171.39541222016993, -170.27679464613405, -169.1682025117768, -168.06863803730394, -166.97723328676207, -165.89321828287223])","array('d', [-225.0441436767578, -222.94667946842256, -220.81891896923327, -218.6676786894686, -216.49780656301968, -214.31287768573938, -212.11559061964138, -209.9080138767429, -207.69175083668244, -205.46805665285274, -203.23792470338293, -201.00215226103745, -198.76139094726267, -196.51618529025453, -194.2670014296819, -192.01425097672976])","array('d', [-49.752925872802734, -49.67392929672662, -49.621784005580125, -49.58693444590967, -49.56337322176479, -49.54727230218466, -49.5361577770163, -49.528407079299505, -49.52293943198309, -49.519023430848186, -49.51615656952838, -49.51398959713166, -49.51227925812105, -49.510859268973185, -49.509623100698136, -49.508514288882665])","array('d', [0.6168562769889829, 0.5122013688428794, 0.42676770573465544, 0.3570354276411885, 0.3002577492739261, 0.2541867495322543, 0.21692858459266887, 0.18686203969611076, 0.16259072825512322, 0.14291417067247894, 0.12680989379232213, 0.11342219921454742, 0.10205514649886378, 0.09216836333537902, 0.08337490509630713, 0.0754407406892581])","array('d', [-0.03828711807727792, -0.02514043500420021, -0.01671942625790286, -0.01125236069846477, -0.007656887347239348, -0.0052638607774892565, -0.0036546346221088704, -0.0025641255940139778, -0.0018223697678550971, -0.0013188324288772343, -0.00098030443888004, -0.0007569988636894515, -0.0006136635575366456, -0.0005238264725478738, -0.00046607164396332123, -0.00042171918320777987])","array('d', [0.5874563614514211, 0.562622577443913, 0.5427352785323273, 0.5265371770351672, 0.5131725242885525, 0.5020209655750636, 0.4926145787414476, 0.484592398912837, 0.47767333999968914, 0.47163866704956336, 0.46631961295564384, 0.4615878334229701, 0.4573474514495331, 0.4535279968799549, 0.45007784407805684, 0.4469579068208371])",-177.1900572943151,-214.31287768573938,-49.54727230218466,0.2541867495322543,-0.0052638607774892565,0.5020209655750636,25.000000248970213,-1.0,"[-225.3583321663803, -183.71688298966026, 49.69524506654376]","[-208.23869574496632, -153.85304934366008, 70.06849931721817]","[-185.5174345850388, -180.21308201473286, 50.34812992710926]",10000000000.0,0.02293848991394043
2,-219.73593139648438,-180.6199951171875,49.749900817871094,0.5442635416984558,0.027511008083820242,0.5358290235188347,23.18110652746072,"array('d', [-180.6199951171875, -179.36761711251629, -178.15579170841434, -176.97654557946584, -175.8236927729414, -174.69239011433197, -173.57883677794732, -172.480054185089, -171.393714607739, -170.318002150248, -169.25149753073933, -168.19308212673158, -167.14185888205765, -166.09708880642154, -165.05814241538002, -164.02446751898606])","array('d', [-219.73593139648438, -217.57305217370572, -215.3867510445301, -213.18251557647517, -210.96427673694907, -208.73493106230046, -206.49664822549602, -204.2510684017659, -201.99943812982949, -199.74270907783335, -197.48161266088007, -195.21671769093786, -192.94847518846916, -190.6772528048054, -188.40336034810574, -186.12707109233372])","array('d', [-49.749900817871094, -49.693138743791636, -49.65569806824975, -49.630726805121164, -49.613909073638396, -49.60248866509386, -49.59468005966593, -49.589309116780065, -49.58559148271743, -49.58299461529838, -49.5811512778919, -49.57980520061282, -49.578777181088775, -49.577944379020714, -49.577228196734204, -49.57658765956336])","array('d', [0.5442635416984558, 0.44227033399569676, 0.35998133467865334, 0.2937697420090299, 0.24077925002298378, 0.19865765389902426, 0.16541561027684812, 0.139347322914306, 0.11898410063210392, 0.10306616616071383, 0.09052494718281104, 0.08047161984791171, 0.07218959496510173, 0.06512969785992026, 0.05890737784059475, 0.05330160449626078])","array('d', [-0.027511008083820242, -0.018060378662221748, -0.011994518125238222, -0.008048662161059228, -0.005448995794242756, -0.003716269207355006, -0.002550079945600395, -0.0017598601774777452, -0.0012232007234436887, -0.0008603467038323995, -0.0006183601613662352, -0.0004611247049002435, -0.0003629290291367537, -0.0003042908330748357, -0.0002692397208397191, -0.0002436182780206449])","array('d', [0.5358290235188347, 0.5147532172505347, 0.4981313460647415, 0.4848462277207685, 0.4741172209722707, 0.4653671020400298, 0.458154581330062, 0.4521368000741533, 0.4470465586256118, 0.4426771237355006, 0.4388710518817132, 0.4355111864155514, 0.4325128519942506, 0.42981671619757855, 0.4273820203565873, 0.4251799984082764])",-174.69239011433197,-208.73493106230046,-49.60248866509386,0.19865765389902426,-0.003716269207355006,0.4653671020400298,25.000000248957402,-1.0,"[-218.44665095470125, -179.85445384005615, 49.708639511013274]","[-198.87921157814318, -149.73291172653558, 67.3100035759979]","[-178.464777521307, -178.86626034370823, 49.02069302339992]",10000000000.0,0.017665624618530273
3,-214.7154083251953,-178.1499786376953,49.886417388916016,0.2803182303905486,-0.00444868486374626,0.491546825566564,23.23765537537727,"array('d', [-178.1499786376953, -176.98134109609862, -175.83126375063904, -174.69466755666494, -173.5676454247029, -172.4472310567182, -171.3312175393831, -170.2180070214288, -169.1064825736069, -167.99589801601087, -166.8857836773695, -165.7758670059368, -164.66600734631487, -163.55614436850487, -162.4462597420329, -161.33635358667826])","array('d', [-214.7154083251953, -212.50539742205143, -210.28565547927656, -208.05897291279703, -205.82742545650515, -203.59255119891043, -201.35547513623615, -199.11700246366425, -196.87769185369848, -194.63791483756702, -192.3979046617687, -190.15779649754694, -187.9176600612163, -185.67752525110393, -183.43740115377224, -181.19729233043364])","array('d', [-49.886417388916016, -49.89571529224302, -49.90207483991227, -49.906531674137, -49.90973908870313, -49.91211430529685, -49.913926988088576, -49.91535341980966, -49.91651003262322, -49.91747439198148, -49.918298478881766, -49.91901720479167, -49.919653958860955, -49.92022430584838, -49.9207385384654, -49.921203529085176])","array('d', [0.2803182303905486, 0.2083015768650126, 0.15159108980088562, 0.10758534495050329, 0.0740736187627607, 0.0491435179452955, 0.031128486251803252, 0.018576554144703925, 0.010230458391927117, 0.005013878278673597, 0.0020210964961382915, 0.0005088110915637728, -0.00011042776386633174, -0.0002733266086216357, -0.0002695324388620219, -0.00024388305814617827])","array('d', [0.00444868486374626, 0.003013595659980376, 0.0020894644428953147, 0.0014860706543174665, 0.001086526879887789, 0.0008181241596230387, 0.0006350757995742682, 0.0005081863965460553, 0.0004185983848516734, 0.0003539672887396685, 0.00030610074620043793, 0.00026949071224848577, 0.00024039787021409886, 0.00021628201962369472, 0.00019545156638864697, 0.00017685182445336002])","array('d', [0.491546825566564, 0.48178522522034384, 0.4746641062249232, 0.46956421219149536, 0.466000950156011, 0.46358843094509317, 0.46201851097782715, 0.4610471951919208, 0.46048469147724175, 0.4601872986106544, 0.46005025128584087, 0.46000110943630373, 0.4599934958324359, 0.4600010784101618, 0.46001172806299817, 0.46002179289677353])",-172.4472310567182,-203.59255119891043,-49.91211430529685,0.0491435179452955,0.0008181241596230387,0.46358843094509317,25.000000248948414,-1.0,"[-213.39301567013683, -177.44200043404226, 49.893090394200904]","[-192.29337483728153, -144.81209080810825, 59.38488445685757]","[-173.4139560731998, -178.7230304549177, 49.70936279645687]",10000000000.0,0.023352861404418945
4,-209.2706756591797,-175.60678100585938,50.28156661987305,0.10395526885986311,-0.007766157854348521,0.4599848548558093,23.215052195800933,"array('d', [-175.60678100585938, -174.50072674843847, -173.39916051429938, -172.2984322419796, -171.19587715404305, -170.08963822971884, -168.9785111501422, -167.86180727563448, -166.73923318619273, -165.61078633516112, -164.4766664814441, -163.337202378606, -162.1927930083768, -161.04386256238212, -159.89082840976474, -158.7340834416039])","array('d', [-209.2706756591797, -207.0287161240861, -204.7845135102073, -202.53988569343736, -200.29614900935974, -198.05422414581102, -195.8147171400777, -193.5779854807638, -191.34419412993327, -189.11336372408115, -186.8854119682377, -184.66018865797483, -182.43750451224858, -180.21715389928255, -177.9989314985745, -175.78264682559566])","array('d', [-50.28156661987305, -50.297452427480586, -50.30765109643935, -50.31416896881337, -50.3182775470359, -50.32079374035422, -50.322250176207824, -50.32299982927783, -50.323280930242824, -50.32325753433598, -50.323044942109604, -50.32272551307199, -50.32235824589839, -50.32198421724208, -50.32162922978667, -50.321304617825696])","array('d', [0.10395526885986311, 0.049231596566142524, 0.0080091660952887, -0.022027546441195048, -0.04290652499522347, -0.05641179870523359, -0.0641083638762333, -0.06735833612016069, -0.0673333743914958, -0.06502562868325253, -0.06125793723650181, -0.056693264678519886, -0.05184310708593001, -0.04707457130831066, -0.042615920538871796, -0.038560483000173736])","array('d', [0.007766157854348521, 0.004988907804618196, 0.003199895298310112, 0.0020338605353817187, 0.0012658160817466502, 0.0007556495090474513, 0.00041517896055291806, 0.0001883278283863951, 3.904330518072182e-05, -5.6171655332714386e-05, -0.0001129548672593876, -0.00014210212667769165, -0.00015155393536244125, -0.00014773273312537004, -0.0001364455225787249, -0.0001234611077254701])","array('d', [0.4599848548558093, 0.4569906945738612, 0.45588066741696337, 0.4561655648772438, 0.4574469066638413, 0.45940159658368024, 0.4617716085358235, 0.4643557772706368, 0.46700242287582666, 0.46960234687706665, 0.47208209328375417, 0.474397487432191, 0.4765274760245308, 0.4784682640268959, 0.4802277127477784, 0.48181994440714976])",-170.08963822971884,-198.05422414581102,-50.32079374035422,-0.05641179870523359,0.0007556495090474513,0.45940159658368024,25.000000248940918,-1.0,"[-207.9266273605092, -174.9408992829899, 50.29321573955445]","[-185.7655844504516, -141.8389979122793, 53.919826110456434]","[-168.00873850726566, -177.50218244586452, 50.33769112229524]",10000000000.0,0.024100065231323242
5,-204.26588439941406,-173.25634765625,50.649688720703125,0.009135845117270771,0.010899127461016067,0.4439571658757071,23.21198306221552,"array('d', [-173.25634765625, -172.1823101443739, -171.10513319016758, -170.02185348414133, -168.9304420020138, -167.82963474239276, -166.71877881581568, -165.597694276022, -164.46655267219677, -163.32577288222578, -162.17593407836, -161.0177050749589, -159.851788959219, -158.67888180763708, -157.49964437722053, -156.31468906689483])","array('d', [-204.26588439941406, -202.00847335095156, -199.75249963292057, -197.49942283421134, -195.25026081809514, -193.00567574930056, -190.7660431119994, -188.5315107907873, -186.30205106904313, -184.07750652376055, -181.85763003359438, -179.64211886673414, -177.43064277702567, -175.22286606612508, -173.01846360417127, -170.817136807419])","array('d', [-50.649688720703125, -50.62660539336873, -50.61024376434887, -50.59825672058454, -50.589159453265985, -50.58200275060439, -50.57617415582127, -50.57127564566169, -50.56704754681644, -50.563320618847854, -50.559985383643095, -50.55697201380203, -50.554236629316556, -50.55175140254528, -50.54949685285077, -50.54745537786224])","array('d', [0.009135845117270771, -0.03697351266633663, -0.07027143943487839, -0.09300907946116266, -0.10717938872984928, -0.11454266459851774, -0.11664140076483094, -0.11481162423051755, -0.11019385325183659, -0.10374454458185128, -0.09624778602766014, -0.0883265968962207, -0.08045319609478908, -0.07295776309677272, -0.06603541855932671, -0.05975132303888586])","array('d', [-0.010899127461016067, -0.007622466176768362, -0.005502301389569072, -0.004110587607667204, -0.0031827211594783232, -0.0025531513068986892, -0.0021170045316473074, -0.0018069779415605925, -0.0015793008287655636, -0.001405147843548998, -0.0012653728136304701, -0.0011472934202991182, -0.001042758436290607, -0.0009470203913439387, -0.0008581029137666014, -0.0007764439213342705])","array('d', [0.4439571658757071, 0.4445185681390652, 0.4466358590853865, 0.44985419102255314, 0.45379981016360066, 0.4581703663021559, 0.4627272059226837, 0.46728809019102424, 0.47171989474900866, 0.47593132905514524, 0.4798658498736132, 0.48349491971680314, 0.4868116846418482, 0.4898250712648739, 0.492554250645943, 0.49502339565744896])",-167.82963474239276,-193.00567574930056,-50.58200275060439,-0.11454266459851774,-0.0025531513068986892,0.4581703663021559,25.00000024706899,-1.0,"[-203.3674439206587, -172.82376217519572, 50.60231588765621]","[-180.72628036132818, -139.85049745290956, 50.978515613445104]","[-163.4911225185434, -175.9379963914495, 50.177419804461]",10000000000.0,0.020322084426879883
6,-198.85179138183594,-170.6702880859375,50.95286178588867,-0.07383874803781526,0.019514078274369125,0.43398673931625853,23.24405867712039,"array('d', [-170.6702880859375, -169.6153266730016, -168.5504347188213, -167.47329138997856, -166.38246242011627, -165.27723761900333, -164.15747630905122, -163.02346706374155, -161.87580519714442, -160.71528927177764, -159.54283634497924, -158.35941474398038, -157.16599275023626, -155.96350153582816, -154.75281088027586, -153.5347186353933])","array('d', [-198.85179138183594, -196.5856637612192, -194.32399442027963, -192.06804600643937, -189.81864053470798, -187.57625147528884, -185.34107400009563, -183.113084330281, -180.89209198400923, -178.67778596536357, -176.4697749953941, -174.26762166571473, -172.07087041947196, -169.87906933954972, -167.69178578111448, -165.5086197762253])","array('d', [-50.95286178588867, -50.91167584781262, -50.882755538570585, -50.86182121600782, -50.8461607633168, -50.83403714871674, -50.824326988590805, -50.8162977766084, -50.80946913253019, -50.80352538361231, -50.7982597004595, -50.7935376711474, -50.78927279679751, -50.78540919796639, -50.78190858176009, -50.778739685349166])","array('d', [-0.07383874803781526, -0.11225489827414023, -0.13845244633274204, -0.15465083812555205, -0.16282686033630525, -0.16472670978756457, -0.16187406144935723, -0.15557904031340247, -0.14694949674902202, -0.13690416976821035, -0.12618663307408293, -0.11537887587326515, -0.10491362276454737, -0.09508482621595298, -0.08605605895237585, -0.07786674924147186])","array('d', [-0.019514078274369125, -0.013535939102355626, -0.009665406831458789, -0.0071246364199376465, -0.005432044846931521, -0.004286003536793015, -0.003495334161402304, -0.002937354695753747, -0.002532324060579858, -0.0022277602553112475, -0.0019887760818715337, -0.0017921300304116203, -0.0016225991868962285, -0.0014708131739788546, -0.0013319964213844922, -0.0012052403938539757])","array('d', [0.43398673931625853, 0.43766160972045426, 0.4426154143506954, 0.44841317468316977, 0.45469771923539365, 0.46118304418192174, 0.46764757088191866, 0.47392674804286367, 0.4799051948121533, 0.4855087947627848, 0.4906970991599296, 0.49545625487214695, 0.4997925309962147, 0.5037264155514869, 0.5072871944803208, 0.5105079065284794])",-165.27723761900333,-187.57625147528884,-50.83403714871674,-0.16472670978756457,-0.004286003536793015,0.46118304418192174,25.000000248934292,-1.0,"[-197.91573821407755, -170.2411581313463, 50.90080884353516]","[-174.9263751620408, -137.61378742469194, 48.26568698066066]","[-158.08045546673543, -173.83125028161345, 50.38945105108671]",10000000000.0,0.01956772804260254
7,-193.86061096191406,-168.2335662841797,51.19816207885742,-0.12908454239368455,0.018176574259996303,0.43200261990097544,23.28373422453917,"array('d', [-168.2335662841797, -167.18068087240042, -166.11337372364238, -165.02976998615148, -163.9288588659021, -162.81032478736174, -161.67438807388865, -160.5216621581793, -159.35303079827372, -158.1695461673564, -156.97234696442533, -155.76259476776656, -154.541426537428, -153.30992125309845, -152.0690789664584, -150.81981312860063])","array('d', [-193.86061096191406, -191.59347415726876, -189.33292900399175, -187.08007402236294, -184.83558794805703, -182.59981186839642, -180.3728156084104, -178.15445600261265, -175.9444291933804, -173.7423171778907, -171.54762833625043, -169.35983169290407, -167.1783848076993, -165.00275532017295, -162.832436244029, -160.66695897592783])","array('d', [-51.19816207885742, -51.159552901555735, -51.131977129806195, -51.111595267341215, -51.09597440066367, -51.0835577019077, -51.073340501518196, -51.064670492763554, -51.057123181764524, -51.050423270422975, -51.04439418075831, -51.0389247773485, -51.03394646749229, -51.02941639378722, -51.02530405499806, -51.02157980831711])","array('d', [-0.12908454239368455, -0.1619724124723208, -0.1831173947905852, -0.19471844192804685, -0.19873697922071418, -0.19690144413740765, -0.19071230849574114, -0.18145081221774056, -0.17019151514857897, -0.15781735493050528, -0.1450355639276879, -0.13239302391858102, -0.12029006451253979, -0.10899213815543908, -0.09863914318411834, -0.08925239571988462])","array('d', [-0.018176574259996303, -0.01280169630026217, -0.009317502761665632, -0.007026391567564836, -0.005495915580571587, -0.004454851635544742, -0.003731006702892889, -0.0032136448389986174, -0.002830603009178365, -0.0025342757748929665, -0.0022930251371274272, -0.002085955381534702, -0.0018998005355234373, -0.0017271406907676146, -0.0015654294614588632, -0.001416459362206522])","array('d', [0.43200261990097544, 0.43776534284543306, 0.4446114009019142, 0.4521180324648093, 0.4599401598681505, 0.46780482771600645, 0.47550440121279325, 0.48288862034208524, 0.48985609984101186, 0.49634588577601985, 0.5023294997676033, 0.5078036873056647, 0.5127839141153464, 0.5172985444852283, 0.5213835804191344, 0.5250778305454765])",-162.81032478736174,-182.59981186839642,-51.0835577019077,-0.19690144413740765,-0.004454851635544742,0.46780482771600645,25.000000248934217,-1.0,"[-193.27165223867135, -167.98251771746942, 51.13259609290932]","[-170.2007223472128, -135.5971709139942, 46.78271030566803]","[-153.44496383032998, -171.69082193445226, 50.84385700793027]",10000000000.0,0.017686843872070312
8,-188.415283203125,-165.4972381591797,51.48139953613281,-0.17346900701522844,0.011582139879464975,0.43815095821884664,23.333790408882233,"array('d', [-165.4972381591797, -164.42842400976397, -163.3417114338486, -162.23565272461147, -161.10963196122555, -159.96368773204378, -158.79835076390535, -157.61450170046538, -156.4132512995917, -155.19584293540507, -153.96357576796663, -152.71774622449442, -151.4596053062065, -150.19032946069544, -148.9110031538469, -147.62261399357737])","array('d', [-188.415283203125, -186.155422620443, -183.9040550557316, -181.66209880987398, -179.43008555394576, -177.2082258386666, -174.99646939830902, -172.79456151243429, -170.6020948517845, -168.41855590774827, -166.24336532548233, -164.07591179210922, -161.91557940273, -159.76176859626742, -157.613910831962, -155.4714810025703])","array('d', [-51.48139953613281, -51.456239063532664, -51.43721614191713, -51.422212535209106, -51.40989003064932, -51.39939726152267, -51.39019081178468, -51.38192493913016, -51.374382774228316, -51.367432644765884, -51.360999516899405, -51.35504531870933, -51.34955419815955, -51.344520215575265, -51.33993596620719, -51.335781415009784])","array('d', [-0.17346900701522844, -0.2009290822323983, -0.21728150081041053, -0.22467757238707559, -0.22503296222398358, -0.22002796014962592, -0.21111180236282953, -0.19951256981669277, -0.1862516186943772, -0.17216056237223548, -0.157898845987578, -0.1439704035939723, -0.13073843098116583, -0.11843777927718119, -0.10718481916701049, -0.0969848438119683])","array('d', [-0.011582139879464975, -0.008596393525069579, -0.0066544877352096715, -0.00536989987783893, -0.004502611988542145, -0.003901653190735885, -0.003470712184771883, -0.0031473915817913337, -0.0028906326984676767, -0.002673106755209349, -0.0024766779977505975, -0.0022898024732483525, -0.0021061609675787937, -0.0019240655023106859, -0.001746301474905146, -0.001580119142642994])","array('d', [0.43815095821884664, 0.4455934711595723, 0.4539262722213588, 0.4627440514791981, 0.4717192668034007, 0.4805967102451941, 0.4891861867061571, 0.4973539150283127, 0.5050134983241399, 0.5121171612993651, 0.5186476801421539, 0.5246111786552266, 0.530030786119083, 0.5349410505829607, 0.5393829580600497, 0.5433994093386569])",-159.96368773204378,-177.2082258386666,-51.39939726152267,-0.22002796014962592,-0.003901653190735885,0.4805967102451941,25.000000248936804,-1.0,"[-187.05706776379816, -164.8608821224747, 51.46402671473534]","[-164.17517293935043, -132.59125471010213, 45.54034239587038]","[-147.20567862721725, -168.3030730101433, 51.598584425974835]",10000000000.0,0.02162957191467285
9,-183.40130615234375,-162.88986206054688,51.77058410644531,-0.19799529016017933,0.007909507490694422,0.44474096695450344,23.374808082508697,"array('d', [-162.88986206054688, -161.8050773563208, -160.70051194500994, -159.57498658696102, -158.42812552474297, -157.2601765167202, -156.0718484564132, -154.86417103495017, -153.63837801370374, -152.3958133906438, -151.13785836307642, -149.86587641618658, -148.58117385825489, -147.2849734357596, -145.97839911014856, -144.6624728780024])","array('d', [-183.40130615234375, -181.14899882929808, -178.90630410345452, -176.67404261724135, -174.4526597559224, -172.2422863922448, -170.04279790586045, -167.85387045265747, -165.67503295836366, -163.505713584805, -161.34527990493646, -159.1930724634469, -157.04843170664935, -154.91071843802152, -152.77932802606165, -150.65370238026068])","array('d', [-51.77058410644531, -51.75280299509668, -51.73825516004533, -51.72584692600033, -51.71489224005387, -51.7049606624474, -51.69578480597208, -51.6872033787179, -51.6791255862422, -51.67150822564578, -51.66434006965045, -51.65763007943779, -51.65139718194181, -51.64566015419373, -51.640426795864144, -51.635682187715794])","array('d', [-0.19799529016017933, -0.2221547858133266, -0.23563400153817327, -0.24054960549543838, -0.23878209137076162, -0.23197469265473306, -0.22153813848810897, -0.2086617603189448, -0.19432928007259662, -0.1793369856280624, -0.1643122283107591, -0.1497307397884034, -0.13593185675887923, -0.12313122348765139, -0.11143087869501175, -0.10082683770009296])","array('d', [-0.007909507490694422, -0.006341657702517589, -0.005313822755199717, -0.004624307817808845, -0.0041474243468078344, -0.0038035943658590574, -0.0035414798363761556, -0.003327249187199979, -0.003138150525460897, -0.002958740249181397, -0.0027787942136145443, -0.0025923151975178597, -0.00239726180271367, -0.0021957263986693326, -0.001994323097661018, -0.001804538407675414])","array('d', [0.44474096695450344, 0.4531164490288014, 0.4622632816694229, 0.4717883642042553, 0.48137654092047066, 0.4907849100214885, 0.49983503004533386, 0.5084038914983688, 0.5164146042157787, 0.5238275106249589, 0.5306321215468834, 0.5368400091266863, 0.5424786182478165, 0.5475858656849191, 0.5522053622769848, 0.5563821018921634])",-157.2601765167202,-172.2422863922448,-51.7049606624474,-0.23197469265473306,-0.0038035943658590574,0.4907849100214885,25.000000248938964,-1.0,"[-183.11663542671863, -162.80303067307295, 51.695835746117005]","[-160.404173744028, -130.5248414292922, 45.194867860102974]","[-143.24694009455823, -166.01735696700396, 51.97060946547663]",10000000000.0,0.01868724822998047
10,-177.99790954589844,-159.9915313720703,52.08425521850586,-0.21781645715236675,0.01111031323671329,0.4540565768864493,23.41905673753521,"array('d', [-159.9915313720703, -158.8849754372223, -157.75718122325182, -156.60723755423325, -155.43499468096124, -154.24088720862804, -153.0257753370917, -151.79080893048703, -150.53731561318176, -149.26671175932896, -147.98043396110737, -146.6798881109492, -145.36641332377494, -144.04125830153316, -142.70556822466216, -141.36038312262826])","array('d', [-177.99790954589844, -175.75628539155556, -173.52522214755209, -171.30546776857256, -169.0973928108435, -166.90105500913242, -164.7162605913357, -162.54262184654266, -160.37960969144459, -158.22660018414072, -156.0829143928463, -153.9478514396407, -151.82071481640327, -149.7008322148817, -147.5875691601517, -145.48034048013378])","array('d', [-52.08425521850586, -52.05958199248566, -52.03993488364374, -52.023597669248964, -52.00949089322418, -51.99693352377385, -51.985497710423004, -51.97491936409246, -51.965042331546485, -51.95578269260685, -51.94710484706205, -51.93900411284772, -51.93149242764486, -51.924584974354254, -51.91828647164622, -51.912576700407335])","array('d', [-0.21781645715236675, -0.238798875097035, -0.24958458544640055, -0.25224213578054483, -0.2486032957823328, -0.24026188338949797, -0.2285796570461654, -0.21469887509627333, -0.19955937748901248, -0.18391772121575511, -0.16836630152255813, -0.15335102862955388, -0.13918673746972618, -0.1260699784177863, -0.11408915310434443, -0.10323214407092043])","array('d', [-0.01111031323671329, -0.008669313493580695, -0.0070751310299802085, -0.006012461443668408, -0.005285152366471082, -0.004769389402330869, -0.004385693953147105, -0.004082073309798215, -0.0038238803984541082, -0.0035877861562923184, -0.0033583319206081205, -0.003126140162710875, -0.0028872029453436763, -0.002642843086714521, -0.002400015226446225, -0.002171623859167077])","array('d', [0.4540565768864493, 0.4631819347114644, 0.4729629823130924, 0.48302171845509656, 0.49305774903855965, 0.5028421454280491, 0.5122091743994697, 0.5210469426041238, 0.5292879440540755, 0.5369001915114784, 0.5438792789781884, 0.5502414646942206, 0.5560177036001286, 0.5612484790065438, 0.5659792590285285, 0.5702564182939532])",-154.24088720862804,-166.90105500913242,-51.99693352377385,-0.24026188338949797,-0.004769389402330869,0.5028421454280491,25.000000248941824,-1.0,"[-176.64997990285053, -159.3336499610736, 52.06759009151033]","[-154.2926303589781, -127.0034628878615, 44.657601887456465]","[-136.74912606573284, -162.14322522977292, 52.23536934673278]",10000000000.0,0.017077207565307617
11,-173.06788635253906,-157.2662811279297,52.36330032348633,-0.22778825461864483,0.010056152008473722,0.4645407954838609,23.44271064940233,"array('d', [-157.2662811279297, -156.1358531655401, -154.9835949062122, -153.80877804398347, -152.61139829031202, -151.392001490071, -150.15152941885427, -148.89118896709627, -147.6123453077332, -146.31643753527626, -145.00491416757646, -143.67918558079853, -142.34059061363052, -140.9903749869816, -139.6296796758509, -138.2595402772923])","array('d', [-173.06788635253906, -170.83818509997508, -168.61965085897674, -166.41295925441125, -164.21841614315778, -162.03602137672164, -159.86553000590516, -157.70650971142896, -155.55839300789006, -153.42052318285388, -151.29219345671822, -149.17267926690909, -147.06126384186695, -144.95725735674262, -142.8600099947569, -140.7689229434088])","array('d', [-52.36330032348633, -52.34057812448674, -52.32178060214107, -52.305583494402725, -52.29115794347077, -52.27798588257555, -52.26574773380866, -52.2542533741674, -52.243399004720395, -52.23313933705337, -52.22346847704059, -52.214405241348544, -52.20598009905078, -52.198221925466726, -52.19114356333824, -52.18472599150491])","array('d', [-0.22778825461864483, -0.24644901474540826, -0.2553568712662875, -0.25652449597457444, -0.25172857414239946, -0.24250961800319917, -0.23017919673818177, -0.21583363584843748, -0.20037184755339413, -0.18451483336548435, -0.16882488707802226, -0.1537231796247275, -0.13950499719108173, -0.12635234670872394, -0.11434393321240655, -0.10346267866694647])","array('d', [-0.010056152008473722, -0.008153598428216006, -0.006905384671084352, -0.0060663885506462975, -0.005483834447951546, -0.005060918084907811, -0.004735075677858373, -0.004464950593936132, -0.004222614823840242, -0.003989038799073439, -0.0037516289177331862, -0.0035031210707743604, -0.0032413719746430827, -0.0029697086971225955, -0.002697529033362783, -0.002440825508370725])","array('d', [0.4645407954838609, 0.4740304840628694, 0.48409102952769245, 0.49435974740462485, 0.504550375221047, 0.5144465285362624, 0.5238931685925449, 0.5327871737276111, 0.5410679708432642, 0.5487088509610639, 0.5557092647105152, 0.5620881517844811, 0.5678782137451805, 0.57312097199443, 0.5778624356291934, 0.5821492224297108])",-151.392001490071,-162.03602137672164,-52.27798588257555,-0.24250961800319917,-0.005060918084907811,0.5144465285362624,25.000000248944776,-1.0,"[-173.39513682334106, -157.52255325798595, 52.25314027386838]","[-151.2680024602091, -125.08756135521651, 44.61368838625337]","[-133.4756757029359, -160.05503869584095, 52.40526313050993]",10000000000.0,0.025829076766967773
12,-167.80316162109375,-154.26084899902344,52.667640686035156,-0.23417995870113387,0.009496646001934894,0.4778060475972037,23.453715197399507,"array('d', [-154.26084899902344, -153.10068329151858, -151.91846422114298, -150.71364166248247, -149.48634322063296, -148.2372064445917, -146.9672316154939, -145.67765794993096, -144.36986323266785, -143.04528505823063, -141.7053609706031, -140.35148459584278, -138.9849750883185, -137.6070576377703, -136.2188532665523, -134.82137908289835])","array('d', [-167.80316162109375, -165.58877926395002, -163.3860641318841, -161.19561420193486, -159.01766697877113, -156.8521631221092, -154.69880750024524, -152.5571261310179, -150.4265175697002, -148.30629782361166, -146.19573840526544, -144.09409752827506, -142.00064468160326, -139.91467891914817, -137.83554121634285, -135.76262490667045])","array('d', [-52.667640686035156, -52.645818584198146, -52.627119482079685, -52.61050653014863, -52.595335216817624, -52.58120806031494, -52.56788643531411, -52.555236486809115, -52.5431953018467, -52.531748842103916, -52.520916245957345, -52.51073695046184, -52.50125823894037, -52.49252165013892, -52.48454742485878, -52.47731697798442])","array('d', [-0.23417995870113387, -0.25049027525762274, -0.25757297516588573, -0.2573658687707752, -0.25157316024711956, -0.24166697474311982, -0.22889620210333556, -0.21430128746878244, -0.1987325723152774, -0.18286984512278684, -0.16724129751146286, -0.15224071843199316, -0.13814230858699594, -0.1251128987325664, -0.11322161302809558, -0.10244716127718645])","array('d', [-0.009496646001934894, -0.007986451707767444, -0.006989599427632983, -0.0063121610762097435, -0.005832958139928413, -0.005474801918374997, -0.005187343821930129, -0.004936837044505341, -0.00470009738637517, -0.0044610894614422825, -0.004209216257554488, -0.003938754426703712, -0.0036490654984957832, -0.0033452873516086144, -0.003039209639303767, -0.0027499909335761477])","array('d', [0.4778060475972037, 0.48751179776883335, 0.4977026249369059, 0.5080349819058478, 0.5182396385480047, 0.5281147393558933, 0.5375171248204156, 0.5463529925119981, 0.5545687773627591, 0.5621427950334001, 0.5690778849902768, 0.5753950729003809, 0.5811281469641957, 0.5863189877860877, 0.5910134808545002, 0.5952578616678893])",-148.2372064445917,-156.8521631221092,-52.58120806031494,-0.24166697474311982,-0.005474801918374997,0.5281147393558933,25.000000248948375,-1.0,"[-166.4712128219734, -153.57113204006123, 52.6533959311481]","[-144.90739903271242, -120.84903262796459, 44.63677913059293]","[-126.51494679372007, -155.44027433748394, 52.709182591148775]",10000000000.0,0.017019033432006836
13,-162.9949951171875,-151.4266815185547,52.950645446777344,-0.23596400022506733,0.00865169987082469,0.4904424707081656,23.454165156342764,"array('d', [-151.4266815185547, -150.2385676258267, -149.02854859696689, -147.79620148654175, -146.54173991915687, -145.26585294102662, -143.96956486980582, -142.65411820679563, -141.32087917985928, -139.97126391480316, -138.60668251707523, -137.22849824392813, -135.8379992070301, -134.43638047063666, -133.02473487402915, -131.6040538593046])","array('d', [-162.9949951171875, -160.79546728070025, -158.60789562414712, -156.4328125566783, -154.27040019389116, -152.1205534396421, -149.98294042656934, -147.85705857977817, -145.74228491627514, -143.63791977503953, -141.5432236944827, -139.45744751666916, -137.37985600068228, -135.30974530820933, -133.24645472613165, -131.18937661467436])","array('d', [-52.950645446777344, -52.9303269917868, -52.91215268246507, -52.89543564309846, -52.87975502523409, -52.864858897239294, -52.85060558826285, -52.836927846081096, -52.82381034811796, -52.81127465369197, -52.799367733495444, -52.78815142374554, -52.777690936297816, -52.76804117939083, -52.75923028897585, -52.75124057168026])","array('d', [-0.23596400022506733, -0.2504862431777723, -0.2562443235728502, -0.25510321850943446, -0.24869782702754342, -0.23843622465493344, -0.22550982312533277, -0.2109088591929582, -0.19544087778372518, -0.17975003550974203, -0.1643355948120257, -0.14956857985940294, -0.13570606899917462, -0.12290296000576834, -0.11122127279312329, -0.1006371784198451])","array('d', [-0.00865169987082469, -0.007620446989672337, -0.00693063610018352, -0.006451094758630618, -0.006099349537306263, -0.005822245933704443, -0.00558443017619373, -0.005361536384673885, -0.005136267981588878, -0.004896332116812814, -0.004633622505998719, -0.004344282113569841, -0.004029385320693451, -0.0036960008513564945, -0.0033583585839446644, -0.00303876886670435])","array('d', [0.4904424707081656, 0.5001846213246188, 0.5103470643409855, 0.520603784758978, 0.5307006808000126, 0.5404483719587029, 0.5497135311656841, 0.5584097565317302, 0.5664887744953057, 0.5739324440814693, 0.5807457510608082, 0.5869507879957275, 0.5925816080999604, 0.5976797954860026, 0.6022905881618587, 0.6064594119773212])",-145.26585294102662,-152.1205534396421,-52.864858897239294,-0.23843622465493344,-0.005822245933704443,0.5404483719587029,25.000000248951576,-1.0,"[-162.5481706428095, -151.2407386862311, 52.88576447283181]","[-141.3333261070314, -118.31131911740204, 44.78738820454303]","[-122.5748708619856, -152.70196460258677, 52.87465349832165]",10000000000.0,0.021263837814331055
14,-157.8279571533203,-148.2884063720703,53.249210357666016,-0.23399761319160475,0.01203249860554921,0.5026596347477773,23.446419652273775,"array('d', [-148.2884063720703, -147.07365279475457, -145.83741816081644, -144.5793687498947, -143.29976848252159, -141.99932633274955, -140.6790637882196, -139.34020432164317, -137.9840843594759, -136.61208376924552, -135.2255732549046, -133.82587598646137, -132.4142410521847, -130.9918267279251, -129.55969199432462, -128.11879769124465])","array('d', [-157.8279571533203, -155.64310873472942, -153.4702954835862, -151.31001198922505, -149.16240581717668, -147.02734327862404, -144.9044705779614, -142.79326956855706, -140.6931072508748, -138.60327850677976, -136.52304195882587, -134.45164912945697, -132.3883672321313, -130.33249598050094, -128.28337878908627, -126.24041232737015])","array('d', [-53.249210357666016, -53.221625204040365, -53.19809631521349, -53.17726888579732, -53.158301095085655, -53.14067352477629, -53.124073624902465, -53.108324917135484, -53.09334278106634, -53.07910569737561, -53.06563491250214, -53.052977912190414, -53.041192605363015, -53.0303301982979, -53.020415687785004, -53.01142593074843])","array('d', [-0.23399761319160475, -0.24724533504371146, -0.2521262943505853, -0.2504367004789617, -0.2437472211339177, -0.23340776036586477, -0.22055857166182752, -0.20614607770637336, -0.19094119479337077, -0.1755581722999498, -0.1604724823014516, -0.14603684988649562, -0.13249497243166258, -0.11999280130889659, -0.10858746334065035, -0.0982540088594199])","array('d', [-0.01203249860554921, -0.01006883331123957, -0.008776121776731712, -0.007900619981285564, -0.007284043979924088, -0.006825773962049602, -0.006460339636360908, -0.006143987222764719, -0.005846751780919199, -0.005547961088936651, -0.005233957107678164, -0.00489730241699876, -0.004536988674667202, -0.0041592654620323305, -0.003778712098878542, -0.003419120490179404])","array('d', [0.5026596347477773, 0.5122929160928825, 0.52230112426218, 0.5323737364087545, 0.5422696023293547, 0.5518096502889482, 0.5608683549819142, 0.5693649006600519, 0.5772547448435239, 0.584521988750394, 0.5911727070780778, 0.597229218746, 0.602725185920871, 0.607701390323119, 0.6122020320953888, 0.6162714180955096])",-141.99932633274955,-147.02734327862404,-53.14067352477629,-0.23340776036586477,-0.006825773962049602,0.5518096502889482,25.00000024895436,-1.0,"[-156.5135957622811, -147.56582184956423, 53.231162045273905]","[-135.794179945205, -114.34140453298417, 45.05535002610229]","[-116.52525934504311, -148.49207289758505, 52.957283280420796]",10000000000.0,0.017843961715698242
15,-153.08811950683594,-145.3309326171875,53.50048828125,-0.23073799908161186,0.014635887928306923,0.5149066011097768,23.451140434609247,"array('d', [-145.3309326171875, -144.08971188476013, -142.82753928020657, -141.54415958343506, -140.2398764878827, -138.91540911416618, -137.57176731471608, -136.21014775993328, -134.83185028924905, -133.4382126228995, -132.0305609616509, -130.61017396374044, -129.17825784428356, -127.73593072508777, -126.28421476927797, -124.82403759828941])","array('d', [-153.08811950683594, -150.91827658033287, -148.7604765902093, -146.61517807775286, -144.48249662750692, -142.36227323086334, -140.25413592504057, -138.15755502449983, -136.07189163942024, -133.99643928043793, -131.93045860548253, -129.8732055714049, -127.82395336469006, -125.78200851451783, -123.7467215658032, -121.71749624662505])","array('d', [-53.50048828125, -53.4672846963942, -53.439572172588626, -53.415493876317186, -53.39389230393018, -53.37404802808871, -53.35552124069376, -53.338054626292596, -53.32151280793131, -53.305843281876676, -53.2910493988041, -53.277169289526896, -53.264256700420276, -53.2523611284298, -53.24150582832362, -53.2316634742059])","array('d', [-0.23073799908161186, -0.24281113016000935, -0.24691377912937096, -0.2447709870098898, -0.2378875614454808, -0.22755428223416704, -0.2148598172968541, -0.2007067232127184, -0.1858294854487109, -0.17081279863841178, -0.15610878334910425, -0.14205234302774258, -0.1288742767454758, -0.11671205362815913, -0.10561833554124003, -0.09556743068425111])","array('d', [-0.014635887928306923, -0.011972204130410707, -0.01022737873872277, -0.009055112745733052, -0.00823995890650226, -0.007645544573777854, -0.007183725061552639, -0.006796145686602057, -0.00644329180943486, -0.006098168397289863, -0.005742933111347843, -0.005367474708116975, -0.004969285070558378, -0.004554133954672625, -0.004137090513921462, -0.0037433947192204013])","array('d', [0.5149066011097768, 0.5243795479930553, 0.534186144332475, 0.5440314211934049, 0.5536870581593396, 0.5629840537694916, 0.5718043863780589, 0.5800725091134248, 0.5877472990889618, 0.5948148074430608, 0.6012819307572028, 0.6071709741682685, 0.612514994887109, 0.617353782694836, 0.6217303322131688, 0.6256876827300708])",-138.91540911416618,-142.36227323086334,-53.37404802808871,-0.22755428223416704,-0.007645544573777854,0.5629840537694916,25.00000024895709,-1.0,"[-153.70038002232937, -145.79762722360314, 53.378254946658245]","[-133.23103688381752, -112.41812373773593, 45.20422665487725]","[-113.70780141817558, -146.45423200956537, 52.97510888673499]",10000000000.0,0.019663095474243164
16,-147.9697265625,-142.0459747314453,53.772117614746094,-0.22628390789032,0.012349504046142,0.5308453599598745,23.460145470394092,"array('d', [-142.0459747314453, -140.7698124166862, -139.46952557151485, -138.14090391744307, -136.78011854362242, -135.3837301963897, -133.9486797727366, -132.4722800233949, -130.95282259779682, -129.56334659224467, -128.27013285055804, -127.04694898650955, -125.88788084382617, -124.78652919723478, -123.63781951165608, -122.44485665544457])","array('d', [-147.9697265625, -145.82005346758282, -143.68483329897913, -141.5671322579424, -139.46996113634808, -137.39633337051237, -135.34927918428664, -133.33185215990122, -131.34795174264875, -129.62382729992504, -128.11183321721325, -126.7761227477581, -125.60517463986233, -124.58701387544839, -123.62262613944156, -122.71352690185999])","array('d', [-53.772117614746094, -53.75993535880422, -53.762449497778846, -53.762290293609794, -53.76260259595369, -53.76282793537825, -53.76306300460968, -53.76329118368166, -53.76351200832652, -53.76369082687018, -53.763830207474584, -53.763935705883306, -53.76400503336244, -53.764025316643234, -53.763925288204426, -53.76369136894442])","array('d', [-0.22628390789032, -0.27949061900895883, -0.3276340463104614, -0.37119602437016463, -0.410612535001285, -0.4462780705135514, -0.47854958148985194, -0.5077500482689157, -0.5341717114801383, -0.5580789925383496, -0.5797111228842241, -0.5992844831139506, -0.6169945101486043, -0.6330154736102701, -0.6360388375111664, -0.5755022672036649])","array('d', [-0.012349504046142, 0.0023582165032273385, -0.00030251804595306567, 0.0001673169276763087, 8.39162354180314e-05, 9.61511993770904e-05, 9.197387119641909e-05, 9.059243356303357e-05, 8.621280440765955e-05, 7.547192975753696e-05, 6.480896865326843e-05, 5.189819119552313e-05, 3.25742854144497e-05, -4.904948843246915e-06, -0.0001264385217668935, -0.00018448495348182917])","array('d', [0.5308453599598745, 0.5410068917852876, 0.553318501161057, 0.5676349366389528, 0.58382377956255, 0.6017626986083299, 0.6213375348776005, 0.6424409748803552, 0.6649808806246592, 0.6919203253570282, 0.7234602522177991, 0.7596992983920494, 0.8011609701498551, 0.8483609149656155, 0.8965024652042706, 0.9417728811784388])",-135.3837301963897,-137.39633337051237,-53.76282793537825,-0.4462780705135514,9.61511993770904e-05,0.6017626986083299,25.00000013358961,-1.0,"[-146.67625609558254, -141.28663882383023, 53.75359382952978]","[-126.92931397323913, -107.44309753458754, 45.711641963213694]","[-106.68035643683669, -141.11498998821247, 53.20719913266318]",10000000000.0,0.013713359832763672
17,-143.25332641601562,-138.9229278564453,54.03376770019531,-0.2592676877975465,0.010677216574549515,0.5423725406315663,23.488027866769276,"array('d', [-138.9229278564453, -137.62063461737588, -136.29169068369524, -134.93214533927227, -133.53842529202473, -132.1073405318253, -130.63607608702824, -129.18192534662134, -127.84865264603094, -126.60268898187093, -125.41442981434912, -124.26266138270024, -123.15066212197166, -122.00466638196413, -120.8129704677811, -119.57902488307727])","array('d', [-143.25332641601562, -141.11937079046567, -139.0018709252321, -136.90389288265598, -134.82846780869946, -132.77863620903474, -130.7574579065356, -128.84831942697835, -127.18628292353094, -125.72430272772401, -124.42328045539715, -123.2565911702038, -122.22418598062366, -121.25657134609328, -120.34584494883825, -119.49320808828598])","array('d', [-54.03376770019531, -54.02309512307947, -54.025200226122315, -54.02512513039106, -54.025408014127244, -54.02562780945358, -54.025851692304286, -54.02605521566218, -54.02621954278873, -54.026349479254684, -54.02645208472492, -54.02653044245543, -54.02658279417995, -54.02660143852698, -54.026515717057876, -54.02630595616082])","array('d', [-0.2592676877975465, -0.30933557996584193, -0.35463888617914513, -0.395631016177898, -0.43272223191270487, -0.4662837533796551, -0.49665147351001127, -0.5241293191922823, -0.5489922913210961, -0.5714892116036224, -0.5918451978302834, -0.6102638640161949, -0.6269291042555042, -0.6420046679631289, -0.6424629420395098, -0.5813151290105169])","array('d', [-0.010677216574549515, 0.0019287778883927216, -0.0002090320171848077, 0.00014308147814568955, 8.4207642055034e-05, 9.150685259144895e-05, 8.766354304297356e-05, 8.203874663229594e-05, 7.23632378540897e-05, 6.307384046117311e-05, 5.354388483591307e-05, 4.222952212023782e-05, 2.702146523136242e-05, -1.6835819474437268e-06, -0.0001107913115285437, -0.00016793612662192235])","array('d', [0.5423725406315663, 0.5538595526712873, 0.5674066070935785, 0.582876638674645, 0.600143630094177, 0.6190904054887632, 0.6396070967481934, 0.662506807879853, 0.6899041620558434, 0.721953557820372, 0.7585765762609704, 0.7996188885459079, 0.8456483910028072, 0.8937952843408008, 0.9427161825210493, 0.9885812095437786])",-132.1073405318253,-132.77863620903474,-54.02562780945358,-0.4662837533796551,9.150685259144895e-05,0.6190904054887632,24.999999891972653,-1.0,"[-143.26891961838342, -139.01543220116253, 53.94484661045793]","[-123.81238723322676, -105.20822569868871, 45.0839134742447]","[-103.27624139590147, -138.521390708143, 53.3603711223558]",10000000000.0,0.015131950378417969
18,-138.1902313232422,-135.4183807373047,54.30796432495117,-0.42907688021659873,0.0014032563194631192,0.5519239465382437,23.530589962751225,"array('d', [-135.4183807373047, -134.08794263697297, -132.7163263745244, -131.30090730364057, -129.83942054574436, -128.32995487292237, -126.8558893372733, -125.4872082602265, -124.19271760209075, -122.94458904758214, -121.71987202224815, -120.50652321455532, -119.31855755061181, -118.0842492098412, -116.80619021428411, -115.48916318514516])","array('d', [-138.1902313232422, -136.07368990562406, -133.9836054386775, -131.9229403089644, -129.8946957354168, -127.90190849968806, -126.05695354167793, -124.44364859258131, -123.01868524407689, -121.74616897806068, -120.59886301687665, -119.56273506548592, -118.64673251165296, -117.79469452293336, -117.00981099121395, -116.29218485640986])","array('d', [-54.30796432495117, -54.306538568360835, -54.306802966694804, -54.306802859653686, -54.306842162547376, -54.306874453187625, -54.30690409567617, -54.30692814850546, -54.306947630918934, -54.30696355759629, -54.30697663432315, -54.30698704899574, -54.30699431931382, -54.30699686725644, -54.3069766467769, -54.306889756916185])","array('d', [-0.42907688021659873, -0.4629853051302517, -0.4936669194072552, -0.5214287942546685, -0.5465487790362801, -0.5692782819116075, -0.5898447857259167, -0.6084541239831924, -0.6252925388778945, -0.6405285402124682, -0.6543145766307867, -0.6667885076135517, -0.6780747214436245, -0.688282961447623, -0.6795886254878157, -0.6149066875362227])","array('d', [-0.0014032563194631192, 0.00023531621297205553, -1.9545938689912282e-05, 1.8820280853275758e-05, 1.2723736338223942e-05, 1.3102458021914217e-05, 1.2019527499213861e-05, 1.0738725818377509e-05, 9.520323778686042e-06, 8.368242900860867e-06, 7.233951352357416e-06, 5.842674295589793e-06, 3.882001191071835e-06, -4.1310630660164043e-07, -2.6118654187284496e-05, -8.869048408615612e-05])","array('d', [0.5519239465382437, 0.57070316823025, 0.5910633005862114, 0.6129001214801867, 0.6361150021740379, 0.6606144042906505, 0.6878155937825259, 0.7194906269471537, 0.7556393039977142, 0.796022426543507, 0.8402321355137987, 0.8880108877002431, 0.9400849972256002, 0.993326012752924, 1.0466321020716, 1.096037744192889])",-128.32995487292237,-127.90190849968806,-54.306874453187625,-0.5692782819116075,1.3102458021914217e-05,0.6606144042906505,23.61582449812529,-1.0,"[-137.15153605414145, -134.79791441669377, 54.29231785900572]","[-118.1235952134644, -102.70076406387928, 39.880156099140706]","[-97.1671012940738, -133.8111908651006, 53.77140179030875]",10000000000.0,0.015263557434082031
19,-133.62046813964844,-132.03140258789062,54.55653381347656,-0.518849313259125,-0.009160418063402308,0.5736796418812611,23.51672656653148,"array('d', [-132.03140258789062, -130.6513960553596, -129.22651442161046, -127.76025995597638, -126.25696549343094, -124.72115478432424, -123.16578197147821, -121.82362515022749, -120.67265252171454, -119.68812293473941, -118.69050802850823, -117.68214670512076, -116.66434452332268, -115.63734761496592, -114.60061742166951, -113.55375274383624])","array('d', [-133.62046813964844, -131.5359580098924, -129.48182188747506, -127.45700058983718, -125.4595153333161, -123.48691246543883, -121.54741233804096, -119.91930548387616, -118.5607499672178, -117.42908078913872, -116.3089271138954, -115.1984348597052, -114.09658793112513, -113.00330621435617, -111.91925057131326, -110.844977424297])","array('d', [-54.55653381347656, -54.56566602257407, -54.56384200695667, -54.56390980677265, -54.56366150873004, -54.56346364941729, -54.563261894653174, -54.56310495872055, -54.56299203257186, -54.562913561478915, -54.56284378879789, -54.56277824364153, -54.56272362685635, -54.56270137374105, -54.56277245198955, -54.56287370836202])","array('d', [-0.518849313259125, -0.5077549169977498, -0.4789994683047446, -0.4397732880139531, -0.3957944626312168, -0.35085559351330653, -0.30594524010627705, -0.2602563559623968, -0.21505471323688025, -0.1743427124763107, -0.14423150603558593, -0.12737299499531, -0.12529881141581709, -0.13563478055394523, -0.14681028238228874, -0.13283873458697687])","array('d', [0.009160418063402308, -0.0016738605716918346, 0.00018366059604354743, -0.0001242836208006086, -7.517405705251478e-05, -8.298312131505062e-05, -7.937999477802597e-05, -6.953721885573473e-05, -5.750560792439618e-05, -4.7292768150849366e-05, -4.576298073427183e-05, -4.1698354959555455e-05, -3.129751779155965e-05, 1.0864770015617997e-06, 9.216509853287832e-05, 4.365255279428499e-05])","array('d', [0.5736796418812611, 0.5957948250380483, 0.6168852570399315, 0.6362838187487623, 0.6536892712434097, 0.6690453508707084, 0.6824764591048328, 0.6959851339035293, 0.7093112716161637, 0.7221867138028271, 0.7326770657202701, 0.7416043840459229, 0.749909844172348, 0.7584969276996867, 0.7678010888264621, 0.776998047942001])",-124.72115478432424,-123.48691246543883,-54.56346364941729,-0.35085559351330653,-8.298312131505062e-05,0.6690453508707084,24.861494049693484,-1.0,"[-134.20424531741006, -132.6003908310498, 54.463534878497114]","[-115.64669508985321, -101.16642567793998, 38.10739950657069]","[-94.23863965328724, -131.04758948107525, 53.88115023983372]",10000000000.0,0.012853860855102539
20,-128.86634826660156,-128.2160186767578,54.82975769042969,-0.5269050002098085,-0.019029047340154724,0.6067308346417289,23.43265850325008,"array('d', [-128.2160186767578, -126.76817006253638, -125.27909928049064, -123.75442236705965, -122.19930120919253, -120.72424283169701, -119.45551099548194, -118.37496727722343, -117.38369821173157, -116.38203375628669, -115.3724089509863, -114.35638314701833, -113.33455216132266, -112.30654536130754, -111.27132176487044, -110.22810579422135])","array('d', [-128.86634826660156, -126.82849178874476, -124.82039355130976, -122.83917789210307, -120.88175855011004, -119.07639386648275, -117.56395048163675, -116.30821263463756, -115.18243972704823, -114.06590224320156, -112.95655544848665, -111.85306715717002, -110.75495211305442, -109.66261698796215, -108.57711974778377, -107.499300551558])","array('d', [-54.82975769042969, -54.8491059608348, -54.84550397215704, -54.84546605654206, -54.8449006287535, -54.844458535654375, -54.84411132352301, -54.843861314072925, -54.843663552078645, -54.84347688658295, -54.84329465373902, -54.843122896287355, -54.842977705825355, -54.842911264285505, -54.84306692928068, -54.843338892944786])","array('d', [-0.5269050002098085, -0.4790791521262227, -0.4270416127678377, -0.37515977294493547, -0.3252705515532213, -0.2766056678773072, -0.2280913517126525, -0.18108979117706542, -0.13953901776701044, -0.10726662187694318, -0.0861619044859413, -0.07814394872781405, -0.08408285559613693, -0.10101610267401384, -0.11699403318953491, -0.10586008286980106])","array('d', [0.019029047340154724, -0.003179467931036838, 0.000240817414021636, -0.00026274940857968213, -0.00019079319534022872, -0.0001885034822452382, -0.00016367158422756932, -0.00013857253970567994, -0.00012533099924430074, -0.00012358543935980025, -0.00011946048772111989, -0.0001097120553122798, -8.429914247235097e-05, -5.60237724751532e-06, 0.00020956618071064022, 0.00015397902899015787])","array('d', [0.6067308346417289, 0.6283054388238569, 0.6473931408347826, 0.664018872853283, 0.6783370379843728, 0.6913808308534132, 0.7041750657351602, 0.7164401512537169, 0.7269937757655482, 0.735088380355227, 0.74142190566393, 0.7468024523145448, 0.7521222099098437, 0.7582017489825774, 0.7653680230976354, 0.7726795839324341])",-120.72424283169701,-119.07639386648275,-54.844458535654375,-0.2766056678773072,-0.0001885034822452382,0.6913808308534132,19.741376098008207,-1.0,"[-132.36065655785617, -131.21734732021517, 54.57027424840234]","[-114.12062455849036, -100.22085056794748, 37.06260673531624]","[-92.41248408714486, -129.29701592545916, 53.89511235328557]",10000000000.0,0.011152029037475586
21,-124.64720153808594,-124.58551025390625,55.12059020996094,-0.3651542961597445,-0.013580233789980502,0.6413949886944632,23.291533950222046,"array('d', [-124.58551025390625, -123.07418235227681, -121.61889173354281, -120.30695714951429, -119.1033742373856, -117.9781671015427, -116.91041887126882, -115.81260789008391, -114.67234531976726, -113.48996272564973, -112.26628090480077, -111.00260076489502, -109.7006909399585, -108.36277222858044, -106.99173133332056, -105.59206797654902])","array('d', [-124.64720153808594, -122.65586458887756, -120.80594653001592, -119.20873926787372, -117.8184408880601, -116.59731584550522, -115.519819117665, -114.49781712658563, -113.52342125028525, -112.60060620213216, -111.73331706195059, -110.92543520054936, -110.18074327071784, -109.50288992516406, -108.89481226045024, -108.35581018193649])","array('d', [-55.12059020996094, -55.13512037612911, -55.13307577333176, -55.132810344183035, -55.13248593644979, -55.132232834208814, -55.132028253732614, -55.131843594228066, -55.13166964810571, -55.13150576848603, -55.131352869340894, -55.13121363361394, -55.13109556176083, -55.131024200550435, -55.13108102587461, -55.13117972072557])","array('d', [-0.3651542961597445, -0.40514575396504804, -0.4413315245077226, -0.4740737663574871, -0.5037001740239953, -0.5305072574999539, -0.5547633094946522, -0.57671108975457, -0.5965702529815841, -0.6145395423833405, -0.6307987641944162, -0.6455105343038972, -0.6588216457300216, -0.670862157790123, -0.6601367030290674, -0.5973080925968548])","array('d', [0.013580233789980502, -0.0017009982846864133, -6.361689075655025e-05, -0.00019108372916828206, -0.00016221465993877213, -0.00014294435452960567, -0.00012703308030042817, -0.0001193084293817639, -0.00011272946013761608, -0.0001058907505895957, -9.810461642321057e-05, -8.771624522649204e-05, -7.000819588165016e-05, -2.587620082507379e-05, 9.955083064021275e-05, 3.3149823604789814e-05])","array('d', [0.6413949886944632, 0.657320475730385, 0.6761123818475596, 0.6995096339956105, 0.7279068097359461, 0.7615248431266354, 0.8005399507224529, 0.8420861842811154, 0.8855753281060259, 0.9308695456413263, 0.9778382343738317, 1.0263578528725499, 1.0763117557910686, 1.127589890433307, 1.1789172064164588, 1.226445039217047])",-117.9781671015427,-116.59731584550522,-55.132232834208814,-0.5305072574999539,-0.00014294435452960567,0.7615248431266354,15.170290864122547,-1.0,"[-127.63429671655734, -127.3608962639287, 54.85829953884451]","[-110.58291712467116, -95.92306972065296, 36.94424036041387]","[-87.77965278256133, -124.10852615084848, 53.8436835809881]",10000000000.0,0.013753652572631836
