,x_pos,y_pos,z_pos,roll,pitch,yaw,vel,x_traj,y_traj,z_traj,roll_traj,pitch_traj,yaw_traj,x_cmd,y_cmd,z_cmd,roll_cmd,pitch_cmd,yaw_cmd,vel_cmd,effector_dmg,effector_x,effector_y,effector_z,cost,time_solution
0,-276.2088317871094,-283.8265075683594,49.9727897644043,0.6537922620773313,0.03936453536152843,1.7468440691616873,23.06723846792485,"array('d', [-287.5166931152344, -285.06731033155677, -282.60318918530703, -280.12675625635654, -277.6404861990815, -275.14697161566176, -272.64895480742456, -270.14914359771865, -267.6499057195943, -265.15311176424916, -262.6601219065041, -260.17184818941666, -257.68884310645785, -255.211387665307, -252.73956724418548, -250.27333551243407])","array('d', [-275.71014404296875, -276.2031576923564, -276.62019589364076, -276.95900028032946, -277.2175519891394, -277.39429929938814, -277.4893995214, -277.5058057377225, -277.44852987205564, -277.3236172296867, -277.1374104383888, -276.8960927764051, -276.6054387426177, -276.2706995188819, -275.89657091604744, -275.48721196052855])","array('d', [-49.99846267700195, -49.91530334966182, -49.85493100164202, -49.81086044870396, -49.77847119944975, -49.75446702014224, -49.73649124799635, -49.72285432637863, -49.71234132826126, -49.70407597070792, -49.697424750230404, -49.69192989699008, -49.687263111212296, -49.683194232928635, -49.679570495173245, -49.676303027581895])","array('d', [0.655934929847717, 0.668254975723782, 0.6794026152157421, 0.6894894174223625, 0.6986163341300277, 0.6981885407938266, 0.6785715125202805, 0.645743546959405, 0.6047923852336002, 0.5597126199218121, 0.5134578181728253, 0.4681008604759936, 0.42500856654963026, 0.38498969494668395, 0.34840622360574053, 0.3152510163479397])","array('d', [-0.03869155421853067, -0.02802641477877731, -0.02040344275169232, -0.014945912023778067, -0.011031528405580585, -0.008219034297228454, -0.006195466797277348, -0.004738431707906164, -0.003689490309625131, -0.002935387802597357, -0.002394616019296021, -0.0020077242220995577, -0.001730333965542319, -0.0015281430198636069, -0.0013734291109383033, -0.0012427302450198172])","array('d', [1.7846558699992041, 1.7540624700109528, 1.7227226186673257, 1.6906952013453362, 1.6580353066179534, 1.6250911674200093, 1.592820727184228, 1.5622433234406878, 1.533930619967278, 1.508110142855962, 1.4847851303325927, 1.4638301224112673, 1.4450552513241677, 1.4282459577975875, 1.413186884287007, 1.399676710884375])",-275.14697161566176,-277.39429929938814,-49.75446702014224,0.6981885407938266,-0.008219034297228454,1.6250911674200093,25.000000248222783,-1.0,"[-276.3984089357709, -283.0480213384439, 49.91893968065328]","[-302.3528293038945, -259.52746916304795, 69.23607426938577]","[-263.05190339009005, -252.80999424641084, 72.44742181551062]",10000000000.0,0.05654287338256836
1,-276.2088317871094,-283.8265075683594,49.9727897644043,0.6537922620773313,0.03936453536152843,1.7468440691616873,23.06723846792485,"array('d', [-286.1251525878906, -283.66893602988307, -281.19909278525483, -278.718074609616, -276.22837637737496, -273.7326058175181, -271.23349648446464, -268.7336966800892, -266.235480845712, -263.74061415053524, -261.25035258086035, -258.7655119003057, -256.28655876224866, -253.81369910837168, -251.34695332549043, -248.88621903341888])","array('d', [-275.9151306152344, -276.3729137573088, -276.7546508296687, -277.05810876309874, -277.2812952984158, -277.4227179735565, -277.48270275037856, -277.4643377622214, -277.372702692003, -277.2138621086566, -276.99414843641097, -276.71971944995414, -276.39631785045833, -276.02916190244855, -275.6229160809187, -275.181710884904])","array('d', [-49.98904037475586, -49.906035861053674, -49.84594157481473, -49.80218848033784, -49.77011284789684, -49.74639842250398, -49.72868133162934, -49.7152715127463, -49.704956694758565, -49.6968644159417, -49.69036510574692, -49.685004537254464, -49.68045736888486, -49.67649578142653, -49.672968778748235, -49.66978877473053])","array('d', [0.6549994349479671, 0.6674085048565154, 0.6786366966306949, 0.6887963855603947, 0.6979892528827836, 0.6965334657755824, 0.6762735493683102, 0.6431130107187267, 0.6020555596978558, 0.5570204359581644, 0.510901594091986, 0.4657282846176218, 0.4228372378172146, 0.38301784549026985, 0.34662113285032203, 0.31363579929155977])","array('d', [-0.038666047155857024, -0.02792920236186054, -0.02027860235362332, -0.014816817193459286, -0.010909589338694969, -0.008108961592934583, -0.006098372638870882, -0.004653635830135704, -0.0036155594444750847, -0.0028707007270510404, -0.002337645715091599, -0.001957159614526586, -0.0016851153032494174, -0.0014874533588612308, -0.001336665143249739, -0.0012094648284150268])","array('d', [1.77026388148335, 1.7397266017988333, 1.708438481487842, 1.6764586836990494, 1.6438425664188865, 1.6109752539794213, 1.5788348592464794, 1.5484126783375092, 1.5202598522030037, 1.4945917691133452, 1.4714059043368566, 1.450575001639674, 1.4319095455801225, 1.415196337213191, 1.4002217305008653, 1.3867860955385456])",-273.7326058175181,-277.4227179735565,-49.74639842250398,0.6965334657755824,-0.008108961592934583,1.6109752539794213,25.00000024825674,-1.0,"[-276.47133794265073, -282.3508362655792, 49.91375820967328]","[-302.20927529568286, -258.67538128857416, 69.33105494333837]","[-262.8580405548783, -252.17184517370018, 72.36162293904914]",10000000000.0,0.024187326431274414
2,-276.3592224121094,-282.445556640625,49.96299743652344,0.652997493743896,0.039359491318464244,1.7330835173514225,23.068444955826244,"array('d', [-285.20611572265625, -282.7457553340104, -280.27247773644274, -277.7887563382872, -275.2971022710607, -272.80013457229404, -270.3005803057152, -267.8010484339655, -265.30375279154305, -262.8103904529901, -260.32215026562983, -257.83978600472784, -255.3637090632332, -252.89407704461615, -250.43086846332056, -247.9739448061814])","array('d', [-276.0390930175781, -276.4739647701074, -276.83273919557814, -277.113199859955, -277.31337249184577, -277.43180393065904, -277.46893001878396, -277.42792681947634, -277.3139183882548, -277.1329822806118, -276.89144477489873, -276.595447496003, -276.2507128159066, -275.86243785753965, -275.4352669146828, -274.9733120824546])","array('d', [-49.98246765136719, -49.89899402789763, -49.838667134343964, -49.79481876649997, -49.76272537855788, -49.739035131254234, -49.72136334708179, -49.70800807903387, -49.69775046511461, -49.689714518370714, -49.683268870855194, -49.67795844443468, -49.673457552310595, -49.669538303012565, -49.66604979250485, -49.66290465539821])","array('d', [0.6545044779777524, 0.6669606492283653, 0.6782314600626151, 0.6884297123142632, 0.6976574731565485, 0.6955300496480036, 0.6748478839725627, 0.6414660445908451, 0.6003340542137872, 0.555322580509723, 0.5092870895499525, 0.4642285845508122, 0.4214642488103167, 0.38177084435304126, 0.3454922194440052, 0.312614316107288])","array('d', [-0.03891476988792419, -0.028057985541948768, -0.02033713360266135, -0.014835187053499658, -0.010905794988682497, -0.008093605520192688, -0.006077573254462741, -0.004630827434702063, -0.0035926066058428966, -0.002848573892533529, -0.00231682054753642, -0.0019378458204042674, -0.001667381680057897, -0.0014712902132423904, -0.001322009376213876, -0.0011962037408128957])","array('d', [1.7609300176289415, 1.730422398936454, 1.6991616218902401, 1.6672069960263334, 1.6346140213479863, 1.6017916216440156, 1.5697309371990493, 1.5394052320235814, 1.511352429735431, 1.485780052242704, 1.462681784151272, 1.4419291284717022, 1.4233327232217652, 1.4066801878158528, 1.391758935824185, 1.3783703949746136])",-272.80013457229404,-277.43180393065904,-49.739035131254234,0.6955300496480036,-0.008093605520192688,1.6017916216440156,25.000000248277935,-1.0,"[-276.5538951010536, -281.49246324168803, 49.90755459291368]","[-302.02776120313325, -257.62897072837154, 69.44254552918511]","[-262.61794904617733, -251.38918453710457, 72.25888606980227]",10000000000.0,0.027390718460083008
3,-276.4486389160156,-281.5172424316406,49.954925537109375,0.6528186798095699,0.03868988156318662,1.724348382153783,23.077357236832665,"array('d', [-284.74639892578125, -282.2840352171468, -279.80910932618985, -277.3241066696707, -274.83154726024407, -272.334056160051, -269.834356864886, -267.33503826727764, -264.8382836140967, -262.34575573805955, -259.8586097771883, -257.3775684027661, -254.90301528388744, -252.43508377045333, -249.9737313620831, -247.518801404619])","array('d', [-276.0978088378906, -276.52112404166706, -276.86831353972144, -277.13716956109175, -277.3257272410178, -277.43255358054176, -277.45814008292365, -277.4057073451001, -277.2804019940636, -277.0883083292006, -276.83574970347206, -276.52885973746646, -276.1733506559217, -275.7744089951803, -275.33666892485, -274.86423329730815])","array('d', [-49.979209899902344, -49.89540470559354, -49.834891827484064, -49.7909453785473, -49.75880626612132, -49.73510091506115, -49.717431472652954, -49.704088089232265, -49.69384721336586, -49.68583009885422, -49.67940376333942, -49.6741121884018, -49.669629146696806, -49.66572645311182, -49.66225307876219, -49.659121668994246])","array('d', [0.6542928218841549, 0.666769134857459, 0.6780581706774376, 0.6882729135786462, 0.6975155957677625, 0.695047403622831, 0.6741502294560576, 0.6406547347931764, 0.599483195350288, 0.5544818539580166, 0.5084867997011296, 0.46348478900928153, 0.42078312506764076, 0.3811521704761215, 0.3449321258649373, 0.3121075224334463])","array('d', [-0.03908452019095415, -0.028154861943954706, -0.02038982713572708, -0.014861412562284713, -0.010916412612276175, -0.008095221651733774, -0.00607416745229881, -0.004624769642702355, -0.00358529476351002, -0.002840827126766437, -0.00230911694150355, -0.0019304628572706906, -0.0016604763175974782, -0.0014649416997788588, -0.0013162393020373425, -0.001190982761321376])","array('d', [1.7562292079117634, 1.7257342663755648, 1.6944851763302533, 1.6625413097893555, 1.6299582273755109, 1.5971568305194574, 1.5651348235033833, 1.5348564147133523, 1.506852880898601, 1.481327771141947, 1.4582728372027423, 1.4375589301791687, 1.4189967407851427, 1.4023742806238404, 1.3874794816864224, 1.3741142930234171])",-272.334056160051,-277.43255358054176,-49.73510091506115,0.695047403622831,-0.008095221651733774,1.5971568305194574,25.000000248288398,-1.0,"[-276.61886053174817, -280.75977212213013, 49.902380438672516]","[-301.87305882968667, -256.73496312570353, 69.524664225572]","[-262.4164468809793, -250.72174837980745, 72.17363042936934]",10000000000.0,0.031378746032714844
4,-276.4486389160156,-281.5172424316406,49.954925537109375,0.6528186798095699,0.03868988156318662,1.724348382153783,23.077357236832665,"array('d', [-284.2864990234375, -281.822186804561, -279.3456685008625, -276.8594406438162, -274.3660315694303, -271.86807189718115, -269.3682808881464, -266.86922690841044, -264.3730624383374, -261.8814160746908, -259.3954093549295, -256.91573400206113, -254.4427461309625, -251.97655500385932, -249.51709725925664, -247.0641982400976])","array('d', [-276.1543884277344, -276.5661594393005, -276.90178021332224, -277.1590516770017, -277.3360182980325, -277.4312671073566, -277.4453450288145, -277.3815167877261, -277.2449511354705, -277.0417387105743, -276.7781996009216, -276.4604591445085, -276.09421919128437, -275.68465550379375, -275.23639197211935, -274.7535220757425])","array('d', [-49.97600555419922, -49.8919593420196, -49.831325771802966, -49.78732851623383, -49.75517810229531, -49.731482899347924, -49.7138345017113, -49.70051702772192, -49.69030357368087, -49.68231359245619, -49.67591317569148, -49.67064585912133, -49.66618522741404, -49.662303047499854, -49.65884832741207, -49.65573381582247])","array('d', [0.6540644168853756, 0.6665624654490538, 0.6778711684460029, 0.6881037069454528, 0.6973624912469025, 0.6945542779477506, 0.673443066880846, 0.6398348978587824, 0.5986247051679285, 0.5536342844659107, 0.5076803556974803, 0.46273544426272284, 0.4200969882806939, 0.38052896299364125, 0.3443679304076655, 0.3115970172263853])","array('d', [-0.039212007075548144, -0.028221320903367424, -0.020420547777818786, -0.014871685017348675, -0.010915370958846806, -0.00808824350664881, -0.0060643566190645955, -0.004613870786396929, -0.003574258271326782, -0.0028301508683009585, -0.0022990480002249097, -0.001921113064450079, -0.001651885423678351, -0.0014571089892623087, -0.0013091364139553795, -0.0011845558018280516])","array('d', [1.7515364448216293, 1.7210551791658637, 1.6898186971383127, 1.6578864380926064, 1.6253140279935359, 1.5925343445524973, 1.5605516297086433, 1.5303210259197861, 1.5023671800066174, 1.4768896896177661, 1.4538783906538748, 1.4332034939510425, 1.4146757506578729, 1.398083569853261, 1.383215405769463, 1.369873731719516])",-271.86807189718115,-277.4312671073566,-49.731482899347924,0.6945542779477506,-0.00808824350664881,1.5925343445524973,25.000000248298683,-1.0,"[-276.67789125216126, -280.0360007207846, 49.89690519246897]","[-301.72213664968257, -255.86067422865622, 69.60323314741096]","[-262.2223576935229, -250.07194955865816, 72.10485844099118]",10000000000.0,0.026428699493408203
5,-276.5652770996094,-280.1243896484375,49.942440032958984,0.6551749706268308,0.035087261348962805,1.712141246595655,23.099992355482435,"array('d', [-282.906005859375, -280.43621820110724, -277.95528639971377, -275.4657375319878, -272.9701230189826, -270.471088257134, -267.97133659335634, -265.4733729660068, -262.9792573838531, -260.49051659405376, -258.0081726942186, -255.53282609048742, -253.06475174328148, -250.60398805045662, -248.15041032127812, -245.7037909958075])","array('d', [-276.3112487792969, -276.68868235264614, -276.98991065018754, -277.21276051971586, -277.3553039138684, -277.4161869786656, -277.3961204844686, -277.2984985787928, -277.12855377580104, -276.8923937210103, -276.5963272369706, -276.2464537430688, -275.84844316837683, -275.4074383434631, -274.9280318374528, -274.4142886200487])","array('d', [-49.96630096435547, -49.88176505373143, -49.82093591905883, -49.776905522077, -49.74480714007088, -49.72120478490632, -49.703665309544526, -49.69045961484237, -49.6803541847767, -49.67246550691657, -49.666158624113656, -49.66097696170894, -49.65659440568065, -49.6527831759811, -49.64939278094198, -49.646336500605784])","array('d', [0.6533246636390684, 0.6658931089700509, 0.6772655096010415, 0.68755568410522, 0.6968666195812367, 0.6930489874932418, 0.6713043771912902, 0.6373645053611747, 0.596042525897734, 0.551087416803334, 0.5052583167543736, 0.46048547730279965, 0.418037038653861, 0.37865800803540267, 0.34267414573279986, 0.31006441733566603])","array('d', [-0.039485078305006, -0.02834277212933638, -0.020457015121393484, -0.014862497316985086, -0.010883311393343462, -0.008046188290477454, -0.006019321560163717, -0.004569470559271317, -0.003532199539061069, -0.0027911160530124965, -0.0022632022043559876, -0.0018883833949980184, -0.0016221052489840996, -0.0014300829803983444, -0.0012846598069125084, -0.0011624084499083321])","array('d', [1.7375969002631049, 1.7071598960730954, 1.675964221536301, 1.644069533528043, 1.6115316691148311, 1.5788191207546098, 1.546955450685143, 1.516868798454186, 1.489064178361682, 1.4637295318723265, 1.4408490644136984, 1.420291122737233, 1.4018666606983055, 1.3853652835990287, 1.3705770088124951, 1.357305876889769])",-270.471088257134,-277.4161869786656,-49.72120478490632,0.6930489874932418,-0.008046188290477454,1.5788191207546098,25.0000002483283,-1.0,"[-276.77645916180444, -278.64026254392115, 49.889819939392225]","[-301.44186137360987, -254.20753510741568, 69.75586543776191]","[-261.8651385865075, -248.8928764343495, 72.08769232277145]",10000000000.0,0.033548593521118164
6,-276.6302490234375,-279.1951904296875,49.93330001831055,0.6585717201232908,0.030428679659962626,1.7046465734627585,23.120041649409682,"array('d', [-282.445556640625, -279.97408412571, -277.4918198086251, -275.0012961242129, -272.5050692663136, -270.005787505565, -267.50614709262493, -265.00863110433113, -262.51526897227944, -260.0275542995874, -257.5464770983176, -255.07260846341998, -252.60619739609385, -250.14725968120248, -247.69565109199763, -245.25112723842025])","array('d', [-276.3592224121094, -276.7255310935262, -277.0156309830023, -277.2273572842485, -277.3587903603774, -277.40859480896285, -277.3775335115903, -277.2690411097431, -277.08836921037846, -276.8416295364978, -276.5351260470098, -276.1749487677224, -275.76675647542095, -275.3156806703985, -274.8263032309157, -274.3026794380419])","array('d', [-49.96299743652344, -49.87876083227478, -49.81819766561916, -49.774394739049754, -49.74248677189122, -49.719042094375496, -49.7016327651814, -49.688534781705236, -49.67851916013877, -49.67070619439728, -49.66446400289488, -49.65933842326458, -49.65500518236319, -49.651237861505095, -49.6478869327615, -49.64486631186761])","array('d', [0.652997493743896, 0.6655970733796881, 0.6769976454968987, 0.6873133106171094, 0.6966473109411948, 0.6925066338985599, 0.6705615959872305, 0.6365191189757236, 0.5951654797701542, 0.5502259201564587, 0.5044409074489026, 0.45972703781239876, 0.4173430182460818, 0.37802776916094094, 0.3421036007872224, 0.30954816687348036])","array('d', [-0.039359491318464244, -0.02822858535111226, -0.020358108799011565, -0.014779139355356538, -0.010814088965280104, -0.00798906114641684, -0.00597216289210262, -0.004530325356663974, -0.00349939163485675, -0.0027632711678916427, -0.0022392292928865476, -0.0018674394620032998, -0.001603557054903179, -0.001413471748771749, -0.001269670909869404, -0.0011488459337836718])","array('d', [1.7330835173514225, 1.7026660732139474, 1.6714884333786728, 1.639610350643349, 1.6070877551820526, 1.57440069545752, 1.5425789164883832, 1.5125417452982166, 1.4847878731612876, 1.45950153692685, 1.4366651889054318, 1.416146630760475, 1.3977569276218145, 1.3812861069136095, 1.3665247186209704, 1.3532773311663455])",-270.005787505565,-277.40859480896285,-49.719042094375496,0.6925066338985599,-0.00798906114641684,1.57440069545752,25.00000024833755,-1.0,"[-276.788826594721, -278.43592617921047, 49.88916144899543]","[-301.40262489888795, -253.96894004170062, 69.7770352013273]","[-261.81531268464636, -248.73026631397445, 72.10104234989413]",10000000000.0,0.03129291534423828
7,-276.6302490234375,-279.1951904296875,49.93330001831055,0.6585717201232908,0.030428679659962626,1.7046465734627585,23.120041649409682,"array('d', [-281.5172424316406, -279.04261660199313, -276.55788897210243, -274.06559964049325, -271.56831450589607, -269.06868898917804, -266.5694066576476, -264.0729092599699, -261.58116784086263, -259.0956122816973, -256.617170560275, -254.14635682670794, -251.68336943643482, -249.22817989253846, -246.7806055841743, -244.3403689583571])","array('d', [-276.4486389160156, -276.7933656550118, -277.061813887921, -277.2518412255494, -277.3615496161139, -277.38964396083384, -277.33699163792585, -277.2071102994761, -277.00529382544397, -276.7376669923761, -276.4105288987613, -276.0299551960867, -275.60158617466124, -275.13053390477825, -274.6213615949796, -274.07810742910584])","array('d', [-49.954925537109375, -49.87218078146698, -49.812789046434254, -49.76990245287019, -49.73871127798092, -49.71582926929971, -49.698864673240756, -49.6861218192839, -49.67639360940807, -49.66881705491529, -49.66277291641586, -49.657816489281345, -49.65363047021043, -49.6499934496514, -49.6467593382901, -49.64384420705604])","array('d', [0.6528186798095699, 0.6654352758257436, 0.6768512450014379, 0.6871808419553102, 0.6965274482873715, 0.6917459293106253, 0.6693926278266773, 0.635129103790005, 0.5936916456266064, 0.5487608040544005, 0.5030415022429747, 0.4584240621792993, 0.416148843694774, 0.37694278968248757, 0.3411213172004322, 0.30865935984853216])","array('d', [-0.03868988156318662, -0.027701654963301212, -0.019945707504173456, -0.014456858267561679, -0.010561723292350668, -0.007790376544534572, -0.005814370267795022, -0.004403494015496091, -0.0033959024142163068, -0.00267733762112684, -0.0021664996878203793, -0.001804680465046666, -0.001548411410878937, -0.001364277754448336, -0.0012253299595171038, -0.0011087245791300566])","array('d', [1.724348382153783, 1.6939416245258805, 1.6627738381012438, 1.630904828031386, 1.5983905753129357, 1.5657330984878512, 1.5339741749342903, 1.5040166188024318, 1.4763469937530644, 1.4511422048360523, 1.4283810350607222, 1.4079299401099508, 1.3895999415070768, 1.3731816710622915, 1.358466541939373, 1.3452600138761124])",-269.06868898917804,-277.38964396083384,-49.71582926929971,0.6917459293106253,-0.007790376544534572,1.5657330984878512,25.00000024835516,-1.0,"[-276.83033275375755, -277.7092954608125, 49.887664042007735]","[-301.263001494521, -253.12386842885942, 69.85267032451696]","[-261.6391356578537, -248.16408747297248, 72.16564006651858]",10000000000.0,0.023843765258789062
8,-276.70806884765625,-277.80010986328125,49.92205810546875,0.6652170419692991,0.02134368941187855,1.69335496524838,23.150477392714162,"array('d', [-280.5887756347656, -278.11124342462114, -275.62428977107356, -273.1304527352912, -270.6323079712441, -268.1325222260869, -265.63377163557755, -263.13846273338464, -260.6485138393857, -258.1652955288497, -255.68967682063789, -253.22211686226572, -250.76276444806422, -248.3115472722626, -245.8682443915231, -243.43254477685136])","array('d', [-276.52899169921875, -276.85324616201257, -277.1009680600917, -277.27005417727537, -277.35864216452785, -277.36548847838577, -277.29157095184416, -277.1405004393656, -276.9176271388227, -276.6291036989089, -276.28123814824187, -275.88010378364237, -275.4313325433517, -274.94002549393423, -274.41073416498466, -273.84748545438356])","array('d', [-49.94662857055664, -49.86818722934292, -49.81197732601982, -49.77145447138989, -49.74203059821772, -49.72048103756938, -49.704531776804764, -49.69257297752777, -49.68346015704507, -49.67637603459462, -49.670734734552234, -49.666115840742194, -49.66221957137805, -49.65883687329025, -49.655829940391946, -49.65311979133057])","array('d', [0.6539538502693176, 0.6664624206260756, 0.6777806441336297, 0.6880217971394276, 0.6972883760308584, 0.6918523272215559, 0.6690518231339766, 0.6345132892391009, 0.5929313443080133, 0.5479475134255549, 0.5022345128977944, 0.4576580637495463, 0.41544080325606436, 0.37629772580310483, 0.3405370881022358, 0.30813072745190134])","array('d', [-0.03670277819037442, -0.026235498786569507, -0.01885936425759364, -0.013647323018956298, -0.00995394512617322, -0.007329699338699415, -0.005460971666859385, -0.004128335876431354, -0.00317779379250525, -0.0025008053206498158, -0.00202025507719959, -0.0016805293559101024, -0.0014404916804924839, -0.001268536153020195, -0.0011391688288990628, -0.0010307627571260723])","array('d', [1.7161071757462365, 1.685632528671018, 1.6544021485325136, 1.6224755072524741, 1.5899082624036858, 1.5572223034561354, 1.5254711447631415, 1.4955433580027824, 1.467914175276402, 1.4427529968563184, 1.4200343016399635, 1.3996224348487403, 1.3813276478918648, 1.3649405525740754, 1.3502529143739328, 1.337070676277197])",-268.1325222260869,-277.36548847838577,-49.72048103756938,0.6918523272215559,-0.007329699338699415,1.5572223034561354,25.000000248371652,-1.0,"[-276.86467798058595, -276.9742625477881, 49.88836143987494]","[-301.1141960574565, -252.2707773803352, 69.93078378900633]","[-261.4544859556843, -247.61542330949578, 72.26210811618657]",10000000000.0,0.024627685546875
9,-276.7456359863281,-276.8631286621094,49.91591262817383,0.6702862977981566,0.01436371821910136,1.6853545988586287,23.174302999351923,"array('d', [-280.1243896484375, -277.64547293314376, -275.1574753116094, -272.66293068107746, -270.16442051573944, -267.66461983239117, -265.16620390931104, -262.671564425254, -260.1825955022816, -257.70063946727413, -255.22653659176845, -252.76071874965427, -250.3033098386633, -247.8542153139778, -245.41319460114744, -242.9799194151055])","array('d', [-276.5652770996094, -276.8796250920558, -277.1172203301656, -277.27598743347335, -277.3540890699189, -277.3503135894889, -277.2656985203301, -277.1039076476143, -276.87032700267014, -276.57113080243136, -276.2126383977931, -275.80092774547165, -275.34163144685306, -274.8398490405566, -274.30012948400605, -273.7264967431797])","array('d', [-49.942440032958984, -49.867477000620156, -49.81380516277941, -49.775145117236285, -49.74709844085302, -49.72657628266237, -49.71140206984883, -49.70003603469108, -49.691384211856395, -49.68466583196604, -49.67932145354299, -49.674949778701205, -49.67126474487444, -49.668066927577684, -49.665224935799486, -49.66266357055823])","array('d', [0.6551749706268308, 0.6675673361173456, 0.6787804131040007, 0.688926425593743, 0.6981069177582606, 0.6923284374343726, 0.6692795548199406, 0.6345737075467497, 0.5928881782934613, 0.5478472042407959, 0.5021085855729923, 0.45752623039183865, 0.41531398938764574, 0.3761807462752318, 0.3404309595861391, 0.3080346983907192])","array('d', [-0.035087261348962805, -0.025059687104795184, -0.017998958562242102, -0.013013509807304913, -0.009483205979156445, -0.006976525547241801, -0.005192678856244644, -0.0039213887706198835, -0.003015200507390786, -0.0023702686619532995, -0.0019128676872171874, -0.001589862322020281, -0.0013619675233634868, -0.001199005520228164, -0.0010766298417287056, -0.0009741751363381687])","array('d', [1.712141246595655, 1.681593442464467, 1.6502956204445707, 1.6183068916733565, 1.5856825636913918, 1.5529537280068886, 1.5211797948298473, 1.4912431042571757, 1.4636134359555577, 1.4384562417621531, 1.415743479432137, 1.3953380405770037, 1.3770494308904773, 1.360667951013806, 1.345985300915154, 1.3328074742710043])",-267.66461983239117,-277.3503135894889,-49.72657628266237,0.6923284374343726,-0.006976525547241801,1.5529537280068886,25.000000248379624,-1.0,"[-276.917080099419, -275.37311432120254, 49.89436779170519]","[-300.7432701719372, -250.4089747175961, 70.12069717891444]","[-261.00955441442176, -246.47134446676927, 72.51379143295931]",10000000000.0,0.046549320220947266
10,-276.77215576171875,-275.9261779785156,49.912940979003906,0.6751701831817623,0.0071963728405535195,1.6770347143199782,23.194738176886343,"array('d', [-279.1951904296875, -276.71367770774174, -274.2237593212921, -271.7279524573211, -269.2288495461297, -266.7291447694108, -264.23151544939157, -261.7383279473652, -259.2514320276985, -256.77211668251437, -254.30116692720918, -251.83896154930738, -249.3855755224601, -246.9408702651567, -244.50456608147752, -242.07630205289607])","array('d', [-276.6302490234375, -276.92578664966607, -277.1439956674878, -277.28286855272114, -277.34062839167353, -277.316135670106, -277.21055179237015, -277.02765396429277, -276.7729101862887, -276.4525486256661, -276.07292132798506, -275.6401243378115, -275.15979899162096, -274.63704794757564, -274.0764201535461, -273.4819384621387])","array('d', [-49.93330001831055, -49.868335580833914, -49.82190589412546, -49.78852480150377, -49.76435582613824, -49.746708880321044, -49.73369110072648, -49.72396520724304, -49.71658223948069, -49.710865620124665, -49.706330971425444, -49.70263106469385, -49.699518507854975, -49.69682093569945, -49.6944249208689, -49.69226578362441])","array('d', [0.6585717201232908, 0.6706408424394965, 0.6815614368799984, 0.6914428001921783, 0.7003838278163667, 0.6939139209000462, 0.6703421431942319, 0.6352637395037888, 0.593327585434367, 0.5481276254844908, 0.5022943974285783, 0.45765952680576916, 0.41541985080605826, 0.37627213300872275, 0.34051309384101813, 0.3081090165445671])","array('d', [-0.030428679659962626, -0.021694588944107196, -0.015553795025362848, -0.011224120968764264, -0.008162442815845326, -0.0059914502070498084, -0.004448559948618054, -0.003350492728712332, -0.002568928211484492, -0.0020136346744894116, -0.0016206421594117892, -0.0013439008822082326, -0.0011493900397963302, -0.0010109770876939625, -0.0009075602514939929, -0.0008211946310272434])","array('d', [1.7046465734627585, 1.673894572047164, 1.6424085521741023, 1.6102466085165408, 1.5774630632153828, 1.544605866699342, 1.5127459903639477, 1.4827549438475403, 1.4550921592074775, 1.4299150584224316, 1.4071900987363233, 1.3867767152355874, 1.3684823992595694, 1.3520963777735926, 1.3374098484659092, 1.3242285974676473])",-266.7291447694108,-277.316135670106,-49.746708880321044,0.6939139209000462,-0.0059914502070498084,1.544605866699342,25.000000248394663,-1.0,"[-276.928468333012, -274.6171078559329, 49.90063892448512]","[-300.5404671947461, -249.52140572362043, 70.21514714495937]","[-260.77437731023736, -245.9444141244791, 72.6365571467642]",10000000000.0,0.02652716636657715
11,-276.78759765625,-274.9893798828125,49.913429260253906,0.6797619462013244,0.00036942679435008263,1.66809689352778,23.21424059252849,"array('d', [-277.80010986328125, -275.3149350221274, -272.8223798562759, -270.3249468675124, -267.82525643786954, -265.32604200341495, -262.82999047288007, -260.33943343555086, -257.8561547138679, -255.38136199104684, -252.9157549122044, -250.45962952861345, -248.01298407393801, -245.57561053675585, -243.14716726873786, -240.7272390961909])","array('d', [-276.70806884765625, -276.97510792068533, -277.1637339192041, -277.27205913957425, -277.2984151832226, -277.2417887393325, -277.1035466222917, -276.8876580837798, -276.59973551097664, -276.24610678243573, -275.83318845577054, -275.36711603615834, -274.853553660562, -274.297616299398, -273.70385895439995, -273.0763072239697])","array('d', [-49.92205810546875, -49.876547690776505, -49.84412825068373, -49.82090333068271, -49.804154760308, -49.791980947375535, -49.78304672091307, -49.776410676783165, -49.77140595598966, -49.76755780669229, -49.76452671827729, -49.76206949359571, -49.760012956267644, -49.75823654997537, -49.75666113362917, -49.755241964153136])","array('d', [0.6652170419692991, 0.6766537787676783, 0.6870021670346215, 0.6963657766310163, 0.7048383202888746, 0.6972483169204312, 0.6728034423224111, 0.6370792337031203, 0.5946865042060827, 0.5491757044750983, 0.5031366924824766, 0.45836694161799213, 0.41603665490332814, 0.3768232634195925, 0.3410108933421808, 0.308559444193997])","array('d', [-0.02134368941187855, -0.015169705726384807, -0.010838840895055364, -0.007792193560514983, -0.005642624525615386, -0.004121834956796499, -0.0030435496510043186, -0.0022780618267443636, -0.0017347805068574887, -0.001350156431193598, -0.0010792343977582765, -0.0008897073367344092, -0.0007577244343374078, -0.0006649483953162567, -0.0005965261731380881, -0.0005397594773454455])","array('d', [1.69335496524838, 1.6622004653646933, 1.6303436893293206, 1.59784068660705, 1.5647438002098562, 1.5316263389566735, 1.4995776188970795, 1.4694535580874746, 1.4416975036072817, 1.4164537278900942, 1.3936792427862112, 1.3732272315274998, 1.35490129343559, 1.3384883675593398, 1.3237783824314593, 1.3105764323680915])",-265.32604200341495,-277.2417887393325,-49.791980947375535,0.6972483169204312,-0.004121834956796499,1.5316263389566735,25.00000024563704,-1.0,"[-276.9335825034837, -273.725694549806, 49.91016040891716]","[-300.27752259866185, -248.47059931367343, 70.33662915529149]","[-260.4756642538724, -245.32628736764084, 72.77083840828317]",10000000000.0,0.03219151496887207
12,-276.7911682128906,-274.52105712890625,49.9150276184082,0.6820008158683775,-0.00282898941077292,1.6633792305972912,23.2236853529521,"array('d', [-276.8631286621094, -274.37563207294215, -271.8814564585591, -269.383114566849, -266.8832582976712, -264.3846554062226, -261.8900016436007, -259.40160384333126, -256.9211981415911, -254.44993336663217, -251.98844741988293, -249.53697656929478, -247.09546363410647, -244.66365048156982, -242.24115073606666, -239.8275071086799])","array('d', [-276.7456359863281, -276.9924167355511, -277.15997037297745, -277.24649577030357, -277.2504051909504, -277.1707799125266, -277.0091396335819, -276.76959666991064, -276.4578713015352, -276.0803662215525, -275.64354668318595, -275.1535782526185, -274.61614269504065, -274.03636474644173, -273.41880445008275, -272.7674891546725])","array('d', [-49.91591262817383, -49.885325021236646, -49.86360910402769, -49.84811303542941, -49.83699002780208, -49.82895016788221, -49.82308912324274, -49.81877013025159, -49.815542638181384, -49.81308615187687, -49.811171573935766, -49.80963480941886, -49.80835900102349, -49.80726283635117, -49.80629308736277, -49.8054200099809])","array('d', [0.6702862977981566, 0.681240631615601, 0.6911525236168036, 0.7001211751310724, 0.7082363467594689, 0.6998207479680331, 0.6747287375219104, 0.6385226130759668, 0.5957861542833721, 0.5500385059489237, 0.503840053970584, 0.4589634190113397, 0.4165593522692069, 0.37729111833526063, 0.3414335794049051, 0.30894190640096747])","array('d', [-0.01436371821910136, -0.010176841077149838, -0.007245025774034586, -0.005186254964719669, -0.0037363681897016237, -0.00271260938712756, -0.0019883133759592245, -0.0014754385134632551, -0.0011126085744371198, -0.0008568473773732677, -0.0006778019464331118, -0.0005536803289053731, -0.00046838924703972916, -0.0004095244917995354, -0.0003669843650414452, -0.00033206129750795255])","array('d', [1.6853545988586287, 1.6538903335822712, 1.6217484094439019, 1.5889832631311163, 1.5556456803693754, 1.5223275337289592, 1.4901316300430674, 1.4599024815082828, 1.4320715512827333, 1.4067733344714308, 1.383957774170756, 1.3634733378227468, 1.345120658061173, 1.3286849034091508, 1.3139549970356341, 1.3007354825073751])",-264.3846554062226,-277.1707799125266,-49.82895016788221,0.6998207479680331,-0.00271260938712756,1.5223275337289592,25.00000024843297,-1.0,"[-276.92984370291344, -273.02748721043656, 49.919271096864136]","[-300.046682542296, -247.64457687964978, 70.44534293765363]","[-260.2181513831045, -244.8447738157496, 72.86385663509017]",10000000000.0,0.027102947235107422
13,-276.78546142578125,-273.1165466308594,49.92609405517578,0.6881001591682432,-0.011732335202395913,1.6486732224610188,23.244131743171234,"array('d', [-275.9261779785156, -273.4365407013144, -270.9409231332486, -268.441867049499, -265.9420645177571, -263.4443206626411, -260.95133834128893, -258.46539577550277, -255.98817729793456, -253.52076923779973, -251.06374478541298, -248.6172780968578, -246.18125477219033, -243.75536515586558, -241.3391770456557, -238.93219261166473])","array('d', [-276.77215576171875, -276.9978659181328, -277.1435664684617, -277.20753916809286, -277.18827554233195, -277.0849522814066, -276.89924707648345, -276.6354179736085, -276.29929264066595, -275.89734631057104, -275.4360899215749, -274.9217159621616, -274.3599208612507, -273.7558364532472, -273.1140254822707, -272.4385156347416])","array('d', [-49.912940979003906, -49.8976569478445, -49.88688196217108, -49.87926075955816, -49.873851179107575, -49.86999624597479, -49.867236056190656, -49.865247174049486, -49.86380092134683, -49.86273464287911, -49.86193198226315, -49.861309473143336, -49.86080758014909, -49.86038487807871, -49.860014426182204, -49.859681630412695])","array('d', [0.6751701831817623, 0.6856597542560076, 0.6951511114980485, 0.703739247389921, 0.7115101141267924, 0.7022389392021308, 0.6764853313620196, 0.6397942680314354, 0.5967186222756706, 0.5507431662151397, 0.5043966215878309, 0.45942528818805867, 0.4169595347740016, 0.3776479127697313, 0.341755748802553, 0.30923341735330706])","array('d', [-0.0071963728405535195, -0.005066461621044193, -0.003578378509677121, -0.0025359824827519656, -0.0018038979371235984, -0.0012886452359779056, -0.0009255639490915586, -0.000669808431560487, -0.0004901901753715169, -0.00036492233381347713, -0.0002786454343111425, -0.00022033460261994636, -0.00018182225420464753, -0.00015675752992152795, -0.00013988544550099354, -0.00012657367895688003])","array('d', [1.6770347143199782, 1.645269735335777, 1.6128511544182027, 1.5798318093074624, 1.5462609448908486, 1.5127505521704214, 1.4804175611645132, 1.4500937210230025, 1.4221977910721668, 1.3968541105551162, 1.3740054490474367, 1.3534955942701108, 1.335122308143977, 1.3186691017859975, 1.3039240026681924, 1.2906910871865982])",-263.4443206626411,-277.0849522814066,-49.86999624597479,0.7022389392021308,-0.0012886452359779056,1.5127505521704214,25.000000248448938,-1.0,"[-276.9021506964552, -271.6211958623042, 49.943692154249945]","[-299.5349842172628, -245.97697694009065, 70.68324091233512]","[-259.658963722458, -243.87028025991063, 73.0209360583344]",10000000000.0,0.03779792785644531
14,-276.7669982910156,-272.1759948730469,49.939453125,0.6913488507270811,-0.01692808791995056,1.6384830559280255,23.25806000580146,"array('d', [-274.9893798828125, -272.49775033437686, -270.00085729817124, -267.50129192366313, -265.0017954678416, -262.5052130998229, -260.0142513688555, -257.5311535972203, -255.05754565728137, -252.59444539842877, -250.14235630894666, -247.7013864017413, -245.27136083703382, -242.85191586122215, -240.44257137106436, -238.04278730686198])","array('d', [-276.78759765625, -276.9906911912163, -277.1130393050961, -277.1530025453203, -277.10914996428, -276.98075496340135, -276.7696613526542, -276.48027722158116, -276.11853695769815, -275.69098487863994, -275.20417297266005, -274.66431578483616, -274.07711979051703, -273.44771975488413, -272.78067745821306, -272.0800177436444])","array('d', [-49.913429260253906, -49.912702647220975, -49.912301509718006, -49.91212302177708, -49.91209591807472, -49.912170608978954, -49.912312374152386, -49.9124966728212, -49.912705914300396, -49.912927253140545, -49.913151119291314, -49.913370286842046, -49.91357934625695, -49.91377448481753, -49.91395350277243, -49.914116000802316])","array('d', [0.6797619462013244, 0.6898145536267363, 0.6989105297725536, 0.7071409100189928, 0.714588065899645, 0.7044091595001336, 0.6779679819525858, 0.6407853801778489, 0.5973768861299233, 0.5511877748927276, 0.5047114023607895, 0.4596652353510578, 0.41715764365360825, 0.3778214989707995, 0.34191209982830467, 0.3093748896245683])","array('d', [-0.00036942679435008263, -0.00021444897364294814, -0.00010823292232082025, -3.576631644650115e-05, 1.3265407971553837e-05, 4.594220086339564e-05, 6.711670394055935e-05, 8.010554996243122e-05, 8.716978639729528e-05, 8.985646504672406e-05, 8.924662734395184e-05, 8.613924899172452e-05, 8.119083094465082e-05, 7.502290936123322e-05, 6.830354567621228e-05, 6.180352729346078e-05])","array('d', [1.66809689352778, 1.636047115947549, 1.6033666664334556, 1.5701068373157656, 1.5363153871821624, 1.502626957909125, 1.4701736601169393, 1.4397723213698779, 1.4118276985387241, 1.3864533745902161, 1.363584779040538, 1.3430610785879218, 1.3246773205431128, 1.3082155437448557, 1.293463060539245, 1.280223640467073])",-262.5052130998229,-276.98075496340135,-49.912170608978954,0.7044091595001336,4.594220086339564e-05,1.502626957909125,25.000000248465607,-1.0,"[-276.8684363401114, -270.6796441042031, 49.9648440441684]","[-299.1623913227548, -244.85523735057555, 70.84736273936096]","[-259.2597041535867, -243.2017405351187, 73.09269232781446]",10000000000.0,0.02931380271911621
15,-276.7378845214844,-271.23651123046875,49.95672607421875,0.6941690444946286,-0.021979618817567936,1.6284211846676209,23.27158124646833,"array('d', [-274.52105712890625, -272.0284919198996, -269.5310317089985, -267.0312995069248, -264.53206448960066, -262.0361929346252, -259.54639191811987, -257.0648848522159, -254.5932657471537, -252.1325158085464, -249.68310162757982, -247.24509645655968, -244.81829385546203, -242.4023018924266, -239.99661558345264, -237.6006729804697])","array('d', [-276.7911682128906, -276.9823278037352, -277.09238373930634, -277.11973539908985, -277.0629907350288, -276.9214727275335, -276.6971121427224, -276.3943945477774, -276.01930817800087, -275.57843120557436, -275.07833488378304, -274.5252433278453, -273.92486658292466, -273.28233952847427, -272.602222252157, -271.8885371119576])","array('d', [-49.9150276184082, -49.92111340050816, -49.92555381206298, -49.928839560556305, -49.93131096290163, -49.933204717965744, -49.93468600827841, -49.9358704858878, -49.93683935076466, -49.93764973295501, -49.938341858891015, -49.93894400639822, -49.93947594288988, -49.939951332371685, -49.94037945296487, -49.94076646526192])","array('d', [0.6820008158683775, 0.6918403668588171, 0.700743561552299, 0.7087995059097442, 0.7160888255625678, 0.7054323911219543, 0.6786338943056479, 0.6411996853797509, 0.5976242529919334, 0.5513311800067321, 0.5047946932596438, 0.4597168291483729, 0.4171942808771892, 0.37785165672969, 0.3419390100368351, 0.30939923899037913])","array('d', [0.00282898941077292, 0.0020525929906394483, 0.0015088095208380702, 0.0011261731570809488, 0.0008554649790933895, 0.0006627540071444545, 0.0005245832646315421, 0.0004246656736948538, 0.0003516443802548491, 0.00029756355292167, 0.0002568169322823145, 0.00022542475738380097, 0.00020053956945604442, 0.0001801127741860209, 0.00016267460220038463, 0.00014719399812659055])","array('d', [1.6633792305972912, 1.6311898516753438, 1.5983810930451978, 1.5650034782304705, 1.5311040275077867, 1.4973297062280913, 1.4648206641522374, 1.4343854447772881, 1.4064212778833467, 1.3810360961792474, 1.3581615523637687, 1.3376344876186443, 1.319248621674814, 1.3027853051278524, 1.2880315447045292, 1.2747910050229234])",-262.0361929346252,-276.9214727275335,-49.933204717965744,0.7054323911219543,0.0006627540071444545,1.4973297062280913,25.00000024847423,-1.0,"[-276.83150490144874, -269.8936322212514, 49.98561860651485]","[-298.8436609228133, -243.91875012010163, 70.98015330301322]","[-258.92284798220726, -242.63673825126932, 73.14467166267544]",10000000000.0,0.029161453247070312
16,-276.6982421875,-270.2982177734375,49.97750473022461,0.6967267394065851,-0.02628854662179949,1.6185411746290062,23.281963328283208,"array('d', [-273.1165466308594, -270.62153115687494, -268.12274448561425, -265.6229231431397, -263.1249259199406, -260.63168149631053, -258.1458906414523, -255.669707585692, -253.20462266163366, -250.7515009936194, -248.3106941039789, -245.8821679619655, -243.46561931455545, -241.06057036485453, -238.66644061623185, -236.282601890488])","array('d', [-276.78546142578125, -276.9394539946179, -277.01136756129125, -276.9997113926201, -276.9032055147402, -276.7213198883081, -276.45625077794074, -276.1127154311033, -275.69685737689707, -275.2153477730122, -274.67480672125106, -274.0814786961406, -273.4410770581475, -272.7587306484458, -272.03898903107597, -271.2858624728263])","array('d', [-49.92609405517578, -49.951111069046306, -49.96895249378755, -49.9817886878736, -49.991120109213256, -49.99798735842081, -50.00311491524088, -50.00700933479534, -50.01002641947174, -50.01241727313086, -50.01435984139415, -50.01598041039422, -50.01736814413844, -50.01858480782397, -50.019671197020465, -50.02065137552699])","array('d', [0.6881001591682432, 0.6973592814009142, 0.705737282387047, 0.7133180117775332, 0.7201773385948821, 0.7080505800428817, 0.6801717064950059, 0.6419941880015341, 0.5979414207974727, 0.5513661188587635, 0.5046812808734736, 0.4595402664135752, 0.41700335198921357, 0.3776696318292817, 0.3417731397943716, 0.3092491533748665])","array('d', [0.011732335202395913, 0.008338239663826385, 0.0059744570906805124, 0.004322108831120412, 0.0031623923025465824, 0.0023450489857220723, 0.0017666482393210398, 0.0013557433669063573, 0.001062811629523034, 0.0008533655515170957, 0.0007031943561503971, 0.0005950647398353889, 0.0005164340189028822, 0.0004578738586475178, 0.0004120027392667167, 0.00037279544628397455])","array('d', [1.6486732224610188, 1.6161010360888761, 1.5829406141086342, 1.5492403328782465, 1.5150451545453965, 1.4810417740170105, 1.4483952988481874, 1.4178868706829155, 1.389889882559153, 1.3644949496279737, 1.341622498651939, 1.3211026949656721, 1.302725626424568, 1.2862709136217265, 1.271524939880339, 1.2582913008452525])",-260.63168149631053,-276.7213198883081,-49.99798735842081,0.7080505800428817,0.0023450489857220723,1.4810417740170105,25.00000024850019,-1.0,"[-276.78517532699436, -269.05358564091335, 50.00950557194224]","[-298.4980005079811, -242.92684265312806, 71.12695152333796]","[-258.5614592893278, -242.0255734460495, 73.19102257520984]",10000000000.0,0.03835010528564453
17,-276.674560546875,-269.82952880859375,49.98910140991211,0.6979858875274656,-0.028168609365820975,1.6137291575458388,23.287232961702745,"array('d', [-272.1759948730469, -269.679663504528, -267.18032922358265, -264.68081040063294, -262.1840247119628, -259.6929376749018, -257.21023668592846, -254.73802096498872, -252.27770515836022, -249.83007274383567, -247.39539608147868, -244.97356842702703, -242.56422160773798, -240.16682070362, -237.78073528477745, -235.40529358411658])","array('d', [-276.7669982910156, -276.89529135812853, -276.94098474604505, -276.9026524406043, -276.779081705214, -276.5698348962135, -276.27728372605986, -275.90629347889103, -275.46310081276505, -274.9544275032364, -274.3869154971421, -273.7668134154387, -273.0998288109735, -272.39107977389966, -271.6451032278819, -270.86589665871935])","array('d', [-49.939453125, -49.97549039189679, -50.001087715562726, -50.019418594186874, -50.032672546204545, -50.04236511981126, -50.04954957033649, -50.05496116194574, -50.059115676900205, -50.06237680834584, -50.065002196150886, -50.06717470648595, -50.069023490846654, -50.070637978186525, -50.07207702813607, -50.07337486314996])","array('d', [0.6913488507270811, 0.70029881934847, 0.7083970865528569, 0.7157247023227793, 0.7223550015422187, 0.709238993483833, 0.6806544360034478, 0.6420103836856438, 0.5976757151833483, 0.5509511360415084, 0.5042059607074542, 0.45905953220899937, 0.41654710270435075, 0.37725049999539045, 0.3413931017252246, 0.3089052806784801])","array('d', [0.01692808791995056, 0.01198521040289468, 0.008550317134772068, 0.006154487759749114, 0.004476713290024188, 0.0032970446189023914, 0.0024644137630441447, 0.0018747005166117902, 0.0014558994046486105, 0.0011579764241331815, 0.0009458725048399931, 0.0007946585168730771, 0.0006861787511644478, 0.0006067364539217863, 0.0005455246925167546, 0.0004936111166223345])","array('d', [1.6384830559280255, 1.6057054664682309, 1.5723564616810746, 1.5384832417811092, 1.5041296439839216, 1.4700109011919873, 1.4373091051001952, 1.4067850626578158, 1.378795514110047, 1.353419557773945, 1.3305705209570546, 1.3100746049054965, 1.291719945385247, 1.2752854174554575, 1.2605573265455061, 1.2473394953960781])",-259.6929376749018,-276.5698348962135,-50.04236511981126,0.709238993483833,0.0032970446189023914,1.4700109011919873,25.000000248517306,-1.0,"[-276.73891447116046, -268.3315055324628, 50.031348736442006]","[-298.198748373291, -242.08520800733052, 71.25886378449238]","[-258.2514610097986, -241.49328147838577, 73.22453295373184]",10000000000.0,0.026261329650878906
18,-276.5554504394531,-267.95782470703125,50.0434684753418,0.7012073993682859,-0.0339102931320668,1.5948836273190123,23.29974011138903,"array('d', [-271.23651123046875, -268.73918596274405, -266.2396031567002, -263.740669291892, -261.2453615554858, -258.7566800750086, -256.27729455214006, -253.8092461277002, -251.35387265873203, -248.9118763272014, -246.48345156612808, -244.06842060131137, -241.6663521885362, -239.2766561308136, -236.89865382016598, -234.53163423299682])","array('d', [-276.7378845214844, -276.8408190684583, -276.860705345172, -276.79617688367574, -276.6460835155845, -276.4100753960577, -276.09069421775615, -275.69294611452835, -275.2231533867168, -274.6880817493015, -274.09438947495426, -273.44832492814106, -272.75558638234475, -272.0212784318024, -271.2499231647628, -270.4455044017441])","array('d', [-49.95672607421875, -50.00345900998894, -50.03655383394686, -50.060174788493946, -50.077189324178576, -50.089578533329934, -50.0987168031228, -50.105562055713214, -50.11078535746568, -50.11485940501221, -50.118118831724644, -50.120801076983426, -50.12307381244473, -50.125053082050286, -50.12681508573092, -50.128403731144125])","array('d', [0.6941690444946286, 0.7028506363412372, 0.710706066123384, 0.7178139533288788, 0.7242454200996239, 0.710163463417983, 0.6808989826302734, 0.6418136235332821, 0.5972201270995345, 0.5503666247555412, 0.503578792490056, 0.45844228287070476, 0.41596773289538547, 0.37672009146961855, 0.34091239305347915, 0.3084703174390228])","array('d', [0.021979618817567936, 0.015516785537213524, 0.011034640126695736, 0.007914462975840874, 0.005733653478726677, 0.004203284882460453, 0.0031253299507396025, 0.0023635864422678855, 0.001824058411752275, 0.0014415618602770426, 0.001170502048424445, 0.000978497569827453, 0.0008419686085598571, 0.0007430966088805015, 0.0006677631522597938, 0.0006042169142149075])","array('d', [1.6284211846676209, 1.595464422128265, 1.5619509795435176, 1.5279270171847212, 1.4934353794925626, 1.459219958300001, 1.4264794675751868, 1.3959540109165762, 1.367983820090135, 1.3426368259083157, 1.3198196278336563, 1.2993547827654508, 1.2810287258631508, 1.2646197764742213, 1.2499143033116513, 1.2367164468855336])",-258.7566800750086,-276.4100753960577,-50.089578533329934,0.710163463417983,0.004203284882460453,1.459219958300001,25.000000245957835,-1.0,"[-276.6318169512947, -266.926683458689, 50.07774339477608]","[-297.60686681177344, -240.44904276503985, 71.50160454650228]","[-257.6447603455635, -240.41421863559663, 73.24195912626692]",10000000000.0,0.046996116638183594
19,-276.5202331542969,-267.49407958984375,50.05946731567383,0.7019062042236325,-0.03496997803449633,1.5902854512122016,23.2998202352102,"array('d', [-270.2982177734375, -267.80018067401187, -265.30061866695934, -262.80252604163235, -260.3089368280379, -257.8228784709158, -255.34699539833193, -252.88326621592773, -250.4329503895474, -247.9966692134856, -245.57454080197192, -243.1663185669316, -240.7715106393099, -238.38947400270447, -236.0194842219941, -233.66078775363323])","array('d', [-276.6982421875, -276.7762854552103, -276.7708775112397, -276.68070911288703, -276.50469950967016, -276.2426197925834, -275.89718205046563, -275.4735215133499, -274.9780341537714, -274.4175190154391, -273.7986419271355, -273.1276439836596, -272.4102086330614, -271.6514225779438, -270.8557895500697, -270.02727502712133])","array('d', [-49.97750473022461, -50.03334005493132, -50.072781501584345, -50.10085559959292, -50.121017032127575, -50.1356482946646, -50.14639944183053, -50.15441874369947, -50.16050952727608, -50.16523703969079, -50.16900112293698, -50.17208535049859, -50.17468991217051, -50.17695328651173, -50.17896624450302, -50.18078075260318])","array('d', [0.6967267394065851, 0.7051649346947035, 0.712800130193386, 0.719708741307147, 0.7256424640127616, 0.7106310388520939, 0.6807280020176544, 0.6412427076020916, 0.5964289739679971, 0.5494812159011161, 0.5026813257401206, 0.45758161851932866, 0.41516865562447014, 0.37599105787085896, 0.3402519841575174, 0.30787275471132625])","array('d', [0.02628854662179949, 0.01851324778110311, 0.013131042536596206, 0.009391110397666736, 0.00678174433368887, 0.0049538273351851705, 0.0036685582660890095, 0.002762017296825757, 0.0021213028137017564, 0.0016682669081156346, 0.001348337863189674, 0.0011228070951542493, 0.0009635001579344539, 0.0008491078373687008, 0.0007627001667474934, 0.0006901196297277222])","array('d', [1.6185411746290062, 1.585421216014522, 1.5517580500616148, 1.517596878298772, 1.4829909088072788, 1.44871143435739, 1.4159612496723566, 1.385459236867505, 1.3575293774077046, 1.3322290064598263, 1.3094586053665238, 1.2890376184627448, 1.2707512054793233, 1.2543774563788432, 1.2397030496771677, 1.2265326609728688])",-257.8228784709158,-276.2426197925834,-50.1356482946646,0.7106310388520939,0.0049538273351851705,1.44871143435739,25.00000024854905,-1.0,"[-276.5494471183636, -265.9952813572039, 50.11191159218829]","[-297.2080911542836, -239.3789596265001, 71.67094320598791]","[-257.24013828388723, -239.6865248412831, 73.24197693841694]",10000000000.0,0.024949073791503906
20,-276.4012451171875,-266.10369873046875,50.11029052734375,0.7039358019828793,-0.03755709901452054,1.577010250711117,23.304332683373804,"array('d', [-269.82952880859375, -267.33123557978763, -264.8317765169574, -262.334189047418, -259.84153392302636, -257.35684599093645, -254.88275200760373, -252.42119684784478, -249.9734000325499, -247.53994283900462, -245.12090633846188, -242.71601099431086, -240.32473620707225, -237.94641413065355, -235.58029892851567, -233.22561860109664])","array('d', [-276.674560546875, -276.740477605862, -276.7227469243285, -276.62008794479834, -276.4314650894069, -276.1567500209215, -275.79874379476485, -275.3626375437412, -274.8548555062079, -274.2822058745052, -273.6513520712199, -272.9685266207198, -272.23940166017377, -271.469051860446, -270.66196930668525, -269.822108762664])","array('d', [-49.98910140991211, -50.048900678842216, -50.091093547033296, -50.121088966964784, -50.14260109287789, -50.15818913529551, -50.16962407581832, -50.17813740319217, -50.18459009619162, -50.189587645079015, -50.193558192649746, -50.19680530834654, -50.19954326328368, -50.20192024057836, -50.20403329758877, -50.20593784409895])","array('d', [0.6979858875274656, 0.7063042591320535, 0.7138310336678635, 0.720641541425174, 0.7259709693137747, 0.7105221256464732, 0.6803304793222458, 0.6406758569299602, 0.5957806641650597, 0.5488116300632709, 0.5020286239825164, 0.4569675200562558, 0.41460321237749975, 0.3754765451369976, 0.33978607386144893, 0.3074511816038141])","array('d', [0.028168609365820975, 0.019814865492459824, 0.014037457268645984, 0.010026383103430266, 0.00723018168960059, 0.005272984868909523, 0.0038979385915421695, 0.0029289021288786687, 0.002244672367326521, 0.0017614308358179108, 0.0014206927302580614, 0.0011809991050943712, 0.0010121814777021036, 0.0008914152482796776, 0.0008005464187376171, 0.0007243643377522482])","array('d', [1.6137291575458388, 1.5805286112854795, 1.546791528797164, 1.5125626340811538, 1.4779130331488686, 1.4436261464177556, 1.4108928975278088, 1.3804212672549632, 1.352527335709209, 1.3272635689499732, 1.304527838895493, 1.2841384259034878, 1.2658801671276774, 1.2495312810542394, 1.234878785779551, 1.2217277573478615])",-257.35684599093645,-276.1567500209215,-50.15818913529551,0.7105221256464732,0.005272984868909523,1.4436261464177556,25.000000248556432,-1.0,"[-276.4812372792333, -265.2964337321092, 50.139150503298865]","[-296.90870317574894, -238.5844111432604, 71.79986347077806]","[-256.9383400572869, -239.13330264055702, 73.2381924673868]",10000000000.0,0.025923490524291992
21,-276.3112487792969,-265.17767333984375,50.14569854736328,0.7051397562026976,-0.03883126005530353,1.568493904839505,23.30392038339219,"array('d', [-268.4252624511719, -265.9265332564151, -263.4277136630671, -260.9319500889639, -258.44236635582166, -255.9620021641479, -253.49341920528857, -251.03845572548084, -248.59821099318916, -246.17314896769574, -243.76324399038467, -241.36812276721605, -238.98718371221142, -236.61968950629262, -234.26483479229668, -231.9217962237726])","array('d', [-276.5887756347656, -276.61895969176055, -276.5651160471013, -276.4260350772702, -276.20080173250545, -275.8895751172986, -275.4954022258342, -275.0236178529248, -274.48070856193056, -273.87349108364646, -273.2086065458986, -272.4922500237685, -271.73005063259046, -270.92703986465347, -270.0876692671601, -269.2158568543734])","array('d', [-50.02866744995117, -50.09804002783387, -50.14682891052064, -50.181393687614545, -50.20608965292579, -50.223910174743786, -50.23692172378788, -50.24655812426047, -50.25381991936299, -50.25940967699835, -50.263823632086634, -50.26741338381936, -50.27042699001916, -50.27303588583899, -50.275352124305634, -50.277439188789366])","array('d', [0.7004441022872924, 0.7085285440282121, 0.7158436500489245, 0.7224626321841378, 0.7260491041366854, 0.7093713442647384, 0.6783995763724013, 0.6383177540547168, 0.5932505800931516, 0.5462809067200696, 0.499603153241307, 0.45470509755225447, 0.4125279854321509, 0.3735905582979377, 0.33807853383436287, 0.30590613535458006])","array('d', [0.03272313624620438, 0.022945385238519717, 0.016200786293381415, 0.01152986176954273, 0.00828143065673984, 0.006012953186971401, 0.004422859964303014, 0.003304929143227436, 0.0025176486084805124, 0.001963407091130446, 0.0015742507049634012, 0.0013020918010463527, 0.0011119654093637138, 0.0009773964841132215, 0.0008772649310128514, 0.0007937821245805757])","array('d', [1.599509852999125, 1.566151504502273, 1.5322697177316114, 1.4979082736933447, 1.4631933968454371, 1.428944116334834, 1.3963134964694515, 1.3659766503286446, 1.3382269046587483, 1.3131033977276094, 1.2904973771453891, 1.2702246207813923, 1.2520697614754193, 1.235811975066144, 1.2212397226529912, 1.208159601121563])",-255.9620021641479,-275.8895751172986,-50.223910174743786,0.7093713442647384,0.006012953186971401,1.428944116334834,25.000000248577287,-1.0,"[-276.38550906734235, -264.3743973526465, 50.17589801711039]","[-296.51244458563633, -237.5426290391993, 71.96953644248414]","[-256.54154877384894, -238.40012174281011, 73.23135824705408]",10000000000.0,0.04229140281677246
22,-276.1609191894531,-263.790283203125,50.20081329345703,0.7062275409698483,-0.03979147225618358,1.5559932822969293,23.30543201261045,"array('d', [-267.49407958984375, -264.9953149559655, -262.49717467828805, -260.00286797363174, -257.51555389027146, -255.03826845660274, -252.57352605542528, -250.1230930486061, -247.687989707874, -245.26860394980008, -242.86484149566925, -240.47626909192292, -238.10223354869143, -235.74195339144865, -233.39458549962603, -231.0592745110695])","array('d', [-276.5202331542969, -276.52724696605173, -276.45001310337267, -276.28736825748575, -276.03847524400504, -275.7036791003343, -275.28618378744625, -274.7914137169528, -274.2258924420609, -273.59643934730724, -272.9096788003114, -272.1717797743081, -271.3883420432563, -270.56436793780335, -269.7042817677189, -268.8119771209946])","array('d', [-50.05946731567383, -50.13353804895147, -50.18552237817153, -50.22226877076016, -50.24845930808185, -50.26730674045925, -50.281025615335174, -50.291150372138084, -50.298750487976676, -50.30457621989117, -50.30915712467809, -50.31286825295122, -50.3159741393248, -50.31865753480936, -50.321037730854776, -50.323181974255775])","array('d', [0.7019062042236325, 0.709851508687929, 0.7170407180816072, 0.7235457842182276, 0.7260039393411007, 0.7085355274223107, 0.677065839472909, 0.636715064884389, 0.5915438424350037, 0.5445804340379726, 0.4979768396140234, 0.4531897428125182, 0.41113867294349227, 0.3723281290274983, 0.33693557597193236, 0.3048719442197494])","array('d', [0.03496997803449633, 0.02447070384876055, 0.017240462623136867, 0.012241139265471648, 0.008769596494553427, 0.0063488781954729, 0.004654542887101865, 0.0034651269237297696, 0.0026289247476509892, 0.002041465021191417, 0.0016301228551927503, 0.0013435612526955505, 0.001144469708383714, 0.0010045806994366387, 0.0009012993458017794, 0.0008155293643638994])","array('d', [1.5902854512122016, 1.556832946733151, 1.5228648412808077, 1.4884243481637995, 1.4536738444366764, 1.419455325510481, 1.3868967840598792, 1.3566519540232147, 1.3289995409402902, 1.3039702073649269, 1.2814510441286096, 1.2612563083819113, 1.2431705731819793, 1.2269736875224793, 1.21245508703006, 1.1994223816884935])",-255.03826845660274,-275.7036791003343,-50.26730674045925,0.7085355274223107,0.0063488781954729,1.419455325510481,25.000000248590304,-1.0,"[-276.21435526216993, -262.89787284640283, 50.23575540582365]","[-295.8749208335477, -235.88789391401153, 72.23400987033362]","[-255.90785029110384, -237.19630314661225, 73.19387316026676]",10000000000.0,0.034711360931396484
