,current_time,x_pos,y_pos,z_pos,roll,pitch,yaw,vel,x_traj,y_traj,z_traj,roll_traj,pitch_traj,yaw_traj,x_cmd,y_cmd,z_cmd,roll_cmd,pitch_cmd,yaw_cmd,vel_cmd,effector_dmg,effector_x,effector_y,effector_z,cost,time_solution
0,0.03380584716796875,-228.7058563232422,-76.81610107421875,49.57231140136719,0.6053426861762998,0.03196121007204042,0.4563571969654895,23.110579883501114,"array('d', [-77.17110443115234, -76.07869235435786, -75.03573250885309, -74.03374690270982, -73.06605341900959, -72.12731829603955, -71.21325179413516, -70.3203875694676, -69.44591405596837, -68.58754035653902, -67.74338682755815, -66.91189482327417, -66.09175249291324, -65.28183491286153, -64.48115764212608, -63.84811684074996])","array('d', [-229.55123901367188, -227.3036021083032, -225.03200964847377, -222.74179917679695, -220.43678012512936, -218.1197670708266, -215.79288860772868, -213.45778116790967, -211.11571889167985, -208.76770524003152, -206.41454011798623, -204.05687029638227, -201.6952277402572, -199.3300586756314, -196.96174519149915, -195.06458106090852])","array('d', [-49.56718444824219, -49.50096160782287, -49.45772830442614, -49.42928187300308, -49.41046870809306, -49.39800648964764, -49.38977427360083, -49.38438016148598, -49.380895318282796, -49.37868886530203, -49.37732478667022, -49.37649757263366, -49.37599250440131, -49.37566190120067, -49.375411814763325, -49.375238723695155])","array('d', [0.6046128273010252, 0.5079018821159693, 0.4280506739393681, 0.36216794727560886, 0.3079325783121915, 0.26340870774253383, 0.2269439673193052, 0.1971104382040875, 0.17266920720777207, 0.15254859929766917, 0.13583062478156832, 0.12174252873703378, 0.10965164242306437, 0.099062495570389, 0.08961559609784325, 0.08108755193092483])","array('d', [-0.032216422259807434, -0.020956172411027683, -0.013752441982428932, -0.0090831086227922, -0.006018691716507803, -0.003985051136076072, -0.002623448297144354, -0.0017071308521511542, -0.0010910225436202283, -0.0006809803849273103, -0.00041472424960814583, -0.00024979827934965405, -0.00015582398344710847, -0.00010943247721470875, -9.094507590867169e-05, -8.229083184994171e-05])","array('d', [0.465037063756261, 0.4406570192816678, 0.42084374156962484, 0.40449741503150016, 0.39085106105992423, 0.37933986992399343, 0.3695331488570216, 0.3610958006160438, 0.3537648076490916, 0.3473337324029122, 0.3416416431319726, 0.3365645342757004, 0.3320081688834113, 0.327901732062061, 0.32419193835647314, 0.31999872536783686])",-73.06605341900959,-220.43678012512936,-49.41046870809306,0.3079325783121915,-0.006018691716507803,0.39085106105992423,25.00000024663652,-1.0,"[-227.38805588351104, -76.16664166592626, 49.52419713915781]","[-216.2573430696728, -62.30312117561483, 58.68443905029596]","[-207.44306438345984, -76.90401828042522, 48.238277316122414]",10000000000.0,0.02109980583190918
1,0.05900859832763672,-227.85678100585938,-76.46808624267578,49.57719421386719,0.6060801744461057,0.03150571882724745,0.4476533691075184,23.108851187939912,"array('d', [-76.99273681640625, -75.91000849436494, -74.87678833221747, -73.8845180244818, -72.92646610572388, -71.99726873618573, -71.09261904008504, -70.20904261214461, -69.34372627455897, -68.49438203840002, -67.65913619700564, -66.83643789406028, -66.02498399761993, -65.22365853061284, -64.43148572864325, -63.80517678443291])","array('d', [-229.12901306152344, -226.87668798779623, -224.6006458498816, -222.30620795913333, -219.99716417299902, -217.67630934760098, -215.34575341405682, -213.00711562323934, -210.66165451347106, -208.31035948451733, -205.9540178285388, -203.59326504142786, -201.2286230375716, -198.86052910517267, -196.48935740012155, -194.58995902749103])","array('d', [-49.56976318359375, -49.50378592913305, -49.460706062395225, -49.4323555535853, -49.41360212845856, -49.40117669262624, -49.39296657823434, -49.387585126930354, -49.38410687001923, -49.38190312968126, -49.38053935790763, -49.379711042861885, -49.379204151147164, -49.37887146515325, -49.378619324560376, -49.3784447187703])","array('d', [0.6049309968948363, 0.5074431884428323, 0.4270615666727425, 0.36083023504682876, 0.30638336701058216, 0.2617518752058241, 0.2252574583770848, 0.19545134096558298, 0.1710775863747374, 0.1510505993219879, 0.1344411228524371, 0.12046749592471576, 0.1084903067269995, 0.09800936625166777, 0.08866239041242703, 0.08022505568158246])","array('d', [-0.0320949405431747, -0.02088035161833346, -0.013705020539862622, -0.009053489812663422, -0.006000329506819549, -0.0039738671270978625, -0.002616873983031017, -0.001703526940589942, -0.0010893256040342295, -0.00068048712950827, -0.0004149598595116846, -0.0002504367562098043, -0.00015664130895012854, -0.00011028086809149881, -9.174088658452118e-05, -8.30109111921684e-05])","array('d', [0.4607334891941885, 0.43635719352194646, 0.41657961525084597, 0.4002869199402454, 0.3867040916046546, 0.37526122468928574, 0.3655241846402167, 0.35715548451027807, 0.34989045940015295, 0.343521587799347, 0.3378872982042414, 0.332863297755419, 0.3283553355243518, 0.3242927826566875, 0.3206226692192936, 0.3164742742071108])",-72.92646610572388,-219.99716417299902,-49.41360212845856,0.30638336701058216,-0.006000329506819549,0.3867040916046546,25.00000024663407,-1.0,"[-226.79430052248347, -75.9328444548578, 49.52806242566401]","[-215.56325548395324, -62.129821562527155, 58.65714706632222]","[-206.85756532064426, -76.77243518261636, 48.1783673113487]",10000000000.0,0.0208895206451416
2,0.08903765678405762,-227.00413513183594,-76.12723541259766,49.58216857910156,0.6067711710929868,0.03078285418450823,0.4388745586064198,23.10817248083628,"array('d', [-76.81610107421875, -75.74324581706372, -74.71996363178701, -73.73761281970592, -72.78941060079286, -71.8699617286873, -70.97494127188405, -70.10086612709699, -69.24492107241714, -68.40482074389578, -67.578697196417, -66.76500726305864, -65.96245648046242, -65.16993779787443, -64.38648412277416, -63.76707872791446])","array('d', [-228.7058563232422, -226.4488036813268, -224.16827286938644, -221.86956899763283, -219.55646228476454, -217.23172778382082, -214.8974566897216, -212.55525101509306, -210.20635365646996, -207.85173992758675, -205.49218449454366, -203.12831157312024, -200.76063302666356, -198.38957720726214, -196.01551033952046, -194.1138481445876])","array('d', [-49.57231140136719, -49.50660490066243, -49.463694941605354, -49.435451308696855, -49.41676503044951, -49.40438147543969, -49.39619703854968, -49.39083080834657, -49.38736101370996, -49.38516139738395, -49.38379902699944, -49.382970489166354, -49.3824625045257, -49.38212836487797, -49.381874727469835, -49.38169900851413])","array('d', [0.6053426861762998, 0.5070526138354249, 0.4261217238899715, 0.3595276270265369, 0.30485865860141065, 0.2601117153903399, 0.22358196555892648, 0.19379929685017616, 0.1694903516746155, 0.14955528167184456, 0.13305328538991978, 0.1191935690052913, 0.107329798593985, 0.09695693315161301, 0.08770980795307035, 0.07936312335054972])","array('d', [-0.03196121007204042, -0.02079656711838193, -0.01365233899605038, -0.009020339096034188, -0.005979554691458206, -0.0039610048562713695, -0.0026091091021380785, -0.0016990598967699564, -0.0010869873095837577, -0.0006795036126510379, -0.0004148083847714178, -0.0002507585655051874, -0.00015719005465961088, -0.0001108939718112296, -9.232570689032928e-05, -8.354007853563447e-05])","array('d', [0.4563571969654895, 0.43198024379102984, 0.4122354516255725, 0.39599439847733275, 0.3824737261253203, 0.37109824577027894, 0.36143025426870196, 0.3531297840371907, 0.3459304558751402, 0.3396236149624368, 0.334047014365809, 0.3290760491331107, 0.32461643816001173, 0.3205977290011222, 0.3169672622881836, 0.31286364921860976])",-72.78941060079286,-219.55646228476454,-49.41676503044951,0.30485865860141065,-0.005979554691458206,0.3824737261253203,25.000000246631494,-1.0,"[-226.07653205830914, -75.6537018298587, 49.53294978538331]","[-214.7247778105819, -61.92506506037528, 58.62482571671864]","[-206.1506614209376, -76.61823363482108, 48.10839450742756]",10000000000.0,0.017930984497070312
3,0.11763787269592285,-226.57650756835938,-75.95955657958984,49.584720611572266,0.607058227062225,0.03053663112223139,0.4343914548542837,23.10644038350282,"array('d', [-76.46808624267578, -75.4149191429058, -74.41144542537502, -73.44885796953332, -72.52027287622062, -71.62023336645713, -70.74437940391783, -69.88921126210003, -69.05191022234261, -68.23019662627553, -67.42221440709974, -66.62643605819957, -65.84158468114906, -65.0665712666663, -64.30044622671373, -63.69475917005498])","array('d', [-227.85678100585938, -225.5904475548974, -223.30111997693717, -220.99406518856122, -218.6730113080145, -216.34069242897695, -213.99916169218253, -211.64998647755294, -209.2943784835023, -206.93328507360278, -204.56745595595956, -202.19749311141575, -199.82388863088954, -197.44705331103168, -195.06733780755388, -193.1612591192229])","array('d', [-49.57719421386719, -49.512417697946546, -49.47010526060221, -49.44224899346301, -49.42381581790562, -49.411598646449974, -49.40352399861736, -49.39823030114143, -49.39480838191559, -49.392640328135094, -49.39129882967415, -49.39048431856024, -49.38998616218091, -49.38965944505578, -49.38941195770653, -49.389240599242825])","array('d', [0.6060801744461057, 0.5062088877833557, 0.4241972689872249, 0.3568908921586313, 0.3017874031180754, 0.25681650518894367, 0.22022097653480716, 0.1904885578927114, 0.16631146006004793, 0.14656164815522738, 0.13027548020981175, 0.11664408831749644, 0.10500743859932024, 0.09485088965593785, 0.08580358267349868, 0.07763829923421608])","array('d', [-0.03150571882724745, -0.020505069527533164, -0.013464025352963597, -0.008897645108865138, -0.005899056797471579, -0.003907936647448121, -0.002574045233442873, -0.0016758988832469147, -0.0010717163352145203, -0.0006694377097862491, -0.0004081203960410656, -0.00024618982508436656, -0.0001538752674924424, -0.00010825939366710023, -9.003450967015859e-05, -8.146691737406157e-05])","array('d', [0.4476533691075184, 0.42327913413206386, 0.4036024826883686, 0.3874663186813549, 0.3740709443027277, 0.3628308303224733, 0.353301283133097, 0.3451374689618306, 0.3380696415011484, 0.3318869187593024, 0.3264257277121951, 0.32156085407182744, 0.31719796448320664, 0.3132669629013748, 0.30971581184441516, 0.3057017922109062])",-72.52027287622062,-218.6730113080145,-49.42381581790562,0.3017874031180754,-0.005899056797471579,0.3740709443027277,25.00000024662611,-1.0,"[-225.64693272748264, -75.4901559491727, 49.536001589815186]","[-214.2225056803518, -61.807085777007046, 58.605514107496376]","[-205.72811283468582, -76.53075469025426, 48.06706716705132]",10000000000.0,0.024322032928466797
4,0.13413095474243164,-226.57650756835938,-75.95955657958984,49.584720611572266,0.607058227062225,0.03053663112223139,0.4343914548542837,23.10644038350282,"array('d', [-76.29676055908203, -75.25348918415831, -74.25996900687716, -73.30730969639691, -72.38857684513977, -71.49828310708806, -70.63205111722878, -69.786373051422, -68.9584286402313, -68.14594125991731, -67.34706095051412, -66.56026819014426, -65.78429500486888, -65.01806153586847, -64.26062706506497, -63.661819723357816])","array('d', [-227.43089294433594, -225.15996595836887, -222.86629216702872, -220.5551160167509, -218.23014290195104, -215.89408558602085, -213.54897775654962, -211.1963692838846, -208.83745620786425, -206.47317193575705, -204.10425376039927, -201.731292632605, -199.354770854262, -196.97509054206955, -194.59259465994623, -192.6843434347707])","array('d', [-49.57966232299805, -49.51562189112575, -49.47378788823357, -49.44624615713855, -49.4280220326354, -49.415945219635354, -49.407965698041664, -49.402737058551935, -49.399360077553055, -49.39722347413836, -49.39590443065857, -49.395106463315706, -49.39462106672503, -49.39430476889426, -49.39406627883518, -49.393901364370734])","array('d', [0.6064240336418151, 0.5057652605051715, 0.4232160515830848, 0.35555581726898405, 0.3002369256931677, 0.25515558661433363, 0.21852847243008727, 0.1888223153656488, 0.16471215349529728, 0.14505588542965697, 0.12887846481828688, 0.1153619960059621, 0.10383960086985854, 0.09379184197555744, 0.08484501730538187, 0.07677095334297826])","array('d', [-0.03114672750234597, -0.02027287392718664, -0.013312078104852796, -0.008797090101381614, -0.005831810626065799, -0.003862530343806504, -0.002543108752983404, -0.0016546276201445014, -0.0010569288205994893, -0.0006589924842348757, -0.0004005536159780981, -0.0002404904359205106, -0.00014934728424376934, -0.0001044401187695112, -8.664872103925631e-05, -7.840332885742506e-05])","array('d', [0.44329007069138054, 0.4189184596528325, 0.3992768426044098, 0.38319386736535477, 0.36986174085460477, 0.35868981449181137, 0.34922993079544784, 0.3411348410873849, 0.33413312558776603, 0.3280127941634661, 0.3226096137474191, 0.3177980672378396, 0.3134837965653238, 0.30959688519684336, 0.3060856079407277, 0.3021166285501982])",-72.38857684513977,-218.23014290195104,-49.4280220326354,0.3002369256931677,-0.005831810626065799,0.36986174085460477,25.000000246623284,-1.0,"[-225.2164524484728, -75.32856321211598, 49.538922783301054]","[-213.71851110671395, -61.69064344722294, 58.58350621139836]","[-205.3052662070624, -76.44503742929973, 48.02295847559681]",10000000000.0,0.013767242431640625
5,0.15597987174987793,-225.72024536132812,-75.63079833984375,49.59059524536133,0.6063051223754884,0.029991261661052548,0.4256903688099723,23.10846822374927,"array('d', [-76.12723541259766, -75.09399863472399, -74.11057035662974, -73.16797627384663, -72.25923105876544, -71.37881657286479, -70.52233801544403, -69.68627944175914, -68.8678190704611, -68.06468339595932, -67.275028678811, -66.49734351335496, -65.7303689891029, -64.97303453603074, -64.22440843788465, -63.63257402746458])","array('d', [-227.00413513183594, -224.7286038162124, -222.43057591157927, -220.11527248769423, -217.78637557452856, -215.44657615696082, -213.09788815879077, -210.7418437288974, -208.3796231075054, -206.01214565489795, -203.64013619300854, -201.2641746105364, -198.8847334032191, -196.50220599939212, -194.1169276671323, -192.2065022705661])","array('d', [-49.58216857910156, -49.518874219665264, -49.47752509873648, -49.4503021158303, -49.43228982166116, -49.420355214741676, -49.412472053509234, -49.407309298012926, -49.403977808106106, -49.401873025152604, -49.400576685621914, -49.39979543258747, -49.39932291763077, -49.3990171325982, -49.39878771796788, -49.39862930302197])","array('d', [0.6067711710929868, 0.5053167822290436, 0.422224557599338, 0.3542068737398774, 0.2986703428120709, 0.25347736586313285, 0.2168182711981788, 0.18713858671305278, 0.16309601095963405, 0.14353423332106657, 0.1274666828400013, 0.11406633793596038, 0.10265939993667651, 0.09272158076120203, 0.08387630207302575, 0.07589442347395718])","array('d', [-0.03078285418450823, -0.02003754245127068, -0.013158090983131514, -0.008695193754060863, -0.005763674880316257, -0.0038165305887364275, -0.002511775155339211, -0.0016330904805666483, -0.001041963422967545, -0.0006484280861490944, -0.0003929061914332555, -0.0002347348534684749, -0.00014477777337718815, -0.00010058743301322908, -8.323376167920301e-05, -7.531334557123702e-05])","array('d', [0.4388745586064198, 0.41450560969022604, 0.3948993729823064, 0.37887008967638036, 0.3656018051678707, 0.35449871253885523, 0.34510916225214217, 0.337083468549433, 0.3301485207342494, 0.32409120747867093, 0.3187466267634741, 0.3139889535178704, 0.3097238030002356, 0.30588143874695767, 0.3024104501684928, 0.29848698116161665])",-72.25923105876544,-217.78637557452856,-49.43228982166116,0.2986703428120709,-0.005763674880316257,0.3656018051678707,25.00000024662034,-1.0,"[-225.2164524484728, -75.32856321211598, 49.538922783301054]","[-213.71851110671395, -61.69064344722294, 58.58350621139836]","[-205.3052662070624, -76.44503742929973, 48.02295847559681]",10000000000.0,0.02077007293701172
6,0.18669748306274414,-225.2914581298828,-75.46971130371094,49.59364700317383,0.6040934920310974,0.02947889640927305,0.4212663928654532,23.111751226328074,"array('d', [-75.95955657958984, -74.93652764581743, -73.96335603908526, -73.03098472466822, -72.13237817646417, -71.2619879709387, -70.41540229419229, -69.58909747190921, -68.78025059068524, -67.98659163683536, -67.20628345730815, -66.4378231161716, -65.67996110261477, -64.93163645014671, -64.19192673473732, -63.607149416661905])","array('d', [-226.57650756835938, -224.2963546574668, -221.9939584628655, -219.67451677360438, -217.34168783172427, -214.99814033539838, -212.64586799129742, -210.28638486102417, -207.92085510292443, -205.5501838169995, -203.17508319418633, -200.79612194032188, -198.41376265240677, -196.0283899974189, -193.64033148795573, -191.72773409054])","array('d', [-49.584720611572266, -49.521929051686996, -49.480903130273454, -49.453889832007576, -49.43601468607247, -49.42417035566055, -49.4163468618518, -49.41122360771397, -49.40791826042089, -49.405830772904615, -49.40454592364077, -49.40377243784619, -49.40330540114742, -49.40300377726724, -49.40277782147103, -49.40262186097023])","array('d', [0.607058227062225, 0.5048074687121265, 0.42117298727971103, 0.3527995714838833, 0.29704779131745207, 0.251746050293239, 0.2150581832519631, 0.1854083845687074, 0.16143689918731216, 0.14197310817066458, 0.12601883302450498, 0.11273786054739023, 0.10144942365119083, 0.09162435372523187, 0.08288318409252385, 0.0749958130833116])","array('d', [-0.03053663112223139, -0.019879914038316935, -0.013056193422320785, -0.008628742001938725, -0.00572002472454398, -0.003787711280002331, -0.002492697765405105, -0.0016204591805790583, -0.001033609261688923, -0.0006428987686612351, -0.0003892126695210643, -0.00023219533220615653, -0.00014292326095044765, -9.910678670524486e-05, -8.194415380618486e-05, -7.414646000929913e-05])","array('d', [0.4343914548542837, 0.4100284552948326, 0.3904605372899714, 0.37448760434988154, 0.36128559625888623, 0.35025358291090986, 0.3409364428107941, 0.3329820643586856, 0.32611565288743677, 0.3201229814528868, 0.3148384849436137, 0.31013603721068533, 0.30592123491966167, 0.3021245307350988, 0.2986948382831996, 0.29481801909793753])",-72.13237817646417,-217.34168783172427,-49.43601468607247,0.29704779131745207,-0.00572002472454398,0.36128559625888623,25.00000024661725,-1.0,"[-223.94196382516085, -74.86334666064948, 49.54926861057641]","[-212.23313645885247, -61.32632412613124, 58.47408696200145]","[-204.05485626281177, -76.20817647414204, 47.90781024183866]",10000000000.0,0.029462814331054688
7,0.20763182640075684,-224.8616485595703,-75.31050872802734,49.59672546386719,0.5999968647956847,0.02872319705784312,0.41685874859360245,23.115624522736002,"array('d', [-75.63079833984375, -74.62755984094852, -73.67413751943326, -72.76134104505364, -71.8820565402887, -71.0306908773483, -70.20281002733316, -69.39488386201344, -68.60409419137088, -67.82818348640482, -67.06533215899438, -66.31405777639256, -65.5731325755138, -64.8415172924839, -64.11831025164274, -63.54656695844232])","array('d', [-225.72024536132812, -223.4312847279925, -221.12062706124217, -218.79340630782997, -216.45322328974402, -214.10269629002366, -211.74377503931484, -209.37793526682628, -207.0063076675428, -204.62976806229855, -202.24900296365226, -199.86455850978413, -197.47687742957714, -195.08632687391662, -192.6932188939864, -190.77668471906355])","array('d', [-49.59059524536133, -49.52891826658105, -49.48861027549146, -49.462063712343124, -49.44449439755693, -49.43285164171114, -49.42516144401861, -49.42012637597344, -49.416879256442606, -49.41483011646007, -49.4135705557019, -49.41281398572168, -49.41235873053494, -49.41206595407478, -49.4118473049974, -49.411696521059234])","array('d', [0.6063051223754884, 0.5027125110605873, 0.4181880303846983, 0.3492560886414203, 0.2931949610011652, 0.24777202090026168, 0.21110334942584527, 0.18157456728718704, 0.15779430401962913, 0.13856601420874126, 0.122870513348434, 0.10985500632272176, 0.09882622748076812, 0.08924634927337652, 0.08073090997363831, 0.07304835475034423])","array('d', [-0.029991261661052548, -0.01953006768931193, -0.012829560687112768, -0.008480654017799292, -0.005622596282931752, -0.0037233269743612695, -0.0024500815094594653, -0.0015922854804249964, -0.001015040481420965, -0.0006306835216115037, -0.0003811281998708137, -0.00022670389293238222, -0.00013896393186526548, -9.597438499550039e-05, -7.922429837818953e-05, -7.168543282756172e-05])","array('d', [0.4256903688099723, 0.40140464046267865, 0.38196116722747525, 0.36613751036933767, 0.3530969611729573, 0.34223052984019703, 0.3330775847186909, 0.3252821501190783, 0.3185667676028735, 0.3127154917617324, 0.3075618080728871, 0.30297926479093185, 0.29887362279101976, 0.29517585834404175, 0.29183563864833284, 0.28805989456661213])",-71.8820565402887,-216.45322328974402,-49.44449439755693,0.2931949610011652,-0.005622596282931752,0.3530969611729573,25.000000246610988,-1.0,"[-223.5099561516996, -74.71025543714994, 49.553458184652314]","[-211.7296343022826, -61.18401277945069, 58.40019637955697]","[-203.63158637838984, -76.14244722548212, 47.88036469144917]",10000000000.0,0.015204429626464844
8,0.22928595542907715,-224.43080139160156,-75.15319061279297,49.599891662597656,0.5936241745948789,0.027772249653935245,0.4125856916096547,23.121297752930044,"array('d', [-75.46971130371094, -74.4764492364239, -73.53279767366053, -72.62953545466009, -71.75953479656192, -70.91719903964612, -70.09809763068957, -69.29870885386381, -68.51622638182126, -67.74840682212796, -66.99344602696559, -66.24987750701212, -65.51648930315798, -64.79225732818402, -64.07629412109809, -63.51023252461774])","array('d', [-225.2914581298828, -222.99812154145908, -220.68344377622213, -218.3525002668529, -216.00884732039677, -213.6550679461738, -211.29308311743574, -208.9243446411973, -206.54996301523283, -204.1707968147486, -201.78751769783983, -199.40065892101364, -197.01065198405888, -194.6178542104651, -192.2225690244981, -190.3043489673058])","array('d', [-49.59364700317383, -49.53302272207048, -49.49340259239299, -49.467311021015604, -49.450046183050524, -49.4386094074624, -49.43105998822352, -49.42612211482148, -49.42294286024805, -49.420941807639515, -49.41971706050771, -49.41898651598938, -49.41855160358978, -49.41827560086351, -49.418071505670255, -49.41793115719191])","array('d', [0.6040934920310974, 0.500104353516601, 0.41535436907679957, 0.3463226632218475, 0.29025571949139645, 0.2448967920961034, 0.20834275676118477, 0.1789635403279212, 0.15535483693630658, 0.1363094947241406, 0.12079978664494231, 0.10796625979510244, 0.09711074428739198, 0.08769216126617986, 0.07932437316448727, 0.07177566750034599])","array('d', [-0.02947889640927305, -0.019197019940969118, -0.012610346958954638, -0.008334632329167802, -0.005524235290079416, -0.0036563779230464164, -0.002404058172207186, -0.0015603184556145673, -0.0009925572849413475, -0.0006145902100726783, -0.00036929946535777176, -0.00021766570528146937, -0.00013169831960460377, -8.980276029048837e-05, -7.374132772504091e-05, -6.672423537505244e-05])","array('d', [0.4212663928654532, 0.39711136681171016, 0.37780081098128165, 0.362108629216081, 0.3491959413009982, 0.3384522456320835, 0.3294157962069023, 0.32172981734260075, 0.31511633564768926, 0.3093591561813839, 0.30429175564269145, 0.29978788118351885, 0.29575365962371297, 0.29212055408008397, 0.28883878976772814, 0.2851290821904007])",-71.75953479656192,-216.00884732039677,-49.450046183050524,0.29025571949139645,-0.005524235290079416,0.3491959413009982,25.00000024660767,-1.0,"[-223.05720067354432, -74.55195347711555, 49.558238643079356]","[-211.20447335813864, -61.01717635450192, 58.294522946363614]","[-203.1879782157731, -76.07984605496962, 47.86131696128685]",10000000000.0,0.017775774002075195
9,0.24791502952575684,-224.43080139160156,-75.15319061279297,49.599891662597656,0.5936241745948789,0.027772249653935245,0.4125856916096547,23.121297752930044,"array('d', [-75.31050872802734, -74.3270872036522, -73.39288107815004, -72.49867644698665, -71.63735825831746, -70.8033460088016, -69.99222775997804, -69.20050219018565, -68.4253845253724, -67.66465348326285, -66.91652701573095, -66.17956021836932, -65.45256178471737, -64.73452703325269, -64.0245864588372, -63.46320110639017])","array('d', [-224.8616485595703, -222.56403262312855, -220.2455081888612, -217.91106672029434, -215.56420510307998, -213.20746171189126, -210.84272254826183, -208.4714111793908, -206.09461478769734, -203.71317237312266, -201.32773894526625, -198.93883345977625, -196.5468750383857, -194.15221022918698, -191.75513303596765, -189.83553911822796])","array('d', [-49.59672546386719, -49.53765715113997, -49.49905950393298, -49.47364878475198, -49.456843172139855, -49.445720011107106, -49.4383874073209, -49.43360135054088, -49.43052995116538, -49.428606932002054, -49.42744004655147, -49.426753857391326, -49.42635441205392, -49.426108133313946, -49.425930032898655, -49.42580835782313])","array('d', [0.5999968647956847, 0.49590699003641625, 0.4111660649363795, 0.3422247615911374, 0.2863082801047449, 0.2411429323960622, 0.20481164001400542, 0.1756726858786776, 0.15231207388508253, 0.13351471074633628, 0.11824654118380494, 0.10564329271737047, 0.09500339575281398, 0.08578371421925576, 0.07759733003546565, 0.07021297411315362])","array('d', [-0.02872319705784312, -0.018703202980186528, -0.01228329162288228, -0.008115180776301833, -0.005375124272219409, -0.0035538180779799756, -0.0023326452651504072, -0.0015099271452070607, -0.0009564264740743612, -0.0005881328725234172, -0.0003493587427344644, -0.00020204999046871894, -0.00011889349331156184, -7.879836288926309e-05, -6.393000009274002e-05, -5.7846578218408e-05])","array('d', [0.41685874859360245, 0.39292780953242534, 0.37382135686079077, 0.35831751051258487, 0.3455795511829227, 0.3349980903574253, 0.3261119803542645, 0.3185648294834214, 0.3120790046438114, 0.30643869882459224, 0.3014778649168263, 0.29707082240454635, 0.29312435365990497, 0.28957063484469747, 0.28636062838099613, 0.28273198670748106])",-71.63735825831746,-215.56420510307998,-49.456843172139855,0.2863082801047449,-0.005375124272219409,0.3455795511829227,25.000000246604277,-1.0,"[-223.05720067354432, -74.55195347711555, 49.558238643079356]","[-211.20447335813864, -61.01717635450192, 58.294522946363614]","[-203.1879782157731, -76.07984605496962, 47.86131696128685]",10000000000.0,0.013333320617675781
10,0.28176259994506836,-223.1322479248047,-74.69279479980469,49.61016082763672,0.561200976371765,0.02290016971528518,0.4002395431187489,23.136894925626102,"array('d', [-75.15319061279297, -74.17918073027046, -73.25376275103139, -72.36777777014332, -71.51415653104442, -70.68735893067004, -69.88301014284441, -69.09764375785427, -68.3285081889262, -67.57341374225967, -66.83060830591134, -66.09867513544066, -65.37644918098152, -64.66295002323999, -63.957330391586886, -63.39923757844333])","array('d', [-224.43080139160156, -222.12912785587824, -219.80705909338164, -217.46947544927428, -215.1197984881113, -212.76051200416296, -210.39346047355428, -208.02003471420196, -205.64129537064946, -203.2580594842935, -200.87096359715142, -198.48051093535943, -196.08710709243178, -193.69108689622234, -191.2927341417496, -189.37221787631455])","array('d', [-49.599891662597656, -49.542783392354345, -49.50547726892931, -49.48092924392228, -49.464707590951164, -49.45398487540312, -49.446930452162746, -49.44234028826092, -49.439408990381914, -49.437588121200776, -49.43649762767157, -49.435870504046264, -49.43551864387226, -49.43531245394155, -49.43516950062864, -49.435073090346656])","array('d', [0.5936241745948789, 0.4898069857284481, 0.40536937894452363, 0.3367552968869526, 0.2811822733177062, 0.2363690252083709, 0.20039139575098844, 0.17160135196190973, 0.14857949090952224, 0.13010630059453182, 0.11514432252288372, 0.1028268859334561, 0.09245099276766787, 0.08347300068778846, 0.07550635705199138, 0.06832098334804039])","array('d', [-0.027772249653935245, -0.01808020310051439, -0.011869458976598007, -0.007836566503683254, -0.00518508266702304, -0.003422520157799647, -0.002240740634173139, -0.0014446726115010008, -0.0009092973592748248, -0.0005533362479074637, -0.0003229026870898309, -0.00018116075162568162, -0.00010165372140657832, -6.392756909371902e-05, -5.0656468596573434e-05, -4.5835982304012055e-05])","array('d', [0.4125856916096547, 0.3889896627740762, 0.37017132231219163, 0.3549225190660207, 0.3424139430173905, 0.3320405108368804, 0.3233437649955417, 0.3159691493941536, 0.3096404219328076, 0.30414294615479653, 0.2993117440986349, 0.2950221605219472, 0.2911819804015437, 0.2877243597636225, 0.2846012058549391, 0.2810706224602718])",-71.51415653104442,-215.1197984881113,-49.464707590951164,0.2811822733177062,-0.00518508266702304,0.3424139430173905,25.0000002487671,-1.0,"[-221.75115861020097, -74.10848959587072, 49.57581357529907]","[-209.6990808852, -60.450914606847476, 57.83523655331285]","[-201.90834483274722, -75.95007787690503, 47.88132427275144]",10000000000.0,0.02762126922607422
11,0.3032863140106201,-222.6974334716797,-74.54318237304688,49.614627838134766,0.546396732330322,0.020665910094976366,0.3962018052723745,23.14396575075885,"array('d', [-74.84432983398438, -73.88808059166331, -72.97851460735478, -72.10671470493908, -71.26579612988499, -70.45036868486226, -69.65618512017127, -68.8798911533856, -68.11883578185981, -67.37092058730794, -66.6344767298552, -65.90816354060465, -65.19088540652665, -64.48172515556536, -63.77989299090989, -63.202643782635256])","array('d', [-223.5660858154297, -221.25682939423936, -218.92844133227607, -216.58550138730126, -214.23123484481, -211.86798784707202, -209.49750299458157, -207.12109255711073, -204.73975466865886, -202.35425537023136, -199.9651887682964, -197.57302223112592, -195.17813069074373, -192.78082252358038, -190.3813585597026, -188.38537708429382])","array('d', [-49.60631561279297, -49.55519423023543, -49.521846641476365, -49.49995319304779, -49.485536542982366, -49.476058097032144, -49.46987340471335, -49.46590022720134, -49.46341406081374, -49.46192102846777, -49.4610784196779, -49.460645072446425, -49.4604508055411, -49.46037824600032, -49.46035280975144, -49.46034046340113])","array('d', [0.574109077453613, 0.4719171740622724, 0.3889424903923922, 0.3216760549495219, 0.26735816287840797, 0.22371855064258425, 0.18883822542992665, 0.16107153336560293, 0.13900036551648098, 0.12140636816393263, 0.10725361120493569, 0.09567755797910149, 0.08597802367814106, 0.07761484025125272, 0.07020552674070855, 0.06352459329970588])","array('d', [-0.024871563538908875, -0.01617362161305581, -0.010598282877026447, -0.006977117458229196, -0.004595991076011674, -0.0030131888654022798, -0.0019522684856813953, -0.0012381871964100629, -0.0007587443031458466, -0.0004409825367731612, -0.00023651542080324367, -0.000112235597373374, -4.431104154774902e-05, -1.423826274508174e-05, -6.244090899105776e-06, -5.650227145790386e-06])","array('d', [0.40434701839951037, 0.3817405761014535, 0.363744163346006, 0.34920265791217786, 0.3373158454626238, 0.32749602117642784, 0.31929590520205586, 0.31236867138899804, 0.3064438241970462, 0.30131129701242043, 0.29680995489591244, 0.29281850817736327, 0.2892477650160912, 0.2860336322439444, 0.2831305289950172, 0.2799714868295727])",-71.26579612988499,-214.23123484481,-49.485536542982366,0.26735816287840797,-0.004595991076011674,0.3373158454626238,25.0000002465942,-1.0,"[-221.31392880762778, -73.96443022255706, 49.58363117944358]","[-209.19694067325048, -60.24108298631851, 57.63647783047227]","[-201.48024533338616, -75.92250230827088, 47.91301645703045]",10000000000.0,0.01831507682800293
12,0.3216214179992676,-222.26165771484375,-74.39547729492188,49.61986541748047,0.5300482511520382,0.018295964226126622,0.39214845100906837,23.15002802501893,"array('d', [-74.69279479980469, -73.74524240228507, -72.84312014528034, -71.97768658243022, -71.14218879182945, -70.33134157404578, -69.54098511244875, -68.76784028244205, -68.0093220850593, -67.26339085663595, -66.52843048032744, -65.80314780804883, -65.08649015611822, -64.37757917635106, -63.67566020147471, -63.08430322326464])","array('d', [-223.1322479248047, -220.81931844173315, -218.48799663541106, -216.14267978932534, -213.78647570868856, -211.42164925579473, -209.049883602558, -206.67244566749983, -204.29029779138878, -201.90417699796325, -199.51465336074634, -197.12217400404435, -194.72709658402874, -192.32971459078453, -189.9302759384167, -187.88712698021152])","array('d', [-49.61016082763672, -49.5631107760863, -49.53245888207396, -49.512375756682836, -49.499191881695324, -49.49056455911071, -49.48497576944481, -49.48142607422927, -49.47924602480172, -49.47797891777548, -49.477307508275985, -49.47700827083943, -49.47692326318276, -49.476943459326876, -49.476999639765125, -49.47704944255727])","array('d', [0.561200976371765, 0.4602922249842767, 0.37842744276449025, 0.3121453455710738, 0.2587129443665332, 0.21587609086357407, 0.1817262233577313, 0.15462500360465994, 0.1331599402013182, 0.11611739239300682, 0.10246567107668877, 0.09134422620111918, 0.08205669528255172, 0.07406658564416564, 0.06699492354115588, 0.06061951912724831])","array('d', [-0.02290016971528518, -0.014876053419140669, -0.009731917615030736, -0.006390504301229251, -0.0041933003450231945, -0.002732933793189185, -0.0017544252697340179, -0.001096310544590639, -0.000655089658477729, -0.0003634609470574054, -0.0001767808500216592, -6.448245795024033e-05, -4.523894243357734e-06, 2.0267245207657914e-05, 2.460475019139686e-05, 2.2262967361701883e-05])","array('d', [0.4002395431187489, 0.3782705440171417, 0.36079749942461586, 0.3467016649658325, 0.33520301950701953, 0.3257260802165876, 0.3178315300974645, 0.31117809637792004, 0.30549941027222643, 0.3005886489145222, 0.2962873460554012, 0.2924764829153829, 0.289068844568893, 0.28600208342253775, 0.2832321726692684, 0.2802877644430683])",-71.14218879182945,-213.78647570868856,-49.499191881695324,0.2587129443665332,-0.0041933003450231945,0.33520301950701953,25.00000024659078,-1.0,"[-220.8757545428853, -73.82231125283599, 49.592423002223974]","[-208.6938301021052, -60.02557194414521, 57.41870573204865]","[-201.05161620762672, -75.90065248892564, 47.954119925592394]",10000000000.0,0.01653885841369629
13,0.3420066833496094,-222.26165771484375,-74.39547729492188,49.61986541748047,0.5300482511520382,0.018295964226126622,0.39214845100906837,23.15002802501893,"array('d', [-74.54318237304688, -73.60408134691228, -72.70898335108696, -71.84935369094728, -71.0185939912583, -70.21154149790911, -69.42413768216373, -68.6531898341501, -67.89618825352532, -67.15115980124159, -66.4165476491362, -65.69111177871117, -64.97384728431358, -64.2639188876278, -63.56061081764261, -62.97511082691194])","array('d', [-222.6974334716797, -220.38096568613366, -218.04689698830217, -215.69942818335628, -213.3415407681021, -210.97541243516818, -208.60266280222982, -206.22451041712117, -203.8418795269857, -201.45547632064134, -199.06584535581734, -196.67341227058046, -194.27851638280728, -191.88143537405693, -189.48240343436098, -187.46487658416814])","array('d', [-49.614627838134766, -49.57219301988852, -49.54459824205097, -49.52656889361258, -49.514783944953734, -49.507122593333165, -49.50221011185633, -49.499140959226324, -49.49730815561003, -49.49629720031774, -49.495819774176724, -49.495672394081815, -49.495711031841736, -49.49583615365127, -49.495984641051905, -49.49610357535259])","array('d', [0.546396732330322, 0.44705473357404363, 0.3665293648664296, 0.30142042948234377, 0.24903043310104286, 0.20712756048253872, 0.17381837356111374, 0.14747557166394296, 0.12669533986123585, 0.11027131901400136, 0.0971782357370001, 0.08656135980100554, 0.07772966983103037, 0.070151565360458, 0.06345249879758373, 0.057414200378466264])","array('d', [-0.020665910094976366, -0.013404779742069741, -0.008749175430391665, -0.0057248849287115005, -0.0037362842070389614, -0.0024148512052395554, -0.001529899354719971, -0.0009353417824607282, -0.0005375374062690377, -0.0002755965390606551, -0.00010912150746019157, -1.0428955101204044e-05, 4.048973868881276e-05, 5.929401751165799e-05, 5.949259522949888e-05, 5.383074196029383e-05])","array('d', [0.3962018052723745, 0.37495071114409756, 0.3580655900560498, 0.34446886061799936, 0.3334035631528834, 0.3243082975068652, 0.31675299832069703, 0.3104028866140394, 0.3049964333121667, 0.30033061343211936, 0.29625006596239917, 0.2926383887277394, 0.28941061775567545, 0.286506368659516, 0.2838833432770699, 0.2810601863883365])",-71.0185939912583,-213.3415407681021,-49.514783944953734,0.24903043310104286,-0.0037362842070389614,0.3334035631528834,25.00000024658737,-1.0,"[-220.8757545428853, -73.82231125283599, 49.592423002223974]","[-208.6938301021052, -60.02557194414521, 57.41870573204865]","[-201.05161620762672, -75.90065248892564, 47.954119925592394]",10000000000.0,0.015094518661499023
14,0.364804744720459,-221.38880920410156,-74.10639953613281,49.634002685546875,0.4937803447246551,0.013417674228548879,0.38435430923965963,23.15855233187237,"array('d', [-74.39547729492188, -73.46480556332905, -72.57657347432865, -71.72247462120895, -70.89608146173569, -70.0923665863045, -69.30738329599717, -68.5380340906242, -67.78189200680644, -67.03705678249398, -66.30203634704972, -65.57564855733793, -64.856940439919, -64.14512345732915, -63.43952401015751, -62.849835503121625])","array('d', [-222.26165771484375, -219.94170118455455, -217.60497209435584, -215.25546778511935, -212.8960382694533, -210.52877020067794, -208.15521668781557, -205.77654559161905, -203.39364119719255, -201.00717730970158, -198.61767165609348, -196.22552724961855, -193.83106406947715, -191.43454310092338, -189.03618401731597, -187.01273001476085])","array('d', [-49.61986541748047, -49.58232655805331, -49.55797506859825, -49.54212441378225, -49.53182309094191, -49.52518568002485, -49.520989518988564, -49.51842875405633, -49.51696275525766, -49.516221866872144, -49.515948521151394, -49.51596055293124, -49.51612874061697, -49.516363654762216, -49.51660867065868, -49.516801156593594])","array('d', [0.5300482511520382, 0.43248396385074384, 0.3534726286527434, 0.2896833662676314, 0.23845975660650734, 0.19759635539207393, 0.16521794698165174, 0.1397107649622076, 0.11968175597535112, 0.10393362251189012, 0.09144903935315776, 0.08138040997603756, 0.07304316210127734, 0.06591149311117092, 0.05961598344358292, 0.05394277741698092])","array('d', [-0.018295964226126622, -0.011843936759228083, -0.0077065957634419886, -0.005018853656539195, -0.003251708435944584, -0.002077809758019054, -0.0012922258057049732, -0.0007651786972637398, -0.00041348731591541056, -0.00018306726183861077, -3.8028842591729627e-05, 4.624835543496772e-05, 8.761176882702749e-05, 0.0001001110351021534, 9.597075355420003e-05, 8.683757458651336e-05])","array('d', [0.39214845100906837, 0.37167631120650824, 0.35543006574529235, 0.34237583452636833, 0.33178137818431513, 0.3231005210608421, 0.31591327829283106, 0.3098919946895964, 0.30478047660990304, 0.30037989582899854, 0.296538321282717, 0.2931422328167387, 0.29010913446088954, 0.2873807827962962, 0.28491675511711256, 0.2822733070263842])",-70.89608146173569,-212.8960382694533,-49.53182309094191,0.23845975660650734,-0.003251708435944584,0.33178137818431513,25.00000024658391,-1.0,"[-219.99837327456643, -73.54400921464108, 49.613876778107944]","[-207.69227092035072, -59.583988622487766, 56.94038139587909]","[-200.19373330046102, -75.86236617782072, 48.06421343165428]",10000000000.0,0.021074533462524414
15,0.3840610980987549,-220.95175170898438,-73.96485137939453,49.6430549621582,0.4744953513145444,0.010760651901364196,0.3805247108128408,23.16247125249862,"array('d', [-74.10639953613281, -73.19176044028995, -72.31613937234599, -71.47173092109837, -70.65248410181367, -69.8536705383894, -69.07159070357841, -68.30335725541298, -67.54672539065304, -66.79995477560003, -66.06169495603679, -65.33088994061976, -64.60669964170549, -63.888436917153015, -63.17551953853007, -62.58145062567103])","array('d', [-221.38880920410156, -219.06233482359082, -216.72078534701433, -214.36775139931288, -212.00581724008148, -209.63688411740233, -207.26236897891977, -204.88333550352192, -202.50058556146286, -200.11472595931932, -197.7262187375577, -195.3354198022501, -192.94260873944646, -190.5480115520372, -188.15181740699236, -186.13886971600022])","array('d', [-49.634002685546875, -49.60654130005249, -49.588863059656596, -49.57749171152126, -49.57023665133712, -49.5656974272387, -49.562964879265806, -49.56143880952751, -49.560715567943895, -49.560518158645976, -49.5606526146705, -49.5609809090601, -49.56140451027501, -49.561854947988735, -49.56228905977794, -49.56262339139156])","array('d', [0.4937803447246551, 0.4002806822880132, 0.32472081285095644, 0.26392533311946953, 0.2153324026594216, 0.17679888578096753, 0.14649370937923198, 0.1228366040661135, 0.10446154593906203, 0.09019413626360605, 0.0790370891295754, 0.07016063020353483, 0.06289606634023122, 0.05673159612967138, 0.051309876321742234, 0.04642710021442521])","array('d', [-0.013417674228548879, -0.008631735871469353, -0.005562185966654116, -0.003568189175368337, -0.002257728571998578, -0.0013881589345445303, -0.0008075653455999163, -0.0004197598838388143, -0.00016311473900601755, 2.425756946101263e-06, 0.00010345371452987926, 0.00015826739459430335, 0.00018024691451734324, 0.00018010561406931085, 0.00016739584499148865, 0.00015146567647983264])","array('d', [0.38435430923965963, 0.36556341189201425, 0.3507013710001315, 0.3388243764096865, 0.3292519723419295, 0.3214703339131787, 0.31508118078468483, 0.309772375326504, 0.30529945005828607, 0.3014728488779047, 0.2981482282916526, 0.29521842894652606, 0.2926063749234846, 0.2902584945036671, 0.28813843090529406, 0.2858543311851526])",-70.65248410181367,-212.00581724008148,-49.57023665133712,0.2153324026594216,-0.002257728571998578,0.3292519723419295,25.000000246577137,-1.0,"[-219.55912751734095, -73.40777208545238, 49.626914295802706]","[-207.19235043844887, -59.36573504084433, 56.68977634449406]","[-199.76462651922023, -75.8471295340505, 48.134511711589234]",10000000000.0,0.018045425415039062
16,0.4033241271972656,-220.51390075683594,-73.82492065429688,49.653411865234375,0.454883277416229,0.008128054440021397,0.376752928891454,23.16556605310961,"array('d', [-73.96485137939453, -73.05805753226052, -72.18848876355582, -71.34859729483631, -70.53252765894487, -69.73570786591648, -68.95456830007238, -68.18633241854435, -67.42885160588547, -66.68047001495921, -65.93991198499805, -65.20618810913429, -64.47851783987417, -63.75626748258433, -63.03890295417926, -62.44209784888774])","array('d', [-220.95175170898438, -218.62214553938114, -216.27831441620995, -213.9236521437409, -211.56061267908547, -209.1910054566438, -206.81617946800682, -204.43714605658565, -202.05466545205311, -199.6693104289575, -197.28151460029227, -194.8916097113931, -192.4998545401534, -190.10645699492864, -187.7115904032814, -185.70448065231045])","array('d', [-49.6430549621582, -49.62108245908533, -49.6070381280618, -49.59810460039314, -49.59250576133082, -49.58910550292869, -49.58716564978398, -49.58619823445249, -49.58587440354116, -49.58596778920799, -49.58631919948404, -49.586814759572746, -49.587372744272166, -49.58793616664477, -49.588469236786096, -49.58887725302306])","array('d', [0.4744953513145444, 0.3831681592309303, 0.3094568483325336, 0.2502651792212652, 0.20308034635055522, 0.16579204743954185, 0.13659283257888616, 0.11392061345424934, 0.09642420628696412, 0.08294188313760031, 0.07248748988515914, 0.06424115583612135, 0.057542988042783266, 0.0518889019949227, 0.046928152959944375, 0.04246235260220383])","array('d', [-0.010760651901364196, -0.00688228664802478, -0.00439473735014328, -0.002779053530496828, -0.0017177266763647846, -0.001014216858348714, -0.0005454851897552254, -0.00023364913656232872, -2.883234299336338e-05, 0.00010136886063797565, 0.00017847310641530193, 0.00021732680678290825, 0.00022886841612078788, 0.00022198432379843584, 0.00020475914384138295, 0.00018527338849798705])","array('d', [0.3805247108128408, 0.3626048476661348, 0.3484648698104048, 0.33720453401868156, 0.328168848758901, 0.3208601249986456, 0.31489105249419436, 0.30995743411360477, 0.305820867798658, 0.3022966341106335, 0.29924437005654814, 0.29656026331585883, 0.29417009231522506, 0.29202274381207644, 0.29008399762842146, 0.28799041772886985])",-70.53252765894487,-211.56061267908547,-49.59250576133082,0.20308034635055522,-0.0017177266763647846,0.328168848758901,25.00000024657376,-1.0,"[-219.16119895028297, -73.28595968407295, 49.639847867347186]","[-206.74056158423787, -59.1715988841913, 56.45986155002911]","[-199.37609686648585, -75.83283065519316, 48.203469160253576]",10000000000.0,0.016986846923828125
17,0.4264180660247803,-220.0753173828125,-73.68650817871094,49.66518783569336,0.4349711835384366,0.0057110125198958864,0.3732832233097888,23.16856180125514,"array('d', [-73.82492065429688, -72.92585347071567, -72.06220476149385, -71.22668199066842, -70.41362470306517, -69.6186177641022, -68.83822242892924, -68.06977412629679, -67.31122165422362, -66.56099484143687, -65.81789392819536, -65.08099710017481, -64.34958425731024, -63.62307596659712, -62.90098702253611, -62.300744454181746])","array('d', [-220.51390075683594, -218.1812527260038, -215.8352124328722, -213.47898689290443, -211.114904851842, -208.7446866808857, -206.3696149649188, -203.99064959679856, -201.60850965798335, -199.22373413897037, -196.83672831543245, -194.44779975801995, -192.05718635339645, -189.665077786764, -187.27163138840524, -185.26883259508853])","array('d', [-49.653411865234375, -49.6368772975486, -49.62643169295446, -49.6199106313152, -49.61594890921735, -49.61367257993426, -49.61251310368838, -49.61209389996385, -49.61216038030954, -49.612536469113685, -49.61309753884418, -49.6137537370157, -49.614440066156625, -49.61511097435711, -49.6157380096928, -49.6162159711434])","array('d', [0.454883277416229, 0.36575762714985677, 0.293924741928698, 0.2363653440921023, 0.19061477161904097, 0.15459523744499945, 0.12652288236336579, 0.10485392326529694, 0.08825222927091213, 0.07556900268954568, 0.06582949813814346, 0.05822402134645868, 0.05210173169052374, 0.046966480383671086, 0.042474296993592876, 0.038432336704412054])","array('d', [-0.008128054440021397, -0.005149390978192057, -0.003238987542217628, -0.001998560759150169, -0.0011844001231779287, -0.0006456509678597329, -0.00028789808834090504, -5.140998279081269e-05, 0.00010203449947364641, 0.00019724818840471416, 0.00025071565199441927, 0.0002738568455286546, 0.00027518432480307673, 0.0002617660818775303, 0.00024022159718933947, 0.0002173611477412006])","array('d', [0.376752928891454, 0.3597042216347723, 0.34629028741934553, 0.3356521792634106, 0.32715930831468615, 0.3203295969121895, 0.3147864453444597, 0.3102334774230002, 0.30643831338531224, 0.30322106870684945, 0.3004453802107006, 0.2980108110375773, 0.29584602465303855, 0.29390239566579773, 0.29214786712476926, 0.2902503608767012])",-70.41362470306517,-211.114904851842,-49.61594890921735,0.19061477161904097,-0.0011844001231779287,0.32715930831468615,25.0000002465704,-1.0,"[-218.67863757220513, -73.13950532479188, 49.656621363480554]","[-206.19785397248117, -58.936988247323974, 56.17724628760353]","[-198.90448258689383, -75.80803226980679, 48.29215862649648]",10000000000.0,0.021787405014038086
18,0.44382286071777344,-220.0753173828125,-73.68650817871094,49.66518783569336,0.4349711835384366,0.0057110125198958864,0.3732832233097888,23.16856180125514,"array('d', [-73.68650817871094, -72.79448015919104, -71.93605286132313, -71.10418961243509, -70.29342631160921, -69.49950623745777, -68.7191230237446, -67.94972539357116, -67.18936064097377, -66.43654510767027, -65.69015555111552, -64.94933818467318, -64.21343365507121, -63.48191699792747, -62.75435203658482, -62.14998518439662])","array('d', [-220.0753173828125, -217.73993471261485, -215.3919641703345, -213.0344375596972, -210.66956475019933, -208.29898082656592, -205.92390437764183, -203.54524546245258, -201.1636831343957, -198.7797233909228, -196.39374373362133, -194.0060279591178, -191.61679334483324, -189.22621154671927, -186.83442402549926, -184.83589969742104])","array('d', [-49.66518783569336, -49.65364466147361, -49.646499383068715, -49.64218764488547, -49.63972202194119, -49.638469686893956, -49.63801818574712, -49.63809347597881, -49.63850937330626, -49.63913615942574, -49.63988109699579, -49.640676522651454, -49.64147290861471, -49.642235286433184, -49.64294199005359, -49.643478975678974])","array('d', [0.4349711835384366, 0.34810829948760724, 0.27820563170998946, 0.22232101251001107, 0.17803876156527826, 0.14331466106854207, 0.11638954565395244, 0.09573901940257039, 0.08004302729922312, 0.06816664049375573, 0.05914735771187407, 0.052186379004621274, 0.04664250588127411, 0.04202797916721276, 0.03800591479220476, 0.03438917692442564])","array('d', [-0.0057110125198958864, -0.003559453657326679, -0.00217979274063441, -0.0012845342916746297, -0.0006977530717630835, -0.0003105739235134283, -5.489227239099936e-05, 0.00011233477711967923, 0.0002186101977403955, 0.00028176514814050524, 0.00031365295908753767, 0.00032253932824432365, 0.000314700219964566, 0.0002955219718742295, 0.0002702623133676029, 0.00024454311348289914])","array('d', [0.3732832233097888, 0.3571040393476679, 0.3444171905894081, 0.3344032580876021, 0.3264552966694258, 0.320106522978141, 0.31499093985144144, 0.3108199847832911, 0.30736733830020574, 0.3044580040326494, 0.3019596708378374, 0.29977532034977433, 0.2978365318238985, 0.2960971863588773, 0.2945273990552235, 0.2928273378251161])",-70.29342631160921,-210.66956475019933,-49.63972202194119,0.17803876156527826,-0.0006977530717630835,0.3264552966694258,25.000000246567286,-1.0,"[-218.67863757220513, -73.13950532479188, 49.656621363480554]","[-206.19785397248117, -58.936988247323974, 56.17724628760353]","[-198.90448258689383, -75.80803226980679, 48.29215862649648]",10000000000.0,0.015693187713623047
19,0.49191927909851074,-218.3150634765625,-73.1457748413086,49.728763580322266,0.3559291660785673,-0.002016269834712276,0.3599870959904529,23.175725117636606,"array('d', [-73.41377258300781, -72.53556098441223, -71.6873454749432, -70.86258135360474, -70.0561864389729, -69.26421512807303, -68.48362305242077, -67.71208446746566, -66.94784355752344, -66.1895900910941, -65.43635449468172, -64.68741975169335, -63.942248714747286, -63.20042602757879, -62.46161418643303, -61.84979387710983])","array('d', [-219.1962432861328, -216.85559660988716, -214.50390315883746, -212.143877007949, -209.7775079639769, -207.4062707483382, -205.03126212835846, -202.65329632500718, -200.2729747266901, -197.89073881151722, -195.5069113863957, -193.1217291377558, -190.73536827685172, -188.34796435579034, -185.959626913695, -183.97301414847843])","array('d', [-49.694114685058594, -49.691523916457605, -49.69028714240252, -49.68991943437963, -49.6901133468524, -49.690670313382036, -49.691459169408965, -49.692390794184384, -49.693402480076614, -49.694448292100546, -49.69549322448148, -49.696509865738335, -49.69747681154756, -49.69837836165909, -49.69920518483554, -49.69982920470284])","array('d', [0.3949730992317198, 0.3126021909604051, 0.2465514069516183, 0.19402104113873717, 0.15268702633122774, 0.12056862141772431, 0.09595388116797045, 0.07735591732373194, 0.06348612988455202, 0.05323699758543448, 0.045670409686376194, 0.040009397231863565, 0.03563216345629328, 0.03206787492064176, 0.028993962975228393, 0.026234824972558732])","array('d', [-0.0013733715750275269, -0.0007103049659293243, -0.00028618940824719403, -1.25419929396689e-05, 0.00016471497086809528, 0.00027895254222932, 0.0003509315308844445, 0.00039365557733442855, 0.0004153315523142001, 0.0004212198546471854, 0.00041483261846898085, 0.00039874871372671644, 0.0003752007731821261, 0.00034651781593111354, 0.00031545886219523216, 0.0002854386352710468])","array('d', [0.36648853222397354, 0.3520174220862217, 0.3407707122026188, 0.33200001566939447, 0.3251415636356242, 0.31975691337111856, 0.3154999995846698, 0.3120971582347052, 0.30933377772608844, 0.30704441212304406, 0.30510473855693865, 0.3034245233647092, 0.30194116027279905, 0.300613544493852, 0.29941614494526847, 0.2981136890000885])",-70.0561864389729,-209.7775079639769,-49.6901133468524,0.15268702633122774,0.00016471497086809528,0.3251415636356242,25.000000246561115,-1.0,"[-217.35374258968716, -72.74629563995612, 49.71142016182912]","[-204.71625099357206, -58.32579259014454, 55.39850183422449]","[-197.61038166173702, -75.7210453529179, 48.54928272850798]",10000000000.0,0.026615619659423828
20,0.513592004776001,-217.8738555908203,-73.0132827758789,49.74814224243164,0.3370106816291806,-0.003248828928917787,0.35678775707748894,23.176584308045832,"array('d', [-73.27923583984375, -72.40766544534176, -71.56433705570451, -70.74293803597175, -69.93856852843416, -69.14743292550848, -68.3666141470806, -67.59389664551836, -66.82762119269925, -66.06656286165526, -65.30982779189952, -64.55676641918913, -63.806901895736, -63.05987295973678, -62.31539080695772, -61.69908994480425])","array('d', [-218.75587463378906, -216.41274312981798, -214.05929099584768, -211.69809069398704, -209.3310319784143, -206.95951555967716, -204.58458130564495, -202.20699821961017, -199.8273307203445, -197.4459893299886, -195.06327042726772, -192.67938779184865, -190.29449755570036, -187.90871753056834, -185.52214150062736, -183.53908960428296])","array('d', [-49.710731506347656, -49.71191966297253, -49.713170641662174, -49.71445709068905, -49.7157600104839, -49.71706517180603, -49.7183608995033, -49.719636693992435, -49.720882404783325, -49.722087814904725, -49.72324258269809, -49.724336538691134, -49.72536035904372, -49.72630663557688, -49.72717133450886, -49.72782276478195])","array('d', [0.37527331709861733, 0.2950894811830057, 0.23092358611915229, 0.1800403895136474, 0.14015776653724477, 0.10932435361945608, 0.08585031247040663, 0.06826652968098652, 0.05529948820592002, 0.04585494413759971, 0.03900669873488551, 0.03398850882577293, 0.030188149163470023, 0.027143157968192416, 0.024538056342953956, 0.022202953555339303])","array('d', [0.00045910367043699, 0.0004908913736807282, 0.0005095798489384914, 0.0005194153323703939, 0.0005228630260166165, 0.0005212922721485166, 0.0005153884100934716, 0.000505413614995574, 0.0004913890076895497, 0.00047324184834246323, 0.0004509443768136311, 0.0004246589313214071, 0.000394893906876888, 0.0003626649757472756, 0.00032964502213776156, 0.00029827479320148514])","array('d', [0.3632280389454701, 0.34958095635605047, 0.3390344610170862, 0.33087144298067256, 0.32454745210030345, 0.319636918244496, 0.31580296675127106, 0.31277890565523864, 0.3103556770475485, 0.30837241734911625, 0.3067086709372814, 0.3052775103450291, 0.30401917560247504, 0.30289502373775373, 0.301881665214172, 0.3007783527110017])",-69.93856852843416,-209.3310319784143,-49.7157600104839,0.14015776653724477,0.0005228630260166165,0.32454745210030345,25.000000246558123,-1.0,"[-216.9112142761072, -72.61738268072206, 49.73178798302513]","[-204.22357440432728, -58.13493174760881, 55.14311032178746]","[-197.17834559650677, -75.68472141356644, 48.63391423270683]",10000000000.0,0.02015233039855957
21,0.5346436500549316,-217.8738555908203,-73.0132827758789,49.74814224243164,0.3370106816291806,-0.003248828928917787,0.35678775707748894,23.176584308045832,"array('d', [-73.1457748413086, -72.28083927926372, -71.44243557847354, -70.62447153461665, -69.8222220477898, -69.03203638436094, -68.25112117008435, -67.47736847229132, -66.70921373425513, -65.94551586836558, -65.18545557193612, -64.42844979360729, -63.67408119771313, -62.92204193808996, -62.17209131066147, -61.55003718361894])","array('d', [-218.3150634765625, -215.96947617994422, -213.61426567496588, -211.2518733703465, -208.8840952819292, -206.51226211673753, -204.13735949995694, -201.76011303408868, -199.38105143780754, -197.00055517728558, -194.6188948468121, -192.23626178152364, -189.85279236538042, -187.46858690490464, -185.0837235926788, -183.0995566178129])","array('d', [-49.728763580322266, -49.73316000612472, -49.736517256733514, -49.73919835724622, -49.74143052082639, -49.74335694908204, -49.74506807719688, -49.746620644251884, -49.748049496986326, -49.74937504640014, -49.75060814547163, -49.7517534810928, -49.752812167926876, -49.75378397629137, -49.75466944909073, -49.75533699473557])","array('d', [0.3559291660785673, 0.27786332307965245, 0.21553084544567275, 0.166255474134508, 0.12779363120532658, 0.09822106660116532, 0.07586845886008341, 0.059283310747961636, 0.04720632141658794, 0.03855586391224387, 0.03241714263409156, 0.02803424687841428, 0.024804221251022888, 0.02227274975945497, 0.020131282754299325, 0.018215539558474325])","array('d', [0.002016269834712276, 0.001509329399089716, 0.0011819334962974769, 0.0009665404922089351, 0.0008216083498862087, 0.0007212092495469422, 0.000648899604923169, 0.0005940687940455541, 0.0005497527250154235, 0.0005113278490787039, 0.00047574503119176355, 0.0004411014141593384, 0.0004064265179033136, 0.00037160114507525703, 0.0003373485115854026, 0.0003052451873473478])","array('d', [0.3599870959904529, 0.34713942492234673, 0.33727602476332297, 0.32970817526918905, 0.3239091287846691, 0.31946522034701996, 0.3160481585903337, 0.313397828988672, 0.31131046419619607, 0.30962960397806416, 0.3082385361318887, 0.3070535524851286, 0.3060176775095749, 0.30509468523893496, 0.3042632943415102, 0.30335938844706656])",-69.8222220477898,-208.8840952819292,-49.74143052082639,0.12779363120532658,0.0008216083498862087,0.3239091287846691,25.00000024655512,-1.0,"[-216.4683276330178, -72.4893864011846, 49.75301547725226]","[-203.73133123516317, -57.95076663944278, 54.89086115268165]","[-196.74604623923904, -75.6445413262012, 48.71541535015502]",10000000000.0,0.019636154174804688
