,current_time,x_pos,y_pos,z_pos,roll,pitch,yaw,vel,x_traj,y_traj,z_traj,roll_traj,pitch_traj,yaw_traj,x_cmd,y_cmd,z_cmd,roll_cmd,pitch_cmd,yaw_cmd,vel_cmd,effector_dmg,effector_x,effector_y,effector_z,cost,time_solution
0,4.927225351333618,-252.0313262939453,-249.85903930664062,50.09409713745117,0.6326650381088252,0.035204846411943484,2.5323462049153185,23.12768350029433,"array('d', [-253.46124267578125, -252.64374724339123, -251.76508994040978, -250.82581628965372, -249.82694052177777, -248.76993796531536, -247.65673421332775, -246.4898103088577, -245.27286622361643, -244.01151052537304, -241.8578185243281, -239.67149892707803, -237.45725261729916, -235.2191188742286, -232.96050687018842, -231.135904204682])","array('d', [-247.27456665039062, -248.53123615279372, -249.74605160500238, -250.91475655685727, -252.03306557740862, -253.09670785467813, -254.10146929321243, -255.04338417580715, -255.91980270516822, -256.7311007384692, -258.00019023706966, -259.2122973946614, -260.3726760171506, -261.48634161445455, -262.5579126141758, -263.38206311609724])","array('d', [-50.0981330871582, -50.05299462122931, -50.0116102928114, -49.9742398039741, -49.940902639808264, -49.9114435749332, -49.88559162805776, -49.86300944283593, -49.843332396464056, -49.82619840723737, -49.801277300420494, -49.77938497534151, -49.75998052291602, -49.74263444478565, -49.72702086730432, -49.71571955223021])","array('d', [0.6328664422035215, 0.6473817430728898, 0.6605157316231747, 0.6723998569878827, 0.6831530592722893, 0.6928829599436914, 0.7016869389401701, 0.702973647910686, 0.6800955829826645, 0.6394958108146261, 0.5902246670262841, 0.5398302582793267, 0.4908445100177033, 0.444832056219165, 0.4025875127316715, 0.3642762785512502])","array('d', [-0.031300872564315886, -0.028932361922556243, -0.026297713046116014, -0.023580112296915576, -0.02091753077715677, -0.018405661579236673, -0.01610371658276405, -0.01404141024066993, -0.012225697693149953, -0.010646465454736726, -0.009312996405059311, -0.008219332694571849, -0.007319398190895261, -0.006570076032004708, -0.005931519637131986, -0.005367061401253613])","array('d', [2.5890850583699088, 2.540365630971136, 2.4902270198603897, 2.438778131077529, 2.386121252878333, 2.3323522256676865, 2.2775606332320373, 2.222212719840773, 2.1680838299927427, 2.1173722324986652, 2.0896775332721256, 2.064816047292838, 2.0426062942522853, 2.0227948013699977, 2.005109858244357, 1.9853599659468424])",-248.76993796531536,-253.09670785467813,-49.9114435749332,0.6928829599436914,-0.018405661579236673,2.3323522256676865,14.999999850073769,-1.0,"[-252.9901321665781, -249.22274152709997, 50.04238277545737]","[-272.91027429258764, -248.30990920555016, 51.57687775176506]","[-261.52779837016357, -234.8153231199997, 60.97556852522413]",10000000000.0,0.15377354621887207
1,5.07647705078125,-254.50637817382812,-247.8085479736328,50.084739685058594,0.6348815560340877,0.033857818692922696,2.502195374169622,23.115278099593407,"array('d', [-251.27503967285156, -250.41433879174107, -249.49399710647324, -248.51470344146747, -247.47761668555745, -246.38435626676608, -245.2369896277003, -244.03814095591747, -242.79163823868657, -241.50309013604505, -239.30708867411883, -237.08051544186702, -234.82787324225922, -232.553013283516, -230.259172980707, -228.40946688251518])","array('d', [-250.22665405273438, -251.45399242378653, -252.63743107441297, -253.77273017924006, -254.8556375563048, -255.8819323623946, -256.8474668378929, -257.7483755351958, -258.58220259151744, -259.3495683550019, -260.5439394382067, -261.68040169529155, -262.764353870527, -263.80093173546487, -264.79485303480647, -265.55558249102705])","array('d', [-50.0985221862793, -50.04964245276915, -50.0052325609378, -49.96544705126713, -49.930202741693506, -49.89925024921714, -49.872236181041586, -49.84875370681797, -49.8283815114045, -49.81071265748299, -49.78510394688184, -49.76266940203194, -49.74282072007278, -49.72509586027417, -49.70914818378362, -49.697618027800246])","array('d', [0.6324993371963498, 0.6470495726959627, 0.6602151714097407, 0.672127898835757, 0.6829069813378084, 0.6926602994006306, 0.7014854673309117, 0.7021783857393983, 0.6789535108434651, 0.6382228579396546, 0.5889552227100017, 0.538622264232634, 0.48972670319133516, 0.4438133199743509, 0.4016648077534965, 0.3634413804855615])","array('d', [-0.03405705839395531, -0.031175552012915834, -0.028097660505502674, -0.025007479649753868, -0.02203879936211365, -0.01928015325503688, -0.01678223171219035, -0.014565991019783698, -0.012630070865490551, -0.010956861314506976, -0.009553871608329484, -0.008413037351383986, -0.007481613465967147, -0.006711244669223879, -0.006057882533775521, -0.005481399288736483])","array('d', [2.5542309443142748, 2.5055470284069763, 2.455441228101465, 2.404022610448088, 2.351393620873351, 2.2976502526232245, 2.2428822374735504, 2.187590802397391, 2.133568778917745, 2.0829835863447452, 2.055363571424528, 2.0305701613672777, 2.0084206180286834, 1.9886616910385093, 1.971022540807933, 1.9513023055818828])",-246.38435626676608,-255.8819323623946,-49.89925024921714,0.6926602994006306,-0.01928015325503688,2.2976502526232245,14.999999850082922,-1.0,"[-255.36375256473679, -247.21637741581515, 50.03401877722326]","[-275.22629819617384, -245.825859768487, 51.917032773865365]","[-263.36015039402145, -232.61150183764823, 61.11351475412019]",10000000000.0,0.14824724197387695
2,5.187161684036255,-256.5649108886719,-245.98291015625,50.072147369384766,0.6523021459579466,0.019043136388063563,2.48638762632874,23.017972801309217,"array('d', [-249.28102111816406, -248.3827047596886, -247.42609772569762, -246.4120270484315, -245.34178978737194, -244.21714185658936, -243.0402840866875, -241.81399997939667, -240.54239649514543, -238.36953453868657, -236.1623710172854, -233.92578297446323, -231.66408397935996, -229.38097025663924, -227.07955371046378, -225.21884876574933])","array('d', [-252.7456512451172, -253.94565277939796, -255.09992240546924, -256.2042366879199, -257.2543760396234, -258.2461681072017, -259.175528896136, -260.03872704969325, -260.833763366341, -262.06963276751543, -263.2432682324969, -264.3599082712076, -265.42484740092823, -266.44312822718075, -267.4193878581856, -268.1687535809711])","array('d', [-50.091556549072266, -50.04078407300309, -49.99504697756983, -49.954390769269466, -49.91863592015462, -49.887452288865845, -49.8604219749229, -49.837089104405806, -49.816997242095866, -49.788140098114866, -49.76311862251807, -49.7412133851185, -49.72184192760775, -49.70454783811169, -49.68898950769258, -49.67770794435114])","array('d', [0.6327596306800839, 0.6472850960010696, 0.6604282817283514, 0.6723207290437104, 0.6830814613411557, 0.6928181754507573, 0.7016283195015709, 0.7001121200985477, 0.6715938429523732, 0.62786536573641, 0.5794473169432126, 0.5299614900797481, 0.4818698448165388, 0.4366990737409046, 0.39522702137136956, 0.3576162299500256])","array('d', [-0.03553113341331489, -0.03223347774969874, -0.02881581353877167, -0.02545519164312007, -0.022275520078481662, -0.019354395913599116, -0.01673173545628416, -0.014418608165224622, -0.012404939525321554, -0.01070957297511701, -0.009330941422767603, -0.008212137361971615, -0.007300393809598753, -0.006547547303303091, -0.005909835762360551, -0.005347441018211989])","array('d', [2.52322252193955, 2.474513428740219, 2.4243843657811315, 2.372944285980111, 2.3202955233516316, 2.2665339627971766, 2.2117492311856823, 2.1565676080857044, 2.103064925619418, 2.073266288069676, 2.0462251472609654, 2.021927684581082, 2.0002034537110096, 1.9808112757884075, 1.9634906689010476, 1.9441757599469687])",-244.21714185658936,-258.2461681072017,-49.887452288865845,0.6928181754507573,-0.019354395913599116,2.2665339627971766,14.99999985008384,-1.0,"[-257.5855945053165, -245.22485120507082, 50.04218228021331]","[-277.4111345606365, -243.40144978475035, 51.94564459275749]","[-265.24399291044483, -230.61750215104857, 61.35475437864802]",10000000000.0,0.10944867134094238
3,5.340700626373291,-259.2005615234375,-243.4546661376953,50.05924606323242,0.681040048599243,-0.009422086179256375,2.4671347896244864,22.647366025731934,"array('d', [-247.50885009765625, -246.5812490062117, -245.5961074525424, -244.55442378332845, -243.4576628273286, -242.30774374125653, -241.10702518012152, -239.8584411146082, -238.5662154977721, -236.36124156067606, -234.12357164965738, -231.857961371626, -229.56859457352803, -227.25904028663635, -224.93229157154218, -223.0534648327462])","array('d', [-254.85379028320312, -256.031490255444, -257.1616729858723, -258.2401255121673, -259.2626561977198, -260.22513690736406, -261.12354304156634, -261.95422847726275, -262.7153460397602, -263.89304888977165, -265.007486580978, -266.0640542985364, -267.0681795434428, -268.02501564974125, -268.9392913160844, -269.63800596352627])","array('d', [-50.0828857421875, -50.036775909299486, -49.99549473231403, -49.959001790150175, -49.92706771651367, -49.89934172439884, -49.87540730918623, -49.85482538786283, -49.837165965785914, -49.8118868571453, -49.790028768933766, -49.77093224711901, -49.75406774692617, -49.739023420431266, -49.725493404160545, -49.71569012349937])","array('d', [0.6365395188331601, 0.6507052805477771, 0.6635229929631303, 0.6751209398206057, 0.6856151970599874, 0.6951107945442293, 0.7037027672304811, 0.7017055578163752, 0.672839313783704, 0.6288722182650694, 0.580284698822133, 0.5306798604740824, 0.48250269598547046, 0.43726646411816417, 0.395739745197433, 0.35808016169499063])","array('d', [-0.032369080930948355, -0.02917371479879734, -0.025928958713949905, -0.022785557486462236, -0.019845486478311563, -0.017169264567008482, -0.014784435000400732, -0.012693868070553784, -0.010882787877792685, -0.00936614602507513, -0.008140986368428221, -0.007152863974935857, -0.006352195477954923, -0.00569431324287584, -0.005139016106963407, -0.004649974488282665])","array('d', [2.498852686085973, 2.449776925773499, 2.399309146469362, 2.34755662651089, 2.294620066008873, 2.240593761831703, 2.185565804125765, 2.130178971776229, 2.076521297464649, 2.046652948796936, 2.019558418105782, 1.9952187166546609, 1.9734598444196438, 1.954038366250418, 1.9366924417043268, 1.9173364350264488])",-242.30774374125653,-260.22513690736406,-49.89934172439884,0.6951107945442293,-0.017169264567008482,2.240593761831703,14.999999850092912,-1.0,"[-260.1176568191065, -242.77631097800847, 50.07002911597081]","[-279.89703847951864, -240.38674033443772, 51.821032620004225]","[-267.444605085873, -228.25844504299477, 61.71251157415368]",10000000000.0,0.15232348442077637
4,5.494559288024902,-261.3800964355469,-241.19381713867188,50.06672668457031,0.695577025413513,-0.024340605363249588,2.445266381898198,22.19279316601708,"array('d', [-245.04888916015625, -244.09754870179268, -243.08678870260377, -242.01819115571962, -240.8937833417993, -239.71602456507696, -238.48779000217942, -237.21248920834, -235.89472524084263, -233.64909608436497, -231.37231007083946, -229.06911730371954, -226.74364985195874, -224.39939803326996, -222.03926368736794, -220.13638663008498])","array('d', [-257.56549072265625, -258.7249375900965, -259.83296880835013, -260.88533263235564, -261.8778427222472, -262.8064168161459, -263.66711401898334, -264.4563994595718, -265.1725747802824, -266.2710371648197, -267.30341949750743, -268.27550815399167, -269.19307284731957, -270.0615564297431, -270.88592934376163, -271.5107965016886])","array('d', [-50.06522750854492, -50.053768660541316, -50.04352873366001, -50.03449127684504, -50.02659328863997, -50.019742627251716, -50.0138321132837, -50.00875024927551, -50.00438892593844, -49.99814203652711, -49.992735828718885, -49.98800808963698, -49.98382936467787, -49.980099417379996, -49.97674393557818, -49.97431460563118])","array('d', [0.6639856100082397, 0.6755395330714185, 0.6859939559310029, 0.6954535097750638, 0.7040128688261778, 0.7117576978710152, 0.7187655096196415, 0.7160887131948236, 0.6861727976929266, 0.641027384259871, 0.5913004545811829, 0.5406415276045704, 0.4915089562583865, 0.44541228088745194, 0.40310985082798517, 0.3647489096484724])","array('d', [-0.008050315082073328, -0.007241785976051894, -0.006425179061283084, -0.0056379689282487384, -0.004904959076595736, -0.004240374713130334, -0.0036501768401631216, -0.003134261438984655, -0.0026882844281063104, -0.0023154518701729706, -0.0020145375701596745, -0.0017717068216846353, -0.0015745634188282565, -0.001412105619602136, -0.0012745748896071682, -0.0011532831583018757])","array('d', [2.4802658716824393, 2.4284665211224064, 2.375486832130644, 2.3214208617984116, 2.2663564683937825, 2.210375529708481, 2.153554180178623, 2.0964934868058385, 2.0413021539065728, 2.010636174489237, 1.982864808875068, 1.9579514333171544, 1.9357034532280024, 1.9158613169902703, 1.8981503505784538, 1.8783792290957015])",-239.71602456507696,-262.8064168161459,-50.019742627251716,0.7117576978710152,-0.004240374713130334,2.210375529708481,14.999999850101833,-1.0,"[-262.2290312474448, -240.56071972504643, 50.099192167813776]","[-281.93696668174425, -237.67692022451604, 51.91054010739547]","[-269.1607475860092, -226.04127467217026, 61.9793026032512]",10000000000.0,0.1520695686340332
5,5.6510889530181885,-263.7391662597656,-238.58128356933594,50.08212661743164,0.700138986110687,-0.026994204148650024,2.4204609553006033,21.65844402162732,"array('d', [-242.8154754638672, -241.84070294231535, -240.80516107673688, -239.71095963978462, -238.560635362398, -237.35713568632323, -236.10380001023023, -234.80446444674408, -233.46407262945522, -231.18287598433764, -228.8721847899453, -226.53671102981292, -224.18050868851554, -221.80696925145344, -219.4188883098724, -217.47203638636873])","array('d', [-259.8326721191406, -260.9723279897116, -262.0571006007042, -263.0827070072132, -264.0449701899032, -264.93985661132655, -265.76351169262057, -266.51251878393185, -267.1853471369446, -268.2078556708251, -269.1619049734182, -270.05362701213437, -270.88908997965916, -271.673986686527, -272.4134945991613, -272.9761902238771])","array('d', [-50.05965805053711, -50.08096374646369, -50.09972402891327, -50.11604080892359, -50.13009343500361, -50.14210462682784, -50.152314046266696, -50.16095912395774, -50.16826203123701, -50.178556789053104, -50.18733797782672, -50.19492815288655, -50.20158090340608, -50.20748921634501, -50.21279258519304, -50.21667564663142])","array('d', [0.6863516569137571, 0.695777171038297, 0.7043057296748672, 0.7120226893500388, 0.719005283849865, 0.7253233972000402, 0.7310402630863935, 0.7276698097675585, 0.6968205630817763, 0.6506831345876252, 0.6000206974949565, 0.5485114667339863, 0.4986173036507428, 0.4518394660266283, 0.4089247281983768, 0.3700104287511017])","array('d', [0.015076076611876365, 0.013361086471086763, 0.011681300992612657, 0.01010119654147924, 0.008659956887018023, 0.007376547779036895, 0.00625482991712686, 0.005288131178039166, 0.0044628841337981855, 0.0037842661706605774, 0.003249618298381364, 0.002829538824375924, 0.002498195313605619, 0.002232885303501335, 0.002013473154793497, 0.0018218660140487493])","array('d', [2.460982338586126, 2.4068788857026715, 2.35178006393308, 2.295767539800794, 2.2389172453332207, 2.181299631213187, 2.1229799315919085, 2.064531450182356, 2.0080839857133457, 1.9767711681849556, 1.9484550762758446, 1.9230825581846829, 1.9004446092173028, 1.8802679232376251, 1.8622671271357525, 1.8424148202099422])",-237.35713568632323,-264.93985661132655,-50.14210462682784,0.7253233972000402,0.007376547779036895,2.181299631213187,14.9999998501133,-1.0,"[-264.5802087919604, -237.92248164029007, 50.121508395102936]","[-284.1957868764743, -234.6215729251636, 52.20311788411379]","[-271.04144051784203, -223.33267737330397, 62.17928995040963]",10000000000.0,0.15521454811096191
6,5.810897588729858,-265.6985168457031,-236.2895050048828,50.08467483520508,0.701844751834869,-0.02387555502355091,2.3994153896954398,21.217615414234686,"array('d', [-240.21690368652344, -239.2131863386702, -238.1488112877981, -237.0262519526009, -235.84839603560525, -234.61852620064872, -233.34029888053163, -232.01795595999565, -229.7616962514947, -227.47188955847102, -225.15356696790158, -222.81128316293453, -220.44895939021742, -218.06987814016014, -215.67674634556323, -213.74240466195806])","array('d', [-262.27978515625, -263.393583185107, -264.449715994015, -265.44391451464605, -266.3720461841326, -267.23015197921177, -268.0144803919619, -268.72197285077567, -269.7982074524254, -270.80119618436197, -271.736478685235, -272.61010034194385, -273.42804845613375, -274.19594512012065, -274.91890756829883, -275.4638067512646])","array('d', [-50.07288360595703, -50.11068746868035, -50.14376814627554, -50.17236434430737, -50.19683998327388, -50.217623519061576, -50.23516194742691, -50.249888259078205, -50.27046764292716, -50.28782710543642, -50.30264019234541, -50.315448763140225, -50.326678580725776, -50.33665359288176, -50.34560801739667, -50.35210976416708])","array('d', [0.6983588337898252, 0.7066417149449157, 0.7141363764219968, 0.7209178271761255, 0.7270539381226128, 0.7326061214105708, 0.73762994505358, 0.725398545202478, 0.689306156218677, 0.6436940821459705, 0.5936070468789619, 0.542670723994844, 0.4933194412547086, 0.44704258322465495, 0.40458398980577615, 0.36608276587578786])","array('d', [0.02683354914188381, 0.02363039578821803, 0.020532448644226375, 0.017646285960715193, 0.015032952888696055, 0.012717940424634006, 0.010700817424052534, 0.008963563738298902, 0.007524142948271601, 0.006382582778248719, 0.00548296381079695, 0.004775735739455806, 0.004217461691327625, 0.0037700331928949282, 0.003399699607328066, 0.003076175691777431])","array('d', [2.4357433478024344, 2.380369268624215, 2.3241042637518206, 2.2670226362652164, 2.2091932842699986, 2.150679968385324, 2.091541585900267, 2.032846113933845, 1.9993125625007362, 1.968462887878741, 1.9405448186444754, 1.9155119280221635, 1.893164302612676, 1.8732373430694473, 1.8554530324357499, 1.8356689613223105])",-234.61852620064872,-267.23015197921177,-50.217623519061576,0.7326061214105708,0.012717940424634006,2.150679968385324,14.999999850108134,-1.0,"[-266.8036998306657, -235.27595272766456, 50.12048476531933]","[-286.32226888956006, -231.66318145274573, 52.564527647163736]","[-272.80823852664986, -220.61531840080838, 62.327503901154046]",10000000000.0,0.15875720977783203
7,5.992670774459839,-268.3403015136719,-233.0120391845703,50.05830764770508,0.7113524675369264,-0.022122865542769377,2.3650092045452933,20.651750743392693,"array('d', [-237.926025390625, -236.8986434586586, -235.81163706062773, -234.66761524211927, -233.46959569083538, -232.22098460024807, -230.9255547642585, -229.58765133839654, -227.3077132149666, -224.99586258198073, -222.65701940040137, -220.295608124563, -217.91541705270382, -215.51960213583536, -213.11075448365662, -211.1739292147833])","array('d', [-264.3094482421875, -265.40148142317844, -266.434331770342, -267.4037796861336, -268.3057547489144, -269.13637183020967, -269.89196417446124, -270.56958335049376, -271.5947224866172, -272.54581546253735, -273.42854349008906, -274.2490695920516, -275.01347619473023, -275.72746162143375, -276.39620427636567, -276.89478394105316])","array('d', [-50.0843620300293, -50.12136121470308, -50.15357996668011, -50.18130649608765, -50.20493917863817, -50.22492824512441, -50.24173244415246, -50.25578905974276, -50.27535908386603, -50.29181087028947, -50.30580990067909, -50.31788832835875, -50.32846210554996, -50.337846160952445, -50.34626694939395, -50.35235134521781])","array('d', [0.7004110217094419, 0.7084986115316294, 0.7158165660872737, 0.7224381257923751, 0.7284295613217839, 0.7338508368670297, 0.7387562102752865, 0.726074435634316, 0.6896976092603433, 0.6439051698700347, 0.5937139927756147, 0.5427241164449107, 0.493349326829641, 0.4470641168010899, 0.4046027777143946, 0.36609976588005194])","array('d', [0.0263262577354907, 0.023065412156588867, 0.0199482461153134, 0.017070583606158814, 0.01448412004418994, 0.012206754541980279, 0.010232255310101343, 0.008538431920752449, 0.0071410593572134775, 0.006038852323900518, 0.005174844130408043, 0.0044992066715531746, 0.003968690385068595, 0.00354562905285101, 0.0031968330183550224, 0.0028926143945704266])","array('d', [2.414410547414098, 2.358816845029664, 2.3023504506381793, 2.2450843538856167, 2.1870862024562, 2.1284185714982997, 2.069139238817903, 2.0103376250431837, 1.9767678763514118, 1.9458990896210546, 1.9179716325056706, 1.8929343227376452, 1.8705845372591015, 1.8506563102192024, 1.8328710464608289, 1.8129904200419305])",-232.22098460024807,-269.13637183020967,-50.22492824512441,0.7338508368670297,0.012206754541980279,2.1284185714982997,14.999999850120686,-1.0,"[-269.1587911416124, -232.29276114978964, 50.095340054517266]","[-288.5362892225689, -228.27423773354144, 52.98740465884289]","[-274.57681549059726, -217.6162874899759, 62.55512067323607]",10000000000.0,0.1804962158203125
8,6.14862585067749,-270.3129577636719,-230.38064575195312,50.02024459838867,0.7222501635551449,-0.025690065696835324,2.3312733332302904,20.242929334833708,"array('d', [-234.650146484375, -233.58892837394674, -232.46945479460294, -231.294576760737, -230.06754219440006, -228.7919749152915, -227.4718518544875, -226.11169884246348, -223.79805883609265, -221.45496824865998, -219.08718672782928, -216.69894750689105, -214.2938416818004, -211.87483624039, -209.44434849777178, -207.49135174351815])","array('d', [-267.0443420410156, -268.1037128725141, -269.10143689000785, -270.0333769091211, -270.8955656980156, -271.6842403000333, -272.3958735650129, -273.0276959508858, -273.9743900687709, -274.8457411100007, -275.6476617641229, -276.3865070629504, -277.06851414150776, -277.6995047844659, -278.2847560870402, -278.71619559123275])","array('d', [-50.07625198364258, -50.10719156813453, -50.13394929290699, -50.15683158758251, -50.17622177797008, -50.19253278188724, -50.20617301549476, -50.21752365892788, -50.233245161072894, -50.24640013493935, -50.25755113130713, -50.26714417172414, -50.27552531873197, -50.282954801008415, -50.28961836827796, -50.294432845383554])","array('d', [0.7055938839912413, 0.7131882596815342, 0.720059935595109, 0.726277685649414, 0.731903739063915, 0.7369944031697466, 0.7416006269495382, 0.7281669601188318, 0.6912703442881113, 0.6451146717541163, 0.5946806069621353, 0.5435318445353378, 0.4940514527123645, 0.4476907628598179, 0.40516868835355524, 0.3666118230480126])","array('d', [0.022089011967182045, 0.019214657703560407, 0.016509342403999178, 0.014042723471736736, 0.011848198318771262, 0.009932201721212564, 0.008282548832583963, 0.006875264558546755, 0.0057212715336616825, 0.004817827623663284, 0.004114728244160263, 0.003568829618102104, 0.0031432008666121116, 0.0028060185445715935, 0.0025294551748347082, 0.0022887458950761603])","array('d', [2.383327500024114, 2.3271758673089926, 2.270198107018592, 2.212463816480849, 2.1540374197184877, 2.0949784409405825, 2.035341781493644, 1.976248135800434, 1.9425537326951434, 1.9115965074900787, 1.883604691501467, 1.8585183787675412, 1.8361293523009896, 1.8161683286260877, 1.7983548621942338, 1.7784445798087969])",-228.7919749152915,-271.6842403000333,-50.19253278188724,0.7369944031697466,0.009932201721212564,2.0949784409405825,14.999999850145683,-1.0,"[-271.1122934185559, -229.62833300569747, 50.063109757139856]","[-290.31494425084367, -225.12533844657816, 53.37690531718589]","[-275.8914074387892, -214.96120263915412, 62.79242065728019]",10000000000.0,0.15490436553955078
9,6.2746806144714355,-271.6973876953125,-228.4083709716797,49.99403381347656,0.728345453739166,-0.02789908461272706,2.3034055391934256,19.951511398547527,"array('d', [-232.02613830566406, -230.93279697356104, -229.78213131174581, -228.57733840314845, -227.3219940980721, -226.02003040061066, -224.67571136784036, -223.29381675192462, -220.94740076403414, -218.5740863495774, -216.17848916791112, -213.76465852321954, -211.3359893023381, -208.8952566009501, -206.44469880874095, -204.45057044522628])","array('d', [-269.0959777832031, -270.1221189164509, -271.08367013642425, -271.9765760424135, -272.79697980954666, -273.54125536596933, -274.2060366752753, -274.7887616389612, -275.6510149673527, -276.436316124517, -277.1508619881483, -277.80124468322686, -278.3938925418227, -278.9347797260802, -279.4293049340462, -279.7927803082215])","array('d', [-50.04509735107422, -50.07709265909669, -50.1046003693235, -50.12799924665824, -50.147732571757864, -50.164260752816986, -50.178028277817056, -50.189442585331, -50.20519786968715, -50.21834283330647, -50.22946104778162, -50.239011354911014, -50.24734724874034, -50.25473292528791, -50.26135592314181, -50.266205254449])","array('d', [0.715462028980255, 0.7221173273230302, 0.7281392908371693, 0.7335881892482482, 0.7385185568640175, 0.7429797383709263, 0.7470163826894847, 0.7326442949064814, 0.6950109226265999, 0.648280759182933, 0.597409437227895, 0.5459277478235753, 0.4961872190306076, 0.44961344111891816, 0.40690713357626235, 0.36818483347721265])","array('d', [0.022910153493285082, 0.019805305482933494, 0.016921813069866017, 0.014321345594330164, 0.012028764408380688, 0.010042396735275605, 0.008342914166301054, 0.006900375298479597, 0.00572356771969212, 0.004807729894072992, 0.004098699149342656, 0.0035507067610358206, 0.0031251202735541285, 0.0027890360816813058, 0.0025139572260025546, 0.0022747227697908134])","array('d', [2.3530489365246634, 2.2958218076388963, 2.237859310649079, 2.1792242719025894, 2.1199747063367558, 2.0601640948003066, 1.9998416604249285, 1.9401584279028927, 1.906183005661392, 1.8750053451806692, 1.8468386498439462, 1.8216104702836475, 1.7991034512095814, 1.7790421156339977, 1.7611419712589238, 1.7414025469099685])",-226.02003040061066,-273.54125536596933,-50.164260752816986,0.7429797383709263,0.010042396735275605,2.0601640948003066,14.999999850185642,-1.0,"[-272.4808544891606, -227.6263556467214, 50.039332724020845]","[-291.5211826213585, -222.7220296817877, 53.70177609531162]","[-276.72175302816447, -212.95129942161242, 62.94892235234617]",10000000000.0,0.12406682968139648
10,6.4142680168151855,-273.00250244140625,-226.43312072753906,49.97085952758789,0.7322003245353695,-0.028763605281710566,2.2740645567562914,19.677304680500033,"array('d', [-230.05101013183594, -228.93066474571006, -227.75394047986555, -226.52432737305452, -225.2456773146085, -223.92217997681055, -222.55833765092277, -221.15913846881583, -218.7869850921277, -216.39020679478065, -213.97328069147332, -211.54008507460728, -209.09383570117782, -206.6371344965109, -204.17205964628533, -202.19401514145247])","array('d', [-270.5498962402344, -271.5463217507819, -272.47567608563577, -273.33398422627056, -274.1174945269513, -274.8227088517987, -275.44640965660466, -275.986225433611, -276.77487740318696, -277.4853199160745, -278.1239893580238, -278.69767258300465, -279.2129517179119, -279.6759214307969, -280.09207528229103, -280.3874049092369])","array('d', [-50.01517105102539, -50.05160325192532, -50.082768053498874, -50.10915859534906, -50.13132573129079, -50.14982603274525, -50.16518665440596, -50.177883821660636, -50.195361871586144, -50.209911136749255, -50.22219675822119, -50.23273805808084, -50.24193274959733, -50.25007656926771, -50.257378507658245, -50.26265358341428])","array('d', [0.7234389185905452, 0.7293351161757801, 0.7346702168582172, 0.7394976160218139, 0.7438656278122349, 0.7478179686800114, 0.7513941949066032, 0.7361402866014516, 0.6978500162001499, 0.6506281737641632, 0.5993984790322429, 0.5476558846498846, 0.4977198306666641, 0.450990769308855, 0.4081521851667977, 0.36931140284576286])","array('d', [0.02615334466099727, 0.02248885915809439, 0.019123362987905092, 0.016116023790499187, 0.013485130773769801, 0.011220349852217442, 0.009292992551552144, 0.0076639437935527, 0.006340685521610737, 0.005315888365183225, 0.004525828305904289, 0.003917386635653303, 0.003446242773565042, 0.003075017238830676, 0.0027716032922704584, 0.0025078505922694694])","array('d', [2.3267169157650804, 2.268607409160699, 2.209837996542775, 2.150465712792905, 2.090543117216165, 2.03011856933111, 1.9692365002984902, 1.9090802924950452, 1.874886878259622, 1.8435428905944329, 1.8152470788537025, 1.789915706505591, 1.767323597259601, 1.7471902091755978, 1.72922789019765, 1.7091540245342154])",-223.92217997681055,-274.8227088517987,-50.14982603274525,0.7478179686800114,0.011220349852217442,2.03011856933111,14.999999850245572,-1.0,"[-273.97217206102016, -225.28949499510244, 50.01399898640039]","[-292.7931239287795, -219.9121097558123, 54.119543868599536]","[-277.5447808296247, -210.58610526014417, 63.09248501836957]",10000000000.0,0.13866615295410156
11,6.598600625991821,-275.0046081542969,-223.1338653564453,49.927223205566406,0.7371758222579952,-0.029322050511837013,2.224756554761205,19.252280645701596,"array('d', [-228.08004760742188, -226.93192235339396, -225.72878003847077, -224.4743593279018, -223.17274483328018, -221.8283419595344, -220.44585096064512, -218.09687770874316, -215.71933986778524, -213.3179120866792, -210.89696355704407, -208.46027634924084, -206.01098469264323, -203.55162297243598, -201.08421385528234, -199.0926184091811])","array('d', [-271.9200134277344, -272.88418782197016, -273.7789975361255, -274.60056639417434, -275.34526299810403, -276.00972880243563, -276.59090312084754, -277.44599386049924, -278.2182619950526, -278.91282726346026, -279.5360769608645, -280.094745056237, -280.59536454562704, -281.04398723350283, -281.4460701809167, -281.73220065064277])","array('d', [-49.99015426635742, -50.02922325403301, -50.0624111799436, -50.090316600075134, -50.11357964763741, -50.1328286982572, -50.14864555137005, -50.17022813116404, -50.187987573135764, -50.2027757706888, -50.21526729558579, -50.22598851263653, -50.23534236497447, -50.24362842188139, -50.25105841359786, -50.25645848969492])","array('d', [0.729167580604553, 0.7345186243908927, 0.7393604494728231, 0.7437415143752437, 0.7477056661885959, 0.7512925794042087, 0.7545381529789723, 0.7316865212413031, 0.6936112324188826, 0.6466833877120206, 0.5957769773440033, 0.5443570211053459, 0.4947271829366647, 0.44828098265052774, 0.4057000593974956, 0.36709262749498245])","array('d', [0.02813935652375201, 0.024027155766648964, 0.020289402724962886, 0.016975274401436848, 0.01409148433988002, 0.011615925063305176, 0.009508759106474973, 0.007786255962570673, 0.0064438126693272535, 0.005404158289654276, 0.004602477019396709, 0.00398482660160476, 0.0035062562319965714, 0.0031288965151433966, 0.0028202543388409066, 0.0025518718836136283])","array('d', [2.2986511150982714, 2.2399005448628238, 2.1805454677962826, 2.1206385727429096, 2.0602283405815864, 1.9993593158202227, 1.9380723715708874, 1.9020290361995549, 1.8681345632543185, 1.8370527677936077, 1.8089820174804725, 1.7838425887070462, 1.761414528427077, 1.7414222409294748, 1.723582236534356, 1.703761585671453])",-221.8283419595344,-276.00972880243563,-50.1328286982572,0.7512925794042087,0.011615925063305176,1.9993593158202227,14.999999850218122,-1.0,"[-275.91671739362835, -221.94385578550555, 49.97119997895756]","[-294.38224483039437, -215.9058823620096, 54.72169189234892]","[-278.51545055119766, -207.2108621446559, 63.24468800413139]",10000000000.0,0.18331599235534668
12,6.7686285972595215,-276.629638671875,-220.14910888671875,49.88118362426758,0.7420762181282043,-0.029826276004314388,2.1802517930653433,18.903527594611813,"array('d', [-224.78765869140625, -223.59292001124908, -222.34617418104787, -221.05148554922957, -219.7132408131066, -218.33612277946247, -216.92508356452095, -214.53432321342447, -212.1193216545158, -209.6845375987048, -207.2340241979452, -204.77121203712582, -202.2988873168288, -199.81925975431236, -197.33405890258564, -195.47579631222447])","array('d', [-274.0291442871094, -274.93486186890493, -275.76781340410565, -276.52431975160806, -277.2009747044204, -277.79466993214254, -278.3026170889623, -279.0327756457304, -279.6784258972984, -280.2450956776924, -280.7394903779044, -281.1685814409519, -281.5390766118015, -281.85715669960126, -282.12837534472857, -282.2943527205791])","array('d', [-49.95069122314453, -49.99082568411596, -50.02459777628035, -50.05275411562006, -50.07604627620521, -50.09518280569367, -50.11080032078152, -50.1319712516658, -50.149290984051085, -50.163645953016434, -50.175728515640465, -50.18607263438268, -50.19508301028073, -50.20305791518563, -50.210206461766475, -50.215023663131795])","array('d', [0.7347764968872069, 0.7395937821777917, 0.7439526425568161, 0.7478967028848648, 0.7514654365716392, 0.7546945606380873, 0.7576163931686292, 0.7333397363229215, 0.694317215244396, 0.6468182019373349, 0.5956073240927514, 0.5440547781480193, 0.4943911174557599, 0.44795833199293644, 0.4054057784310092, 0.36682635104096883])","array('d', [0.029042068868875462, 0.024551883720811556, 0.02054819783879765, 0.017054100982306093, 0.014053430504939906, 0.011505151894488162, 0.00935445986125726, 0.007611564239706047, 0.006266767308954477, 0.005234491778606006, 0.004444770234882934, 0.0038406267318315907, 0.003375449665578216, 0.003010571937485988, 0.0027132332852150944, 0.002455035220993277])","array('d', [2.249098793664251, 2.189714443783803, 2.12978083847901, 2.069346252111984, 2.0084550363150737, 1.9471478845747652, 1.8854620882217499, 1.8492476990080962, 1.8152724822725688, 1.784163898607545, 1.7560942219720719, 1.7309678746698431, 1.7085564370731199, 1.6885804264389503, 1.6707550219083336, 1.6493964097236555])",-218.33612277946247,-277.79466993214254,-50.09518280569367,0.7546945606380873,0.011505151894488162,1.9471478845747652,14.999999850468232,-1.0,"[-277.32154941662174, -219.2572098046816, 49.93169099774494]","[-295.4709505922513, -212.707365399234, 55.19465358838562]","[-279.13804486300575, -204.53252009229965, 63.34376977649283]",10000000000.0,0.16827702522277832
13,6.950202941894531,-278.09197998046875,-217.14666748046875,49.828365325927734,0.7459975481033324,-0.028379477560520155,2.1321217576649527,18.592306840429234,"array('d', [-221.81045532226562, -220.57712806356807, -219.29464509888874, -217.96734076673363, -216.59984963603372, -215.1970796461975, -212.8180524011038, -210.4124708584139, -207.98456684997237, -205.53864124372564, -203.0785657026978, -200.60759117123763, -198.12833835606202, -195.64287004326843, -193.1527878113481, -190.8448431197119])","array('d', [-275.7466125488281, -276.59899025635946, -277.3757686436014, -278.0734595514342, -278.68887080487144, -279.219128282356, -279.98651558463285, -280.66628625223575, -281.2616107199908, -281.7780985234078, -282.2224945711608, -282.6017844353197, -282.92267634200994, -283.1913448941252, -283.41333462373257, -283.5786423628679])","array('d', [-49.908447265625, -49.94943058338594, -49.98357407076987, -50.01175050047086, -50.03480108729787, -50.053492802133356, -50.07860760756106, -50.09892078121254, -50.115526210338295, -50.12928350029046, -50.140861300945424, -50.150773522480684, -50.159408568948194, -50.16705206388346, -50.17390394701099, -50.179630518469615])","array('d', [0.7392830252647397, 0.7436714580486018, 0.7476422765975692, 0.7512352221261944, 0.7544862539755632, 0.7574279095049817, 0.7546850222738642, 0.7300659382772757, 0.6909600677135738, 0.6435484637987762, 0.5925236794248234, 0.5412045620987038, 0.4917881438825934, 0.4455962427453459, 0.40326764089395983, 0.3648916840172891])","array('d', [0.029795251786708762, 0.024937071579464714, 0.020662848264093373, 0.01696956748214223, 0.013818339884214473, 0.011149127069456774, 0.0089792567543697, 0.007299484683491126, 0.006006526219001781, 0.005015887459544648, 0.004259012484390271, 0.0036804373378707448, 0.00323504361452453, 0.0028855913893930767, 0.0026006749133177837, 0.0023531881851526814])","array('d', [2.205443636575017, 2.1455456020862265, 2.0851434491124805, 2.0242817860959557, 1.963001545695266, 1.9013402414054315, 1.8643396139081851, 1.8283501558321416, 1.7946019839330363, 1.7637046357170705, 1.7358230086809245, 1.7108605225028937, 1.688590748857324, 1.6687372190386036, 1.6510181857737913, 1.6338970960321357])",-215.1970796461975,-279.219128282356,-50.053492802133356,0.7574279095049817,0.011149127069456774,1.9013402414054315,25.000000249907664,-1.0,"[-278.74252173964567, -216.21664730403268, 49.87725878389116]","[-296.4716173998809, -209.0840299396144, 55.77682966684742]","[-279.60601634948324, -201.51968327720715, 63.414379063070825]",10000000000.0,0.18039965629577637
14,7.141633033752441,-279.5241394042969,-213.7840118408203,49.765777587890625,0.7508592605590819,-0.029275938868522654,2.0754360119488577,18.32662863497271,"array('d', [-218.81686401367188, -217.54518655337435, -216.22754701626093, -214.86855524648476, -213.47309642517556, -211.10459099901226, -208.70791403570306, -206.28668822180344, -203.84511985488913, -201.38740618599624, -198.9172738040338, -196.43781421530483, -193.95149071988823, -191.46021920227955, -188.96546837959218, -186.96503613131034])","array('d', [-277.29962158203125, -278.093692137288, -278.8092631600905, -279.4430708689294, -279.9921695702804, -280.79130699928163, -281.5017154294095, -282.1235139611258, -282.6600878758331, -283.1172333095901, -283.5018429159485, -283.8210138003458, -284.0815367624004, -284.2896474350013, -284.45093589987994, -284.5425744495582])","array('d', [-49.85841751098633, -49.898406619310286, -49.9313542684718, -49.958222114847366, -49.97990072560388, -50.00882378457823, -50.032000568355436, -50.050728541202616, -50.066030996845214, -50.07870789934497, -50.08937868904699, -50.09851759844447, -50.10648187329027, -50.113533554859565, -50.11985579501526, -50.124428936969515])","array('d', [0.744079291820526, 0.7480112998882705, 0.7515691282381547, 0.7547883847474726, 0.7577012887586053, 0.7603369935390129, 0.7568044051934267, 0.7315791057770834, 0.6920401770324912, 0.6443377351685643, 0.5931272949900873, 0.5416936407317742, 0.49220641367016216, 0.44596745346422584, 0.40360260874397014, 0.36519477548927215])","array('d', [0.029219683259725647, 0.024189417587494405, 0.019817286008990607, 0.016070942913355576, 0.01288798833556847, 0.01029425005279909, 0.008281030054397547, 0.006727407244067583, 0.005534533826260689, 0.004622250588032795, 0.003926021667333236, 0.0033939973722560677, 0.0029842683583768763, 0.002662452868974, 0.0023997273948110588, 0.0021713633348674857])","array('d', [2.1591694513943533, 2.098720251350165, 2.037815720230054, 1.9764964436485244, 1.9147996127449323, 1.8775754077215265, 1.8403884203005023, 1.8042677059233165, 1.7704309791334838, 1.73947419014101, 1.711551428084461, 1.6865588255369004, 1.664265516768846, 1.6443925342015693, 1.626656823719083, 1.60685587186492])",-211.10459099901226,-280.79130699928163,-50.00882378457823,0.7603369935390129,0.01029425005279909,1.8775754077215265,25.00000024991354,-1.0,"[-280.12263097552733, -212.81397957198385, 49.81561962573607]","[-297.3029713395278, -204.9940418370362, 56.42504311032511]","[-279.8599304112917, -198.19387726732305, 63.460530655669615]",10000000000.0,0.18967604637145996
15,7.303557872772217,-280.4080505371094,-211.39817810058594,49.72462463378906,0.7535040378570553,-0.030174434185028052,2.034910426535878,18.33408338387891,"array('d', [-215.46914672851562, -214.15564926370362, -212.80025195829333, -211.40785244002333, -209.98359433155144, -207.57350643955675, -205.1402315233756, -202.68748424660455, -200.21932434256095, -197.73961628312824, -195.25167056771195, -192.75814734323072, -190.26109993566695, -187.76207181755098, -185.2622015628724, -183.26258343638997])","array('d', [-278.8338317871094, -279.5566762322168, -280.19790626479414, -280.75454254718244, -281.22394624113844, -281.8872705211643, -282.45996163583965, -282.9427102922295, -283.33943588657405, -283.6563185148753, -283.90050318482497, -284.0792439211032, -284.1994256463495, -284.267338946128, -284.28860521372997, -284.2682577528209])","array('d', [-49.797000885009766, -49.835968525660476, -49.867783459202116, -49.893512876007335, -49.91411004023301, -49.941384261582655, -49.96309715280189, -49.980553068764486, -49.994762929311406, -50.00650495303308, -50.01637372735872, -50.02481924699224, -50.03217720203857, -50.038691832673386, -50.044532769118774, -50.04875190055272])","array('d', [0.7487530708312986, 0.75224031040392, 0.7553956955405925, 0.7582508063389625, 0.7608342176553121, 0.7631717850889312, 0.7570945689886225, 0.7301757185681986, 0.6896502404296787, 0.6414815252998092, 0.5901508938102914, 0.5388043358407268, 0.48951078284673305, 0.44350452757069875, 0.40137109294380613, 0.36317561631144146])","array('d', [0.028598627075552906, 0.023450020232804028, 0.019046565595076864, 0.015323140383132695, 0.012192839556833472, 0.009669077357883523, 0.007733741807026439, 0.006255761234251792, 0.005130952945824115, 0.004276947277240224, 0.003628903409954935, 0.003135751898441982, 0.002756939951056556, 0.0024597285011492363, 0.0022170728506194963, 0.00200609065372837])","array('d', [2.1043459931996207, 2.0433552082791033, 1.9819573948983231, 1.920189093834142, 1.8580837449125356, 1.8206366502032287, 1.7833345546309618, 1.7472547025460652, 1.7135477317152437, 1.6827577000625507, 1.6550070357110014, 1.6301759392239779, 1.6080273479124145, 1.5882813476210182, 1.5706564042065414, 1.5509487713965149])",-207.57350643955675,-281.8872705211643,-49.941384261582655,0.7631717850889312,0.009669077357883523,1.8206366502032287,25.00000024992813,-1.0,"[-281.07919106885, -210.05746098230335, 49.76987941695027]","[-297.766968524024, -201.68181823906187, 56.93693545441588]","[-279.8907402802561, -195.52188447136834, 63.45580650348133]",10000000000.0,0.16060996055603027
16,7.438161134719849,-281.31964111328125,-208.57936096191406,49.68156051635742,0.758008003234863,-0.030096832662820757,1.9864312569287161,18.60944028360182,"array('d', [-213.1055450439453, -211.7637703988358, -210.38325390157593, -208.9690837131246, -207.5265714094959, -205.09092040832266, -202.63583127150235, -200.16505133493933, -197.68249833274965, -195.19176754099672, -192.6958484739774, -190.19707609023277, -187.69719878379544, -185.19748538385963, -182.69883234901414, -180.70014132377776])","array('d', [-279.78643798828125, -280.45524151906966, -281.0403767687321, -281.5390800761673, -281.94894396474774, -282.5111752722538, -282.9816335524709, -283.36145335202866, -283.6549497331265, -283.86856788343215, -284.0096122809573, -284.085424365135, -284.10293183663504, -284.0684421270026, -283.987579245631, -283.88571735227134])","array('d', [-49.75327682495117, -49.79368290339964, -49.826450227536476, -49.852785988439514, -49.873743756434244, -49.901336332925936, -49.923190842753385, -49.94068903447324, -49.954889025827434, -49.96659672790272, -49.976422166030936, -49.984823305786264, -49.99213942851134, -49.998615945532066, -50.00442247748698, -50.00862002053532])","array('d', [0.7515280246734618, 0.754751192701069, 0.7576676360011247, 0.7603065432653932, 0.762694325516405, 0.7648548804349823, 0.7567686175415507, 0.7285407383543414, 0.6872770081894446, 0.638783838441185, 0.587400350263102, 0.5361611673437816, 0.487055348991368, 0.4412641051835272, 0.3993415539626334, 0.36133921333356483])","array('d', [0.02975075133144845, 0.024222823876722994, 0.019548435705217044, 0.015633055680586136, 0.012366057036359434, 0.009752065034589337, 0.00776491780564839, 0.006258874856116424, 0.0051201755861936885, 0.004260363877437507, 0.0036108422354724904, 0.003118298824340562, 0.0027409033935861214, 0.002445248104560047, 0.0022040059994756513, 0.001994267276799588])","array('d', [2.0638257126000266, 2.002511242595834, 1.9408187860293267, 1.878782421987305, 1.8164333123918193, 1.7788532805579778, 1.7415015466028734, 1.7054930263971153, 1.6719226459165926, 1.641293134280836, 1.6137025779524592, 1.589019458429743, 1.567002581921363, 1.5473718864239434, 1.5298474910277746, 1.510265157099026])",-205.09092040832266,-282.5111752722538,-49.901336332925936,0.7648548804349823,0.009752065034589337,1.7788532805579778,25.000000249935983,-1.0,"[-281.82533996039984, -207.56910874800695, 49.73191031248214]","[-298.03100230232906, -198.7246957600626, 57.42300041454554]","[-279.7910753226302, -193.15414069452447, 63.44578880839276]",10000000000.0,0.13232183456420898
17,7.595034837722778,-282.0246887207031,-206.03465270996094,49.64960479736328,0.7610870599746702,-0.032853789627552074,1.9442859450962886,18.960499471170582,"array('d', [-210.36119079589844, -208.98943994138463, -207.58271060228418, -206.1463065216582, -204.68572733875175, -202.22571214325126, -199.75067663075268, -197.26437120849582, -194.77051767754082, -192.2723795925596, -189.77256399634376, -187.27302451545262, -184.77515511503637, -182.27990704571894, -179.78789764511185, -177.96779664554933])","array('d', [-280.759765625, -281.3646911701999, -281.8836523284896, -282.31415431332454, -282.6540746909502, -283.09775580060943, -283.44849325983785, -283.70796267709966, -283.88094729829635, -283.97419321447916, -283.99517573181134, -283.9513209938466, -283.84958968299446, -283.6962933809026, -283.49704543842887, -283.31596780411525])","array('d', [-49.708309173583984, -49.748860781852464, -49.781502037241545, -49.807558732143065, -49.8281609985042, -49.85511782882806, -49.87635317414855, -49.89328369081196, -49.906980215106586, -49.918248915706414, -49.92769378969072, -49.93576424682419, -49.94279068325863, -49.9490105431663, -49.9545870992678, -49.95827157686774])","array('d', [0.7551400065422055, 0.7580194493452165, 0.7606248771723548, 0.762982365973631, 0.7651155102460653, 0.767045659171588, 0.7564915108402662, 0.7266580485779467, 0.684486944420324, 0.6355908043798147, 0.5841351110367079, 0.5330190705646777, 0.48413471139021164, 0.43859871946026635, 0.3969269901194037, 0.3591544254220669])","array('d', [0.029964549466967492, 0.024206973317494846, 0.019398395353949945, 0.01541213428399359, 0.01211345921114161, 0.009496091837085418, 0.0075252685623647805, 0.00604396057774903, 0.004931866081261903, 0.004097051468711345, 0.00346933726497787, 0.0029949533207896143, 0.002632253753146167, 0.00234837493735228, 0.0021167377780097795, 0.0019153037174515328])","array('d', [2.0169707695629935, 1.9552325682600669, 1.8931545959187268, 1.8307676582866625, 1.7680998942619957, 1.7303461493094487, 1.6929240507939964, 1.656993971726775, 1.6235822404012512, 1.5931413111958783, 1.5657397537203785, 1.5412317688768526, 1.5193710239438765, 1.4998771379936326, 1.4824721140202497, 1.4611890939511962])",-202.22571214325126,-283.09775580060943,-49.85511782882806,0.767045659171588,0.009496091837085418,1.7303461493094487,25.00000024994307,-1.0,"[-282.4848258720742, -205.01004171861948, 49.70210310867847]","[-298.1801168508271, -195.68855739063997, 57.873257923972915]","[-279.6120207553369, -190.73917519565572, 63.41667052602708]",10000000000.0,0.1562213897705078
18,7.750065088272095,-282.7203369140625,-203.01463317871094,49.62796401977539,0.7647283077239989,-0.036954358220100327,1.896285788216863,19.382469662430303,"array('d', [-207.8596649169922, -206.46327121374765, -205.0353828391596, -203.58151373511225, -201.13028006527531, -198.66217714627902, -196.18079155650943, -193.689885202342, -191.1931142191524, -188.69362343464314, -186.19387857498708, -183.69568905041058, -181.20031226331955, -178.70857521574416, -176.22098464533892, -173.9965271514995])","array('d', [-281.5302734375, -282.07584795410907, -282.53336676936556, -282.9005989881271, -283.3900759515197, -283.78635539202685, -284.0889582103382, -284.29976874133024, -284.42376464815806, -284.4678369636601, -284.43956031061896, -284.3464253245864, -284.19543307268697, -283.99291974452586, -283.7445133440264, -283.4832315740249])","array('d', [-49.67164611816406, -49.71288128600627, -49.74564895478211, -49.77139096087103, -49.804783206717666, -49.83080482010279, -49.851284935893, -49.86760570890141, -49.88080792861764, -49.89167242601919, -49.900782383252256, -49.90857051400308, -49.91535417602039, -49.92136101224849, -49.926747397218875, -49.931105381386736])","array('d', [0.7593513727188107, 0.7618300513880261, 0.7640728527982186, 0.7661022236188156, 0.7679384744375825, 0.7695999830328163, 0.7582069954666736, 0.7277592844933467, 0.6851708871123254, 0.6360108517237932, 0.5844001901918724, 0.5332002369964236, 0.4842739198739225, 0.43871734209852914, 0.3970334009824919, 0.3592507099613961])","array('d', [0.030634334310889192, 0.02445597252758027, 0.019323398370726972, 0.015071910990086488, 0.011698960077082312, 0.00916104935436954, 0.007255025147500186, 0.0058255337540730635, 0.004754164091850679, 0.003950862014107861, 0.0033471903846879177, 0.002890935525268719, 0.0025418245873248015, 0.002268213365990179, 0.002044627763269533, 0.001850055871982])","array('d', [1.9743549982693536, 1.9121192617521376, 1.8495889132010548, 1.7867908403533468, 1.748966080371736, 1.7110088199065563, 1.6734268423361276, 1.6373951844178611, 1.603923037468986, 1.573447419085673, 1.5460258740191002, 1.5215057267692818, 1.4996367504469486, 1.480136560204614, 1.4627262542619561, 1.4453402793584627])",-198.66217714627902,-283.78635539202685,-49.83080482010279,0.7695999830328163,0.00916104935436954,1.7110088199065563,25.00000024994478,-1.0,"[-283.12815368857497, -201.97927283804287, 49.68403711347278]","[-298.20826282131605, -192.12226891104436, 58.36906918755028]","[-279.30844688584597, -187.9024633925224, 63.36808899059206]",10000000000.0,0.1542656421661377
19,7.910077810287476,-283.2224426269531,-200.2904815673828,49.62645721435547,0.7682739496231077,-0.040106128901243265,1.8559162179615836,19.73848689974402,"array('d', [-204.9120635986328, -203.49123440127616, -202.04300165817136, -200.5730631879052, -198.10092275955608, -195.61642126288166, -193.12320546793234, -190.62497511643124, -188.12513000377965, -185.62644290828075, -183.1309737974199, -180.6401391436377, -178.15483742164585, -175.67557752074475, -173.20258853838237, -171.25514565362585])","array('d', [-282.30047607421875, -282.7784167743393, -283.166473239175, -283.46269858379065, -283.83211780034435, -284.10729110868454, -284.2880239110679, -284.3767709222688, -284.37897510490046, -284.30179781292884, -284.1529432497487, -283.9399443271442, -283.669795753665, -283.34880309719045, -282.9825536715659, -282.6573537657093])","array('d', [-49.63886260986328, -49.68441193715323, -49.72030530762741, -49.748267571443435, -49.78423024081203, -49.81202642751691, -49.83374571244068, -49.85094618284724, -49.86478704333573, -49.876128624658776, -49.885607413394155, -49.89369179083116, -49.90072281103507, -49.90694353766571, -49.91251987481652, -49.916496790021625])","array('d', [0.7620387077331541, 0.7642616528840512, 0.7662730570168517, 0.7680930509034323, 0.7697398496205016, 0.7712299348473491, 0.7571718337775155, 0.7250298002456018, 0.6815172367780772, 0.6319806863034246, 0.5803477835609356, 0.5293316646726307, 0.4806902508959787, 0.43545040022482223, 0.3940743288535745, 0.35657323053394735])","array('d', [0.0339711494743823, 0.026888898750940998, 0.021070625655756674, 0.016294267628025876, 0.012539513676862244, 0.009744526871802448, 0.007665799923858879, 0.00612046546126191, 0.0049714478979708265, 0.004116117091979971, 0.0034775841200214387, 0.002997930673841968, 0.00263298096732568, 0.0023483535912535605, 0.002116586136719913, 0.0019151665067105152])","array('d', [1.926543251672063, 1.86398804189005, 1.8011673817969216, 1.738105600297485, 1.7001371654308521, 1.6620494847452794, 1.6244463900174035, 1.5885510898572752, 1.5552949142309913, 1.525060391870723, 1.4978742859124632, 1.473569734047881, 1.4518919822394523, 1.4325590751635036, 1.4152947188286775, 1.395734142270239])",-195.61642126288166,-284.10729110868454,-49.81202642751691,0.7712299348473491,0.009744526871802448,1.6620494847452794,25.000000249950016,-1.0,"[-283.64401210832847, -198.85219717830321, 49.68660028131148]","[-298.1004397732759, -188.5192271394916, 58.86491327146184]","[-278.923314585548, -185.00864778352886, 63.327390399660814]",10000000000.0,0.15906047821044922
20,8.05905532836914,-283.6695556640625,-197.09902954101562,49.64371871948242,0.7713433504104612,-0.04427176341414457,1.8068447868016102,20.108914965379437,"array('d', [-202.2465057373047, -200.80705314441033, -199.34377438566636, -196.87995334881907, -194.40171593766388, -191.91272368359, -189.41667137994014, -186.91725010638692, -184.41778010960056, -181.9209115386302, -179.42856613849642, -176.94202319008957, -174.46205334566935, -171.98905034888122, -169.52314142975106, -167.55671206396678])","array('d', [-282.8736877441406, -283.2916482593871, -283.6180596890636, -284.038014038579, -284.3638067051429, -284.5946773854723, -284.7305572806565, -284.7741012743707, -284.73092987433597, -284.6083287485572, -284.41408145428204, -284.15576788823114, -283.8404084282744, -283.4743210719887, -283.06309772719175, -282.69805933029147])","array('d', [-49.62607955932617, -49.676367338944786, -49.715265856893225, -49.764815798466515, -49.8026535800965, -49.83179457859513, -49.854484661428636, -49.872392618564085, -49.88675606554248, -49.898490920145946, -49.90827312588701, -49.9165990526638, -49.923829457234525, -49.93022093972897, -49.93594814612241, -49.94008529548623])","array('d', [0.7657695412635802, 0.7676374509686028, 0.7693276057160654, 0.7708569211118294, 0.7722407030301304, 0.7734928007935064, 0.7586233956255137, 0.7258986446042445, 0.6819986578119398, 0.6322238996070696, 0.5804571712098439, 0.5293743802837985, 0.48070527539044805, 0.4354569966181564, 0.39407941839916893, 0.3565778357456587])","array('d', [0.03777871280908588, 0.02942379991796546, 0.02256128874523686, 0.01717122514403118, 0.013166974860213754, 0.010195923341314021, 0.007993142426514747, 0.006360581623336498, 0.005150427547228884, 0.004252470543998918, 0.003584457868228813, 0.003084633927771282, 0.0027060139055802694, 0.0024120810134459353, 0.002173665322560896, 0.0019668138945211568])","array('d', [1.8848689655449729, 1.8218676275515402, 1.75864177882846, 1.7205839830349983, 1.682415207603425, 1.6441457423125247, 1.606402961409258, 1.570424077943194, 1.5371223985912497, 1.5068652332907424, 1.4796689021723806, 1.455360230732688, 1.4336810053575364, 1.4143475728876673, 1.397082943218719, 1.3777726143871836])",-191.91272368359,-284.5946773854723,-49.83179457859513,0.7734928007935064,0.010195923341314021,1.6441457423125247,25.000000249951125,-1.0,"[-284.02000569386706, -195.64205401558826, 49.71010467368672]","[-297.77982424428626, -184.8198552459919, 59.382095536528055]","[-278.3534839052546, -182.06630842782667, 63.2596309589689]",10000000000.0,0.14798688888549805
21,8.208675384521484,-283.9413146972656,-194.24887084960938,49.67741012573242,0.7738127708435055,-0.048484344035387,1.7642988721516473,20.39925581535456,"array('d', [-199.1040496826172, -197.6466801788739, -196.16964429838256, -193.68865126059285, -191.19767829977877, -188.70047724525082, -186.200785251978, -183.7021764202934, -181.20767205503796, -178.71953062802118, -176.23926397694413, -173.7677628963596, -171.3054475273612, -168.8524031868554, -166.40848900171085, -164.68626555022308])","array('d', [-283.4064025878906, -283.7561008192049, -284.01266338812655, -284.3144462374561, -284.52100054083814, -284.63178141119454, -284.64702229597236, -284.5699665573576, -284.40669714028536, -284.1647532489937, -283.8520266010285, -283.4761176957567, -283.04402040211033, -282.562004079956, -282.03560416934073, -281.62949074355294])","array('d', [-49.63043212890625, -49.685345492350315, -49.727436775490695, -49.780539424734414, -49.820702318246106, -49.851357834489924, -49.875029529401736, -49.893570488689335, -49.90834033762054, -49.92033569843257, -49.93028595177644, -49.93872286735566, -49.946030516864155, -49.952480486185436, -49.95825638756377, -49.96194721692436])","array('d', [0.7692524790763854, 0.7707889437117772, 0.7721791945310281, 0.7734371456060886, 0.7745753869106493, 0.775605310312192, 0.7579481231841154, 0.7234462697157075, 0.6785651707283622, 0.6283739969182359, 0.5765567767871009, 0.5256375379306839, 0.47723828139356506, 0.4322948608069015, 0.3912150806207467, 0.35398607551107614])","array('d', [0.041418872773647364, 0.03197315757101574, 0.02428432572062174, 0.018300868172759444, 0.01390419977307369, 0.010674712602823882, 0.00830250375553156, 0.006559478523189082, 0.005277850167242619, 0.004334217242229089, 0.003637627043376685, 0.003120544211254822, 0.0027320643174324577, 0.002432907365467931, 0.0021918393082493064, 0.0019832583982882517])","array('d', [1.8379914621498925, 1.7745708740947046, 1.7109644798885075, 1.6726994957111005, 1.6343427633106653, 1.5959028283033192, 1.5581069275399564, 1.5222412627845006, 1.4891379335794628, 1.4591081193170847, 1.432136371615253, 1.408034593662005, 1.3865394772211512, 1.3673673837080382, 1.3502436455618918, 1.3285916228196797])",-188.70047724525082,-284.63178141119454,-49.851357834489924,0.775605310312192,0.010674712602823882,1.5959028283033192,25.00000024995505,-1.0,"[-284.2294216000791, -192.77859556600785, 49.75010815171423]","[-297.35802878198433, -181.55149884551224, 59.829392486024034]","[-277.75435833396386, -179.46545620280992, 63.19755683151497]",10000000000.0,0.14798426628112793
22,8.383946895599365,-284.1330261230469,-190.13514709472656,49.76099395751953,0.7749931812286373,-0.04966405779123308,1.7057805071261265,20.75145200881107,"array('d', [-196.28880310058594, -194.81775617912513, -192.3437627364532, -189.85763850971688, -187.36325457839192, -184.86441912133384, -182.36489940840363, -179.8682270921446, -177.3773104940825, -174.89425964796138, -172.42042976553807, -169.95656177637372, -167.50293933477556, -165.05952662490154, -162.62607667281577, -160.6934732414754])","array('d', [-283.7589111328125, -284.0447192919423, -284.39543808607857, -284.6509675328201, -284.8106815028712, -284.8741404747662, -284.84170911908063, -284.71684796576085, -284.5058180548376, -284.21626879951435, -283.856151259834, -283.43309198783203, -282.9540909681347, -282.42541264065886, -281.85258201482185, -281.3604386916157])","array('d', [-49.651611328125, -49.71119027081156, -49.78567302100128, -49.84135654044023, -49.883267858475755, -49.91509685611165, -49.939546103297786, -49.95859321064406, -49.973684606273856, -49.98587764768663, -49.99594441693091, -50.004446789442504, -50.011789933926664, -50.018259802366735, -50.02404900730775, -50.028217618437985])","array('d', [0.7722210288047789, 0.7734749988265587, 0.774609637925814, 0.7756363019312846, 0.7765652660219416, 0.7774058275483408, 0.7588222720521285, 0.7236891590568253, 0.6784170998733652, 0.6280114657867267, 0.576098854389458, 0.5251577824644594, 0.476776914516542, 0.43186936886298144, 0.3908290750901124, 0.35363680323175056])","array('d', [0.04542415589094165, 0.03422261933986889, 0.02551780182243704, 0.01913918148923325, 0.014469375662365908, 0.011051538933821882, 0.008549907736963708, 0.006718479420559055, 0.005377088273393819, 0.004393787245792042, 0.0036716959297074104, 0.0031390999659762523, 0.0027420476714120155, 0.002438909770244073, 0.0021965021290648724, 0.001987477493410315])","array('d', [1.7945735613491873, 1.7307935069108766, 1.6924340103697586, 1.6539915689599671, 1.6154739244390168, 1.5768881088161426, 1.5389912900953369, 1.5030855086672334, 1.4699790456874215, 1.4399651440134602, 1.413017113065001, 1.3889406768262178, 1.3674695622095425, 1.3483190142746226, 1.3312142196643846, 1.3120238719919777])",-184.86441912133384,-284.8741404747662,-49.91509685611165,0.7774058275483408,0.011051538933821882,1.5768881088161426,25.000000249955992,-1.0,"[-284.3341301698911, -189.06630490095694, 49.82632698380812]","[-296.64911333907156, -177.38482343173746, 60.403858842757316]","[-276.8713541408931, -176.0705872251474, 63.07088420674557]",10000000000.0,0.17415928840637207
