,current_time,x_pos,y_pos,z_pos,roll,pitch,yaw,vel,x_traj,y_traj,z_traj,roll_traj,pitch_traj,yaw_traj,x_cmd,y_cmd,z_cmd,roll_cmd,pitch_cmd,yaw_cmd,vel_cmd,effector_dmg,effector_x,effector_y,effector_z,cost,time_solution
0,4.625264406204224,-287.2270202636719,-146.07508850097656,50.05944061279297,0.6295635700225828,0.03825532272458082,1.3747891048577165,23.0850835810235,"array('d', [-150.55613708496094, -148.0918075337823, -145.64004940957, -143.20383107574068, -140.78600934300636, -138.38908806465136, -136.014744029723, -133.6637521687812, -131.3361218972255, -129.031283236053, -126.74826919583204, -124.4858692015481, -122.24274741564257, -120.01752860025697, -117.80885667488718, -116.0556167286684])","array('d', [-288.2281188964844, -287.816222736732, -287.33148637456975, -286.772364023074, -286.1377432129223, -285.4279495737187, -284.6457824540847, -283.7958995391186, -282.8839120266525, -281.91572171003986, -280.8971003579436, -279.8334546589516, -278.7297145990008, -277.5902975687783, -276.4191170753469, -275.456803068826])","array('d', [-50.05498123168945, -49.971869780469625, -49.913471335585726, -49.87208678233348, -49.84247503426242, -49.821050960031215, -49.80534873407974, -49.79366228995886, -49.784803600011216, -49.77793973335311, -49.77248308152848, -49.76801771642533, -49.7642504162034, -49.76097855632172, -49.75806945635005, -49.75597173981203])","array('d', [0.6313861012458797, 0.6460422750606101, 0.6593037307337009, 0.6713031931272196, 0.6751011476387456, 0.6603169435610108, 0.6322975970781154, 0.5956906452830291, 0.5542400886862163, 0.5107958055979245, 0.4674293706681168, 0.4255772882079689, 0.38617152977874386, 0.349743573434278, 0.31650119176690084, 0.28638214710530374])","array('d', [-0.039229840040206944, -0.027468167715198014, -0.019389729838875828, -0.01381250705969683, -0.009942027308796158, -0.007242480740697326, -0.0053509390551095175, -0.004020446162096499, -0.003082173080976615, -0.002419973989679977, -0.001953138674975363, -0.0016246353766084106, -0.001393068908033533, -0.001227186962557418, -0.0011021789016491866, -0.000997292803801461])","array('d', [1.4196833680060243, 1.3905375639283653, 1.3605337248133615, 1.3297375827501006, 1.2984423914504468, 1.2675073250396187, 1.2379162462116704, 1.2102700154484585, 1.184856709330674, 1.1617466395640472, 1.1408751909766817, 1.1221025030095337, 1.1052523830479202, 1.0901365270115866, 1.076569583783353, 1.06133133245982])",-138.38908806465136,-285.4279495737187,-49.821050960031215,0.6603169435610108,-0.007242480740697326,1.2675073250396187,25.000000249967872,-1.0,"[-287.0602322582395, -145.0864990764669, 50.00147189165804]","[-293.58084616455204, -129.95759201032033, 61.34156736165755]","[-273.9597991243329, -132.5875878111393, 58.4959329625858]",10000000000.0,0.08858990669250488
1,4.74847149848938,-286.650390625,-143.85134887695312,50.06071853637695,0.6280749440193173,0.03824494406580925,1.353529826798711,23.085156935111247,"array('d', [-148.75802612304688, -146.3014694233291, -143.85881068919323, -141.43303601837275, -139.02700166639204, -136.64312819974666, -134.28296096558813, -131.94713206914815, -129.63551495300212, -127.34741882874347, -125.08177308648162, -122.8372796934719, -120.61252938484357, -118.40608522655816, -116.21653908318731, -114.47887408861399])","array('d', [-287.8521423339844, -287.39591417856934, -286.86710536660553, -286.26422124539573, -285.58624795477994, -284.83377571972454, -284.00980629368814, -283.1190865472504, -282.1672351310764, -281.1601114470562, -280.10341933261935, -279.0024878405671, -277.86216890134983, -276.68680637612266, -275.480247034958, -274.4900847597427])","array('d', [-50.05600357055664, -49.97431613624872, -49.91705994810121, -49.87657595327277, -49.847667322624986, -49.826789987598886, -49.8115132754749, -49.80015984992428, -49.791564457871196, -49.78491184918053, -49.77962793344781, -49.77530697622018, -49.77166330775149, -49.76849973356819, -49.76568725667767, -49.763659267294756])","array('d', [0.6312515735626216, 0.6459205493679346, 0.6591935887620664, 0.671203532539716, 0.673136294080182, 0.6571078995662496, 0.6283629196515377, 0.5914262826910082, 0.5499258696300432, 0.5066149444059675, 0.46349078970532365, 0.42193578573145885, 0.3828443452389142, 0.3467235667900049, 0.3137673987291401, 0.2839085086474997])","array('d', [-0.03859884664416312, -0.026957309861829905, -0.018984765465267804, -0.013495459219390816, -0.009695367592820919, -0.007050815682066426, -0.00520148227075722, -0.003902952012075739, -0.00298862809367108, -0.0023442152685143303, -0.001890489508266, -0.0015715977250395933, -0.001347083404855242, -0.0011864561766971324, -0.001065542864046246, -0.000964143143130525])","array('d', [1.4016653309252594, 1.3725273198149974, 1.3425306819578011, 1.3117411846012008, 1.2805132514758177, 1.2497429554103463, 1.2203713869698116, 1.1929652974416505, 1.16779029765344, 1.1449041723067626, 1.1242366424588592, 1.1056463450933753, 1.088957865024316, 1.0739847811635754, 1.0605440290479606, 1.045445621496078])",-136.64312819974666,-284.83377571972454,-49.826789987598886,0.6571078995662496,-0.007050815682066426,1.2497429554103463,25.000000249968338,-1.0,"[-286.47080528942575, -142.89507334356415, 50.002901547233144]","[-292.5875432607035, -127.62840397664397, 61.383337524464864]","[-273.05205893726657, -130.59994203145877, 58.29548813734485]",10000000000.0,0.11985111236572266
2,4.874000787734985,-285.7532653808594,-140.75967407226562,50.06108093261719,0.6347291469573972,0.02613399922847747,1.3264270285752158,23.12582722905372,"array('d', [-146.07508850097656, -143.63162570246658, -141.20395640816693, -138.79509422773867, -136.40788779284398, -134.0446147630259, -131.70661261504966, -129.39429844026037, -127.10734725170741, -124.84489580685991, -122.6057280281664, -120.38842470769498, -118.1914759125089, -116.01336084156313, -113.8526010830335, -112.13832078638505])","array('d', [-287.2270202636719, -286.7050568360525, -286.11114110248786, -285.44383807986463, -284.7022634529567, -283.88737890758847, -283.0024586836349, -282.0523536406848, -281.04266884090845, -279.97918085972424, -278.8674770805903, -277.71275911419514, -276.51975342295816, -275.2926870609251, -274.03530152696766, -273.00518151894835])","array('d', [-50.05944061279297, -49.97860414029531, -49.922144041641154, -49.88234988024228, -49.854014673676076, -49.83360301367395, -49.818700073163214, -49.80764572437208, -49.799290584859754, -49.79283292096663, -49.787709627762624, -49.78352361151414, -49.77999579825808, -49.776933839609164, -49.774212079514655, -49.772249561299105])","array('d', [0.6295635700225828, 0.6443931804646417, 0.6578115681016803, 0.6699530284172496, 0.6691765887624697, 0.651382211362821, 0.6216472379379767, 0.5843057867157735, 0.5428094245820615, 0.4997668579167624, 0.4570652783683413, 0.41600743231409226, 0.3774328203644519, 0.3418131529804527, 0.30932254469869996, 0.2798866380387324])","array('d', [-0.03825532272458082, -0.026619603139779534, -0.01868480333163676, -0.013242694732287527, -0.009488594908260976, -0.006884362779722097, -0.0050683563734031725, -0.003796371233709035, -0.0029026618284944848, -0.002273963013041441, -0.0018320464596745982, -0.0015219412562414247, -0.001303946843560427, -0.0011482185244744024, -0.0010311430134229184, -0.0009330168682973196])","array('d', [1.3747891048577165, 1.3457487512926125, 1.315842363908181, 1.2851361490892173, 1.2540762923273223, 1.2236124060749558, 1.1946202625634756, 1.1676162851314702, 1.1428338797064694, 1.1203134720840602, 1.0999774295323237, 1.0816829856237764, 1.0652565125873854, 1.0505148701832017, 1.037278765455592, 1.0224072498823302])",-134.0446147630259,-283.88737890758847,-49.83360301367395,0.651382211362821,-0.006884362779722097,1.2236124060749558,25.000000249968988,-1.0,"[-285.80606734983036, -140.62305002627585, 50.0098260081623]","[-291.542447120411, -125.26310768725126, 61.46260377032608]","[-272.0918055436724, -128.59762733321145, 58.213985451108854]",10000000000.0,0.12341547012329102
3,5.015318155288696,-284.72796630859375,-137.67750549316406,50.08628845214844,0.6495144963264462,0.0027970571536571147,1.2937375466015675,23.168421508723053,"array('d', [-142.96546936035156, -140.53808107728514, -138.1285844954822, -135.74000787959656, -133.3751824056086, -131.03621320622054, -128.72420105103683, -126.43932599460494, -124.18104797078556, -121.94831858115366, -119.73976642240007, -117.55384330351087, -115.38893229969935, -113.24342349535611, -111.11576373800133, -109.428347016419])","array('d', [-286.4053039550781, -285.81264488348785, -285.1486359587378, -284.4119166983389, -283.60175095660463, -282.7194982596266, -281.7687240108738, -280.75439341463243, -279.68210278570433, -278.55754690794816, -277.3861951174736, -276.17311828578624, -274.92291314500113, -273.63968527439613, -272.32706621827845, -271.2535030350883])","array('d', [-50.06083679199219, -49.983135432266046, -49.929064799955455, -49.891081558823636, -49.86411646458512, -49.84474324656987, -49.83063150467809, -49.82018538629515, -49.81230388921714, -49.80622141201472, -49.80140167541701, -49.79746736632017, -49.794153815792896, -49.791278892005444, -49.78872378199275, -49.786881486124315])","array('d', [0.6287835240364071, 0.6436873656044554, 0.6571729203476302, 0.6693751559716818, 0.6656465098760609, 0.6459084175800556, 0.6150577961820706, 0.5772265496813672, 0.5356803343907711, 0.49287517272592324, 0.4505813216466284, 0.41001627400668006, 0.37196019821073084, 0.3368461655754259, 0.304826336124427, 0.27581829991290985])","array('d', [-0.03682993724942207, -0.025530000661568714, -0.01785796944340553, -0.012617252919247665, -0.009015339380337916, -0.006524938869290152, -0.004793401395649134, -0.003583698313965111, -0.0027356569387708006, -0.002140262020318734, -0.0017224987591083838, -0.0014298320606837035, -0.0012244355384615985, -0.0010779476865690706, -0.0009679752198056394, -0.0008758602798460901])","array('d', [1.3457494238999226, 1.3167541205736388, 1.2868893714232783, 1.2562215845118176, 1.2252941208663988, 1.1951131108740103, 1.1664855825650053, 1.1398751276831323, 1.1154810341810812, 1.0933248844503651, 1.0733205796062966, 1.0553231677727588, 1.0391603017264435, 1.0246518265055702, 1.0116220727922078, 0.9969794877442593])",-131.03621320622054,-282.7194982596266,-49.84474324656987,0.6459084175800556,-0.006524938869290152,1.1951131108740103,25.00000024996963,-1.0,"[-284.9500982108016, -137.9919642944947, 50.041779285396814]","[-290.2028656349233, -122.5704049137063, 61.64281116419553]","[-270.86639346776906, -126.47101243864817, 58.34340135860329]",10000000000.0,0.136000394821167
4,5.099035739898682,-284.087158203125,-135.943603515625,50.12352752685547,0.6550602912902829,-0.007908820174634434,1.2736048857357838,23.181734901478507,"array('d', [-139.88075256347656, -137.4703762785106, -135.08074628217426, -132.7147417249468, -130.37511525970936, -128.06376453045357, -125.78152486578195, -123.52831005316281, -121.30333387076854, -119.10533102382774, -116.93274380400652, -114.78386577144016, -112.65694589322467, -110.55026024778817, -108.46215815556904, -106.80696926655779])","array('d', [-285.475341796875, -284.8135982374581, -284.07987079985975, -283.2729579447084, -282.39237131610497, -281.43996804200435, -280.4197241435504, -279.33684645049567, -278.19704157710197, -277.0060255287457, -275.76923470385657, -274.49167779898784, -273.1778764720722, -271.83185840034264, -270.45718017557664, -269.33456304867605])","array('d', [-50.06373596191406, -50.02240657444073, -49.99370957810767, -49.973578173217724, -49.959292313354034, -49.94902159041979, -49.94152620415611, -49.93596049966993, -49.931743247459984, -49.928471741732196, -49.92586488604263, -49.92372557023743, -49.92191594968879, -49.92034137709284, -49.91894011081032, -49.91792945479227])","array('d', [0.6383606195449826, 0.6523530807615244, 0.6650139843854783, 0.6764700446427765, 0.6692704629517278, 0.6470022474577866, 0.6144331668536643, 0.5755302376209676, 0.5333950631951844, 0.4903402579902823, 0.4480199774755927, 0.4075625089083884, 0.3696826167564589, 0.33476829860637836, 0.3029440601750927, 0.27411514604860443])","array('d', [-0.019607506692409554, -0.013558469899981905, -0.009467886315971997, -0.006683859832658227, -0.004776706993121235, -0.0034618297518481146, -0.002549704457931226, -0.0019134763911986298, -0.001467762368676012, -0.0011546660157429045, -0.0009344918408986015, -0.0007795458051658691, -0.0006699785464886504, -0.0005909971679617012, -0.0005310165026598254, -0.000480483646628928])","array('d', [1.3175626854088645, 1.288010812332525, 1.2576318672171938, 1.2264897259811165, 1.1952215632421044, 1.1648938485487175, 1.1362526721043797, 1.109708899752881, 1.0854231309184252, 1.063391614968249, 1.0435131514386904, 1.0256346911508656, 1.0095802670137415, 0.995168806043297, 0.9822252129047224, 0.9676782926595503])",-128.06376453045357,-281.43996804200435,-49.94902159041979,0.6470022474577866,-0.0034618297518481146,1.1648938485487175,25.00000024997025,-1.0,"[-283.8193958325133, -134.93936135845468, 50.120884736229826]","[-288.41043739153446, -119.47485526003375, 61.94337975780808]","[-269.25719560843027, -124.10768285708548, 58.52428080429015]",10000000000.0,0.07974958419799805
5,5.163109540939331,-283.7517395019531,-135.08169555664062,50.14815139770508,0.656901121139526,-0.012721618637442526,1.263224558034215,23.1860503858596,"array('d', [-138.13116455078125, -135.73352549770564, -133.35855554735488, -131.009106284635, -128.6878806477745, -126.39662722878454, -124.13599202234187, -121.90569923306295, -119.70478852751107, -117.53184224253296, -115.38517257320903, -113.26296310583228, -111.16336993496401, -109.08459034953614, -107.02490630916985, -105.39285719849956])","array('d', [-284.8876953125, -284.18010160201106, -283.39975547235025, -282.54563110931093, -281.6175302115925, -280.6176992269609, -279.5504164420779, -278.4210702457698, -277.2354552562225, -275.99931173260495, -274.7180610787935, -273.3966752725868, -272.0396290993605, -270.65090042414477, -269.233997296627, -268.077994790179])","array('d', [-50.079471588134766, -50.06661663665695, -50.057627614009135, -50.051255553078754, -50.04666764313981, -50.043305157480866, -50.040790856120154, -50.03886834970402, -50.037362181278574, -50.03615145449321, -50.03515237638033, -50.03430669188528, -50.033574022288455, -50.032926789455715, -50.032346840661795, -50.031927901764355])","array('d', [0.6474184989929197, 0.6605489897563641, 0.6724299501900702, 0.682372091266498, 0.6726659324475116, 0.6485507004363511, 0.614705517650259, 0.5749835260539429, 0.5323726454880826, 0.48908567364318195, 0.44669549582753215, 0.40626754404927823, 0.3684701656246432, 0.33365911251641717, 0.30193889946859703, 0.27320563894784083])","array('d', [-0.006083678919821926, -0.004231231470256947, -0.0029808612086365256, -0.002130971019343791, -0.0015490663362605344, -0.0011476199188602625, -0.0008684781360533629, -0.0006727915770195893, -0.0005344510211000961, -0.00043577652288913886, -0.00036467214350860406, -0.0003127417609444607, -0.00027403954904278, -0.0002442437706977248, -0.00022011773430715453, -0.00019917078232469285])","array('d', [1.2987961033966877, 1.2687107583610047, 1.237839415436871, 1.2062700750178552, 1.1747037210395148, 1.144221376327607, 1.1155257281412236, 1.0889899846218953, 1.0647468845977284, 1.0427741521639764, 1.0229592625801451, 1.0051428304369354, 0.9891457935651059, 0.9747859825859385, 0.961888345057801, 0.9473924759031385])",-126.39662722878454,-280.6176992269609,-50.043305157480866,0.6485507004363511,-0.0011476199188602625,1.144221376327607,25.00000024997066,-1.0,"[-283.29765836873304, -133.6522039669345, 50.16723331095005]","[-287.5843250101364, -118.14925321464376, 62.05348617202984]","[-268.5244371473883, -123.09214009281497, 58.5479842152381]",10000000000.0,0.0607912540435791
6,5.2224953174591064,-283.042724609375,-133.3513946533203,50.208526611328125,0.6579632163047787,-0.020432360470294994,1.2433597902443747,23.203761930024985,"array('d', [-137.24282836914062, -134.85240665115955, -132.4855776534731, -130.14519827670756, -127.8339146844815, -125.55338236044935, -123.30414490033957, -121.08582884574587, -118.89738773733352, -116.73733105478472, -114.6039105386686, -112.49525989611882, -110.40949395769913, -108.34477560887265, -106.2993578198774, -104.67888261611898])","array('d', [-284.57159423828125, -283.83988008167466, -283.03513312417334, -282.15644052008, -281.2038402778854, -280.1797854846893, -279.0886838442877, -277.9359877295604, -276.7275090846423, -275.4689762981865, -274.1657827827601, -272.82286509918356, -271.4446605475356, -270.0351105305449, -268.5976892794915, -267.4255165002646])","array('d', [-50.09389877319336, -50.094302123340945, -50.094445857770474, -50.09441855389762, -50.09427927710589, -50.0940677834794, -50.09381119124514, -50.093528364266746, -50.09323279085482, -50.092934453916236, -50.092641008343406, -50.09235846609718, -50.09209151584372, -50.091843559848, -50.09161652904514, -50.09145173255595])","array('d', [0.6512417197227478, 0.6640083832434043, 0.6755601391440289, 0.683862137157621, 0.6729233869920491, 0.6479480231405822, 0.6135528429996892, 0.5735204064592723, 0.5307727990286648, 0.4874676126996495, 0.44513433601735336, 0.4048058044641419, 0.36712692303112093, 0.3324375959052821, 0.30083285909186847, 0.27220485213846307])","array('d', [0.00022516684839498353, 9.960784231511464e-05, 1.676173824452922e-05, -3.7696366677304195e-05, -7.313389708211823e-05, -9.56848085114186e-05, -0.00010936083387839001, -0.00011677703013294477, -0.00011963403702948179, -0.00011904533277886063, -0.00011576583227950771, -0.00011035817343750705, -0.00010331944757068453, -9.518111100544465e-05, -8.658689830303181e-05, -7.83470745042004e-05])","array('d', [1.2888399223473408, 1.25852728720506, 1.2274462937874493, 1.1957283700840893, 1.1641060566184445, 1.1336348504795373, 1.1049921718570452, 1.0785312361745867, 1.0543711378599052, 1.0324812835059947, 1.0127446143314414, 0.9949996560501126, 0.979066740359159, 0.9647639349608002, 0.9519168499290713, 0.9374771152798556])",-125.55338236044935,-280.1797854846893,-50.0940677834794,0.6479480231405822,-9.56848085114186e-05,1.1336348504795373,25.000000249970867,-1.0,"[-282.7479930658721, -132.35987065855252, 50.22024351394132]","[-286.74208181122793, -116.80863175731443, 62.14526861793337]","[-267.77652262317815, -122.04106777463075, 58.5495519982219]",10000000000.0,0.05249381065368652
7,5.326025724411011,-281.91473388671875,-130.78883361816406,50.32195281982422,0.6557865142822263,-0.028260394930839535,1.2174904803421833,23.214165935552277,"array('d', [-135.51220703125, -133.13748274823766, -130.78803976575605, -128.46676994304278, -126.17619263853754, -123.91776183778501, -121.69181045031277, -119.4977721611792, -117.33443618010239, -115.20017701376439, -113.0931372600882, -111.01136260521704, -108.95289651067257, -106.91584339096785, -104.89840767775787, -103.30056429583507])","array('d', [-283.9206848144531, -283.13983474038645, -282.28579167449936, -281.35784930505275, -280.35650593572745, -279.28459693595653, -278.146744340034, -276.9484820892269, -275.6956147292313, -274.39381140842744, -273.0483806287776, -271.664164895847, -270.24550795086606, -268.796263319935, -267.31982545455907, -266.11698307189005])","array('d', [-50.1353645324707, -50.15692031769185, -50.171553001682, -50.18153114811591, -50.18836073124284, -50.193048164883905, -50.196270996223255, -50.19848922306087, -50.200018210051006, -50.20107654346233, -50.20181739772441, -50.20234896521211, -50.202747565142204, -50.203065810779265, -50.203337438503944, -50.20353143603224])","array('d', [0.6560411453247067, 0.6683510835062999, 0.6794895771921017, 0.6845452451480729, 0.6712477733789646, 0.6447008705276177, 0.6093721655032085, 0.5688867842103073, 0.5260259512098162, 0.4828325264342728, 0.4407478303036266, 0.4007397413201121, 0.3634072921234136, 0.32905998278981324, 0.29777517041686874, 0.26943814076199873])","array('d', [0.010313319042325018, 0.006987019938447765, 0.004756407477456651, 0.0032512407210415085, 0.002229477801107417, 0.0015321049163286816, 0.001054134368725192, 0.0007259225511826823, 0.0005010189475106612, 0.00034819717075303824, 0.00024618795871262294, 0.00018016738510965127, 0.00013939275910469974, 0.00011560064847459336, 0.0001019295900101488, 9.22297134856322e-05])","array('d', [1.2683510045197348, 1.237751227745085, 1.206405498683969, 1.1745396229625518, 1.1429504396958894, 1.1126342703425227, 1.08421463406108, 1.0580046776054461, 1.034097741511893, 1.0124486391411816, 0.9929332345430549, 0.9753876019963569, 0.9596322786204131, 0.9454869411453202, 0.9327794247454739, 0.9184946894820891])",-123.91776183778501,-279.28459693595653,-50.193048164883905,0.6447008705276177,0.0015321049163286816,1.1126342703425227,25.00000024997127,-1.0,"[-281.9864406960737, -130.6520794524607, 50.29984716119866]","[-285.6172314054065, -115.02599499851314, 62.24316510317445]","[-266.77459611009067, -120.60803448798703, 58.52887778719158]",10000000000.0,0.09949493408203125
8,5.448606252670288,-280.91339111328125,-128.6643524169922,50.42890930175781,0.652844190597534,-0.030914114788174688,1.198624507584844,23.226037459941104,"array('d', [-132.9215850830078, -130.57149070070187, -128.2487700377856, -125.95638766403266, -123.69665408842303, -121.47071505323322, -119.27860273657141, -117.11949016107805, -114.99195447075458, -112.89420302278057, -110.82424827667111, -108.78003460876559, -106.75952599642302, -104.76076366823504, -102.78190099397766, -101.21512997750406])","array('d', [-282.8598937988281, -282.00876310224936, -281.0849295773361, -280.0879355679476, -279.01888103102704, -277.88106425390254, -276.6793207131257, -275.4192158582393, -274.1064729844746, -272.74662064651466, -271.34480265524417, -269.90569366512136, -268.4334777758199, -266.93186256608266, -265.40411222884444, -264.16106502205])","array('d', [-50.225624084472656, -50.27162256279925, -50.30283091384268, -50.32413048488189, -50.33874782130394, -50.34883026854638, -50.35581779748846, -50.36068438833913, -50.364095402811046, -50.366510408823025, -50.36825032535834, -50.36954104567009, -50.370541415670424, -50.37136072095302, -50.37206913257885, -50.37257665435964])","array('d', [0.6578211188316343, 0.6699616702839376, 0.6809468965026386, 0.6815960784938865, 0.6652383333248454, 0.636783303965787, 0.6004514006636881, 0.5596248338205193, 0.5168767859729579, 0.4740857792030855, 0.432569820716758, 0.39320779160410624, 0.35653712517323954, 0.3228274318111851, 0.2921337039537653, 0.2643335303511919])","array('d', [0.022018691524863247, 0.014900983137936273, 0.010145697253218714, 0.006947524754494443, 0.004782529624975432, 0.0033080479792828277, 0.0022988185914757, 0.001606013948404876, 0.001130727203704324, 0.0008066835883312092, 0.0005888830872077115, 0.00044607551332826866, 0.0003557276823058962, 0.00030063559476252444, 0.00026666048041167756, 0.00024128440052384537])","array('d', [1.238611833253179, 1.2079050434820775, 1.1764606867868392, 1.1446458557865866, 1.1133465675162013, 1.0834650279059315, 1.0555463305236175, 1.0298493533184943, 1.0064350546773373, 0.9852417082342971, 0.9661387139917912, 0.9489615433454043, 0.9335332697525262, 0.9196775877950975, 0.9072268330109766, 0.8932273787265793])",-121.47071505323322,-277.88106425390254,-50.34883026854638,0.636783303965787,0.0033080479792828277,1.0834650279059315,25.00000024997179,-1.0,"[-280.78387366010674, -128.11012783244186, 50.43090467766185]","[-283.94395508017215, -112.37926631113874, 62.37049768647677]","[-265.26909701273036, -118.38841595402705, 58.479508515291855]",10000000000.0,0.12120795249938965
9,5.56740665435791,-279.44525146484375,-125.72702026367188,50.58631896972656,0.6469014883041379,-0.029108084738254505,1.1751998821881153,23.23987185991167,"array('d', [-130.78883361816406, -128.45743982032755, -126.1546880762412, -123.88358877033782, -121.64628595606065, -119.44370108579241, -117.2756615507303, -115.14117185575971, -113.03867814614644, -110.9662888704346, -108.9219426883243, -106.90352894849208, -104.90897030267998, -102.93627652907942, -100.98357663152461, -99.43780223572458])","array('d', [-281.91473388671875, -281.01440252564333, -280.04218082448637, -278.9977459605914, -277.8825643887968, -276.7001921358586, -275.4555502032292, -274.1541724986467, -272.80168358003004, -271.40348195146674, -269.96457246995834, -268.48949451384624, -266.9823069089553, -265.44660459484624, -263.8855522936889, -262.6164890302513])","array('d', [-50.32195281982422, -50.38090690874929, -50.42076804757724, -50.447871312733895, -50.46639207402093, -50.47910164004317, -50.487853848568, -50.49389996757315, -50.49809333153355, -50.50102262099694, -50.50309862672757, -50.50461044493554, -50.50576139207438, -50.5066913434775, -50.507489969116435, -50.50806119590248])","array('d', [0.6557865142822263, 0.6681206837895255, 0.6792811028808294, 0.677074821172201, 0.6588273031110482, 0.6292834504452827, 0.5924746878612789, 0.5516073812123881, 0.5091092049693523, 0.46674651137378853, 0.4257547510070811, 0.38695424445407717, 0.3508426099567496, 0.317664243998744, 0.2874605388393925, 0.26010507531201693])","array('d', [0.028260394930839535, 0.01906088169782222, 0.012931677940230275, 0.008819965655068578, 0.006043107082058052, 0.0041560704789311564, 0.0028672117907377905, 0.0019844150458325476, 0.0013803546437382084, 0.0009699242525436544, 0.0006954591361630824, 0.0005169729976631033, 0.000405641960607883, 0.00033942382215331764, 0.00030013215674149136, 0.000271570828451207])","array('d', [1.2174904803421833, 1.1869059889968978, 1.155574349183006, 1.1239617237614954, 1.0930126130374667, 1.063560370186811, 1.0360967270239712, 1.010845901538712, 0.9878496444200948, 0.9670375825845429, 0.9482768723862659, 0.9314042765025354, 0.9162459156188033, 0.9026292421993465, 0.890390453033562, 0.8766266475556816])",-119.44370108579241,-276.7001921358586,-50.47910164004317,0.6292834504452827,0.0041560704789311564,1.063560370186811,25.000000249972114,-1.0,"[-279.3052897006137, -125.1788003026322, 50.58697713524908]","[-281.98961273430376, -109.33963743528045, 62.49979919856836]","[-263.4915570363268, -115.71802992098121, 58.35998704185168]",10000000000.0,0.11583662033081055
10,5.682074308395386,-278.35186767578125,-123.64692687988281,50.69410705566406,0.6416627764701842,-0.026922691613435745,1.1576774279263358,23.254995567048653,"array('d', [-127.82215118408203, -125.51485563140058, -123.23771294471034, -120.99372726890628, -118.78480163305274, -116.61157057830052, -114.47361462619482, -112.369743051363, -110.29825500107415, -108.25715115715724, -106.24429214324533, -104.25751095913996, -102.29468938858625, -100.3538072468258, -98.43297120366266, -96.91271882530219])","array('d', [-280.50189208984375, -279.5418453318788, -278.511207037129, -277.40977454955544, -276.2394034234405, -275.00390729341484, -273.7082665854957, -272.3579447681007, -270.9584244918574, -269.51493154274965, -268.0322920281005, -266.51487411302423, -264.96657951428057, -263.39086266210916, -261.7907645814336, -260.49123612510533])","array('d', [-50.47407913208008, -50.53861212962949, -50.58195685304667, -50.6111902811552, -50.63096079368277, -50.64434406615888, -50.65339200585273, -50.65948664031334, -50.663569192134176, -50.666288692980146, -50.66809833822494, -50.66931759539188, -50.67017162681993, -50.67081552304301, -50.671348333797944, -50.6717259854415])","array('d', [0.6514587402343749, 0.6642047515387419, 0.675737820508659, 0.6702499054347253, 0.649889729056914, 0.6191855815596495, 0.5819339607106483, 0.5411288749804608, 0.49902515918153184, 0.4572572556334324, 0.4169641750391524, 0.37889819314655765, 0.3435109248163263, 0.31101787136183634, 0.2814451069245345, 0.25466208693675824])","array('d', [0.03101326525211339, 0.02078964406940458, 0.014001183893965551, 0.009461836916995018, 0.006405726022112924, 0.004335480729351956, 0.0029263937351357637, 0.0019653509110599612, 0.0013115979247807293, 0.0008713474319055689, 0.0005812089683215164, 0.00039726534152098396, 0.0002877861388261264, 0.00022832280704798632, 0.00019842455821437798, 0.00017954197926480054])","array('d', [1.1915919641640527, 1.1612663888940222, 1.1301734621551807, 1.0988965450994954, 1.0684467837798324, 1.0395746800067998, 1.012710218045593, 0.9880387620288972, 0.9655812933669266, 0.9452587165955612, 0.9269366353275306, 0.9104541436228907, 0.8956415671033947, 0.8823312660745991, 0.8703643727308932, 0.8569030327449413])",-116.61157057830052,-275.00390729341484,-50.64434406615888,0.6191855815596495,0.004335480729351956,1.0395746800067998,25.00000024997247,-1.0,"[-278.20095543945826, -123.09841693341892, 50.693172558431215]","[-280.54768894608384, -107.17018362660994, 62.558425424373084]","[-262.1801458447944, -113.7935506312894, 58.22663942508841]",10000000000.0,0.11212348937988281
11,5.806807994842529,-276.7707824707031,-120.78036499023438,50.84123611450195,0.6354555487632749,-0.024228820577263818,1.13469256559876,23.27071909874848,"array('d', [-125.72702026367188, -123.43553742748789, -121.17511900101374, -118.94869287646063, -116.75797754913697, -114.60341958859688, -112.48444958547076, -110.39976494520523, -108.34758496593771, -106.32585497895015, -104.33239801518666, -102.3650219497628, -100.42159201422609, -98.50007726867332, -96.59857749442614, -95.09376207830877])","array('d', [-279.44525146484375, -278.44778654503256, -277.3808438313228, -276.2442738528543, -275.0401281175381, -273.7723298333168, -272.44585403115565, -271.0660874549839, -269.63839985110684, -268.1678913558669, -266.6592633783907, -265.1167674372099, -263.54419976486054, -261.9449213331415, -260.3218913862377, -259.0045181361065])","array('d', [-50.58631896972656, -50.64674264223365, -50.68705923401131, -50.71401415985896, -50.732028579665396, -50.74402245019817, -50.751940944409675, -50.7570929731739, -50.76036976792057, -50.76238632668324, -50.76357285465344, -50.7642334673358, -50.76458319765734, -50.764770444288075, -50.764889604579864, -50.764967711135576])","array('d', [0.6469014883041379, 0.6600811790976202, 0.6717363011020924, 0.66438182361652, 0.6428860048241668, 0.6116272240710335, 0.5742489766519348, 0.5336117599739718, 0.4918642652315478, 0.4505613364260022, 0.4107846499147386, 0.3732466114853768, 0.33837232244307514, 0.3063610084566831, 0.27723049887118956, 0.25084855152233493])","array('d', [0.029108084738254505, 0.019397739475698478, 0.012964310212661364, 0.008671674457487977, 0.005788094838763839, 0.0038395455107290313, 0.0025173182359579833, 0.001619288711797825, 0.0010122740635616122, 0.0006077218529386126, 0.0003458687827463921, 0.0001852999720859717, 9.597441157870788e-05, 5.4514525134337294e-05, 4.1038514083415834e-05, 3.713318578669989e-05])","array('d', [1.1751998821881153, 1.145145175934541, 1.1143108508841328, 1.083350252702676, 1.0533035248638827, 1.0248696703680982, 0.9984422919923098, 0.9741850775032886, 0.9521083184471776, 0.9321292605989259, 0.9141138738513221, 0.8979036901004345, 0.883332382462591, 0.8702359110931934, 0.8584588937553678, 0.8452089014004728])",-114.60341958859688,-273.7723298333168,-50.74402245019817,0.6116272240710335,0.0038395455107290313,1.0248696703680982,25.000000249990084,-1.0,"[-276.37053405918795, -119.82509853583942, 50.8571767641845]","[-278.1787873893122, -103.78053967246696, 62.65981845042876]","[-260.03032092706695, -110.79447418218132, 58.029711781873736]",10000000000.0,0.12117671966552734
12,5.920357942581177,-275.60577392578125,-118.76318359375,50.94417190551758,0.6299744844436644,-0.024023104459047297,1.118437663712774,23.278329107078722,"array('d', [-123.23387145996094, -120.963562984214, -118.7253889300562, -116.52200737253658, -114.35485109277963, -112.22413330741261, -110.1291111179055, -108.06836220248206, -106.04002828885858, -104.04200760715601, -102.07209700890027, -100.12809204919445, -98.207854534726, -96.309355604526, -94.43070036114003, -92.94401274725014])","array('d', [-278.12933349609375, -277.0842578773864, -275.9712619217797, -274.79056411373773, -273.5444769196459, -272.2369850192977, -270.8729858931862, -269.4577096759101, -267.9963352993709, -266.4937660473466, -264.95451582768465, -263.3826651875678, -261.7818583621693, -260.15532322320587, -258.50590348230565, -257.16810556149704])","array('d', [-50.71516418457031, -50.77007730954388, -50.8063835100088, -50.830359574207236, -50.84610840173313, -50.85633349057083, -50.862832619093204, -50.86681425874239, -50.869101214247884, -50.870261965914004, -50.87069525772626, -50.87068411082298, -50.87042955696196, -50.87007071919194, -50.86969563967801, -50.86941591067468])","array('d', [0.6407625675201414, 0.654526453358342, 0.6629440411977883, 0.6534908364800955, 0.6308542124006619, 0.5991924512502986, 0.5619377479786937, 0.5217733210296759, 0.4807109869055016, 0.4402054630366147, 0.40126800095412196, 0.3645632695554957, 0.33048559692316753, 0.2992161594033493, 0.27076449991303075, 0.24499787318998958])","array('d', [0.026540003716945613, 0.017544245464488142, 0.011600925118887516, 0.007646205278366683, 0.004997135418171624, 0.0032127269563311327, 0.002006700899514175, 0.0011921997248606846, 0.0006464688175728774, 0.0002881106718944225, 6.228991680561549e-05, -6.901697885375465e-05, -0.000133549576087688, -0.00015319294749521086, -0.00014697439954227653, -0.00013298795017933546])","array('d', [1.154166863360677, 1.1244742047929086, 1.0940945986560444, 1.063756748732822, 1.0344177171743545, 1.0067097478727038, 0.9809823956252742, 0.9573752563432986, 0.9358885426596577, 0.9164379212584854, 0.8988923494923167, 0.8830984687027031, 0.8688957903804772, 0.8561260939273713, 0.8446394090595828, 0.831712777472525])",-112.22413330741261,-272.2369850192977,-50.85633349057083,0.5991924512502986,0.0032127269563311327,1.0067097478727038,25.000000249972906,-1.0,"[-274.99651816495884, -117.49120735756986, 50.976286674725685]","[-276.4331239105015, -101.35468320099122, 62.704404685558785]","[-258.44406630833964, -108.66211467861405, 57.90906822333314]",10000000000.0,0.11221814155578613
13,6.039992809295654,-274.16790771484375,-116.37512969970703,51.0683479309082,0.6222851872444153,-0.025162314996123387,1.0959266583111624,23.281471333869558,"array('d', [-120.78036499023438, -118.530570102303, -116.313879169809, -114.13270367569129, -111.98821732993149, -109.88042401560462, -107.80842590263947, -105.77069375893387, -103.76529986394279, -101.79010010425031, -99.84286767357882, -97.92138690597523, -96.02351639938065, -94.1472290481952, -92.29063462651511, -90.82146572475207])","array('d', [-276.7707824707031, -275.6820024227004, -274.5266979187455, -273.3054072683883, -272.0206669975057, -270.67651321427724, -269.2777755674448, -267.8295483859521, -266.3368448738179, -264.80439666342653, -263.2365533919566, -261.63724510618255, -260.0099816561486, -258.3578727855671, -256.68365934135795, -255.32664555857895])","array('d', [-50.84123611450195, -50.891189959695396, -50.92388488458116, -50.945172419094696, -50.95886844000474, -50.96748232530171, -50.97268035127582, -50.97558182365293, -50.976949114151964, -50.977309862020476, -50.97703539046531, -50.97639050389897, -50.97556427172724, -50.97468795923916, -50.9738441943428, -50.97322507602418])","array('d', [0.6354555487632749, 0.6497244637717414, 0.6552192144397528, 0.643868905286653, 0.620192153369117, 0.5881493534922935, 0.5509853464067287, 0.51122663651317, 0.47076365951566457, 0.4309617264947093, 0.3927686232427527, 0.3568055328467456, 0.3234384033772928, 0.29283150966389465, 0.2649864247099389, 0.2397696540684135])","array('d', [0.024228820577263818, 0.015876367483616167, 0.010372172000436676, 0.0067190127490132975, 0.0042785728141539105, 0.0026398863201963986, 0.0015369370168741012, 0.0007965918675264845, 0.00030543407642199, -1.1547891813953399e-05, -0.00020480543032009064, -0.00030935965095346934, -0.0003509325727867782, -0.00035013080018225025, -0.000325295426481612, -0.0002943395023951265])","array('d', [1.13469256559876, 1.1053103212872402, 1.0753235946156072, 1.0455267461299755, 1.0168039009032532, 0.9897294704038588, 0.9646148644546626, 0.9415785449916596, 0.9206115395178709, 0.9016276604555578, 0.8844980393843006, 0.8690734436951467, 0.8551982559648865, 0.8427192042492365, 0.8314909822234062, 0.8188524182740172])",-109.88042401560462,-270.67651321427724,-50.96748232530171,0.5881493534922935,0.0026398863201963986,0.9897294704038588,25.000000249973116,-1.0,"[-273.48229100787745, -115.04152351269414, 51.10608742069826]","[-274.4561791147386, -98.7955557151446, 62.73020339896937]","[-256.6747632879001, -106.48672023102877, 57.763590913314644]",10000000000.0,0.11818528175354004
14,6.100460767745972,-273.4307861328125,-115.19381713867188,51.13150405883789,0.6175984144210814,-0.024278094992041598,1.0854299823429923,23.281419155832552,"array('d', [-118.3622055053711, -116.13423075827214, -113.94017174349317, -111.78221115076282, -109.66127372629101, -107.57716486307238, -105.5288430806345, -103.51468312789378, -101.53269787370097, -99.58070990877779, -97.65647685161841, -95.75777901339325, -93.8824781878557, -92.02855472166583, -90.19412812819887, -88.74252677498237])","array('d', [-275.3688049316406, -274.2360195303137, -273.0382711870288, -271.7763972486411, -270.45312900218397, -269.0725274662585, -267.6393340775157, -266.15849274433833, -264.6348405948921, -263.0729301221467, -261.4769410649318, -259.85064856767883, -258.19742453219396, -256.52025761332806, -254.82178328591735, -253.44599312667418])","array('d', [-50.96453857421875, -51.0140515441895, -51.04621203290904, -51.06692994406883, -51.08005023632462, -51.08809637097995, -51.09274140921568, -51.095108190301346, -51.095961423096, -51.09583086428695, -51.09509011506388, -51.09400644279672, -51.09277134567678, -51.09151807108885, -51.09033020537048, -51.0894614780121])","array('d', [0.6287462711334225, 0.6436536577696244, 0.6463199288572702, 0.6331814063692557, 0.6085720279799612, 0.5762468400034555, 0.5392613271701423, 0.4999858247225798, 0.4601907282907996, 0.42115330381130484, 0.3837590119050887, 0.3485864510772227, 0.3159738989164351, 0.2860692987183575, 0.25886672252722037, 0.23423231804465958])","array('d', [0.024079520255327273, 0.01567378709461412, 0.010147535154965723, 0.006488040301394039, 0.004048933362959492, 0.0024152393995239443, 0.0013190796057481792, 0.0005865653656395929, 0.00010406986892281304, -0.00020338790759810872, -0.0003861624314094303, -0.00047922296608067706, -0.0005083685537816512, -0.0004944827907202048, -0.0004564443669564363, -0.00041300798182481607])","array('d', [1.1148432652142386, 1.085850112129756, 1.056327525606879, 1.027132856915896, 0.9990771234287138, 0.9726786226232575, 0.9482126428259322, 0.9257781394161859, 0.9053580797821349, 0.8868651598886227, 0.8701731750728351, 0.8551373618046659, 0.841607232322694, 0.8294346719193177, 0.818479215092819, 0.8061448617208681])",-107.57716486307238,-269.0725274662585,-51.08809637097995,0.5762468400034555,0.0024152393995239443,0.9726786226232575,25.00000024997332,-1.0,"[-272.8689296239375, -114.08119510392473, 51.15666741352061]","[-273.6707794814826, -97.78775135647864, 62.72735138875582]","[-255.96846415394614, -105.61408080487341, 57.68983221661799]",10000000000.0,0.05782818794250488
15,6.208142042160034,-271.9241943359375,-112.855712890625,51.257080078125,0.6072483062744138,-0.021528474986553265,1.0651895562794547,23.2786656936844,"array('d', [-117.16691589355469, -114.95189207159795, -112.77122096024021, -110.6269631115963, -108.51990467577156, -106.44974009710802, -104.41534761162266, -102.41504844163585, -100.44682255431351, -98.50847439501239, -96.59775347322906, -94.71243853598807, -92.85039388710199, -91.00960475769165, -89.1881967851014, -87.746912220403])","array('d', [-274.6519775390625, -273.4941455379864, -272.27221735783917, -270.98720288710194, -269.64194416359277, -268.24051745881695, -266.78761638849653, -265.2881022469511, -263.74671490252143, -262.1679074344201, -260.5557648999479, -258.91397579642364, -257.24583461464243, -255.5542618800012, -253.8418336577461, -252.45523905940172])","array('d', [-51.02640914916992, -51.07763166557522, -51.11082726061653, -51.132149490438074, -51.145596517763686, -51.15378926880846, -51.158463722385974, -51.16078408006875, -51.16154285923147, -51.16128901490125, -51.160409781960524, -51.159182339565035, -51.15780543382856, -51.15641742501149, -51.1551050411029, -51.15414574254022])","array('d', [0.6250491738319395, 0.6403083854838014, 0.6413401592398268, 0.6271644065979067, 0.602007252432987, 0.569506376100269, 0.532609863907217, 0.49359952861192025, 0.45417747680516096, 0.4155705748665571, 0.3786283244363816, 0.3439045298153481, 0.31172118881619715, 0.2822165082657227, 0.25537997818751507, 0.23107738101318243])","array('d', [0.02493180520832536, 0.016194954472870865, 0.010458041533818121, 0.0066632637210608005, 0.004136563184090967, 0.0024458544919642895, 0.0013126153981443598, 0.0005562880863760059, 5.903050015204505e-05, -0.0002568366700767776, -0.00044343682875986197, -0.0005369570146922904, -0.0005641145769851982, -0.0005465849516879209, -0.0005040320796342464, -0.00045606712879642475])","array('d', [1.1034540096905567, 1.0746736953559122, 1.0454069611275185, 1.0165465418753636, 0.9888623897688985, 0.9628414952577584, 0.9387389320901252, 0.916642581426971, 0.8965306520268995, 0.8783149556076678, 0.8618705557352453, 0.8470550230129801, 0.8337206291696962, 0.8217220812489209, 0.8109215931922424, 0.7987601653392046])",-106.44974009710802,-268.24051745881695,-51.15378926880846,0.569506376100269,0.0024458544919642895,0.9628414952577584,25.000000249973436,-1.0,"[-271.7129391847406, -112.31422864641006, 51.249549139919694]","[-272.2066426199983, -95.9326153588873, 62.71248955745972]","[-254.6490231072886, -103.9986290113064, 57.54824510101663]",10000000000.0,0.10555768013000488
16,6.303999662399292,-270.89630126953125,-111.31376647949219,51.338035583496094,0.5987511873245236,-0.019327592104673386,1.0525283972409107,23.28007319997444,"array('d', [-114.80168151855469, -112.6115787212136, -110.45652065405717, -108.33830807518915, -106.25746330720828, -104.21348205910225, -102.20510609679083, -100.23057104203892, -98.28780895862745, -96.37460256037897, -94.48869691581248, -92.62787722071933, -90.7900206747417, -88.97312884769583, -87.17534519001742, -85.7527309567353])","array('d', [-273.182373046875, -271.97796812545016, -270.7113627396399, -269.38382443196167, -267.9983451993003, -266.55898622033965, -265.0703205448959, -263.53703357523614, -261.96366878381895, -260.35448344231696, -258.71337867579086, -257.04387604814895, -255.34912168275255, -253.63190595064125, -251.89469164407436, -250.4889478911044])","array('d', [-51.152584075927734, -51.201624912054314, -51.23310348112733, -51.2530430207531, -51.26534765498254, -51.272571579142856, -51.276404137936744, -51.27797746855035, -51.278062488896595, -51.2771940244364, -51.2757504648093, -51.27400379392499, -51.27214992285406, -51.27032563663782, -51.26861633165172, -51.267369321205436])","array('d', [0.6160089969635009, 0.6321284942837554, 0.6303424399824381, 0.6144530824399708, 0.5884715964819954, 0.555812197593021, 0.5192237227966257, 0.48082639985889597, 0.4421990720810948, 0.4044784327500039, 0.36845017600994, 0.3346245164953484, 0.3032951870214027, 0.2745838427392723, 0.2484725984641108, 0.22482732481270848])","array('d', [0.023948736488819098, 0.015428699288478568, 0.00984795208803438, 0.006165291768503141, 0.0037192623740386396, 0.0020871130856289963, 0.000997118552311558, 0.00027361550838045015, -0.00019773614711931874, -0.0004921244474911232, -0.0006599240762246479, -0.000736141276596909, -0.000746778255263271, -0.0007132108046501663, -0.0006552009964180328, -0.0005928504335386936])","array('d', [1.0820587734368186, 1.053794306419709, 1.0251104109975555, 0.9969613131011353, 0.9700417313878459, 0.9447833141776858, 0.9214065676197005, 0.8999812635561535, 0.8804785966499278, 0.8628100334617264, 0.8468539093761279, 0.832472785819465, 0.819524539326092, 0.8078694780654591, 0.7973750717164618, 0.7855553787212449])",-104.21348205910225,-266.55898622033965,-51.272571579142856,0.555812197593021,0.0020871130856289963,0.9447833141776858,25.00000024997364,-1.0,"[-270.41608466353193, -110.39324067323604, 51.34786683771285]","[-270.58173151412103, -93.89613990315495, 62.65353918847023]","[-253.18242340075776, -102.22121507210827, 57.3660822754044]",10000000000.0,0.09319233894348145
17,6.401996850967407,-269.8498840332031,-109.78387451171875,51.4176139831543,0.5892845392227172,-0.01780005358159541,1.039799110093389,23.2801300800621,"array('d', [-113.2430191040039, -111.06912026992059, -108.93047401847926, -106.82867713148957, -104.76409375868283, -102.7361125384689, -100.74341111350827, -98.78419326137775, -96.85638153624251, -94.9577636055633, -93.086098270778, -91.23918935281978, -89.41493500154715, -87.61135841549141, -85.82662433901525, -84.4142294569236])","array('d', [-272.177978515625, -270.9444108177394, -269.6502152209007, -268.2968018258437, -266.88718629684075, -265.4253596558698, -263.9157702069611, -262.3629546781035, -260.7713039329628, -259.14492996935724, -257.48760135922237, -255.8027217041509, -254.0933337146969, -252.36213791271737, -250.61151940884864, -249.19550804607516])","array('d', [-51.236358642578125, -51.281512826014385, -51.31021208263381, -51.328118126943004, -51.33889541512797, -51.3449386979887, -51.34783087785524, -51.34863281601871, -51.348067612741374, -51.34663802592607, -51.34470102330411, -51.3425143922022, -51.34026472915063, -51.33808271955944, -51.336049621548, -51.33456817481927])","array('d', [0.6091866493225095, 0.6236345195509467, 0.6204117800567176, 0.6037772304309353, 0.5775872642775544, 0.5451059875429476, 0.5089544265275272, 0.47115275942399065, 0.4332058248935143, 0.39619779363465024, 0.3608784046351384, 0.32773427474434896, 0.29704465578503003, 0.26892349239523244, 0.2433503280026713, 0.2201925024140571])","array('d', [0.022123342379927663, 0.01413532118399118, 0.008911753985179235, 0.005470615954584816, 0.0031892999894126924, 0.0016706652789108688, 0.0006599401152248685, -7.259351997177417e-06, -0.0004377222935925601, -0.000701546106310959, -0.0008456521562755174, -0.0009027012387454109, -0.0008971224920079009, -0.0008492834360148576, -0.0007783779806955144, -0.0007043055880518991])","array('d', [1.0684925476696832, 1.0406830181976834, 1.012550765556869, 0.985009849078946, 0.9587079309640434, 0.9340445509746093, 0.9112219316558695, 0.8903017559305355, 0.8712536046485255, 0.8539909694826211, 0.838395993084054, 0.8243357241798245, 0.811672599071044, 0.8002712439516169, 0.7900030510710497, 0.7784360752016841])",-102.7361125384689,-265.4253596558698,-51.3449386979887,0.5451059875429476,0.0016706652789108688,0.9340445509746093,25.000000249973752,-1.0,"[-269.09041412205426, -108.49062564353595, 51.444312653598296]","[-268.94247009040873, -91.86577398924338, 62.561525435418474]","[-251.69915184797145, -100.45606287386202, 57.18798722779151]",10000000000.0,0.08828949928283691
18,6.520907163619995,-267.9754333496094,-107.13832092285156,51.55889129638672,0.5726822018623349,-0.01720018871128558,1.0165338675167894,23.28462515737132,"array('d', [-111.31376647949219, -109.15933111326908, -107.04015766568958, -104.9576015954973, -102.91185804358551, -100.90221072638072, -98.92728309652156, -96.9852611576784, -95.07407380210576, -93.1915298504976, -91.33541758369516, -89.50357432506662, -87.69393300011888, -85.90455116168522, -84.13362650002901, -82.73196083176511])","array('d', [-270.89630126953125, -269.62883955667473, -268.30290524714985, -266.9200235695314, -265.48317994209566, -263.99623667943, -262.46346041960703, -260.8891872152267, -259.2776094967605, -257.63265443941907, -255.95792431810725, -254.2566761371695, -252.531824930368, -250.7859607848336, -249.02137361106543, -247.59474032689232])","array('d', [-51.338035583496094, -51.377270583478435, -51.40179571881273, -51.4166928219196, -51.42524575224292, -51.42959817711827, -51.43116648776732, -51.43090056257551, -51.42944921529479, -51.427265354654125, -51.42467250801137, -51.421906119411695, -51.41913796192823, -51.416488934614, -51.414033741778695, -51.41224678647673])","array('d', [0.5987511873245236, 0.6108863463648935, 0.6063100153445773, 0.5891090347986254, 0.562947607331506, 0.5309111536132333, 0.4954728286007871, 0.458539594879618, 0.42153421167799726, 0.3854838087835071, 0.35110004143512774, 0.31884535276767345, 0.2889849087543795, 0.2616259127482027, 0.23674661138988717, 0.21421721198343882])","array('d', [0.019327592104673386, 0.012180983149362938, 0.007517257771533451, 0.0044516404288440815, 0.0024245344545775005, 0.0010798396222507706, 0.0001896589942881543, -0.0003926844997816518, -0.0007622286526455036, -0.000981207072014175, -0.001091235107627838, -0.0011213734344130448, -0.0010936160315618247, -0.001026722119267984, -0.0009388975346694903, -0.0008495496999724921])","array('d', [1.0525283972409107, 1.0253979951553773, 0.9980563709363464, 0.9713498526552388, 0.9458733106741948, 0.9219920937239193, 0.8998903389761406, 0.8796230365865749, 0.8611600489104216, 0.8444188894708581, 0.8292874039232037, 0.8156388350843915, 0.8033416711422887, 0.7922661393043852, 0.782288647769335, 0.7710466237570172])",-100.90221072638072,-263.99623667943,-51.42959817711827,0.5309111536132333,0.0010798396222507706,0.9219920937239193,25.000000249973873,-1.0,"[-267.46156541846227, -106.23629055198367, 51.56447736728415]","[-266.91020160465337, -89.46542848951185, 62.44722442978474]","[-249.87458507120658, -98.41557177681474, 56.99904083687047]",10000000000.0,0.10035967826843262
19,6.575845003128052,-267.15423583984375,-106.0163345336914,51.621089935302734,0.5656639337539671,-0.016523137688636728,1.007655994096074,23.28359636651292,"array('d', [-109.02418518066406, -106.89457386179416, -104.80005735958817, -102.74172859379453, -100.71960000871668, -98.73284545251926, -96.78003642083814, -94.85934844712718, -92.96872726850113, -91.10601513660664, -89.26904284257047, -87.45569430983161, -85.6639499626145, -83.8919137898998, -82.13782772513677, -80.74921488874823])","array('d', [-269.3206481933594, -268.01179185233667, -266.647185338593, -265.22846445361813, -263.7585550803929, -262.2411486711776, -260.6802829822905, -259.0800458752841, -257.4443862190635, -255.77700497274202, -254.08130097592772, -252.36035178883623, -250.6169159855113, -248.85344814333328, -247.07212119855595, -245.63277945181986])","array('d', [-51.45718002319336, -51.49280612993544, -51.51468987002236, -51.52759959117057, -51.534610673053535, -51.53772795467945, -51.53827530392256, -51.53714096785526, -51.53493284252171, -51.53207689066458, -51.52887915930915, -51.52556400472126, -51.5222963276872, -51.51919273230108, -51.51632487443752, -51.51423893932474])","array('d', [0.5844849348068234, 0.5939937815376664, 0.5879455724342166, 0.5702069993536835, 0.5442069445439537, 0.5128167630020312, 0.47833430421244694, 0.44253289123776096, 0.40673851017803825, 0.37191103459179103, 0.33871722492510165, 0.3075910872458227, 0.27878133515427134, 0.25238748352455587, 0.22838661355063863, 0.20665277243857])","array('d', [0.017647979781031595, 0.010965402178058092, 0.006614410419755785, 0.003761016126150969, 0.0018792491319049502, 0.0006353280337206606, -0.00018378420421258512, -0.000714825850166635, -0.0010461475313570793, -0.001235456383254148, -0.0013212973751763706, -0.0013306706805006675, -0.001284246119325786, -0.0012000356023597113, -0.0010959869091924752, -0.000991690056894613])","array('d', [1.032784239449773, 1.0065492924453001, 0.9802235390366038, 0.9545738265237248, 0.9301346310564447, 0.9072328636586926, 0.8860326986804989, 0.866582091894541, 0.848851767915021, 0.8327643452440413, 0.8182146862537906, 0.8050836055051123, 0.7932469879683943, 0.7825819210053161, 0.7729709746822089, 0.7621389825778715])",-98.73284545251926,-262.2411486711776,-51.53772795467945,0.5128167630020312,0.0006353280337206606,0.9072328636586926,25.000000249974015,-1.0,"[-266.90949190655505, -105.49056925723234, 51.60484088691011]","[-266.23656787221546, -88.67093440970686, 62.405167587520374]","[-249.264816334532, -97.72971448624192, 56.937247208792186]",10000000000.0,0.052524566650390625
20,6.682487487792969,-265.7649841308594,-104.16217041015625,51.72422409057617,0.554457068443298,-0.014748568646609842,0.992155806222234,23.281834632436887,"array('d', [-107.89036560058594, -105.7736687221154, -103.69196919829626, -101.64623958039901, -99.63640700175908, -97.66159340523177, -95.72034546376587, -93.81083356850945, -91.93101145746078, -90.07873749285157, -88.25186310606135, -86.44829496928749, -84.66603678633061, -82.9032153671049, -81.15809442404715, -79.77644783535065])","array('d', [-268.51727294921875, -267.18762262686846, -265.80353397815753, -264.3666982975922, -262.8800151081004, -261.3470963395698, -259.7718722095882, -258.15831317124554, -256.51025213197255, -254.83128168183967, -253.12470264324867, -251.39350566985806, -249.64037321824236, -247.86769368931763, -246.07758271711074, -244.6315523312902])","array('d', [-51.51786422729492, -51.55328147679612, -51.57491838888578, -51.5875652016095, -51.59430843213602, -51.59715868225793, -51.59744301335058, -51.5960517364295, -51.593594402498965, -51.590498557477225, -51.58707188097529, -51.583540394758224, -51.580070577053604, -51.57678030912943, -51.573741929205525, -51.5715322778186])","array('d', [0.5775093436241148, 0.5857179888837711, 0.578936307540325, 0.5609216182779044, 0.5349882718869634, 0.5039041233857121, 0.4698821616880098, 0.43463062496089633, 0.399427925368715, 0.3652004766481637, 0.33259237992948315, 0.30202303053545787, 0.27373247843020154, 0.24781599690607645, 0.22424977902751853, 0.2029096094307574])","array('d', [0.017575163394212792, 0.010871468213048784, 0.006511031964839601, 0.0036541236537366456, 0.0017718678337098493, 0.0005290653045497206, -0.00028797063898280257, -0.0008162383988975314, -0.001144158687832011, -0.0013294272920829242, -0.0014105612649594598, -0.0014145618817748599, -0.0013621671934327749, -0.0012715593988320414, -0.0011609896394141521, -0.0010505069648026795])","array('d', [1.022782520451818, 0.9969790582013773, 0.9711425736782151, 0.9460022546401715, 0.9220640801790114, 0.8996366923367848, 0.8788745598102605, 0.8598219683749432, 0.8424497213604109, 0.826682588889468, 0.8124185716365445, 0.7995419624376693, 0.7879321049418907, 0.7774693378231523, 0.7680391825955072, 0.757409552777034])",-97.66159340523177,-261.3470963395698,-51.59715868225793,0.5039041233857121,0.0005290653045497206,0.8996366923367848,25.000000249974086,-1.0,"[-265.1010286016459, -103.1089254933876, 51.73547678454141]","[-264.03548080974616, -86.15110565376818, 62.285213946679036]","[-247.2743038628544, -95.55112544033938, 56.74422347862601]",10000000000.0,0.1003415584564209
21,6.771342039108276,-264.3489685058594,-102.32606506347656,51.825191497802734,0.5412974357604978,-0.012533169239759544,0.9768588105824335,23.286157944955363,"array('d', [-106.0163345336914, -103.91949085381235, -101.85739607308706, -99.8308453076007, -97.83964674342835, -95.8828547412123, -93.95898837081319, -92.06621872384021, -90.20251871891075, -88.36577699226079, -86.55388116370578, -84.76477654473801, -82.99650569824048, -81.24723313475283, -79.5152583158752, -78.14379697454604])","array('d', [-267.15423583984375, -265.7934274958643, -264.3802636276091, -262.9164838431457, -261.40492347618175, -259.84905875263433, -258.25264802643704, -256.6194789131441, -254.95320602090032, -253.25725645310953, -251.53478192542508, -249.7886411668088, -248.0214012126378, -246.23535015868612, -244.43251678183327, -242.9768224665252])","array('d', [-51.621089935302734, -51.65422506691544, -51.67415102639588, -51.68547414837382, -51.69115850863751, -51.69313323141915, -51.69267125096746, -51.69062707854613, -51.687586813801914, -51.68396292061476, -51.680053681095224, -51.67607953637371, -51.672203827830906, -51.66854264953547, -51.665166949112866, -51.66271280805897])","array('d', [0.5656639337539671, 0.5721167415439848, 0.5644090232673054, 0.5461289085543284, 0.5204191089203332, 0.48989518804309407, 0.4566466892336597, 0.42228791878016336, 0.38802907663616165, 0.3547489264689236, 0.32305957975985866, 0.2933600721706257, 0.26587865775422215, 0.2407051538493628, 0.21781507724054497, 0.1970872499525884])","array('d', [0.016523137688636728, 0.010093056085841988, 0.005917547588791989, 0.0031865423192545357, 0.0013909051846412712, 0.00020859654505741047, -0.0005652712577924902, -0.0010617840399957156, -0.0013653640213003588, -0.0015309885707382983, -0.0015953309299731656, -0.0015841723026239394, -0.0015175078391762332, -0.0014131762744244599, -0.0012894488783901216, -0.0011667417014512554])","array('d', [1.007655994096074, 0.9825626785116959, 0.9575105110654717, 0.9331742082171889, 0.9100195349673865, 0.8883299542827593, 0.868247021827512, 0.8498106284809464, 0.8329924140341904, 0.8177208388013301, 0.8038989158749434, 0.7914163647470643, 0.7801578677441398, 0.7700087545809627, 0.760859065033062, 0.7505435177465783])",-95.8828547412123,-259.84905875263433,-51.69313323141915,0.48989518804309407,0.00020859654505741047,0.8883299542827593,25.000000249974185,-1.0,"[-264.0862655636149, -101.81033985619341, 51.805163840828435]","[-262.79917275838807, -84.77076459825241, 62.19728908736479]","[-246.15965306752926, -94.3624155086469, 56.61816574488062]",10000000000.0,0.08821773529052734
22,6.845716714859009,-263.488037109375,-101.23304748535156,51.884681701660156,0.5325347185134884,-0.011020575650036396,0.967879192033086,23.290880889748546,"array('d', [-104.16217041015625, -102.08617648644595, -100.04472297012309, -98.0384239107336, -96.06696661488677, -94.12933558729226, -92.22401941885529, -90.34918674455147, -88.50282658549068, -86.68285508149692, -84.88719366884818, -83.11382432039359, -81.36082681908464, -79.62640200274068, -77.90888390364226, -76.54866588405247])","array('d', [-265.7649841308594, -264.37248322995373, -262.92961947240593, -261.438182443245, -259.9009525712295, -258.3212832455558, -256.7027743544812, -255.04904280203345, -253.3635749847504, -251.64964046212037, -249.9102478690845, -248.1481284703824, -246.36573713429473, -244.56526401419427, -242.74865275416224, -241.28244690200995])","array('d', [-51.72422409057617, -51.753577505082596, -51.77078850849622, -51.780107010051395, -51.7842643918139, -51.785037133042444, -51.78359760657687, -51.78073387743556, -51.77698812034423, -51.77274386885506, -51.76828053123787, -51.763806428767715, -51.75947725219248, -51.75540424588439, -51.75165499989389, -51.74893027258795])","array('d', [0.554457068443298, 0.5590952386494323, 0.5503975804561062, 0.5317853345204204, 0.506233840981033, 0.4762102703937072, 0.44368317168725907, 0.4101738218792441, 0.37682392175971713, 0.3444635651846537, 0.31367151031046203, 0.28482500491230467, 0.2581391966446319, 0.23369736608843336, 0.2114735690313555, 0.19134921551835754])","array('d', [0.014748568646609842, 0.00883341337615702, 0.0049994643856956745, 0.0024971004225214006, 0.0008561806735550827, -0.0002200342483020371, -0.0009199116508812658, -0.0013636693962254148, -0.0016285191554553232, -0.0017646133140138823, -0.0018053785950974128, -0.0017744216790233718, -0.0016903241920279417, -0.0015700880436966998, -0.001431619771973352, -0.0012953832573754157])","array('d', [0.992155806222234, 0.967728012560368, 0.9434164813520163, 0.9198439680581312, 0.8974376843870296, 0.8764564986685052, 0.8570288073831562, 0.839189402212605, 0.822909900094924, 0.8081216221252774, 0.7947318819667407, 0.7826352577662004, 0.771721340122919, 0.7618801362364614, 0.7530059818601014, 0.7429991754177364])",-94.12933558729226,-258.3212832455558,-51.785037133042444,0.4762102703937072,-0.0002200342483020371,0.8764564986685052,25.00000024997429,-1.0,"[-262.9292827895248, -100.35869449246148, 51.88223470818114]","[-261.4049057734485, -83.21783935329336, 62.07376844020166]","[-244.898131330487, -93.02558614030475, 56.47604564864966]",10000000000.0,0.062430620193481445
