,current_time,x_pos,y_pos,z_pos,roll,pitch,yaw,vel,x_traj,y_traj,z_traj,roll_traj,pitch_traj,yaw_traj,x_cmd,y_cmd,z_cmd,roll_cmd,pitch_cmd,yaw_cmd,vel_cmd,effector_dmg,effector_x,effector_y,effector_z,cost,time_solution
0,21.806692123413086,-230.96026611328125,-77.4212875366211,50.039939880371094,0.6277315020561216,0.038527790457010096,0.4854472438481191,23.111408702523203,"array('d', [-78.82810974121094, -77.62068410345533, -76.46458261175326, -75.35183579249706, -74.27601648861943, -73.23189230100162, -72.21517380174772, -71.22232568889055, -70.25041993402401, -69.29701798029056, -68.36007416304963, -67.4378557018492, -66.52887655520331, -65.63184360929809, -64.74561438747311, -64.0445715893764])","array('d', [-233.87115478515625, -231.68357934319627, -229.46763007004915, -227.22924260306993, -224.97271652798182, -222.70127733142098, -220.41740382298556, -218.12303443932853, -215.8197059200553, -213.50865138206237, -211.19087233801434, -208.86719293480127, -206.5383013483044, -204.20478139690616, -201.86713633595326, -199.99151437592047])","array('d', [-50.03888702392578, -49.960153476935446, -49.90796745617596, -49.87284766592657, -49.848843809985524, -49.832173529814405, -49.8204001182423, -49.811931721638956, -49.80571329786748, -49.80103534584213, -49.7974142055342, -49.79451679162869, -49.792113289525986, -49.79004766514812, -49.78821958457712, -49.78690119466064])","array('d', [0.6276966333389279, 0.5365338625177124, 0.45994539359417147, 0.3956547814379908, 0.3417742143456837, 0.29669311020235406, 0.259013728015221, 0.22751246486770524, 0.20111607966622802, 0.17888696342495142, 0.16001406313874125, 0.14380743910104868, 0.1296952380613906, 0.11722235141290654, 0.106050329622163, 0.09595831512562311])","array('d', [-0.03811124339699732, -0.025103453485028633, -0.016787247270176817, -0.011399422677901729, -0.007862962226425504, -0.005512572874585535, -0.0039325500189091, -0.002860071555908244, -0.0021269033597073376, -0.001623852340101117, -0.0012788167853618733, -0.0010430479345417709, -0.0008824333973338159, -0.0007719100274292268, -0.0006918894480344907, -0.000626047834710464])","array('d', [0.5176713029530381, 0.4918606571528889, 0.4705322401839558, 0.4526582620135434, 0.4375125460225998, 0.4245561098671823, 0.4133755161539641, 0.4036470985480518, 0.3951147692965044, 0.3875752980567278, 0.3808678314440684, 0.37486586638577934, 0.3694706559727679, 0.36460544925420396, 0.3602102061060177, 0.3552489997707601])",-74.27601648861943,-224.97271652798182,-49.848843809985524,0.3417742143456837,-0.007862962226425504,0.4375125460225998,25.000000246660903,-1.0,"[-229.63455113394025, -76.72190097194378, 49.982162491197315]","[-218.98909022796394, -62.781249468438915, 59.59113734584011]","[-209.6639360322665, -76.88720496748817, 48.91108497306083]",10000000000.0,0.01735067367553711
1,21.824010610580444,-230.542724609375,-77.2285385131836,50.0402946472168,0.6278821825981138,0.038663271814584475,0.48085637489822897,23.110770637397383,"array('d', [-78.41641998291016, -77.22960130251809, -76.0941770450172, -75.00201228669815, -73.94657922065838, -72.92258542963826, -71.92570870351254, -70.95239991742604, -69.9997305603996, -69.06527082994867, -68.14698991179327, -67.2431735167049, -66.35235582387445, -65.47326422653026, -64.60477602500198, -63.91779401774872])","array('d', [-233.04327392578125, -230.84444617122946, -228.61782928310632, -226.36932638913706, -224.10319276422015, -221.82260717006332, -219.5300030681425, -217.22727643682086, -214.91592498159903, -212.59714631188928, -210.27190987036738, -207.9410109979555, -205.60511211768082, -203.26477411908644, -200.92047991220178, -199.03970701111191])","array('d', [-50.038944244384766, -49.96032144490699, -49.90819786218564, -49.873111955900065, -49.8491254297949, -49.83246307710857, -49.8206923875642, -49.8122239340721, -49.80600405443946, -49.80132401649276, -49.79770057735028, -49.7948008698263, -49.79239518717238, -49.79032754319186, -49.78849761916014, -49.787177918512675])","array('d', [0.6275563836097715, 0.5347910827453844, 0.45712847539801865, 0.39215290795239655, 0.33787903157138066, 0.292623616065285, 0.2549324712568215, 0.2235369380689197, 0.19732731756394517, 0.1753364442721414, 0.15672953629774727, 0.1407980454135948, 0.1269561476227948, 0.11473906404371742, 0.103802738739318, 0.0939246106102512])","array('d', [-0.03805454075336443, -0.025071105623370584, -0.016769391504981405, -0.01139002732295895, -0.007858412209423541, -0.005510735501973016, -0.003932185178383362, -0.0028604691876862784, -0.0021276643586783015, -0.001624757673342416, -0.0012797500556333303, -0.001043950079491526, -0.0008832766761565055, -0.0007726835942079761, -0.000692591837589494, -0.0006266833831199092])","array('d', [0.5082553187992909, 0.4824974591010748, 0.46128493646280566, 0.4435606148594, 0.4285815460231455, 0.4157982636813869, 0.4047903963241827, 0.39522958602546143, 0.38685661378137526, 0.37946628299324703, 0.3728966786155497, 0.3670209441174475, 0.3617405212756809, 0.3569792382574158, 0.35267787956540164, 0.34782241373521705])",-73.94657922065838,-224.10319276422015,-49.8491254297949,0.33787903157138066,-0.007858412209423541,0.4285815460231455,25.000000246657493,-1.0,"[-229.63455113394025, -76.72190097194378, 49.982162491197315]","[-218.98909022796394, -62.781249468438915, 59.59113734584011]","[-209.6639360322665, -76.88720496748817, 48.91108497306083]",10000000000.0,0.01638507843017578
2,21.848870277404785,-230.12425231933594,-77.03763580322266,50.04060745239258,0.6280745863914488,0.038700755685567745,0.4763034145024158,23.109561214910773,"array('d', [-78.21343231201172, -77.03668759865808, -75.91136661913787, -74.8292551306902, -73.78377706791575, -72.76961127349965, -71.78241991126403, -70.81864737761255, -69.8753651287393, -68.95014779616315, -68.04097194716957, -67.14613243141527, -66.26417339615004, -65.39383233041404, -64.53399626390546, -63.854581595560596])","array('d', [-232.6279754638672, -230.42374263128514, -228.1920036338561, -225.93864565632822, -223.6679021902075, -221.38292911062914, -219.08613776068637, -216.77940348971336, -214.46420509995355, -212.1417230513545, -209.8129113300298, -207.4785514156653, -205.1392933533471, -202.79568702019415, -200.44820555856867, -198.5669172764969])","array('d', [-50.039093017578125, -49.96039321004453, -49.90821275022805, -49.873084270972946, -49.84906557022783, -49.83237869569804, -49.82058915028313, -49.81210604459823, -49.80587462964883, -49.80118536118946, -49.79755438857181, -49.79464839131371, -49.79223732861318, -49.790164974776005, -49.788330849018365, -49.78700949943762])","array('d', [0.6274710893630979, 0.5339293041769723, 0.4557466953883097, 0.3904398183106632, 0.3359760006068248, 0.29063681816804815, 0.25294074073926026, 0.22159727707897753, 0.1954790490483172, 0.17360454696355057, 0.15512746444857176, 0.13933021014008584, 0.1256201676113046, 0.11352785503245397, 0.10270648982170741, 0.09293268348030381])","array('d', [-0.03809019178152066, -0.025097251215656164, -0.016788869053842005, -0.011404691900389423, -0.007869547440200953, -0.00551926171709856, -0.003938776115283203, -0.002865624030619075, -0.0021317555421681874, -0.0016280640059418044, -0.0012824801227844967, -0.0010462588313897045, -0.000885277106915234, -0.000774454872738263, -0.0006941849134377473, -0.0006281248578921806])","array('d', [0.5036700526860101, 0.47793871585336706, 0.4567831119395934, 0.43913193388577654, 0.4242341603070615, 0.4115352798711016, 0.4006115793934218, 0.3911324348851101, 0.3828371111856567, 0.37551945724514624, 0.36901704117658013, 0.3632028331946727, 0.3579783654470875, 0.3532677466817637, 0.34901216182070705, 0.34420326355862885])",-73.78377706791575,-223.6679021902075,-49.84906557022783,0.3359760006068248,-0.007869547440200953,0.4242341603070615,25.000000246655702,-1.0,"[-228.79220667967803, -76.3504050109364, 49.982570808778675]","[-217.99260712233266, -62.48785445538574, 59.53235308356314]","[-208.82952989184915, -76.66133038635851, 48.80152852520186]",10000000000.0,0.022888898849487305
3,21.869413375854492,-229.70486450195312,-76.84858703613281,50.0408821105957,0.6283375024795531,0.038712311536073574,0.4718256751683094,23.10761557917881,"array('d', [-78.01233673095703, -76.84576253913391, -75.73064419151085, -74.65868692480782, -73.62326569417337, -72.61903013297173, -71.64162646452442, -70.68749239872955, -69.75369922916445, -68.83782594930524, -67.93785647781527, -67.052094801869, -66.17909505354224, -65.31760484412469, -64.46652096252491, -63.79402218832424])","array('d', [-232.21180725097656, -230.00217699311932, -227.7653235036803, -225.5071176243469, -223.23177083336094, -220.9424160034238, -218.64144231769308, -216.3307045029959, -214.01166249525164, -211.68547966000338, -209.35309459124724, -207.01527497499632, -204.6726585446549, -202.32578422689815, -199.97511545234914, -198.09132422833636])","array('d', [-50.039302825927734, -49.96054073393874, -49.9083127497231, -49.87314769124804, -49.84910068344223, -49.832391792464755, -49.82058501410942, -49.81208830236154, -49.805846019378414, -49.80114793933372, -49.797509691413055, -49.79459756157308, -49.792181215945405, -49.79010421697607, -49.78826593914401, -49.78694157949155])","array('d', [0.6274217963218687, 0.533093875050537, 0.4543840913978594, 0.38874044689646875, 0.33408253502401963, 0.28865647118292787, 0.250953183516319, 0.21966018099227108, 0.19363226066209688, 0.17187344107757843, 0.15352578104941628, 0.13786255318392, 0.12428427361933644, 0.11231670086311907, 0.1016102875712359, 0.09194079857653387])","array('d', [-0.03811859712004652, -0.025118813153111555, -0.016805418796644832, -0.01141747140417583, -0.007879462444942273, -0.005526996641131674, -0.00394485532117179, -0.002870450634948568, -0.0021356391237643975, -0.0016312414843618905, -0.0012851316665756615, -0.0010485198707932742, -0.0008872472636764111, -0.0007762045017945891, -0.0006957598588504105, -0.00062954992756113])","array('d', [0.49905307690170775, 0.47334649236873366, 0.4522465862172926, 0.43466767567806436, 0.4198505647238098, 0.40723563406039026, 0.3963957835271603, 0.38699808791187146, 0.37878026802223774, 0.3715351964872441, 0.36509990791965363, 0.3593471871372556, 0.3541786483179445, 0.3495186754966031, 0.3453088509816438, 0.3405516466776564])",-73.62326569417337,-223.23177083336094,-49.84910068344223,0.33408253502401963,-0.007879462444942273,0.4198505647238098,25.00000024665381,-1.0,"[-228.36975558353828, -76.16732797146956, 49.982828146189114]","[-217.49497281240778, -62.34479096590934, 59.50525275395796]","[-208.41151861689775, -76.55026951961479, 48.74908062172217]",10000000000.0,0.01846623420715332
4,21.88564419746399,-229.70486450195312,-76.84858703613281,50.0408821105957,0.6283375024795531,0.038712311536073574,0.4718256751683094,23.10761557917881,"array('d', [-77.81314849853516, -76.65671809921376, -75.55178024393759, -74.48995976218094, -73.46458238760589, -72.47026819178872, -71.50264708771046, -70.55814974612883, -69.63384697427624, -68.72732183525581, -67.83656533689984, -66.95989036906592, -66.09586083801997, -65.24323428775666, -64.40091709515094, -63.73532413069473])","array('d', [-231.7947540283203, -229.57980777242827, -227.33791211926678, -225.07492396297397, -222.79503403683276, -220.50135300061012, -218.19624844970582, -215.8815549513081, -213.5587139740372, -211.22887214364073, -208.89295298064178, -206.55171066393515, -204.2057708718018, -201.85566180861633, -199.50183739465717, -197.61550201415065])","array('d', [-50.03954315185547, -49.960508671456985, -49.908093669343316, -49.872798046361154, -49.848658454504495, -49.8318829099461, -49.820027399794874, -49.81149446425653, -49.80522474853102, -49.8005054388091, -49.79685034135465, -49.79392444917891, -49.791496513366155, -49.78940946142, -49.787562250876476, -49.78623139178704])","array('d', [0.6274498701095581, 0.5323296067111484, 0.4530869466315553, 0.38710111740248665, 0.33224395613409263, 0.28672614533956714, 0.24901110119627787, 0.21776435074798894, 0.19182287053387462, 0.17017620028207636, 0.1519547487335905, 0.1364226319828109, 0.12297347547102948, 0.11112825389689716, 0.10053463156225648, 0.0909675046825492])","array('d', [-0.038248673081397865, -0.025207452178031838, -0.01686688145158925, -0.011460774031632134, -0.007910436275815775, -0.005549488402893906, -0.003961447854708652, -0.002882906316454358, -0.0021451783582143113, -0.0016387203924987748, -0.0012911566541580232, -0.0010535218255133788, -0.000891529468175503, -0.0007799732470000444, -0.0006991437055705091, -0.0006326117589663732])","array('d', [0.4944629232075555, 0.46877690585343407, 0.4477291777168113, 0.43021948275154964, 0.41548035257149474, 0.40294699980748505, 0.39218889391502276, 0.38287077390529006, 0.37472878763106887, 0.36755480663965695, 0.3611853106661308, 0.35549288063178625, 0.3503791967327424, 0.3457689044318094, 0.3416039714171266, 0.33689764484562595])",-73.46458238760589,-222.79503403683276,-49.848658454504495,0.33224395613409263,-0.007910436275815775,0.41548035257149474,25.00000024665184,-1.0,"[-228.36975558353828, -76.16732797146956, 49.982828146189114]","[-217.49497281240778, -62.34479096590934, 59.50525275395796]","[-208.41151861689775, -76.55026951961479, 48.74908062172217]",10000000000.0,0.013401031494140625
5,21.907702684402466,-228.8634033203125,-76.47610473632812,50.04147720336914,0.6286428570747373,0.038743022829294066,0.46299620071915154,23.108815188078346,"array('d', [-77.4212875366211, -76.28486578795275, -75.20002781667881, -74.1582364302889, -73.15271792034525, -72.17803225897954, -71.22977575192579, -70.3043640017754, -69.39886586634132, -68.51087160022236, -67.63838548336714, -66.77973735535475, -65.93350987163858, -65.09847970202806, -64.27357172009346, -63.62178671524944])","array('d', [-230.96026611328125, -228.73500870005276, -226.4833271780503, -224.2110527380627, -221.9223365235628, -219.6202465055137, -217.30710871582727, -214.98471890081865, -212.654482982423, -210.31751538491793, -207.9747106506102, -205.62679700452435, -203.27437696885573, -200.91795815495024, -198.55797621670033, -196.66692451457874])","array('d', [-50.039939880371094, -49.960321106437064, -49.90750532653806, -49.87193027651517, -49.847592859753284, -49.830675159318666, -49.81871593189953, -49.810106077231005, -49.80377825448636, -49.79901409372788, -49.795323490243334, -49.792368664563504, -49.78991640638897, -49.78780828279623, -49.78594235880976, -49.78459807022896])","array('d', [0.6277315020561216, 0.5310227381516639, 0.45070739610992666, 0.38402767281059147, 0.32876065786811903, 0.2830468767037173, 0.24529530273936315, 0.2141279506983546, 0.1883464949273766, 0.16691176355058648, 0.14893103614759945, 0.13365022598530593, 0.12044923750622048, 0.10883949662762861, 0.09846307433029616, 0.08909308201575282])","array('d', [-0.038527790457010096, -0.025397500539764587, -0.01699850368121314, -0.011553367744300182, -0.007976551870081708, -0.0055974037820420855, -0.003996718199540269, -0.002909319402107843, -0.002165355073060897, -0.0016544979587486924, -0.0013038356333718746, -0.0010640259464800557, -0.000900508684228748, -0.0007878694213024287, -0.0007062317704994827, -0.0006390253059129535])","array('d', [0.4854472438481191, 0.45978978507524293, 0.43883522884386517, 0.4214538357080954, 0.40686145055062045, 0.39448286723380527, 0.3838806311276475, 0.37471475295366596, 0.3667181805182008, 0.35968073061873684, 0.35343772212953956, 0.3478612788045189, 0.3428531655946632, 0.33833850605051263, 0.334259996835781, 0.32965100737461434])",-73.15271792034525,-221.9223365235628,-49.847592859753284,0.32876065786811903,-0.007976551870081708,0.40686145055062045,25.000000246647723,-1.0,"[-227.52233295833923, -75.80666118037419, 49.98337720656475]","[-216.4999433082823, -62.061719905146774, 59.44823408571868]","[-207.57402922889656, -76.33169577836206, 48.645648912470705]",10000000000.0,0.01742100715637207
6,21.928406953811646,-228.4412078857422,-76.29268646240234,50.04167938232422,0.6279053688049314,0.03873623535037023,0.4587176601078847,23.11113203330657,"array('d', [-77.2285385131836, -76.10234110256734, -75.02777307409461, -73.99621472348909, -73.00084181358555, -72.03618381926333, -71.09782001613993, -70.18215839774163, -69.28626688109193, -68.40773942822817, -67.54458711944314, -66.69514846504951, -65.85801570527462, -65.03197528375857, -64.21596152430688, -63.57125943460504])","array('d', [-230.542724609375, -228.3122854716213, -226.05568921314608, -223.77875288167246, -221.4856069072367, -219.17929727239462, -216.86212877930475, -214.53587745544095, -212.201931240302, -209.86138831842996, -207.51512865263302, -205.1638674333228, -202.80819556797474, -200.44861034728467, -198.08553827452658, -196.19220497522545])","array('d', [-50.0402946472168, -49.96039167170886, -49.90737994857207, -49.8716675547136, -49.84723235973741, -49.83024397894634, -49.81823285218421, -49.809584239472144, -49.80322691797171, -49.7984398094937, -49.794730899047124, -49.79176105112914, -49.78929609531835, -49.78717693214481, -49.785301188205466, -49.78394990973554])","array('d', [0.6278821825981138, 0.5303654323732899, 0.4495044774754763, 0.3824715825108185, 0.32699567253824513, 0.28118167043475806, 0.24341093251010854, 0.21228339352657508, 0.18658280195454538, 0.16525539546797835, 0.14739669139911205, 0.13224333990416653, 0.11916825883963318, 0.10767800902468994, 0.09741180923727773, 0.08814185793718804])","array('d', [-0.038663271814584475, -0.025490214354184342, -0.017063050763148527, -0.011599022445099888, -0.008009338248497918, -0.005621311145556104, -0.004014434085773161, -0.0029226827484324855, -0.002175642127275569, -0.0016626054730983675, -0.0013103994565891153, -0.0010694981328672273, -0.000905207512839175, -0.0007920115473241658, -0.0007099526363745256, -0.0006423920848871655])","array('d', [0.48085637489822897, 0.4552130133459291, 0.4343054028913394, 0.416988807891558, 0.4024706147933222, 0.3901703396014804, 0.3796470162988043, 0.37055825288656796, 0.3626353668811094, 0.35566712495266417, 0.34948824977250403, 0.3439706270203723, 0.33901605988532574, 0.3345499110515365, 0.3305152447392756, 0.3259554369515162])",-73.00084181358555,-221.4856069072367,-49.84723235973741,0.32699567253824513,-0.008009338248497918,0.4024706147933222,25.00000024664549,-1.0,"[-227.09728521225057, -75.62898666572251, 49.983589559099386]","[-216.00366817724088, -61.91380788749715, 59.408319378137165]","[-207.15433755484315, -76.22432198875559, 48.59635685077069]",10000000000.0,0.017661333084106445
7,21.949503898620605,-228.01805114746094,-76.11115264892578,50.04180145263672,0.6257413029670713,0.03852375969290721,0.4545263806965689,23.115525186707075,"array('d', [-77.03763580322266, -75.92160137670234, -74.8572464724417, -73.83586776198888, -72.8505900129658, -71.89591194871161, -70.96739562572033, -70.06144125692663, -69.17511565123519, -68.30601631327936, -67.45216096302053, -66.61189662723325, -65.78382498494257, -64.96674211725055, -64.15959167214601, -63.521935392285336])","array('d', [-230.12425231933594, -227.8887135581619, -225.62728346387584, -223.34576315381642, -221.04826174126825, -218.7378031320738, -216.41667103664844, -214.08662199930157, -211.74902625047588, -209.40496601655093, -207.05530695523706, -204.70075148121438, -202.3418791260695, -199.97917707643305, -197.61306287872793, -195.71744871519678])","array('d', [-50.04060745239258, -49.960622536598855, -49.90754876017338, -49.87178898698631, -49.84731738772645, -49.83030085097476, -49.81826777113317, -49.80960186345696, -49.80323073633866, -49.798432427873415, -49.79471425684257, -49.79173658887264, -49.7892648851937, -49.78713978174491, -49.78525872498081, -49.78390367692657])","array('d', [0.6280745863914488, 0.5297507255116063, 0.4483440065230439, 0.3809568959388918, 0.3252703831767882, 0.27935400473924277, 0.24156167785011343, 0.21047139583596344, 0.1848490856460975, 0.1636264710858957, 0.14588736171092961, 0.1308591814160704, 0.11790788406959361, 0.10653517619565453, 0.09637742514140499, 0.08720590841787741])","array('d', [-0.038700755685567745, -0.025518471306588613, -0.017084560525726114, -0.011615504011763648, -0.008022044519215264, -0.005631177551773097, -0.0040221659589526546, -0.0029288136386798154, -0.002180575740607173, -0.001666646752093309, -0.001313777713738494, -0.0010723841334903416, -0.0009077259411710682, -0.0007942500112301594, -0.0007119681526405007, -0.0006442157995864394])","array('d', [0.4763034145024158, 0.4506717791638075, 0.42980892566255413, 0.4125550860661693, 0.39810918705748305, 0.3858854687945875, 0.37543945294035713, 0.3664263404875518, 0.3585758118524306, 0.35167557515110864, 0.3455597475223401, 0.34009996685421495, 0.33519806483672815, 0.3307796338081747, 0.3267880965509515, 0.32227676084224677])",-72.8505900129658,-221.04826174126825,-49.84731738772645,0.3252703831767882,-0.008022044519215264,0.39810918705748305,25.000000246643193,-1.0,"[-226.67134747591797, -75.45308601669231, 49.9840301051227]","[-215.50806381179456, -61.755186914429146, 59.35145547277489]","[-206.7338420486817, -76.1218211002679, 48.55271227636513]",10000000000.0,0.017609596252441406
8,21.968313694000244,-227.59388732910156,-75.93152618408203,50.04185104370117,0.6218444108963012,0.037796527147292994,0.4501719037678579,23.12092356540685,"array('d', [-76.84858703613281, -75.74257396765923, -74.68829655360061, -73.6769675108851, -72.70166040584361, -71.75684299621884, -70.83805986893815, -69.94170317208302, -69.0648382991038, -68.20506597842314, -67.36041024961841, -66.5292263429261, -65.71012507656835, -64.90191188740725, -64.10353948657303, -63.47283205428053])","array('d', [-229.70486450195312, -227.4643518181128, -225.19820650182123, -222.91221386851456, -220.61046212818454, -218.29595362562384, -215.970951517758, -213.6371933918791, -211.29603226809078, -208.94853487906013, -206.5955530046284, -204.2377766727554, -201.8757743901029, -199.5100235531853, -197.1409330303014, -195.24299895922272])","array('d', [-50.0408821105957, -49.9608687324345, -49.90776825698488, -49.87198484951664, -49.84749305227045, -49.83045960507727, -49.81841251231542, -49.80973502284639, -49.80335428921145, -49.79854794413105, -49.79482296556377, -49.791839443937214, -49.789362626192876, -49.78723298813473, -49.78534786319898, -49.783989878023796])","array('d', [0.6283375024795531, 0.5292090408516928, 0.4472569351538785, 0.37951429123121827, 0.3236146082535351, 0.27759241767133014, 0.23977450707561734, 0.20871717379432578, 0.1831687150773313, 0.1620464884295229, 0.14442270648371072, 0.1295156468006468, 0.11668435260035513, 0.10542570607938143, 0.0953732321096748, 0.08629727690556661])","array('d', [-0.038712311536073574, -0.025529702619181836, -0.01709471136956048, -0.011624285414937971, -0.008029445327580717, -0.005637326303521789, -0.0040272455122053775, -0.0029330142389791397, -0.0021840721265825604, -0.0016695889156694474, -0.0013162887768986787, -0.0010745615644812397, -0.0009096440896507968, -0.0007959629741083271, -0.0007135125393961081, -0.0006456132250114341])","array('d', [0.4718256751683094, 0.44620173804491076, 0.42537991448346907, 0.4081853528933655, 0.3938085105531974, 0.3816583495585961, 0.371286876122043, 0.36234687838924173, 0.3545663911008562, 0.3477320529341669, 0.3416773628188093, 0.3362736968991381, 0.331422900644544, 0.3270507810611516, 0.32310110475439224, 0.3186370282035928])",-72.70166040584361,-220.61046212818454,-49.84749305227045,0.3236146082535351,-0.008029445327580717,0.3938085105531974,25.000000246640848,-1.0,"[-226.2442934277122, -75.27931185399459, 49.98516975083279]","[-215.00862091635207, -61.58782222271052, 59.27509843160895]","[-206.3124298485194, -76.0328096193251, 48.51784041558123]",10000000000.0,0.015377521514892578
9,21.986425399780273,-227.59388732910156,-75.93152618408203,50.04185104370117,0.6218444108963012,0.037796527147292994,0.4501719037678579,23.12092356540685,"array('d', [-76.47610473632812, -75.38990439179638, -74.35552490592083, -73.36401837328377, -72.40836097453052, -71.48296206486995, -70.58333381688284, -69.70585407792595, -68.84758674704123, -68.00613998365392, -67.17955119595374, -66.36619256887018, -65.56469361910547, -64.77387882760398, -63.99271930594535, -63.37563109302879])","array('d', [-228.8634033203125, -226.6132211748612, -224.33792569318067, -222.04326629448616, -219.7332871198076, -217.41094627924, -215.0784653864706, -212.73754408405225, -210.3895011827407, -208.03537277792825, -205.6759833154226, -203.3119984984165, -200.94396522991127, -198.5723417510908, -196.19751996671218, -194.29511412214887])","array('d', [-50.04147720336914, -49.96139084408686, -49.9082257440153, -49.87238713962855, -49.84784928044272, -49.83077790585095, -49.81869976192306, -49.80999683773853, -49.80359514909415, -49.79877136193631, -49.79503166365638, -49.79203551793549, -49.78954768977617, -49.78740829806162, -49.78551442618118, -49.784150121703014])","array('d', [0.6286428570747373, 0.5279628900748142, 0.4449634646880781, 0.37654226032277177, 0.32024034414519825, 0.2740241935789813, 0.23616785234681922, 0.20518541451801517, 0.1797908606084302, 0.15887356787567547, 0.1414831552531965, 0.12682008131393002, 0.11422993238889859, 0.10320020849388083, 0.09335892543335422, 0.08447465668840655])","array('d', [-0.038743022829294066, -0.025557456151943277, -0.01711873175681985, -0.011644490839772802, -0.008046149671548097, -0.005651014908068801, -0.004038439746427173, -0.0029422013844207233, -0.0021916754652598477, -0.0016759598244369123, -0.001321709502345795, -0.001079252299389664, -0.0009137710951313219, -0.0007996462980194974, -0.0007168328292988175, -0.0006486175478307534])","array('d', [0.46299620071915154, 0.4373983873487944, 0.4166655993562406, 0.39959420466579915, 0.3853585572041828, 0.37335758612469605, 0.36313660593398484, 0.3543438048494292, 0.3467040789636513, 0.340002031762418, 0.3340699953694889, 0.3287788677444164, 0.32403054970432155, 0.31975129296648075, 0.3158855588858884, 0.3115162693644824])",-72.40836097453052,-219.7332871198076,-49.84784928044272,0.32024034414519825,-0.008046149671548097,0.3853585572041828,25.00000024663596,-1.0,"[-226.2442934277122, -75.27931185399459, 49.98516975083279]","[-215.00862091635207, -61.58782222271052, 59.27509843160895]","[-206.3124298485194, -76.0328096193251, 48.51784041558123]",10000000000.0,0.015796661376953125
10,22.019195795059204,-226.31861877441406,-75.40563201904297,50.043460845947266,0.5971968770027157,0.033529706299304914,0.43693871895340447,23.136348831368295,"array('d', [-76.29268646240234, -75.21606250259383, -74.19120807552075, -73.20911627991492, -72.26272926559379, -71.34643777496227, -70.45574568737601, -69.5870297630842, -68.73735788696214, -67.90434568662505, -67.08604027488087, -66.28082478499843, -65.48734014311623, -64.70442210697085, -63.931052516203046, -63.32010922378583])","array('d', [-228.4412078857422, -226.1864274474505, -223.9068254297994, -221.6081206362855, -219.2943277773681, -216.96837832302134, -214.63247026539224, -212.28828244614348, -209.93711538751447, -207.57998909810055, -205.21771385962467, -202.85094289312792, -200.4802120955052, -198.10597000061406, -195.72859994966802, -193.82421147187344])","array('d', [-50.04167938232422, -49.96160234275264, -49.90843549376563, -49.872590088721616, -49.848043635680625, -49.830963524181485, -49.81887725252679, -49.81016708253234, -49.80375906135003, -49.798929776385044, -49.79518529686263, -49.79218496461931, -49.78969343621594, -49.78755074239486, -49.7856539002223, -49.78428744822624])","array('d', [0.6279053688049314, 0.5266118487637855, 0.44321531787413204, 0.374554980476772, 0.31813183181257004, 0.27188270886160537, 0.23405858676354083, 0.2031550455139552, 0.17787099002379783, 0.15708351078198557, 0.13983232987645758, 0.1253101396444416, 0.11285671306722804, 0.10195556333279118, 0.09223245527988126, 0.08345538425095543])","array('d', [-0.03873623535037023, -0.025556683218336422, -0.01712085572991996, -0.011647788365807757, -0.008049722962660728, -0.005654433882250502, -0.004041528538791179, -0.002944915525554964, -0.0021940333149336314, -0.0016780054374619356, -0.001323493255944759, -0.001080821347836847, -0.000915165162410301, -0.0008008963198814096, -0.000717961073297734, -0.000649638425303681])","array('d', [0.4587176601078847, 0.43317819893799236, 0.41252320515596835, 0.3955389782741446, 0.38139425294473056, 0.36948443340261644, 0.3593524645121346, 0.35064490556020517, 0.3430855610102066, 0.33645836450716643, 0.33059532078990944, 0.32536727760551953, 0.3206763022628803, 0.3164489704473198, 0.31263016577009306, 0.30831387088548257])",-72.26272926559379,-219.2943277773681,-49.848043635680625,0.31813183181257004,-0.008049722962660728,0.38139425294473056,25.00000024663345,-1.0,"[-225.38885655497518, -74.93832839124408, 49.98972959854415]","[-214.00791012789037, -61.21137067304096, 59.047582005516205]","[-205.4687437559365, -75.88488399919842, 48.475418350938625]",10000000000.0,0.024182796478271484
11,22.040021419525146,-225.8918914794922,-75.2344741821289,50.04478073120117,0.5846583247184753,0.03138499706983552,0.43250282207993046,23.14338259013281,"array('d', [-76.11115264892578, -75.04383456468115, -74.02808952514654, -73.05488176435104, -72.1171406631454, -71.20925404421516, -70.32672946304783, -69.46595195005901, -68.62400083345887, -67.79850524924503, -66.98752698103883, -66.18946425682742, -65.40297293181226, -64.62690308111104, -63.8602499451872, -63.254571674312274])","array('d', [-228.01805114746094, -225.7588344734444, -223.47515170529854, -221.17266820382966, -218.85535612105946, -216.526112218126, -214.18710563999358, -211.8399908991682, -209.48604776431972, -207.12627838359643, -204.7614775639961, -202.3922850513615, -200.0192249660344, -197.64273552361823, -195.26319100813424, -193.35711793112495])","array('d', [-50.04180145263672, -49.96215879777518, -49.90927250930509, -49.87361069573337, -49.84918605118124, -49.83218793249949, -49.820157701504726, -49.81148647796061, -49.80510604671266, -49.800296766688454, -49.79656722288518, -49.793578455865855, -49.79109627423663, -49.78896147894639, -49.78707157372801, -49.78571010776893])","array('d', [0.6257413029670713, 0.5240716892344076, 0.4404653745274159, 0.371716388500646, 0.3152942286610483, 0.26911209244982165, 0.23140235415508068, 0.20064556236228562, 0.17552834993190383, 0.1549178221358255, 0.137845708411266, 0.12349850403532886, 0.11121143979622479, 0.10046503671747892, 0.0908835387029193, 0.08223483394779883])","array('d', [-0.03852375969290721, -0.02542019812227009, -0.017032044519609917, -0.011589206512193794, -0.00801052974409567, -0.005627821402246734, -0.004023170257787897, -0.0029320252363653314, -0.0021847907320242956, -0.0016712033257323571, -0.0013183196128932376, -0.0010767248364786188, -0.000911772509222479, -0.0007979624923244347, -0.0007153401174204311, -0.0006472668797650966])","array('d', [0.4545263806965689, 0.4291182173333699, 0.4085956980871168, 0.39174157759851225, 0.3777225991621859, 0.36593285345211796, 0.355914361083703, 0.3473130489230117, 0.3398523444116332, 0.33331603781972724, 0.32753620076010964, 0.32238392842977215, 0.31776168010179046, 0.3135965268458171, 0.30983390648413733, 0.3055810643611827])",-72.1171406631454,-218.85535612105946,-49.84918605118124,0.3152942286610483,-0.00801052974409567,0.3777225991621859,25.000000246630897,-1.0,"[-224.96030565475598, -74.77123713093998, 49.993175709837935]","[-213.50515600320804, -61.00203902239991, 58.8919806806426]","[-205.0465574951682, -75.82704662647157, 48.467429811708065]",10000000000.0,0.02181720733642578
12,22.062114477157593,-225.46409606933594,-75.06531524658203,50.046749114990234,0.5702120661735531,0.02902864105999463,0.42807860771683215,23.148058334927363,"array('d', [-75.93152618408203, -74.87378144800743, -73.86724359841419, -72.90287736616656, -71.97362127935554, -71.0738771300917, -70.19916953122336, -69.3459026373446, -68.51117619671732, -67.69264039802098, -66.88837812358719, -66.09680824046498, -65.31660637043773, -64.54664117304605, -63.785925091074915, -63.18414589741613])","array('d', [-227.59388732910156, -225.33011845726674, -223.04233884757397, -220.73612728375696, -218.4153943897901, -216.08299044465943, -213.74104793014413, -211.39119154903452, -209.03467630004602, -206.67248341974874, -204.30538985267438, -201.93401995407953, -199.55888449947903, -197.1804100807023, -194.7989608237425, -192.88917745440367])","array('d', [-50.04185104370117, -49.96370618591441, -49.91180599457718, -49.87680292235438, -49.852824942764364, -49.8361343520414, -49.824319262266116, -49.81580117535359, -49.80953191130014, -49.80480524009137, -49.80113885245006, -49.798200039736784, -49.79575891259157, -49.79365918599218, -49.79180022993385, -49.790459462612816])","array('d', [0.6218444108963012, 0.5200427524794684, 0.43642415165824827, 0.36774992489595015, 0.31146588141739456, 0.26546690943805246, 0.22797067131390839, 0.19744567480393632, 0.1725686743825294, 0.1521987598272616, 0.13536131423725228, 0.1212380168313832, 0.10916070463482709, 0.09860783981910255, 0.08920287174801625, 0.08071410346205414])","array('d', [-0.037796527147292994, -0.024944376112341942, -0.01671614081340827, -0.011376343618049824, -0.007864921411640862, -0.005526660143666212, -0.003951720875861278, -0.002880630028203622, -0.002147024535477233, -0.0016427273684808841, -0.0012961651302120457, -0.0010588445443281194, -0.0008967613358367858, -0.0007848864218410922, -0.0007036339995993777, -0.0006366747453791937])","array('d', [0.4501719037678579, 0.4249841300912294, 0.40466298385521493, 0.3879947147948943, 0.37414797273950834, 0.36251789943347784, 0.3526471316076818, 0.344182026285745, 0.33684640130208937, 0.33042447789642543, 0.3247488359225262, 0.3196911637089619, 0.3151545870947247, 0.3110668935085732, 0.30737425573483973, 0.30320536455218894])",-71.97362127935554,-218.4153943897901,-49.852824942764364,0.31146588141739456,-0.007864921411640862,0.37414797273950834,25.000000246628154,-1.0,"[-224.5306828367158, -74.60606709445537, 49.997710963912866]","[-213.00217989460242, -60.781210690385976, 58.71361397625439]","[-204.62341872562192, -75.77832265752618, 48.47237411390157]",10000000000.0,0.01822972297668457
13,22.081567764282227,-225.46409606933594,-75.06531524658203,50.046749114990234,0.5702120661735531,0.02902864105999463,0.42807860771683215,23.148058334927363,"array('d', [-75.57876586914062, -74.53991649910681, -73.5509085842747, -72.60283068384729, -71.68872725271093, -70.80309357292772, -69.9415391499616, -69.10054677224397, -68.27728980989703, -67.46948761107535, -66.67528791012884, -65.8931700887242, -65.12186586721121, -64.36029554360658, -63.60751877748357, -63.01243369359916])","array('d', [-226.74423217773438, -224.47154970432925, -222.17605807458798, -219.86306637731073, -217.53630596650976, -215.1984989588951, -212.8516811381358, -210.49740130814982, -208.13685312817213, -205.770967163723, -203.4004778008623, -201.02597319793915, -198.64793305254315, -196.26675708744654, -193.8827860808915, -191.97337323501597])","array('d', [-50.0426139831543, -49.96969342628247, -49.92124470985258, -49.888555584711256, -49.866152112957245, -49.850549161800494, -49.83949725391392, -49.831523817651956, -49.82565079027914, -49.8212190590335, -49.8177784287552, -49.81501831642149, -49.81272411038676, -49.81074990315262, -49.80900172585263, -49.80774228333078])","array('d', [0.6076900362968444, 0.5066040915764917, 0.42374229758094994, 0.35585380778893294, 0.3003707332364451, 0.2551745621244398, 0.21847063825666585, 0.18871664422972656, 0.1645802351022394, 0.1449132415860439, 0.12873565476904153, 0.11522559174487544, 0.10371307907652973, 0.09367642134143889, 0.08474046030414717, 0.07667634624737749])","array('d', [-0.035263564437627785, -0.02328139359900188, -0.015608107096849927, -0.010627059023868674, -0.007350623632522603, -0.005168227414947755, -0.003697857111986049, -0.0026975893742981634, -0.0020122693938171305, -0.0015409795114680587, -0.0012169313340715528, -0.0009948634980919547, -0.0008430343830262883, -0.0007380823622668817, -0.0006617332334529418, -0.0005987613609221989])","array('d', [0.44142015377548693, 0.4169911583364662, 0.397316033636809, 0.38121419705360404, 0.3678726545539985, 0.35669751707575353, 0.34723846206578174, 0.3391467313722144, 0.3321498340316169, 0.3260350240058046, 0.3206375504513224, 0.3158315624261945, 0.31152250951321747, 0.30764038801876703, 0.3041334577418761, 0.30016938693662426])",-71.68872725271093,-217.53630596650976,-49.866152112957245,0.3003707332364451,-0.007350623632522603,0.3678726545539985,25.000000246622374,-1.0,"[-224.10002343175282, -74.44289225343942, 50.003212268475785]","[-212.49855596264723, -60.5501949954209, 58.511967492380734]","[-204.19958272074572, -75.73667279091575, 48.487101643046664]",10000000000.0,0.0177919864654541
14,22.098360061645508,-224.60540771484375,-74.73295593261719,50.05330276489258,0.5368239879608152,0.02397069148719299,0.419064358868871,23.156992507980043,"array('d', [-75.40563201904297, -74.37629149875444, -73.39577442829273, -72.45529423218751, -71.54799336445954, -70.66844775158076, -69.81233582519967, -68.97620094940316, -68.15727072856464, -67.35331360506959, -66.56252199944662, -65.78341604083616, -65.01476458931427, -64.25552173997195, -63.50477784668703, -62.90097862348923])","array('d', [-226.31861877441406, -224.04149738123445, -221.74231476956845, -219.42619984162556, -217.0967671254212, -214.75665716023423, -212.40784546935365, -210.0518344161631, -207.68978069952414, -205.32258473285927, -202.95095582846142, -200.57546098279053, -198.19656183001715, -195.8146425435212, -193.43003043373508, -191.48791338037228])","array('d', [-50.043460845947266, -49.97411847280785, -49.92803670836302, -49.89693644497498, -49.87561536198891, -49.86076084705598, -49.85023450587552, -49.84263632346478, -49.837036340685096, -49.83280782147095, -49.82952267349534, -49.82688556550115, -49.82469243205584, -49.8228045377161, -49.82113252082097, -49.81990753416201])","array('d', [0.5971968770027157, 0.4969743587107812, 0.4148974391663788, 0.34773545251698873, 0.29293027932427324, 0.24836816305764825, 0.21225672943415544, 0.18305479950494877, 0.15943076017410707, 0.1402371779642149, 0.12449500038943616, 0.11138361932329126, 0.10023468031323704, 0.09052843608552284, 0.08189197023721047, 0.0740989256165409])","array('d', [-0.033529706299304914, -0.022141585619452512, -0.01484767275805685, -0.010112199996368625, -0.006996850181156022, -0.004921455437541536, -0.0035229724773180914, -0.002571456167001307, -0.001919411246599192, -0.0014708879938985927, -0.0011623776936804267, -0.0009508379796981698, -0.0008060837740486025, -0.000705903040669266, -0.0006329279309708397, -0.00057269725403117])","array('d', [0.43693871895340447, 0.4130548939423011, 0.39383155348764415, 0.37811728392507166, 0.36511534333064954, 0.3542416810444568, 0.34505237156318175, 0.33720310993251984, 0.33042471883525815, 0.32450707505521464, 0.31928761454900983, 0.31464238206851225, 0.3104785132392359, 0.3067275254043542, 0.3033390578089546, 0.29957247405433035])",-71.54799336445954,-217.0967671254212,-49.87561536198891,0.29293027932427324,-0.006996850181156022,0.36511534333064954,25.000000246619294,-1.0,"[-224.10002343175282, -74.44289225343942, 50.003212268475785]","[-212.49855596264723, -60.5501949954209, 58.511967492380734]","[-204.19958272074572, -75.73667279091575, 48.487101643046664]",10000000000.0,0.015546560287475586
15,22.117518663406372,-224.1746063232422,-74.5697250366211,50.058258056640625,0.518532633781433,0.021173888817429445,0.41467888752487697,23.162401769854576,"array('d', [-75.2344741821289, -74.21443865718344, -73.24201486157678, -72.30857678019007, -71.40739090748919, -70.53313364133908, -69.68156791452454, -68.84931018750669, -68.03365254177093, -67.23242101215872, -66.44385984538138, -65.66653599235296, -64.89926068914616, -64.14102640475323, -63.39095824255838, -62.7824290587119])","array('d', [-225.8918914794922, -223.61045115481065, -221.30777406074327, -218.98878462551318, -216.6569662492354, -214.3148688528198, -211.96440163818954, -209.6070162604529, -207.24382932451988, -204.8757087056351, -202.50333676674163, -200.1272578271185, -197.747914204945, -195.3656734698052, -192.98084856470814, -191.02263502170436])","array('d', [-50.04478073120117, -49.97986592634897, -49.9367149841664, -49.90758334230964, -49.88760407105287, -49.87367773808467, -49.863803323676485, -49.8566706197239, -49.85140925975439, -49.84743265274061, -49.84434013627244, -49.841855322427435, -49.83978725445452, -49.83800611704826, -49.83642828062603, -49.835262697145566])","array('d', [0.5846583247184753, 0.48561202917067253, 0.40457107839701134, 0.33834085548048864, 0.2843832599765672, 0.24059647387435523, 0.20519577174461162, 0.1766453250509168, 0.15361767655613673, 0.1349689735703988, 0.11972350578117455, 0.10706393452978889, 0.09632516578119982, 0.08699070838576291, 0.07869087128421061, 0.07120245124277393])","array('d', [-0.03138499706983552, -0.02073066656539675, -0.013905722262888219, -0.009474066481920923, -0.006558169179674648, -0.004615366289352389, -0.00330602862636453, -0.0024150064352975753, -0.0018042729229240917, -0.0013840246007320465, -0.0010948138011135481, -0.000896348384196426, -0.0007603744830477538, -0.0006661080994572554, -0.0005973088173701693, -0.000540467747853596])","array('d', [0.43250282207993046, 0.4092578745802966, 0.3905596971185518, 0.3752926803690761, 0.36268016381803286, 0.35215034399677636, 0.3432673145331192, 0.335692376001576, 0.32916051676279995, 0.3234648839912721, 0.3184456009391216, 0.3139809982482176, 0.3099802030746825, 0.30637649410193707, 0.30312108140488037, 0.29953189882528297])",-71.40739090748919,-216.6569662492354,-49.88760407105287,0.2843832599765672,-0.006558169179674648,0.36268016381803286,25.00000024661616,-1.0,"[-223.23559626478306, -74.12277235182444, 50.01735017091704]","[-211.4862666147699, -60.07247073513694, 58.05117100881421]","[-203.35048553753333, -75.67229347332608, 48.540408852164724]",10000000000.0,0.016164541244506836
16,22.132671117782593,-224.1746063232422,-74.5697250366211,50.058258056640625,0.518532633781433,0.021173888817429445,0.41467888752487697,23.162401769854576,"array('d', [-75.06531524658203, -74.05447574672826, -73.08985836490118, -72.16302943552493, -71.2674026583835, -70.39777263774515, -69.55000086422176, -68.72078831030879, -67.90750096899413, -67.10803037009808, -66.32067928300063, -65.54406721912714, -64.77705276672619, -64.01867113716084, -63.26808606499739, -62.66121051692603])","array('d', [-225.46409606933594, -223.1784276988334, -220.87240824377042, -218.55074126077076, -216.21676854078595, -213.87294230601262, -211.5211004315507, -209.16264018431463, -206.79863527405988, -204.4299188378661, -202.05714451290794, -199.68083247214395, -197.3014044785102, -194.9192104362449, -192.53454800141589, -190.58416633106293])","array('d', [-50.046749114990234, -49.986699554348135, -49.94676977666747, -49.919801995924885, -49.90129753279532, -49.88839111262716, -49.87923267889255, -49.87261076455013, -49.867720560341446, -49.864019664237404, -49.86113762554519, -49.85881893408556, -49.85688708917301, -49.85522211711133, -49.85374671281933, -49.852660954041454])","array('d', [0.5702120661735531, 0.47262196598109507, 0.3928441971835428, 0.32773321650733, 0.2747794932048314, 0.2318992092344862, 0.1973198589700908, 0.16951458200751948, 0.147163041973868, 0.12912745019473212, 0.11443753705241883, 0.10228100122845028, 0.0919974751435148, 0.08307490196098091, 0.07514771153645824, 0.06799646743464761])","array('d', [-0.02902864105999463, -0.019180116141846153, -0.012870376373790404, -0.00877264002766909, -0.006076054436933922, -0.004279105544267594, -0.003067864128424389, -0.002243426893513794, -0.0016781686157341458, -0.001289040765842905, -0.0010210611168555127, -0.000836963416997769, -0.0007106203064655934, -0.0006228220759599187, -0.0005585732080578476, -0.0005054184276778517])","array('d', [0.42807860771683215, 0.4055559195570778, 0.38744961544441575, 0.37268497313516535, 0.36050844678329563, 0.35036243734420264, 0.34182040397905505, 0.3345502276549498, 0.32829179596702784, 0.32284209319789736, 0.3180443747095148, 0.31377960898050034, 0.3099591942389055, 0.3065183935353351, 0.30341016780036945, 0.2999697882955482])",-71.2674026583835,-216.21676854078595,-49.90129753279532,0.2747794932048314,-0.006076054436933922,0.36050844678329563,25.000000246612974,-1.0,"[-222.80204544934332, -73.96551642392348, 50.02649959660256]","[-210.98113506683416, -59.831067784642265, 57.803609560606446]","[-202.92502023086598, -75.64520029257915, 48.58340203739378]",10000000000.0,0.013323307037353516
17,22.14703917503357,-223.74285888671875,-74.40838623046875,50.06454086303711,0.49949437379837014,0.018312452360987524,0.41031678120163484,23.16791999388203,"array('d', [-74.73295593261719, -73.74073573674045, -72.79156073654401, -71.87744391839244, -70.99214023794922, -70.1307178746365, -69.28926588436832, -68.4646797504862, -67.65449492659197, -66.85675248846019, -66.0698882950175, -65.29264095959832, -64.52397605783155, -63.76302517155277, -63.009039029215394, -62.40172700555439])","array('d', [-224.60540771484375, -222.31133404813463, -219.998799796689, -217.67204488166797, -215.33411124948626, -212.98724306776583, -210.63312577360807, -208.2730401320575, -205.9079678190514, -203.5386673325639, -201.16573049915635, -198.78962545279683, -196.41072958040445, -194.02935457917346, -191.64576497967442, -189.70606989736532])","array('d', [-50.05330276489258, -50.0036974283548, -49.970681845188366, -49.94835723889799, -49.933015294586326, -49.92229352782169, -49.914666206360394, -49.9091341193322, -49.905033471516035, -49.90191697995171, -49.89947927867713, -49.897509873953396, -49.89586346262643, -49.89444132381952, -49.89317980716228, -49.89225580816587])","array('d', [0.5368239879608152, 0.44274484996467545, 0.36599150116010215, 0.30353890788501936, 0.2529499321532433, 0.2121878443165739, 0.17951311028930825, 0.1534236881047437, 0.13261923311403842, 0.11597899539940189, 0.1025478187545909, 0.09152711235500659, 0.08226903817878252, 0.07427293666371138, 0.06718345693689459, 0.06079011121370726])","array('d', [-0.02397069148719299, -0.01585173200097437, -0.010648335094448071, -0.007267986634097439, -0.0050427693364409, -0.0035594163576399907, -0.002559137122831726, -0.0018779005367940986, -0.001410417728973863, -0.0010881521854102425, -0.0008657197438943798, -0.0007123624878316254, -0.0006065321164434173, -0.0005324153906760105, -0.00047771054427019923, -0.00043225101871901444])","array('d', [0.419064358868871, 0.39816467538386224, 0.38139176183991275, 0.3677597340010872, 0.3565659608759038, 0.3472845062146188, 0.33950993331121904, 0.3329250911622645, 0.3272810891013754, 0.32238373211797017, 0.31808347526990166, 0.3142673304350941, 0.31085186946827503, 0.30777684513983977, 0.3049991538101616, 0.30190921208412386])",-70.99214023794922,-215.33411124948626,-49.933015294586326,0.2529499321532433,-0.0050427693364409,0.3565659608759038,25.0000002466063,-1.0,"[-222.36759775575203, -73.8101368028132, 50.03707371972139]","[-210.47577959006227, -59.59119064301354, 57.547481885652815]","[-202.49912055465498, -75.62042836230064, 48.63476912401628]",10000000000.0,0.012668609619140625
18,22.164417028427124,-223.3102569580078,-74.24886322021484,50.07228088378906,0.4800333082675932,0.01544969063252199,0.40593238274124616,23.171892960742404,"array('d', [-74.5697250366211, -73.58650178845878, -72.64460653185199, -71.7362938469964, -70.85550404408595, -69.99745425557289, -69.15835752741768, -68.33521524037496, -67.52565493369637, -66.7277987410182, -65.9401544599877, -65.16152491270319, -64.39093322470808, -63.627562732713066, -62.87071083959264, -62.26176671233633])","array('d', [-224.1746063232422, -221.87653912859568, -219.56097560358592, -217.23192346148446, -214.89227332455883, -212.54416379611783, -210.18920267143795, -207.8286112021219, -205.4633239305644, -203.09406103755722, -200.72138254144988, -198.34572973029074, -195.9674570405165, -193.58685635915626, -191.20417499816654, -189.2686862304647])","array('d', [-50.058258056640625, -50.01442846565196, -49.985236260398835, -49.96547836710406, -49.95188341229977, -49.94236703432126, -49.935583016961324, -49.93064971192697, -49.92698148138417, -49.924183801478435, -49.921987435856344, -49.920206902243805, -49.918714246232945, -49.9174225729617, -49.91627582817238, -49.91543718930834])","array('d', [0.518532633781433, 0.4264335435413715, 0.35137969592793944, 0.2904134911822673, 0.24113933941959442, 0.20154820018823863, 0.16992037221194842, 0.1447690221828898, 0.12480620021663562, 0.10892175655277665, 0.0961698974279768, 0.08576043786122851, 0.07705310681706876, 0.06955399678259973, 0.06291366695574373, 0.05692664512179394])","array('d', [-0.021173888817429445, -0.014011144418735104, -0.009419764312520505, -0.006436487611077239, -0.004472298081140102, -0.003162670357789462, -0.0022792869098664636, -0.0016774003661006482, -0.0012640801179898363, -0.0009788229173517326, -0.0007815605211747093, -0.0006451422047691883, -0.0005505604734837484, -0.0004838903658037136, -0.00043433220677585187, -0.00039300072911604495])","array('d', [0.41467888752487697, 0.39464360026607626, 0.37858376283723105, 0.3655586351142485, 0.3548918566131795, 0.34607404460633456, 0.3387109288380973, 0.3324933622798847, 0.32717850516322117, 0.32257694391497493, 0.3185430438401986, 0.31496709524427724, 0.3117684667064991, 0.3088893262437624, 0.3062886767629783, 0.3033905753667707])",-70.85550404408595,-214.89227332455883,-49.95188341229977,0.24113933941959442,-0.004472298081140102,0.3548918566131795,25.000000246602976,-1.0,"[-222.36759775575203, -73.8101368028132, 50.03707371972139]","[-210.47577959006227, -59.59119064301354, 57.547481885652815]","[-202.49912055465498, -75.62042836230064, 48.63476912401628]",10000000000.0,0.01626896858215332
19,22.18973398208618,-223.3102569580078,-74.24886322021484,50.07228088378906,0.4800333082675932,0.01544969063252199,0.40593238274124616,23.171892960742404,"array('d', [-74.40838623046875, -73.43410517575505, -72.49938108457313, -71.59671516677373, -70.72023780816609, -69.86531946997891, -69.02830119845224, -68.20629390628497, -67.39702048060099, -66.59868701951888, -65.80987583778787, -65.02945625077491, -64.25651096210528, -63.490276872380626, -62.730099682574576, -62.119237125545574])","array('d', [-223.74285888671875, -221.44087598094916, -219.12235923944945, -216.7910899763762, -214.44980984480387, -212.10055275831365, -209.7448490767478, -207.3838604281533, -205.01847395509435, -202.64937117620465, -200.2770799180474, -197.9020142229457, -195.52450517426163, -193.1448244520901, -190.7632017645872, -188.83232569339302])","array('d', [-50.06454086303711, -50.02662040708036, -50.00133887277656, -49.98420498802981, -49.97239455193022, -49.96410793198766, -49.958182757278905, -49.953857822245965, -49.9506275938811, -49.94815164729423, -49.94619781363743, -49.944606287547934, -49.94326693641407, -49.94210501930809, -49.941072286166694, -49.94031825023638])","array('d', [0.49949437379837014, 0.4094644282610339, 0.33618820937862315, 0.2767765698050932, 0.22887659530666493, 0.19050798737344438, 0.15997183604685536, 0.13579739367977056, 0.11670991251486573, 0.101610585443227, 0.08956365741879382, 0.07978795424245512, 0.07165129860741888, 0.06466697631220017, 0.05849180539028517, 0.052925578957719877])","array('d', [-0.018312452360987524, -0.012128288337423155, -0.00816343856936216, -0.005586764276199395, -0.0038899274134382663, -0.0027582594455899593, -0.001994623791625956, -0.0014740108267066862, -0.0011161425284543377, -0.0008687421807256022, -0.0006971867757816907, -0.0005780220737254994, -0.0004948464082790582, -0.00043567440367004194, -0.00039125314821021357, -0.0003540212149978781])","array('d', [0.41031678120163484, 0.3911648041185247, 0.37583701609468806, 0.3634367429795631, 0.3533135403213066, 0.3449745041220277, 0.33803657373042745, 0.3321987001942278, 0.32722420837563904, 0.32292858328949997, 0.3191702121922576, 0.31584276538168043, 0.31286849759175966, 0.3101920692771818, 0.30777465611528343, 0.3050756010181805])",-70.72023780816609,-214.44980984480387,-49.97239455193022,0.22887659530666493,-0.0038899274134382663,0.3533135403213066,25.000000246599626,-1.0,"[-221.93231949420465, -73.65662059302508, 50.049107269762295]","[-209.9695523624052, -59.35582586371947, 57.286473687224074]","[-202.07298399987496, -75.59745719034271, 48.69266079969058]",10000000000.0,0.020984649658203125
20,22.20844078063965,-222.4441375732422,-73.93550109863281,50.09449768066406,0.44105514883995034,0.009544121101498512,0.3972782651570179,23.177157137285846,"array('d', [-74.24886322021484, -73.28359340439782, -72.35608649274675, -71.4590890791414, -70.58692178975366, -69.73510937826462, -68.90012228485772, -68.0791825461267, -67.27011004219612, -66.47119644594171, -65.68110011482173, -64.89875827403881, -64.12331450490119, -63.35406045659308, -62.59039120533836, -61.976898462721806])","array('d', [-223.3102569580078, -221.00438625155243, -218.68293058984816, -216.34945468381673, -214.00655594817485, -211.6561659838447, -209.2997389190918, -206.93837733737402, -204.57292120734658, -202.20401340245598, -199.83214944708175, -197.45771594911693, -195.0810204028641, -192.70231401859652, -190.32180862461115, -188.393780318231])","array('d', [-50.07228088378906, -50.040271894041716, -50.018901039540914, -50.00438938035012, -49.9943603431611, -49.98729940521078, -49.982228348587576, -49.97850665528984, -49.97570909220975, -49.97354949107757, -49.971832880252485, -49.97042523884843, -49.969234343481205, -49.96819767276812, -49.96727481961485, -49.96660140845589])","array('d', [0.4800333082675932, 0.3921055560468352, 0.32064073945169963, 0.2628162959949765, 0.2163211639841792, 0.17920342619185936, 0.14978484178961549, 0.12661076626613518, 0.10841975951928749, 0.09412451824528012, 0.08279951932530812, 0.07367280608183692, 0.06612050024690437, 0.05966327271267033, 0.05396436887015524, 0.04882898461560193])","array('d', [-0.01544969063252199, -0.010245053417310216, -0.006907522885487516, -0.004738062754270577, -0.003309028265498759, -0.002355634274650556, -0.0017119517427485397, -0.0012727310653986828, -0.0009703639380385465, -0.0007608128972395057, -0.000614909812079456, -0.000512905002590708, -0.0004410106570970997, -0.00038919039025562115, -0.0003497500735956302, -0.00031646765423461247])","array('d', [0.40593238274124616, 0.38766763044923414, 0.37307935862361696, 0.36131277127377104, 0.35174231005021733, 0.3438910358805205, 0.3373868399598252, 0.33193665071923145, 0.3273099136499688, 0.3233270116783221, 0.31985037705733965, 0.31677709495644396, 0.3140323457795267, 0.31156332239344786, 0.3093334115204092, 0.30684129376855096])",-70.58692178975366,-214.00655594817485,-49.9943603431611,0.2163211639841792,-0.003309028265498759,0.35174231005021733,25.000000246596212,-1.0,"[-221.0610243577498, -73.35516250238388, 50.080181716354915]","[-208.9591325870575, -58.906971414184696, 56.77301294456707]","[-201.22128463707162, -75.55289248898166, 48.83330132042545]",10000000000.0,0.01596999168395996
21,22.225605249404907,-222.0106658935547,-73.7814712524414,50.108646392822266,0.42170554399490334,0.0067781084217129715,0.3930536071446279,23.178749815593413,"array('d', [-73.93550109863281, -72.98810245824127, -72.07492008620645, -71.18917095835273, -70.32554407549907, -69.47986567591347, -68.64886096780286, -67.82997211082277, -67.0212119963433, -66.22104315073749, -65.42827610343191, -64.64198418553572, -63.86143311009166, -63.08602442733104, -62.31525236207999, -61.69572819109984])","array('d', [-222.4441375732422, -220.13072153104153, -217.8035284216368, -215.46572895311922, -213.1196535212852, -210.76704170538827, -208.40920299051595, -206.0471269135722, -203.68156242350025, -201.31307731989335, -198.942103991427, -196.56897512898135, -194.19395163661392, -191.81724411312027, -189.43902876834122, -187.51460745893542])","array('d', [-50.09449768066406, -50.07468082338936, -50.06136842794394, -50.05225214462525, -50.045880015397636, -50.04132678252406, -50.03799506689079, -50.03549410161884, -50.03356495055627, -50.03203391073933, -50.030783202339805, -50.029732385557985, -50.02882650606771, -50.028028496035674, -50.02731427069679, -50.0267928686385])","array('d', [0.44105514883995034, 0.35728434156974187, 0.28941973309926095, 0.23476137172352118, 0.19107604331005737, 0.15646506936534177, 0.12928932824427644, 0.10812496209136525, 0.09173624737924098, 0.0790583402079483, 0.06918587081048018, 0.061365166126850966, 0.05498889736605587, 0.04959251916659263, 0.04485217787677636, 0.04058393249796205])","array('d', [-0.009544121101498512, -0.006362611238490686, -0.004321408530101249, -0.0029937822053418424, -0.0021185277962366368, -0.0015338147112820915, -0.0011381589022758953, -0.0008671348562012895, -0.000679319271982059, -0.0005477081818585252, -0.00045441488755595174, -0.0003873572093039181, -0.00033816698090788296, -0.0003008633443246861, -0.00027101485033559244, -0.00024522504129031786])","array('d', [0.3972782651570179, 0.38074707793014984, 0.36761627975366257, 0.35710606116181304, 0.34863609144253993, 0.34175882734417556, 0.336122584362996, 0.33144936013825027, 0.3275203067331138, 0.32416528158106944, 0.32125461702830366, 0.31869211900271266, 0.316408759534948, 0.31435676599993573, 0.31250393394698106, 0.3104315536566566])",-70.32554407549907,-213.1196535212852,-50.045880015397636,0.19107604331005737,-0.0021185277962366368,0.34863609144253993,25.000000246589344,-1.0,"[-221.0610243577498, -73.35516250238388, 50.080181716354915]","[-208.9591325870575, -58.906971414184696, 56.77301294456707]","[-201.22128463707162, -75.55289248898166, 48.83330132042545]",10000000000.0,0.01572871208190918
