,current_time,x_pos,y_pos,z_pos,roll,pitch,yaw,vel,x_traj,y_traj,z_traj,roll_traj,pitch_traj,yaw_traj,x_cmd,y_cmd,z_cmd,roll_cmd,pitch_cmd,yaw_cmd,vel_cmd,effector_dmg,effector_x,effector_y,effector_z,cost,time_solution
0,9.439952850341797,-230.6827850341797,-77.45374298095703,50.06718063354492,0.6346266865730283,0.034449420869350315,0.5019459287312368,23.158724337664896,"array('d', [-78.85677337646484, -77.61497606030512, -76.42496571440002, -75.27890524715356, -74.17044428070095, -73.09438752241944, -72.04645400733048, -71.02309624788457, -70.021359445058, -69.0387684515456, -68.07323501133023, -67.12298081521362, -66.18647376679878, -65.26237598680011, -64.34950277553014, -63.628318701338635])","array('d', [-233.57736206054688, -231.4089045919764, -229.2108906173393, -226.9893375209369, -224.74864899072725, -222.49215504411978, -220.22243191654346, -217.94150626850873, -215.6509937798545, -213.35219783222638, -211.04618231703145, -208.73382666066738, -206.4158679481257, -204.09293320158554, -201.765563787205, -199.90012245051946])","array('d', [-50.07588577270508, -50.003107247324316, -49.95482280312925, -49.92228155290778, -49.89999259110577, -49.884466523518554, -49.87345624824813, -49.865494563598006, -49.85960976025342, -49.85514903253328, -49.85166795733465, -49.848860968557304, -49.846517605681385, -49.844495157964516, -49.84270178985629, -49.84140937622471])","array('d', [0.6333634257316589, 0.5439869123949518, 0.4684776223443348, 0.40475041100092285, 0.3510523979522826, 0.3058737484364714, 0.26789494474738146, 0.23595460772441706, 0.2090295572503466, 0.186222441603525, 0.16675417698400716, 0.14995952168189178, 0.13528475809001614, 0.12228685830735378, 0.11063376432998483, 0.1001055787278896])","array('d', [-0.03521665558218942, -0.023214955245048012, -0.015543079175282118, -0.01057358396875821, -0.0073122352759398155, -0.005144857146496756, -0.0036877005159165225, -0.002698165582581854, -0.002020978317010308, -0.0015553729743006696, -0.001234835276272773, -0.0010144329496731528, -0.0008627873594097232, -0.0007569367739178725, -0.0006790570112050527, -0.000614436564661892])","array('d', [0.533591822781835, 0.5074105999072692, 0.48567378072639733, 0.46738022299081783, 0.4518186649768965, 0.43845929213139195, 0.4268945894160931, 0.4168047072237501, 0.4079358417503631, 0.40008584550706155, 0.3930939781563896, 0.3868330725019209, 0.38120312069012335, 0.37612569246021343, 0.3715388300165437, 0.36635553393417586])",-74.17044428070095,-224.74864899072725,-49.89999259110577,0.3510523979522826,-0.0073122352759398155,0.4518186649768965,25.000000246665874,-1.0,"[-265.97778493513823, -104.24845972785435, 50.031160753786196]","[-264.07581106045404, -88.16084773417866, 61.760237261378805]","[-247.79281071105254, -97.22378722288502, 54.4988994063113]",10000000000.0,0.046016693115234375
1,9.470757722854614,-229.84812927246094,-77.06997680664062,50.06559753417969,0.6350774168968198,0.03435067459940895,0.49292083183792623,23.157525686433384,"array('d', [-78.44567108154297, -77.2233525451611, -76.05293974932964, -74.92642844474987, -73.83736502400924, -72.78049142507292, -71.75149114569474, -70.74680014580531, -69.76346044741783, -68.79900301023385, -67.85135185589556, -66.91874469866407, -65.99966732915094, -65.09280019917804, -64.19697638307437, -63.48928411739902])","array('d', [-232.75291442871094, -230.57342403801232, -228.36491476196903, -226.13338580458404, -223.8832055466426, -221.61766321707694, -219.3392937661494, -217.05008425702889, -214.75161339637444, -212.44515057343486, -210.13172874676846, -207.81219941040422, -205.48727458595275, -203.15755892747245, -200.82357392584754, -198.9529724631213])","array('d', [-50.07380676269531, -50.00083812351528, -49.95242271233997, -49.919790209237725, -49.89743732235732, -49.881866458866554, -49.87082492255278, -49.86284159931723, -49.85694198704129, -49.85247125170083, -49.84898347701188, -49.84617198993016, -49.843825513923214, -49.84180075483432, -49.84000549383455, -49.838711742382436])","array('d', [0.6336787343025206, 0.5426909748872312, 0.4660928455070322, 0.40166218280832683, 0.34754968422229854, 0.3021736394808991, 0.2641587456485162, 0.2322991848941043, 0.20553589282765328, 0.18294247580131795, 0.16371655992519446, 0.14717464503265318, 0.13274929583178327, 0.11998796585964824, 0.10855303937074723, 0.09822286075766379])","array('d', [-0.03530725836753833, -0.023276987371551816, -0.015586157156725995, -0.010603730433721828, -0.007333381126712704, -0.005159654636089328, -0.003697987357679484, -0.0027052432350943498, -0.0020257857155619573, -0.0015585980807832592, -0.001236987662416692, -0.0010158907956140993, -0.0008638269959370951, -0.0007577500123804741, -0.0006797599267631419, -0.000615072589017388])","array('d', [0.5246266881611684, 0.4984731262936475, 0.4768307174783796, 0.4586678785687345, 0.44325590901989886, 0.43005412305822777, 0.41864785121401876, 0.4087124255674058, 0.39999083246237777, 0.392278900540849, 0.3854147759369197, 0.37927088427009287, 0.37374734800904946, 0.36876625320152934, 0.3642664013881087, 0.3591812947077564])",-73.83736502400924,-223.8832055466426,-49.89743732235732,0.34754968422229854,-0.007333381126712704,0.44325590901989886,25.000000246663173,-1.0,"[-265.97778493513823, -104.24845972785435, 50.031160753786196]","[-264.07581106045404, -88.16084773417866, 61.760237261378805]","[-247.79281071105254, -97.22378722288502, 54.4988994063113]",10000000000.0,0.028836488723754883
2,9.489915132522583,-229.00930786132812,-76.6934814453125,50.064029693603516,0.6353865265846249,0.033986803144216475,0.4835797111180163,23.1563530321647,"array('d', [-78.0428237915039, -76.84032192981924, -75.68985169385886, -74.58323532453586, -73.51391316918144, -72.47656306239148, -71.4668323296669, -70.48114012117834, -69.51652525270136, -68.57052491329272, -67.6410756218639, -66.7264313941737, -65.8250962139832, -64.93576917508666, -64.05730142460436, -63.36334405453615])","array('d', [-231.92674255371094, -229.73623560400222, -227.5172631858209, -225.2757973035191, -223.01616659653945, -220.74161726338386, -218.45464183247424, -216.15718722191545, -213.8507949458049, -211.5367003690055, -209.21590559102268, -206.88923430308608, -204.55737361701006, -202.22090597608582, -199.88033314473952, -198.00459279504952])","array('d', [-50.07096481323242, -49.99860546197513, -49.95058858269494, -49.918221071423325, -49.896047837086, -49.880601539899146, -49.86964861653362, -49.861730163264454, -49.8558795492404, -49.85144706801429, -49.84799017696763, -49.845204439685396, -49.84288006511543, -49.840874735452644, -49.83909685148424, -49.837815647933944])","array('d', [0.6340350508689876, 0.5414144192350836, 0.4637125805059762, 0.3985679137674974, 0.3440335210829207, 0.29845512746923686, 0.2604011496058045, 0.22862092106590776, 0.20201913087508733, 0.17964001932926166, 0.16065763740386962, 0.14436998431685716, 0.1301957116422406, 0.11767260860007475, 0.10645740775737256, 0.09632665468777568])","array('d', [-0.035010647028684595, -0.023084221003954037, -0.015458942751228057, -0.0105182368048908, -0.007274699550511003, -0.005118390633978804, -0.003668169355344958, -0.0026830380001083617, -0.0020087067231330004, -0.0015450154071883666, -0.0012258230600601123, -0.0010064271698877636, -0.0008555890182362218, -0.0007504291450407614, -0.0006731670217141048, -0.0006091070813008145])","array('d', [0.51554782787827, 0.4894201799724521, 0.4678713777904415, 0.4498389650009364, 0.4345766394888448, 0.4215327545445327, 0.4102854174163486, 0.4005050817305379, 0.39193147143315843, 0.3843583475494271, 0.3776227086558002, 0.37159654891033406, 0.36618010577028476, 0.36129597376702377, 0.35688371161424276, 0.35189745703942915])",-73.51391316918144,-223.01616659653945,-49.896047837086,0.3440335210829207,-0.007274699550511003,0.4345766394888448,25.00000024666011,-1.0,"[-265.97778493513823, -104.24845972785435, 50.031160753786196]","[-264.07581106045404, -88.16084773417866, 61.760237261378805]","[-247.79281071105254, -97.22378722288502, 54.4988994063113]",10000000000.0,0.01765155792236328
3,9.51014232635498,-228.58834838867188,-76.50804901123047,50.063289642333984,0.635437726974487,0.03375272452831255,0.4788127700474598,23.156840176692327,"array('d', [-77.64830780029297, -76.46578147026241, -75.3354123025906, -74.24884701466797, -73.19941932371158, -72.18174285300576, -71.19142881505746, -70.22487967719461, -69.27913121132315, -68.35172702093456, -67.44061632155703, -66.54406963604256, -65.66060934532962, -64.78895338073642, -63.92797114397652, -63.24785099138537])","array('d', [-231.09852600097656, -228.8971385311527, -226.66784486166503, -224.41658402808116, -222.1476420608624, -219.86422075113728, -217.56876963078943, -215.26319534721497, -212.94900235217335, -210.62739225942488, -208.29933665607385, -205.9656318058168, -203.62694028541716, -201.28382268308494, -198.93676136264096, -197.0559594296561])","array('d', [-50.068416595458984, -49.99703992613952, -49.94966767693037, -49.917729659459816, -49.89584758434361, -49.88060249560347, -49.86979161484729, -49.86197584603593, -49.85620145848873, -49.85182725381075, -49.84841636891822, -49.845668194661094, -49.84337552542922, -49.84139776769765, -49.839644421274976, -49.83838091603865])","array('d', [0.634405970573425, 0.5401493120928771, 0.4613418616147834, 0.39548151975401474, 0.3405236221869772, 0.29474138588671667, 0.2566470297091436, 0.22494508857228787, 0.19850401436774323, 0.17633865904514187, 0.15759945677542417, 0.1415658563406589, 0.12764254697280028, 0.11535761130774295, 0.10436209927993353, 0.09443074100339961])","array('d', [-0.03453285247087461, -0.02277275612746285, -0.015252848118754828, -0.010379581889290342, -0.00717968965413802, -0.005051953989238595, -0.0036206551435614075, -0.0026481928841242714, -0.0019824275923380082, -0.001524575811340999, -0.0012093908466646007, -0.0009927627722361926, -0.0008438569005031944, -0.0007400806297273311, -0.0006638679882539024, -0.0006006929671205605])","array('d', [0.5064399997380113, 0.4803374963560366, 0.45888157505422317, 0.44097884782416874, 0.42586546412566817, 0.41297886157040126, 0.4018899445313799, 0.3922642888936728, 0.38383834529378125, 0.37640379111206457, 0.3697964605319231, 0.36388790106483027, 0.3585784527459547, 0.353791209199702, 0.34946647964660255, 0.3445790218392715])",-73.19941932371158,-222.1476420608624,-49.89584758434361,0.3405236221869772,-0.00717968965413802,0.42586546412566817,25.000000246656697,-1.0,"[-264.860233619438, -102.95024691745921, 50.03751576374298]","[-262.6089971227437, -86.88972151219829, 61.74185077018054]","[-246.53223292857976, -96.1829127690546, 54.313913687198635]",10000000000.0,0.0187222957611084
4,9.541641235351562,-228.58834838867188,-76.50804901123047,50.063289642333984,0.635437726974487,0.03375272452831255,0.4788127700474598,23.156840176692327,"array('d', [-77.45374298095703, -76.28111620214258, -75.16070794410913, -74.08407923324604, -73.04451144973783, -72.03658656165919, -71.05589790247507, -70.09883962582802, -69.16244592446316, -68.24426350365677, -67.34224779587717, -66.4546774343941, -65.58008385313524, -64.71719426020408, -63.86488705006662, -63.19163250102843])","array('d', [-230.6827850341797, -228.476102768454, -226.2417837407448, -223.98575274366297, -221.7122756280058, -219.42453269474072, -217.12495253970212, -214.81542217782342, -212.49742800204788, -210.17215519817884, -207.84056051818493, -205.50342690310373, -203.1614050204176, -200.81504485454332, -198.46481935809945, -196.5815488208219])","array('d', [-50.06718063354492, -49.99597415252918, -49.948711259703266, -49.916844696199234, -49.89501034103495, -49.87979800072693, -49.86901033501827, -49.86121164009222, -49.85545031390659, -49.851086501942525, -49.84768419406783, -49.84494332426854, -49.84265703255005, -49.84068494371255, -49.83893669319833, -49.83767687202471])","array('d', [0.6346266865730283, 0.539558139548935, 0.4602014470557893, 0.39398471863332546, 0.33881492306664274, 0.292929475923499, 0.2548128628870961, 0.22314750512826806, 0.19678395486704844, 0.1747225352293722, 0.15610199463169233, 0.14019259490553498, 0.1263921041342174, 0.11422378785439503, 0.10333587017165234, 0.09350217042267372])","array('d', [-0.034449420869350315, -0.022719476220124317, -0.015218313876771911, -0.010356752858742858, -0.007164218469883634, -0.005041148100457261, -0.003612838942598014, -0.002642317531626112, -0.0019778324705568037, -0.001520842374559524, -0.0012062527316590624, -0.0009900502182751173, -0.0008414621402203941, -0.0007379360990496465, -0.0006619323071756169, -0.0005989414902947358])","array('d', [0.5019459287312368, 0.4758538163641783, 0.4544420656135491, 0.43660189637709745, 0.4215607563730587, 0.40875067467388126, 0.3977389830049242, 0.3881888323958614, 0.3798350408677283, 0.37246824148148616, 0.3659236795431868, 0.3600726699765755, 0.3548155933745268, 0.35007578153308033, 0.34579390756189643, 0.3409548234871408])",-73.04451144973783,-221.7122756280058,-49.89501034103495,0.33881492306664274,-0.007164218469883634,0.4215607563730587,25.000000246654885,-1.0,"[-264.1790702467065, -102.18778032131912, 50.041876929984916]","[-261.7251823377257, -86.14323541232373, 61.72738131761784]","[-245.77040773415544, -95.57294143514466, 54.20901635757211]",10000000000.0,0.029464006423950195
5,9.573442697525024,-227.32301330566406,-75.9651107788086,50.062469482421875,0.6311081051826475,0.03222302347421635,0.4648528854039049,23.163351505126823,"array('d', [-77.06997680664062, -75.9173043962058, -74.81696977200785, -73.76036276213505, -72.74066025914681, -71.75238107108208, -70.79108290665178, -69.853143428121, -68.93559381934197, -68.0359871544943, -67.15229147802091, -66.28280182877646, -65.42606793107448, -64.58083572420443, -63.74600175397161, -63.08657579782556])","array('d', [-229.84812927246094, -227.6309518628067, -225.38667612454105, -223.1211973412634, -220.83874020540605, -218.5424415398559, -216.23468782604112, -213.91732676130744, -211.59180869901323, -209.25928613090528, -206.92068634872572, -204.57676588010835, -202.22815180888406, -199.87537313690066, -197.5188842015329, -195.6307270360315])","array('d', [-50.06559753417969, -49.99458966743337, -49.94744956611968, -49.915659706678206, -49.893874104889484, -49.87869356279122, -49.8679273851613, -49.86014387669781, -49.85439384934178, -49.85003889845254, -49.84664388059375, -49.84390924372107, -49.84162842901825, -49.83966123525275, -49.83791739775055, -49.83666076925095])","array('d', [0.6350774168968198, 0.5383802642042267, 0.4579220461899121, 0.3909903013325042, 0.3353949792445577, 0.2893018156832062, 0.2511397980771741, 0.21954708282597976, 0.1933383701300023, 0.17148486117235817, 0.15310186424951228, 0.13744120134254886, 0.12388674043799236, 0.11195206715550425, 0.10127972298999485, 0.09164169134726777])","array('d', [-0.03435067459940895, -0.02265863145792179, -0.015180522560672295, -0.010332942515600855, -0.007148883191525152, -0.005030958485455287, -0.003605785610889619, -0.002637189514872078, -0.0019739014313147527, -0.0015176718560730473, -0.0012035828799122717, -0.0009877279277526886, -0.0008393985015836289, -0.0007360802131784443, -0.0006602548067709055, -0.0005974236250239161])","array('d', [0.49292083183792623, 0.4668490919312524, 0.44552540544043423, 0.42781011352909204, 0.412913271405473, 0.40025610716971205, 0.38939881125479314, 0.3799996784065264, 0.3717902489763697, 0.36455905313342596, 0.35814014503836444, 0.3524043633516385, 0.3472521615255634, 0.3426073421991426, 0.33841130306677303, 0.3336691122856815])",-72.74066025914681,-220.83874020540605,-49.893874104889484,0.3353949792445577,-0.007148883191525152,0.412913271405473,25.000000246650988,-1.0,"[-264.1790702467065, -102.18778032131912, 50.041876929984916]","[-261.7251823377257, -86.14323541232373, 61.72738131761784]","[-245.77040773415544, -95.57294143514466, 54.20901635757211]",10000000000.0,0.023273944854736328
6,9.59755802154541,-226.89956665039062,-75.78828430175781,50.06240463256836,0.6265243291854856,0.03136930614709832,0.4604205648091177,23.167565206346246,"array('d', [-76.88079833984375, -75.7384042873874, -74.64840341407393, -73.60209807072874, -72.59261218155117, -71.61443276809007, -70.66309979110984, -69.73498289339551, -68.82711208454677, -67.93704401981604, -67.06275348428886, -66.20254416937885, -65.35497539098384, -64.51880288279092, -63.69293266761875, -63.0405996189469])","array('d', [-229.42922973632812, -227.20672872424677, -224.95741140022065, -222.68715427562745, -220.40015906370232, -218.0995393096164, -215.78765939287436, -213.46634661167113, -211.13703275809993, -208.80085357094637, -206.45872130077035, -204.11137902480755, -201.7594418395359, -199.40342809455368, -197.04378268363848, -195.1531633707851])","array('d', [-50.06480407714844, -49.99411088415251, -49.947174429129355, -49.915518273528306, -49.89382192401053, -49.878702097006766, -49.86797811614491, -49.86022465632072, -49.85449662521012, -49.85015828323697, -49.846776241825665, -49.84405211577021, -49.84178012467152, -49.83982058050501, -49.838083542070436, -49.836831816324725])","array('d', [0.6352537274360655, 0.5377308247612274, 0.45671536852115985, 0.3894229927086833, 0.33361421164723215, 0.28741829809139824, 0.24923601785880728, 0.2176830104442388, 0.19155572735314982, 0.1698105372494355, 0.15155080365193738, 0.13601894886507204, 0.12259175498258901, 0.11077787489161882, 0.10021695833643855, 0.09068006203509532])","array('d', [-0.034196879714727256, -0.022559667026410695, -0.015115965934077644, -0.010290163829813525, -0.007120025044090967, -0.005011093611717266, -0.003591794759434739, -0.0026270766437392003, -0.0019663741265354166, -0.0015118830067732568, -0.001198970928664881, -0.0009839178435049993, -0.0008361404899786247, -0.0007332120404622851, -0.0006576788493754367, -0.0005950928021777111])","array('d', [0.48828585545090236, 0.4622273917997588, 0.44095091360640626, 0.4233011844478645, 0.4084795194683988, 0.39590172336507495, 0.38512439725732145, 0.3758033911557304, 0.3676685932051474, 0.3605074733051894, 0.3541534864643925, 0.3484772348612079, 0.34337921466588495, 0.33878347386991203, 0.33463178477649397, 0.32993966064927815])",-72.59261218155117,-220.40015906370232,-49.89382192401053,0.33361421164723215,-0.007120025044090967,0.4084795194683988,25.000000246648852,-1.0,"[-263.86581738663506, -101.83714449147561, 50.04388278663756]","[-261.31880903692945, -85.8005415213681, 61.72035972301136]","[-245.4207000407965, -95.29268669153853, 54.16064343101426]",10000000000.0,0.02161383628845215
7,9.620622634887695,-226.47491455078125,-75.61341857910156,50.06248474121094,0.6199840307235714,0.030163470655679522,0.4560745517399646,23.173420462659365,"array('d', [-76.6934814453125, -75.56154450733914, -74.48205175754076, -73.44621741745857, -72.4471123119717, -71.47919175915413, -70.53797815866625, -69.61983337993193, -68.7217865412582, -67.84139818383333, -66.97665014809024, -66.12585509221054, -65.28758222873381, -64.46059737490116, -63.643816299168364, -62.99867433913004])","array('d', [-229.00930786132812, -226.7814488711531, -224.52706350000844, -222.25200689210044, -219.96045622272004, -217.65550076372082, -215.33948212546633, -213.01420674410153, -210.68108752127378, -208.3412432041725, -205.99557082603081, -203.644799880967, -201.2895333755024, -198.93027892513052, -196.56747191242778, -194.6743866359086])","array('d', [-50.064029693603516, -49.99376723174054, -49.94711103825782, -49.91563991035001, -49.89406770495009, -49.87903267049345, -49.86836776016829, -49.86065637319138, -49.85495907080086, -49.850643825045246, -49.847279715383436, -49.84457001474175, -49.84231006035568, -49.840360907805554, -49.83863308719239, -49.83738800513009])","array('d', [0.6353865265846249, 0.5370338246570076, 0.4554594200314247, 0.38780622209312937, 0.33178487086797176, 0.2854878899754124, 0.24728760658080023, 0.2157769635302252, 0.18973400966491888, 0.1681001494032725, 0.1499666913797872, 0.13456656992005936, 0.12126941493928989, 0.10957890235900318, 0.09913176788051556, 0.08969814101597469])","array('d', [-0.033986803144216475, -0.022423778066490957, -0.01502682491719203, -0.010230774136348087, -0.007079776286968843, -0.004983299294193394, -0.0035721954936141355, -0.002612926563770992, -0.0019558801736523973, -0.0015038587580735328, -0.0011926218199977165, -0.0009787076155873637, -0.0008317083636281209, -0.0007293218309772484, -0.0006541881356373425, -0.0005919342734887936])","array('d', [0.4835797111180163, 0.4575370921088439, 0.43631023180502443, 0.4187283108669183, 0.40398392364255054, 0.3914874655191983, 0.38079195477792677, 0.37155079832821825, 0.36349223189018914, 0.3564026651637293, 0.3501149555914943, 0.34449947247098434, 0.33945676028488275, 0.3349111196011344, 0.33080470560831915, 0.32616369488902236])",-72.4471123119717,-219.96045622272004,-49.89406770495009,0.33178487086797176,-0.007079776286968843,0.40398392364255054,25.000000246646593,-1.0,"[-263.86581738663506, -101.83714449147561, 50.04388278663756]","[-261.31880903692945, -85.8005415213681, 61.72035972301136]","[-245.4207000407965, -95.29268669153853, 54.16064343101426]",10000000000.0,0.019592761993408203
8,9.643307209014893,-226.47491455078125,-75.61341857910156,50.06248474121094,0.6199840307235714,0.030163470655679522,0.4560745517399646,23.173420462659365,"array('d', [-76.50804901123047, -75.38672429829353, -74.31788578230918, -73.29266023945584, -72.30406607776561, -71.34652753363463, -70.4155500108719, -69.50748812788034, -68.6193706014026, -67.74876232099417, -66.89365261910669, -66.05236353097489, -65.22347454822204, -64.40576192488318, -63.59815149841197, -62.96026334752524])","array('d', [-228.58834838867188, -226.35511384344508, -224.0956508834346, -221.8157907216086, -219.51968438056568, -217.21039579681482, -214.8902430906274, -212.5610113359554, -210.22409419179257, -207.88059316274558, -205.53138988365475, -203.17720013274976, -200.81861472692742, -198.4561304703286, -196.09017317212994, -194.1946313072119])","array('d', [-50.063289642333984, -49.99350731378677, -49.94716383801505, -49.91589937018108, -49.894465934022264, -49.879525720631634, -49.86892685688396, -49.861262470077065, -49.855599437622516, -49.851309887523534, -49.84796566971064, -49.84527192348815, -49.84302524751168, -49.841087538607816, -49.83936986068892, -49.838132087507])","array('d', [0.635437726974487, 0.5362589372127817, 0.45412982947871083, 0.38612024538554435, 0.3298908274277607, 0.2834972889578097, 0.24528347088264743, 0.21381957246588937, 0.1878651928387294, 0.16634672779760357, 0.14834339256467524, 0.13307860331792118, 0.11991481762943408, 0.10835072521170666, 0.09802014981667018, 0.08869230730617154])","array('d', [-0.03375272452831255, -0.022272216123401307, -0.014927299566008934, -0.010164404814043243, -0.007034769596857393, -0.0049522154648548936, -0.0035502884824773428, -0.0025971313008900663, -0.0019441909193460827, -0.001494945152944648, -0.0011855905308539884, -0.000972954047046468, -0.0008268246886832882, -0.0007250405373040954, -0.0006503479140795206, -0.0005884594970183765])","array('d', [0.4788127700474598, 0.45279049743244354, 0.4316170434438559, 0.4141062053496988, 0.3994419901999533, 0.38702946785992753, 0.376418125751188, 0.3672589605290708, 0.3592785773993994, 0.3522623419078252, 0.3460425271072762, 0.3404892813676418, 0.3355032090045325, 0.3310088745110933, 0.3269488270826504, 0.3223601641625837])",-72.30406607776561,-219.51968438056568,-49.894465934022264,0.3298908274277607,-0.007034769596857393,0.3994419901999533,25.000000246644206,-1.0,"[-263.86581738663506, -101.83714449147561, 50.04388278663756]","[-261.31880903692945, -85.8005415213681, 61.72035972301136]","[-245.4207000407965, -95.29268669153853, 54.16064343101426]",10000000000.0,0.020534276962280273
9,9.668554067611694,-225.19403076171875,-75.10063934326172,50.06473922729492,0.5880416631698607,0.024772942066192488,0.4425683776524404,23.190229690428673,"array('d', [-76.14386749267578, -75.04328966605723, -73.99511127766444, -72.9903203304814, -72.02185621869525, -71.08410009374316, -70.17253783711621, -69.28352076985227, -68.41408563211391, -67.56181306946466, -66.724713128757, -65.90113132608857, -65.08967168102838, -64.28913472181165, -63.498469395712895, -62.873949695032735])","array('d', [-227.7452850341797, -225.50169683325373, -223.23255084688796, -220.9435997061021, -218.63892495995321, -216.32152972628714, -213.99367889884965, -211.6571108771277, -209.31317829646056, -206.96294653260495, -204.60726535728196, -202.2468224259694, -199.88218372904103, -197.51382415774836, -195.1421501848587, -193.24216174177423])","array('d', [-50.0626106262207, -49.994621213015066, -49.94945406708456, -49.918972565837706, -49.89806814743925, -49.88349101091867, -49.87314551181395, -49.865661175396376, -49.86012877183559, -49.855936341846665, -49.852666482020204, -49.85003166916155, -49.847833526020196, -49.84593733749122, -49.844256330730715, -49.843044961189385])","array('d', [0.6338869929313656, 0.5333499027570211, 0.4503416529180487, 0.38180221830231, 0.32530318729692914, 0.27883450220460354, 0.24068894835513935, 0.20939586715732705, 0.1836816769002535, 0.16244579128721284, 0.14474572999876392, 0.12978790664423873, 0.116922063544835, 0.10563817555024206, 0.0955651471836278, 0.08647092886128768])","array('d', [-0.032881177961826186, -0.021703805064271504, -0.014551273378493323, -0.0099119468202356, -0.00686265736344388, -0.004832978912476597, -0.003466244412897149, -0.0025367398105185916, -0.0018998119080203663, -0.001461446457829043, -0.0011594795429584696, -0.0009518350410839467, -0.0008090614309259303, -0.0007095495791682823, -0.0006364749476315195, -0.0005759067167524437])","array('d', [0.46947629848984274, 0.443579760016063, 0.42257582151848405, 0.40525552538332615, 0.39079023007210534, 0.3785771296903728, 0.36816046222594456, 0.35918764555512134, 0.35138290516629545, 0.34453015873583626, 0.3384609821333297, 0.33304543078806054, 0.328184486657113, 0.32380343271614576, 0.31984574842855434, 0.31537265879253135])",-72.02185621869525,-218.63892495995321,-49.89806814743925,0.32530318729692914,-0.00686265736344388,0.39079023007210534,25.000000246639217,-1.0,"[-263.86581738663506, -101.83714449147561, 50.04388278663756]","[-261.31880903692945, -85.8005415213681, 61.72035972301136]","[-245.4207000407965, -95.29268669153853, 54.16064343101426]",10000000000.0,0.022897958755493164
10,9.690727472305298,-225.19403076171875,-75.10063934326172,50.06473922729492,0.5880416631698607,0.024772942066192488,0.4425683776524404,23.190229690428673,"array('d', [-75.9651107788086, -74.87471360943908, -73.83646601245407, -72.84132908250864, -71.88223247948244, -70.95355774442962, -70.05079775191717, -69.17031532627477, -68.30916176359186, -67.4649341888231, -66.6356601325118, -65.81970284617648, -65.01568373610553, -64.22241991595826, -63.43887581084802, -62.819929550883344])","array('d', [-227.32301330566406, -225.07441747604946, -222.8006919337437, -220.50751859930372, -218.19892566887904, -215.87787410083249, -213.54659438967892, -211.20679623686775, -208.85980795680223, -206.5066740794229, -204.148226362755, -201.7851368051081, -199.41795773279588, -197.0471520795075, -194.67311583330257, -192.77130431174737])","array('d', [-50.062469482421875, -49.99583591733073, -49.9515615286908, -49.9216764832212, -49.90117655075659, -49.88687795972466, -49.87672739244681, -49.869381880966095, -49.86395033123098, -49.85983291964496, -49.85662047878482, -49.854031136018726, -49.85187040067114, -49.85000618884156, -49.84835341243833, -49.84716236727956])","array('d', [0.6311081051826475, 0.5302135651442876, 0.4470211154945947, 0.37842320419675646, 0.3219581723076834, 0.2755909860119324, 0.23759479078272783, 0.20648308417318703, 0.1809693813230939, 0.15994263081560067, 0.14245200977305877, 0.12769749912120645, 0.11502416548274791, 0.10391895046485002, 0.09400928121284353, 0.08506312298818845])","array('d', [-0.03222302347421635, -0.021273076808815808, -0.014265262748457592, -0.009719200918422658, -0.006730787511851419, -0.004741337452472123, -0.0034014905267297927, -0.002490130558381054, -0.0018655322201389082, -0.0014355711377050757, -0.0011393242299914588, -0.0009355497013142793, -0.0007953771339419861, -0.0006976231845234936, -0.0006257962385946357, -0.0005662440137865899])","array('d', [0.4648528854039049, 0.43912277309559505, 0.41828166363153835, 0.40111827331280425, 0.38680268421389474, 0.37473123042347833, 0.36444753473404784, 0.3555986090266799, 0.34790848017963555, 0.3411610727730301, 0.3351881630706451, 0.3298601769461435, 0.32507860382378506, 0.3207693310920669, 0.31687649472161933, 0.31247662448017255])",-71.88223247948244,-218.19892566887904,-49.90117655075659,0.3219581723076834,-0.006730787511851419,0.38680268421389474,25.000000248780037,-1.0,"[-263.86581738663506, -101.83714449147561, 50.04388278663756]","[-261.31880903692945, -85.8005415213681, 61.72035972301136]","[-245.4207000407965, -95.29268669153853, 54.16064343101426]",10000000000.0,0.02079486846923828
11,9.714847564697266,-224.33448791503906,-74.76866149902344,50.069515228271484,0.5577784180641172,0.020055212080478543,0.43321175972488896,23.200735166707037,"array('d', [-75.78828430175781, -74.70754671500468, -73.67852315962305, -72.69218837906878, -71.74149039139692, -70.82083158896954, -69.92572727799828, -69.05256373463894, -68.19841623761566, -67.36090594738302, -66.53808402606519, -65.72833654260575, -64.93030656618407, -64.14283146496551, -63.36489435315769, -62.74705956881213])","array('d', [-226.89956665039062, -224.6462586043751, -222.36832000100273, -220.07133603577503, -217.75926652070675, -215.43502102261567, -213.10078969784902, -210.758249588919, -208.40870196855676, -206.05316860332923, -203.69246185321143, -201.32723703605922, -198.95803203978684, -196.58529724128059, -194.20941767159468, -192.29628306560033])","array('d', [-50.06240463256836, -49.997531228583235, -49.95441820124433, -49.92531077834558, -49.90533937446662, -49.891405551689324, -49.881510790785875, -49.874347808284696, -49.86904909006519, -49.86503062793847, -49.86189401278809, -49.85936476956558, -49.85725350616782, -49.85543159652912, -49.85381616996733, -49.852645944469394])","array('d', [0.6265243291854856, 0.5255860155543098, 0.44245512974819007, 0.3739947089902597, 0.3177215303728361, 0.27158377139787765, 0.23384104266632216, 0.2029957625669654, 0.17775238039828423, 0.15699252798411006, 0.1397596400919255, 0.12524940105754293, 0.11280392397973586, 0.10190845501533317, 0.0921899139437989, 0.08341689125476953])","array('d', [-0.03136930614709832, -0.020713254268919908, -0.013892724381009783, -0.009467579200556039, -0.006558252715402899, -0.004621179108343257, -0.0033164168016371932, -0.002428784644394426, -0.0018203431447192402, -0.001401416464170516, -0.0011126927843642617, -0.0009140164391594156, -0.0007772755741264674, -0.0006818442361334015, -0.0006116677720931154, -0.0005534602685075558])","array('d', [0.4604205648091177, 0.4349484141437229, 0.41433817030496545, 0.397384678649069, 0.3832614401790568, 0.3713667905113591, 0.3612456083895366, 0.352545789916902, 0.34499208766598566, 0.3383691120975611, 0.33250934556604894, 0.32728396291335177, 0.3225952442702038, 0.318369893361598, 0.3145528627955346, 0.3102609661402832])",-71.74149039139692,-217.75926652070675,-49.90533937446662,0.3177215303728361,-0.006558252715402899,0.3832614401790568,25.00000024663395,-1.0,"[-263.86581738663506, -101.83714449147561, 50.04388278663756]","[-261.31880903692945, -85.8005415213681, 61.72035972301136]","[-245.4207000407965, -95.29268669153853, 54.16064343101426]",10000000000.0,0.021187543869018555
12,9.7396879196167,-224.33448791503906,-74.76866149902344,50.069515228271484,0.5577784180641172,0.020055212080478543,0.43321175972488896,23.200735166707037,"array('d', [-75.61341857910156, -74.54204190832012, -73.52174702627718, -72.54356238209466, -71.60048264503219, -70.68695201347812, -69.79852428647324, -68.9316218203554, -68.08335400277898, -67.25137428238966, -66.43376427878312, -65.62893860857243, -64.83556689059542, -64.05251098443584, -63.27877642677557, -62.66493578131012])","array('d', [-226.47491455078125, -224.21706746364578, -221.93517360628516, -219.63469214880416, -217.31949755566848, -214.9924374852248, -212.65565487022596, -210.3107893832029, -207.9591119110943, -205.6016190062154, -203.2391017819402, -200.87219744436973, -198.5014283081544, -196.12723127465586, -193.7499796610331, -191.8382589279171])","array('d', [-50.06248474121094, -50.00009924842492, -49.95863058474587, -49.93062614075302, -49.91140569879589, -49.897990998489675, -49.88846081935654, -49.88155830485612, -49.876449325975805, -49.87257231019257, -49.869544139642436, -49.867100873177264, -49.86506039102427, -49.86329900624415, -49.86173701906325, -49.860606914487114])","array('d', [0.6199840307235714, 0.5193201608815253, 0.4365026459972224, 0.3683828279482031, 0.31246724889626004, 0.26669518201335884, 0.22931855306663665, 0.19883325517229802, 0.17393833873047534, 0.15351113381259837, 0.13659183346057371, 0.12237389266429265, 0.11019815221644993, 0.09954948501381884, 0.09005528104931647, 0.08148539536318755])","array('d', [-0.030163470655679522, -0.01992118570737824, -0.013364701451024136, -0.00911031079645758, -0.006312866093492729, -0.004450023038655923, -0.0031950742071605847, -0.0023411890285098577, -0.0017557630107981903, -0.0013525767985039976, -0.0010745974667463272, -0.0008832087451967314, -0.0007513763698568422, -0.0006592681061327965, -0.0005914529972523109, -0.0005351691800749825])","array('d', [0.4560745517399646, 0.43095852694433534, 0.4106533722946894, 0.3939685281123908, 0.38008562631351284, 0.3684078811471221, 0.3584833129979251, 0.34996200723642257, 0.342570382581071, 0.33609443231747615, 0.3303678704017146, 0.32526302051968015, 0.3206832591162109, 0.31655634092454527, 0.3128282177594863, 0.3086308280675951])",-71.60048264503219,-217.31949755566848,-49.91140569879589,0.31246724889626004,-0.006312866093492729,0.38008562631351284,25.000000246631263,-1.0,"[-261.60267533604406, -99.38471286300135, 50.05769876240023]","[-258.39968185522616, -83.4200099899589, 61.67101417778906]","[-242.91226718912378, -93.3320969523093, 53.80396142526481]",10000000000.0,0.01997089385986328
13,9.799842596054077,-222.60775756835938,-74.1301498413086,50.093772888183594,0.48479697108268727,0.0093191787600516,0.41478081146744294,23.217161778412546,"array('d', [-75.26959991455078, -74.21710501691621, -73.2138107568658, -72.25096935885327, -71.32175183774412, -70.42074840480424, -69.54363852626979, -68.68695576474501, -67.84790970522563, -67.024245000945, -66.21412667267265, -65.41604566959963, -64.62874137937226, -63.85113927336928, -63.08230272629013, -62.471404297023945])","array('d', [-225.62213134765625, -223.35523332268139, -221.06573079134785, -218.75874721190397, -216.43793570676763, -214.10598728660966, -211.76492796989146, -209.41630662303197, -207.06132144270757, -204.700909427996, -202.33581201938202, -199.96662441441498, -197.5938330249001, -195.2178438255923, -192.83900334032515, -190.92448915000122])","array('d', [-50.06350326538086, -50.008014029266974, -49.97110805775678, -49.946167124309284, -49.92903425641592, -49.917063578750174, -49.90854791272233, -49.902370217641405, -49.89778905905393, -49.89430524836027, -49.89157824884331, -49.8893734951863, -49.88752917501493, -49.88593540876255, -49.884521366559795, -49.8834972862855])","array('d', [0.6006539463996885, 0.5014622008113658, 0.4200143917762517, 0.353185909278644, 0.29849298786218814, 0.25387795435174293, 0.21759277250336564, 0.18813225713604043, 0.16419431731776624, 0.14465566034776617, 0.1285566709810097, 0.11509192815135809, 0.10360433797886277, 0.09358172807439817, 0.08465525159776624, 0.07659924621452044])","array('d', [-0.02682259120047092, -0.017724373533924514, -0.011898701709393228, -0.008117466343318513, -0.005630427442302553, -0.003973788331828151, -0.0028573818366680235, -0.002097456398242963, -0.0015761686462496074, -0.0012168745395331772, -0.0009688628201371904, -0.0007977940859483986, -0.0006796333278068406, -0.000596762203048239, -0.0005354936875935236, -0.0004845351008393572])","array('d', [0.44717009464767915, 0.4230719839173029, 0.40361420668175657, 0.3876586779718465, 0.3744164022713128, 0.36330842599013596, 0.3538943873524715, 0.3458324759467247, 0.33885515930130444, 0.332753240707032, 0.3273644695051561, 0.32256469305773683, 0.3182604454200525, 0.3143823498175556, 0.3108789743260926, 0.30693786593197364])",-71.32175183774412,-216.43793570676763,-49.92903425641592,0.29849298786218814,-0.005630427442302553,0.3744164022713128,25.0000002466255,-1.0,"[-261.60267533604406, -99.38471286300135, 50.05769876240023]","[-258.39968185522616, -83.4200099899589, 61.67101417778906]","[-242.91226718912378, -93.3320969523093, 53.80396142526481]",10000000000.0,0.05146479606628418
14,9.847131490707397,-222.174072265625,-73.97518920898438,50.103614807128906,0.46549174189567527,0.006529510021209579,0.41036661068466673,23.21944001205696,"array('d', [-74.93366241455078, -73.9005834904276, -72.91409285812216, -71.96579596061359, -71.04913401414089, -70.15891492882518, -69.29100067194716, -68.44208229716409, -67.60950802684111, -66.79114612471089, -65.98527267109392, -65.19047882015418, -64.40559455924615, -63.62962734638065, -62.861714769779994, -62.25235499705444])","array('d', [-224.76478576660156, -222.4887629131488, -220.19187646842735, -217.87883296107876, -215.55301270101924, -213.2169153786659, -210.87242557706082, -208.52098330352382, -206.16370031015393, -203.80144324708064, -201.43489518630386, -199.06460215595632, -196.6910086585866, -194.31448463024074, -191.93534540280498, -190.02506015936908])","array('d', [-50.06668472290039, -50.02014695695115, -49.989166044364204, -49.96820439722186, -49.953783063775454, -49.94368721126475, -49.936487495622465, -49.93124855219624, -49.927349529275496, -49.924372488817745, -49.92203242355197, -49.92013312686866, -49.918539336820814, -49.91715924361178, -49.915933627235326, -49.91504780358137])","array('d', [0.5736581683158873, 0.4770180218294014, 0.39781932107427376, 0.33301214331775203, 0.28015503841243566, 0.23721615112082894, 0.20246442094918612, 0.17440684583708307, 0.1517509788468157, 0.13338189833904548, 0.11834777411880207, 0.10585072120062781, 0.09524105976156878, 0.08601391516777436, 0.07780756324834343, 0.07040320100790233])","array('d', [-0.0224873311817645, -0.014872158558217457, -0.009994597838187123, -0.0068277525427830315, -0.004744139009024547, -0.0033557270024218906, -0.002419668940296096, -0.0017821244106120287, -0.0013443973439061997, -0.0010422755636268688, -0.0008332636421023899, -0.0006885873253940667, -0.0005881207678180718, -0.0005171379753842862, -0.0004642376279096677, -0.0004200602698615448])","array('d', [0.4378770152714588, 0.4151491489424368, 0.39681914716126104, 0.3818242409301137, 0.3694180809313587, 0.3590479266476905, 0.35029069243550753, 0.3428167053875242, 0.33636748153708795, 0.3307409357882877, 0.3257806565486655, 0.3213674473235426, 0.31741214747049346, 0.31384917601542534, 0.31063047669087007, 0.30700126292827506])",-71.04913401414089,-215.55301270101924,-49.953783063775454,0.28015503841243566,-0.004744139009024547,0.3694180809313587,25.000000246619173,-1.0,"[-261.60267533604406, -99.38471286300135, 50.05769876240023]","[-258.39968185522616, -83.4200099899589, 61.67101417778906]","[-242.91226718912378, -93.3320969523093, 53.80396142526481]",10000000000.0,0.029332876205444336
15,9.917852878570557,-219.9947967529297,-73.2232437133789,50.1753044128418,0.3747404515743254,-0.005314079113304785,0.3906982700016835,23.222271830377792,"array('d', [-74.76866149902344, -73.74524726091386, -72.76689898036129, -71.82543514794008, -70.91445906799136, -70.02890848346516, -69.16475348379802, -68.31877774875188, -67.48841042365879, -66.67159139576948, -65.86666066693027, -65.0722667368622, -64.28729120890921, -63.510788102125915, -62.74193707218902, -62.1326854302778])","array('d', [-224.33448791503906, -222.05400062448436, -219.75358860983195, -217.4377342814489, -215.1096707800294, -212.77179446716758, -210.42591356265962, -208.07340935777756, -205.7153470309104, -203.35255536473386, -200.98568602894488, -198.61525860052592, -196.24169502890632, -193.86534584296686, -191.48650956187947, -189.58026391019823])","array('d', [-50.069515228271484, -50.027999863417485, -50.0003433910319, -49.98161401428977, -49.96871300862012, -49.959667389567045, -49.953203792129614, -49.94848891237536, -49.94496968624297, -49.942273887150705, -49.94014777501802, -49.938416761628694, -49.93696056181178, -49.935697565459606, -49.93457510497228, -49.933765269465866])","array('d', [0.5577784180641172, 0.4627505390914009, 0.3849523150290168, 0.3213854458747925, 0.26963919393213115, 0.22770147540135557, 0.19385494536052184, 0.16661686723566485, 0.14470306484521533, 0.1270057129056564, 0.11257935202371687, 0.10063196831628031, 0.09051934595740532, 0.08174168274167812, 0.07394190909814272, 0.06690541217091232])","array('d', [-0.020055212080478543, -0.013271830553796996, -0.008926307939809407, -0.00610441329664881, -0.004247416835563857, -0.003009741479481429, -0.0021750663740962932, -0.0016063273782219512, -0.001215573008707628, -0.0009455708419580744, -0.000758440756804808, -0.0006285371028710592, -0.0005379342385942188, -0.0004735371413037427, -0.00042523699357717226, -0.00038477149350297607])","array('d', [0.43321175972488896, 0.4112678967492714, 0.39358264641255725, 0.379135920869837, 0.3672058269463998, 0.3572548186610244, 0.34886992277883255, 0.34172862688402494, 0.33557780930895575, 0.33021959994788247, 0.3255010326861194, 0.32130581161901955, 0.31754726921383, 0.31416199778105386, 0.3111038540207405, 0.3076488738039973])",-70.91445906799136,-215.1096707800294,-49.96871300862012,0.26963919393213115,-0.004247416835563857,0.3672058269463998,25.000000246615887,-1.0,"[-258.4941285554174, -96.28675171427267, 50.05998109312762]","[-254.44891572864668, -80.42923252085362, 61.5567344703414]","[-239.51912597007234, -90.84131509859505, 53.26879659900923]",10000000000.0,0.059647321701049805
16,9.976600885391235,-218.68386840820312,-72.78717803955078,50.238739013671875,0.32925733923912026,-0.009025890380144265,0.38017208973434974,23.220296370541707,"array('d', [-73.97518920898438, -72.99888046163485, -72.0590230894523, -71.14862586139068, -70.26220634743086, -69.3954400277642, -68.54491421591206, -67.70794237247189, -66.88241634630988, -66.06668480393937, -65.25945159940876, -64.45969072186176, -63.666575995050245, -62.87942453502142, -62.09765343736755, -61.47656543329105])","array('d', [-222.174072265625, -219.8726660981331, -217.55610008952067, -215.2277813638948, -212.89021957723412, -210.54529415561245, -208.19442639441021, -205.838697168954, -203.47893145286457, -201.11576134218416, -198.74967432687166, -196.38105082118696, -194.0101934002175, -191.63734926762623, -189.26272692392843, -187.36148971918865])","array('d', [-50.103614807128906, -50.090028181590114, -50.08084424205706, -50.074499781044274, -50.07001227832759, -50.06675622194253, -50.06432828919432, -50.062465160808976, -50.060992860869405, -50.0597951913317, -50.058793858609015, -50.05793583333352, -50.057185223983595, -50.05651798243934, -50.05591838381773, -50.05548493452101])","array('d', [0.46549174189567527, 0.38019987586546194, 0.3108276176951772, 0.2546773071825506, 0.20952510333017071, 0.17348438703852898, 0.14492837556347904, 0.12244442858119081, 0.10480612313286602, 0.09095560618716529, 0.07999206943148562, 0.07116402833389614, 0.06386412764448815, 0.05762578436255357, 0.052121307360322874, 0.04716131344676591])","array('d', [-0.006529510021209579, -0.00437577451961203, -0.0029944375978519272, -0.002096122467224233, -0.0015037633804543284, -0.0011076897522804075, -0.0008391367374102196, -0.0006544470873964829, -0.0005255432934290186, -0.00043411752776696704, -0.0003680507880053434, -0.0003191846222814386, -0.0002819244310333828, -0.00025236195759532003, -0.00022772786095098075, -0.00020605826164644432])","array('d', [0.41036661068466673, 0.39272961511928967, 0.378624284857311, 0.36724028806801284, 0.35797942055170817, 0.3503829234963342, 0.34409148827292024, 0.3388214222418919, 0.3343492088054002, 0.3305005651050645, 0.32714196060311773, 0.32417350485944846, 0.3215226081791664, 0.3191380815307086, 0.3169844813663512, 0.3145497408673733])",-70.26220634743086,-212.89021957723412,-50.07001227832759,0.20952510333017071,-0.0015037633804543284,0.35797942055170817,25.000000246598983,-1.0,"[-257.4887710815415, -95.33215568011339, 50.05788416461669]","[-253.1903501753925, -79.50832035384784, 61.509076822187865]","[-238.43433333714137, -90.07592629086, 53.10754887607746]",10000000000.0,0.0420536994934082
17,9.995109558105469,-218.24659729003906,-72.64366912841797,50.26264190673828,0.31597408652305586,-0.00967322569340484,0.37672455708054103,23.218678185904054,"array('d', [-73.51983642578125, -72.568995403746, -71.64953626975337, -70.75513144778893, -69.88081864024043, -69.02270057983344, -68.17772717807001, -67.34352638379781, -66.51826662961716, -65.70054195218928, -64.88927507945016, -64.08363596403886, -63.28297438639493, -62.4867658602499, -61.694570414267965, -61.06380967116489])","array('d', [-220.868408203125, -218.55631521669042, -216.23155355231233, -213.8970319368001, -211.5549076741963, -209.2067992225459, -206.85392721854203, -204.49721340118361, -202.1373532318433, -199.77487111181847, -197.41016338792667, -195.0435322478182, -192.67521239367844, -190.30539166368305, -187.93422633708317, -186.03543412858468])","array('d', [-50.1415901184082, -50.14397714538241, -50.14533874681402, -50.146041539867646, -50.14631707480124, -50.14631402751784, -50.14612970813001, -50.145829295036705, -50.14545768406309, -50.14504681865324, -50.14462019141669, -50.1441955186735, -50.14378618608593, -50.143401831583695, -50.14304830758111, -50.14279132540426])","array('d', [0.4093638658523558, 0.3299774730018939, 0.2657495682664286, 0.21414128770346855, 0.17303114015612084, 0.14060349340495173, 0.1152844835617968, 0.09570372982369477, 0.0806705926241742, 0.06915883093841702, 0.06029625647691913, 0.05335751920285766, 0.047759028504647166, 0.0430554978596639, 0.03893786021334517, 0.03523243608939173])","array('d', [0.0012100582243875382, 0.0007079399786555269, 0.00038670013472302925, 0.00017899917662125408, 4.3686060924992544e-05, -4.465026184232841e-05, -0.00010185102446660197, -0.0001378784393291946, -0.0001590570364556445, -0.00016946171863021776, -0.00017180104387324024, -0.00016800054795413299, -0.00015960556365370683, -0.00014807046104213918, -0.00013496731544615246, -0.0001221240743532235])","array('d', [0.3980553905155993, 0.3828711542525588, 0.3708430454894306, 0.36125826510170855, 0.3535784477216662, 0.34738431253653956, 0.34234436387396994, 0.3381956958102097, 0.3347311256765998, 0.33178971690194226, 0.32924915116566295, 0.3270191300609962, 0.3250353631626433, 0.3232538959297113, 0.3216456320693901, 0.319828030442007])",-69.88081864024043,-211.5549076741963,-50.14631707480124,0.17303114015612084,4.3686060924992544e-05,0.3535784477216662,25.000000246589327,-1.0,"[-257.4887710815415, -95.33215568011339, 50.05788416461669]","[-253.1903501753925, -79.50832035384784, 61.509076822187865]","[-238.43433333714137, -90.07592629086, 53.10754887607746]",10000000000.0,0.0193479061126709
18,10.025642395019531,-217.8089141845703,-72.50086975097656,50.28753662109375,0.3036206066608427,-0.010056511498987807,0.3733695308354237,23.216551038442077,"array('d', [-73.37091827392578, -72.42787801087657, -71.51464533833071, -70.62509192782456, -69.75441344009387, -68.89884371560645, -68.0554448909827, -67.22194289035558, -66.39659272064623, -65.57806546989256, -64.76535273905363, -63.95768622081379, -63.154471169692705, -62.355233053680834, -61.55957698410719, -60.92561844455605])","array('d', [-220.43186950683594, -218.11659021923276, -215.78937745517328, -213.45300317339303, -211.10952513435834, -208.76048653979169, -206.40704926865646, -204.05008789001892, -201.6902590814378, -199.32805470518107, -196.96384335149085, -194.59790321642507, -192.2304480542908, -189.86164727713052, -187.49164087257898, -185.59365448122412])","array('d', [-50.15763473510742, -50.164434383602604, -50.16870156733321, -50.171338166679895, -50.17291277207716, -50.17378917401636, -50.17420391829303, -50.17431364447258, -50.17422427165406, -50.17400912286336, -50.17372019192456, -50.17339506482151, -50.173061011617186, -50.17273718224249, -50.1724355086965, -50.17221558000023])","array('d', [0.3916887342929837, 0.3141402067271832, 0.25152166016256206, 0.20133946705682065, 0.16150165005847392, 0.13021328619435027, 0.1059161549887125, 0.08725255470281798, 0.07304274314359821, 0.06227023434482449, 0.05407176488512602, 0.04773019674661979, 0.04266944454495914, 0.038450967318556475, 0.03477160379795596, 0.03146265105028307])","array('d', [0.0033498473931105987, 0.0021105523163558733, 0.0013164436954347582, 0.0008014276684497533, 0.00046388756727962216, 0.00024095298575902433, 9.330548843217754e-05, -3.902915778353032e-06, -6.655025586921196e-05, -0.0001049285486740762, -0.00012586690672872786, -0.00013409747098865524, -0.00013316071620753887, -0.00012602186905546608, -0.00011549260732441134, -0.00010450250502148749])","array('d', [0.3942985097554067, 0.3798656050374728, 0.3684797685727903, 0.3594548929350351, 0.3522692944023954, 0.3465148905147283, 0.3418682151048672, 0.33807247002506824, 0.3349253521318134, 0.3322699694465972, 0.3299874408157118, 0.32799043380994136, 0.32621723997713403, 0.3246261647581668, 0.32319009994564935, 0.3215673277369227])",-69.75441344009387,-211.10952513435834,-50.17291277207716,0.16150165005847392,0.00046388756727962216,0.3522692944023954,25.000000246586296,-1.0,"[-256.7859135451282, -94.68490027610146, 50.05562691178668]","[-252.31086957601678, -78.8887816725946, 61.477387657769064]","[-237.67763579232553, -89.56563439270391, 52.9995763231774]",10000000000.0,0.02875518798828125
19,10.052242755889893,-216.93258666992188,-72.21720886230469,50.340576171875,0.28182902932167037,-0.010271029546857014,0.36734314362076353,23.212606744106182,"array('d', [-73.2232437133789, -72.28770165536537, -71.38046657334212, -70.49559634503447, -69.62843519314755, -68.77534097872928, -67.93348250929829, -67.10067918965063, -66.27526886669799, -65.45599651048138, -64.64191985906213, -63.83232995127721, -63.026685398235394, -62.224559732665675, -61.42560145064252, -60.78868063175709])","array('d', [-219.9947967529297, -217.67649087403663, -215.34693844345153, -213.0087881027204, -210.66400663562067, -208.31406780258195, -205.96007886960132, -203.60287030325193, -201.24306233543493, -198.88111611460153, -196.5173739274795, -194.15209115439097, -191.78546156623054, -189.41763694862107, -187.0487416662519, -185.15180555894253])","array('d', [-50.1753044128418, -50.186152597625735, -50.19308149608708, -50.1974853153271, -50.20024279592279, -50.20191577174546, -50.20286903767538, -50.20334352657316, -50.20350144088228, -50.2034543082573, -50.20328047301236, -50.20303592263317, -50.202760808718295, -50.202483116782076, -50.20222041911447, -50.202028278181174])","array('d', [0.3747404515743254, 0.298936674789044, 0.23785098775603905, 0.18903060728176171, 0.15041028035013845, 0.12021389310281574, 0.09689750050581264, 0.07911504920981255, 0.0656968878266763, 0.05563563454796738, 0.048076413430138965, 0.04230984865276272, 0.03776698215222146, 0.03401570347153456, 0.03075850006501957, 0.02783144430147765])","array('d', [0.005314079113304785, 0.0033964864663006524, 0.0021671475177597287, 0.00136922076275233, 0.0008455008556535372, 0.0004986657954143589, 0.00026779829093138936, 0.00011435260585678871, 1.3658616703919548e-05, -5.029779580454246e-05, -8.813912972498902e-05, -0.0001071834737616068, -0.00011281373121164847, -0.00010939681431888567, -0.00010090300457106307, -9.130126258746258e-05])","array('d', [0.3906982700016835, 0.37697748348401555, 0.3662031957670732, 0.3577131841283955, 0.35100081035170694, 0.34566817078934164, 0.3413991585547211, 0.33794262226556343, 0.33510080828420685, 0.33272062440090566, 0.3306864391934311, 0.32891373874544183, 0.32734327781691347, 0.32593552419229593, 0.32466527586833843, 0.32322986770268647])",-69.62843519314755,-210.66400663562067,-50.20024279592279,0.15041028035013845,0.0008455008556535372,0.35100081035170694,25.000000246583358,-1.0,"[-256.1074427532226, -94.10719928492402, 50.053097638383484]","[-251.46462063981528, -78.33827337496862, 61.44542744705711]","[-236.94926425895636, -89.12047744839232, 52.89858566452111]",10000000000.0,0.0238494873046875
20,10.074777126312256,-216.93258666992188,-72.21720886230469,50.340576171875,0.28182902932167037,-0.010271029546857014,0.36734314362076353,23.212606744106182,"array('d', [-72.93148803710938, -72.01078893173866, -71.11564977019657, -70.24045375701776, -69.38080819197404, -68.53329325686154, -67.69527101883601, -66.86473175870154, -66.04016585367881, -65.22045510256714, -64.40478028476112, -63.59254322402508, -62.78330237820468, -61.976721366773674, -61.172530071873766, -60.53015570419612])","array('d', [-219.12078857421875, -216.79657945059108, -214.46236456118305, -212.12058028985706, -209.77303439435923, -207.42107780631568, -205.06572023921854, -202.7077127032878, -200.34760926145978, -197.98581491058627, -195.6226235478828, -193.25824834776344, -190.89284593512775, -188.52653519262086, -186.15941121491068, -184.26223248304873])","array('d', [-50.21595764160156, -50.232666255523675, -50.24342564665436, -50.25035011201773, -50.25477246964094, -50.257544802229155, -50.25922009718221, -50.260163182172356, -50.26061917734423, -50.26075608109171, -50.260691364147355, -50.26050849295104, -50.260266970537515, -50.260008109003124, -50.25975795261338, -50.259573984067956])","array('d', [0.3434784710407255, 0.2707852859395435, 0.21245615327249145, 0.16610347209446022, 0.12970425476961628, 0.10151189510218289, 0.08000480339345746, 0.06385530315831708, 0.05190990876798614, 0.04317611163148741, 0.03681301977657439, 0.032124451059017976, 0.02855378085193818, 0.025680218435983036, 0.023216371572139356, 0.021007043611574242])","array('d', [0.008162901736796022, 0.005252642454095549, 0.003386036893489551, 0.0021737658618863525, 0.0013774069927470196, 0.0008492699146389719, 0.000496845286517166, 0.000261547946076517, 0.00010584561528210013, 5.353785759757993e-06, -5.6102133261659844e-05, -8.963541980941369e-05, -0.00010335366054044933, -0.00010372929627540924, -9.651613665376011e-05, -8.733185306008878e-05])","array('d', [0.38364429871109507, 0.37121874937352256, 0.361565961695224, 0.3540629588662099, 0.348228032776907, 0.3436802976199048, 0.3401160874952217, 0.33729392541362374, 0.33502396759067554, 0.33315982609951794, 0.33159168269138634, 0.330240127522497, 0.3290504237042768, 0.32798703223106973, 0.32702829636993686, 0.32594605722073267])",-69.38080819197404,-209.77303439435923,-50.25477246964094,0.12970425476961628,0.0013774069927470196,0.348228032776907,25.000000246577482,-1.0,"[-256.1074427532226, -94.10719928492402, 50.053097638383484]","[-251.46462063981528, -78.33827337496862, 61.44542744705711]","[-236.94926425895636, -89.12047744839232, 52.89858566452111]",10000000000.0,0.01808333396911621
21,10.0927574634552,-216.0550994873047,-71.93567657470703,50.395870208740234,0.26299193501472456,-0.00966348219662919,0.3617287437107901,23.21058088385015,"array('d', [-72.78717803955078, -71.87386475201963, -70.98486994295445, -70.11471579536678, -69.25912387048321, -68.41477231951247, -67.57910943284843, -66.7502025191197, -65.92661129705846, -65.10728019298412, -64.29144660471175, -63.478563541767414, -62.6682357287792, -61.86016860926866, -61.05412988983376, -60.40951467770592])","array('d', [-218.68386840820312, -216.356759042951, -214.0202016814041, -211.6765408764328, -209.32751498697027, -206.97442091209456, -204.61822512181726, -202.25964314306188, -199.89919927963916, -197.53727310678266, -195.17413648121135, -192.80998324909453, -190.44495294347783, -188.07914924536237, -185.71265367859283, -183.81470291302836])","array('d', [-50.238739013671875, -50.257214815328766, -50.26911328627586, -50.27677130781808, -50.28166229493218, -50.28472837327796, -50.2865810542565, -50.28762382413546, -50.2881278026898, -50.288278821012476, -50.28820682558963, -50.28800415010239, -50.28773662005142, -50.28744993726573, -50.287172912994464, -50.28696904068997])","array('d', [0.32925733923912026, 0.2579200700216202, 0.20080515275764338, 0.1555496915647604, 0.1201463652818145, 0.09285927601180392, 0.07217486393798213, 0.05677209955940287, 0.04550347546082268, 0.0373821504457499, 0.03157272948701251, 0.02738436947983012, 0.024265570201420374, 0.021800361852451034, 0.019705770886765193, 0.017830520464048694])","array('d', [0.009025890380144265, 0.005808563191721344, 0.0037446807781332855, 0.002404109830949756, 0.0015233748582543375, 0.000939233092090183, 0.0005494147672062465, 0.0002891430056435326, 0.0001169129770597459, 5.75599996212202e-06, -6.221838916456149e-05, -9.930334762675279e-05, -0.00011446771834008673, -0.00011487176566736623, -0.00010688094585711229, -9.67103041913123e-05])","array('d', [0.38017208973434974, 0.36832880929087236, 0.35918447591764907, 0.3521318949165156, 0.34669944254873725, 0.34251316736796983, 0.3392745276376605, 0.3367460887251587, 0.3347413674444789, 0.3331168735157615, 0.3317653423322025, 0.3306096392270736, 0.3295970627181495, 0.328693896108588, 0.32788011441750137, 0.3269622298480133])",-69.25912387048321,-209.32751498697027,-50.28166229493218,0.1201463652818145,0.0015233748582543375,0.34669944254873725,25.000000246574526,-1.0,"[-256.1074427532226, -94.10719928492402, 50.053097638383484]","[-251.46462063981528, -78.33827337496862, 61.44542744705711]","[-236.94926425895636, -89.12047744839232, 52.89858566452111]",10000000000.0,0.01642894744873047
