,current_time,x_pos,y_pos,z_pos,roll,pitch,yaw,vel,x_traj,y_traj,z_traj,roll_traj,pitch_traj,yaw_traj,x_cmd,y_cmd,z_cmd,roll_cmd,pitch_cmd,yaw_cmd,vel_cmd,effector_dmg,effector_x,effector_y,effector_z,cost,time_solution
0,0.06774520874023438,-198.0218963623047,-130.99050903320312,49.92708969116211,0.6290626525878905,0.03947596997022611,0.5802403847363333,23.10813768789416,"array('d', [-132.18399047851562, -131.36035289068616, -130.58133732420305, -129.83546277209285, -129.11269003314564, -128.4041645798148, -127.7020001029574, -126.99910307061023, -126.28905628207617, -125.56604107524922, -124.82478612620704, -124.06053488237616, -123.26902628510744, -122.44648517573928, -121.5896271353653, -120.69694612747054])","array('d', [-200.02781677246094, -198.77512293086968, -197.49345988945018, -196.19208312803772, -194.87771631276772, -193.55560469157535, -192.23009984362037, -190.90498357165478, -189.58368807244602, -188.2694499852387, -186.9654202919657, -185.67474286706374, -184.40060971271782, -183.1462978927301, -181.91518623442016, -180.70980041879915])","array('d', [-49.94065475463867, -49.896182963803035, -49.880850585505016, -49.88055697812488, -49.88113672114231, -49.881411924153994, -49.881794310881816, -49.88213929200511, -49.88249693774927, -49.88284931212951, -49.883202337773994, -49.88355373393957, -49.88390394369204, -49.88425408495356, -49.884593333988036, -49.88178566745542])","array('d', [0.6291261315345762, 0.49451646283381345, 0.37271658721103834, 0.26250749324012324, 0.16278617422000935, 0.07255458951066891, -0.009090322852707073, -0.0829656811115192, -0.1498108295947468, -0.2102947153620767, -0.2650225102857446, -0.3145413911218761, -0.35934463861174465, -0.3998653772065011, -0.43605949093556334, -0.390982585257211])","array('d', [-0.04003231972455976, -0.019613754353215072, -0.0011382766419601072, 0.0007158692229925155, 6.793041713663339e-05, 0.0002952153725869846, 0.00021595581573291125, 0.0002435585551409659, 0.00023347073096000555, 0.00023631434708153902, 0.0002344181520548392, 0.00023411512967581665, 0.00023285227691145937, 0.00023398385919516166, 0.00021860473009488742, -0.003893565470665236])","array('d', [0.6032323996212816, 0.562078721904859, 0.5318330450699983, 0.5103757088759066, 0.4962997372537656, 0.48861293912673304, 0.48658038370789647, 0.48963450858679836, 0.497320722615609, 0.5092629518259544, 0.5251410334086405, 0.5446754754550872, 0.5676169288442637, 0.5937383522578877, 0.6228119620305569, 0.6514875360666975])",-128.4041645798148,-193.55560469157535,-49.881411924153994,0.07255458951066891,0.0002952153725869846,0.48861293912673304,14.999999853142972,-1.0,[],[],[],10000000000.0,0.015042543411254883
1,0.08635759353637695,-197.61773681640625,-130.75741577148438,49.92464065551758,0.629054725170135,0.03922832757234563,0.5753317038205006,23.110479624395836,"array('d', [-131.9424591064453, -131.12430359296346, -130.35089485514254, -129.61071154735376, -128.8936851915727, -128.19093859997926, -127.49456666900646, -126.79745953129027, -126.09318515679789, -125.37591089272956, -124.64035178691395, -123.88173767985701, -123.09579368464178, -122.27873041051693, -121.42724771802321, -120.5398249241471])","array('d', [-199.63014221191406, -198.3738593212509, -197.08880456615123, -195.78418238535568, -194.46667194341407, -193.14147962444483, -191.81292244363067, -190.4847511429173, -189.16036983994655, -187.84298972751847, -186.53573874433752, -185.24173997859972, -183.96416681794136, -182.70627985422587, -181.47144431746162, -180.26218209613248])","array('d', [-49.93790817260742, -49.89348539289932, -49.87819737915069, -49.87792279961994, -49.87850729820528, -49.878792298373256, -49.87918275049843, -49.879536406240824, -49.87990249397844, -49.88026335122773, -49.880624787239455, -49.88098454676665, -49.881343053287395, -49.88170142586624, -49.8820488377052, -49.87924885923128])","array('d', [0.6291059851646419, 0.4944982336310508, 0.3727000927228515, 0.2624925683656852, 0.16277266954645295, 0.07254236979131017, -0.009101380115477318, -0.08297568705305597, -0.1498198855353673, -0.21030291510461102, -0.2650299453267065, -0.3145481685211575, -0.35935097118709824, -0.3998723926691112, -0.43612622496484527, -0.3910423111635938])","array('d', [-0.03999796882271751, -0.01958267237038972, -0.0011101525274549112, 0.0007136222311326652, 7.634038706056489e-05, 0.0002999299250166295, 0.0002219733898961612, 0.0002491148354973604, 0.00023916808885881822, 0.00024192886364056692, 0.00024001770844120045, 0.0002396675094739937, 0.00023836295083936847, 0.00023944903420272632, 0.00022402405914539122, -0.0038887243849615584])","array('d', [0.5988608757641651, 0.5577089545894474, 0.5274646583101722, 0.5060084611497301, 0.4919334626247729, 0.48424751733626614, 0.4822157236336099, 0.48527053848360774, 0.49295738407792195, 0.5049001959597197, 0.5207788185208938, 0.5403137663851655, 0.5632557009561561, 0.5893776311365949, 0.6184541811455343, 0.6471346838881421])",-128.19093859997926,-193.14147962444483,-49.878792298373256,0.07254236979131017,0.0002999299250166295,0.48424751733626614,14.999999853137005,-1.0,[],[],[],10000000000.0,0.015546798706054688
2,0.12242364883422852,-196.8068084716797,-130.2971954345703,49.92007827758789,0.6291900277137755,0.03874197229742998,0.5655365745213367,23.11458594871798,"array('d', [-131.70156860351562, -130.88900061264144, -130.12131204916005, -129.3869395674361, -128.67578424408558, -127.97894543012944, -127.2884985882259, -126.59731697890518, -125.89895326812965, -125.18756037292951, -124.45783928932245, -123.70500582960577, -122.92477084998609, -122.11333028665337, -121.26736801726776, -120.38534900284165])","array('d', [-199.2292938232422, -197.96938715680358, -196.68090624376373, -195.37300431808046, -194.05231561331098, -192.7240072491416, -191.39236120010233, -190.06109663443317, -188.73358906178925, -187.4130236985109, -186.1025049187018, -184.80513451936727, -183.52406679135612, -182.26254539940572, -181.0239214052906, -179.81071210579012])","array('d', [-49.93510818481445, -49.89075780835874, -49.875535333501055, -49.87528613185446, -49.87587322994293, -49.87616885145077, -49.876567151706496, -49.876929629469686, -49.87730417853978, -49.877673581325986, -49.87804347292895, -49.87841164402347, -49.87877849027302, -49.87914513394478, -49.87950073499436, -49.87670845941658])","array('d', [0.6291509270668029, 0.49453889873803203, 0.3727368880152075, 0.2625258620840457, 0.16280279486583873, 0.07256962812994974, -0.009076716141090376, -0.08295337105516026, -0.14979969530727696, -0.21028465162364757, -0.265013434815684, -0.3145332766429726, -0.35933768438499925, -0.39986154992587913, -0.43616470193940615, -0.39107675531972874])","array('d', [-0.039947222918271935, -0.019536755574997698, -0.0010686053337423892, 0.0007067204499679032, 8.642480837344182e-05, 0.00030410585595187946, 0.0002282269740958192, 0.0002546361616777085, 0.0002449246161342411, 0.0002475683386789811, 0.00024565243469389634, 0.00024524909322391503, 0.00024390172002695883, 0.00024493919990045926, 0.00022945384810700307, -0.0038838739573352392])","array('d', [0.5944207469609123, 0.5532649072898459, 0.5230175312845652, 0.5015587931988642, 0.4874816239352368, 0.4797937762080582, 0.47776028339905413, 0.4808135593205336, 0.48849899658912865, 0.500440510022726, 0.5163179294117083, 0.5358517598025155, 0.5587926606446202, 0.5849136778173262, 0.613991352874989, 0.6426746977954578])",-127.97894543012944,-192.7240072491416,-49.87616885145077,0.07256962812994974,0.00030410585595187946,0.4797937762080582,14.99999985313095,-1.0,[],[],[],10000000000.0,0.031842708587646484
3,0.1650865077972412,-195.99227905273438,-129.84510803222656,49.916160583496094,0.6295023560523987,0.038064420223235945,0.5562318126347405,23.11652059852856,"array('d', [-131.4626007080078, -130.65575825827523, -129.893926514348, -129.1654997726497, -128.46034845615165, -127.7695484850502, -127.0851559160501, -126.40002716089428, -125.70769959423778, -125.00231170280185, -124.27855041525699, -123.53161748310761, -122.75720945492183, -121.95150752572368, -121.11117965154507, -120.23467692814322])","array('d', [-198.82765197753906, -197.56406667327033, -196.27211286940482, -194.9608901790297, -193.63698603662505, -192.3055271240911, -190.97075941121483, -189.63636968416267, -188.30570415032815, -186.98192144634498, -185.66810185228954, -184.36732540679716, -183.082726890424, -181.81753267361123, -180.57507921324043, -179.35787860091017])","array('d', [-49.93235778808594, -49.88813113309594, -49.873020649845586, -49.872810392190914, -49.873394767608566, -49.87370230152455, -49.87410742681108, -49.8744785128585, -49.87486102621832, -49.87523857606045, -49.8756164896031, -49.875992649942006, -49.87636740827941, -49.8767418955295, -49.87710525532517, -49.874320274286156])","array('d', [0.6291573047637937, 0.4945446695063759, 0.3727421096020191, 0.26253058673070767, 0.16280706982000331, 0.07257349609348501, -0.009073216644274728, -0.08295020544308528, -0.1497968329941085, -0.21028206688051043, -0.26501111033972974, -0.3145312182870842, -0.3593359975909142, -0.3998611025152325, -0.43620350772489735, -0.3911114539847647])","array('d', [-0.039860509335994665, -0.019458293877239623, -0.0009976103268726044, 0.0006891285832076897, 9.986870738532905e-05, 0.00030672573445666106, 0.00023464379647984641, 0.00025971930053489704, 0.00025045310142197117, 0.0002529057820093898, 0.00025101056622095643, 0.0002505443370128301, 0.00024915660035129754, 0.00025014327180534644, 0.0002345958071431962, -0.0038792806892644347])","array('d', [0.5898816744473314, 0.5487252786863132, 0.5184774656300817, 0.49701836696045865, 0.48294088965157245, 0.47525277196150273, 0.47321903805958854, 0.4762720956520272, 0.4839573332038153, 0.4958986627132003, 0.5117759122545764, 0.5313095867115946, 0.5542503502923251, 0.5803712875699151, 0.6094504990630669, 0.6381367089572167])",-127.7695484850502,-192.3055271240911,-49.87370230152455,0.07257349609348501,0.00030672573445666106,0.47525277196150273,14.999999853124846,-1.0,[],[],[],10000000000.0,0.04308962821960449
4,0.18926072120666504,-195.58364868164062,-129.62225341796875,49.914363861083984,0.6284266710281369,0.037434622645377974,0.551744894185338,23.11462809841193,"array('d', [-130.99050903320312, -130.1958723682447, -129.44651432331355, -128.7307400108822, -128.038355551655, -127.3603887360053, -126.68885576346052, -126.01657844376994, -125.33706272087686, -124.64441738276722, -123.93330035710012, -123.19888435323494, -122.43683631096518, -121.64330686734264, -120.81493124694813, -119.9501329855742])","array('d', [-198.0218963623047, -196.75058060185327, -195.4513462799358, -194.13317409450073, -192.80254852276164, -191.46450949954195, -190.12322597258878, -188.7823156308524, -187.44506225687206, -186.11456793618572, -184.79386173216017, -183.48597745907873, -182.19400846015594, -180.92114436863906, -179.67069032755953, -178.44514623662081])","array('d', [-49.92708969116211, -49.88341169406719, -49.868797848927564, -49.868745141487004, -49.869292892795755, -49.86963188007987, -49.87004470165732, -49.8704318010087, -49.87082737858428, -49.87121893929878, -49.871610410697606, -49.872000134400885, -49.87238827558836, -49.87277601487603, -49.87315244236293, -49.87037972608809])","array('d', [0.6290626525878905, 0.4944590246465148, 0.3726646148802039, 0.2624604665196325, 0.16274362225896233, 0.07251608601504389, -0.009125164187436894, -0.08299721122242355, -0.1498393695878834, -0.21032056563012635, -0.2650459728918127, -0.31456284839239074, -0.3593649451169317, -0.399889247878071, -0.43629031425396325, -0.39118899329366885])","array('d', [-0.03947596997022611, -0.019110348253357175, -0.0006827764618292019, 0.0005912466254725181, 0.00014650761477822717, 0.0003028670527009721, 0.0002484691942461914, 0.0002673483431468593, 0.00026020755777300523, 0.00026184607150689994, 0.0002601441937673941, 0.00025949819487068875, 0.00025804759187831423, 0.00025892351163811543, 0.00024324140176594682, -0.0038715578348255805])","array('d', [0.5802403847363333, 0.5390922415409125, 0.5088509146085145, 0.48739716734749367, 0.473324261837576, 0.46564015092620953, 0.46360999564269195, 0.46666629466589066, 0.4743544989672598, 0.48629856478225286, 0.5021783526624994, 0.5217143934622535, 0.5446573799508517, 0.5707804816837432, 0.5998642467167707, 0.6285568625797268])",-127.3603887360053,-191.46450949954195,-49.86963188007987,0.07251608601504389,0.0003028670527009721,0.46564015092620953,14.999999853112369,-1.0,"[-194.71932575054876, -129.0536969889383, 49.85907774004785]","[-187.65228199174967, -118.2026454275564, 57.42951844871538]","[-179.73817155886718, -128.32220579864736, 49.686046749794706]",10000000000.0,0.018032550811767578
5,0.20780467987060547,-195.17413330078125,-129.40158081054688,49.9127197265625,0.6253716945648191,0.0364357866346835,0.5474861423161362,23.111872117912483,"array('d', [-130.75741577148438, -129.96902322935506, -129.22604888061363, -128.51675169701318, -127.83090465651689, -127.1595109902422, -126.49456658122098, -125.82887562059504, -125.15592805515551, -124.46981755717175, -123.76518728711793, -123.03719515536767, -122.28149300040371, -121.49421586078405, -120.67198236505048, -119.81320235475522])","array('d', [-197.61773681640625, -196.34252729650865, -195.03962829088755, -193.71795949669962, -192.38395255014967, -191.04260324206567, -189.69804124473595, -188.35384896753885, -187.01327827823607, -185.67940231678764, -184.3552239004768, -183.0437531274327, -181.7480620532688, -180.47132140925362, -179.21682009861502, -177.98705131859535])","array('d', [-49.92464065551758, -49.88131599588585, -49.867021985317855, -49.86706869930247, -49.867589563778054, -49.86794593709897, -49.8683606832901, -49.86875511927569, -49.86915612115005, -49.86955373339885, -49.86995097701321, -49.870346495027526, -49.870740333721514, -49.87113370685046, -49.87151566666597, -49.86874812857621])","array('d', [0.629054725170135, 0.49445185161142735, 0.37265812442962765, 0.26245459367811685, 0.16273830821331045, 0.0725112775025421, -0.009129515466854358, -0.08300114922545311, -0.14984293472631763, -0.2103237962025079, -0.26504890876617915, -0.31456554393415165, -0.35936753183473114, -0.39989244471541696, -0.4363167904227675, -0.3912126349375932])","array('d', [-0.03922832757234563, -0.01888627213478754, -0.00048002425836635024, 0.0005255348455385952, 0.0001748020675211774, 0.0002983021426713089, 0.0002554083452880091, 0.00027025858175647253, 0.00026450655066741907, 0.00026562447582233954, 0.0002640597885334983, 0.00026331007855908995, 0.00026183282833005107, 0.00026265102663403474, 0.0002468916144973289, -0.0038682972849153376])","array('d', [0.5753317038205006, 0.5341842517608645, 0.5039434680406152, 0.48249016896782965, 0.4684176463601374, 0.46073387103815705, 0.45870401549921813, 0.46176058605691706, 0.46944903895748075, 0.4813933342466494, 0.4972733354992757, 0.516809576738139, 0.5397527571636914, 0.5658760787403303, 0.5949610262814697, 0.6236555957543676])",-127.1595109902422,-191.04260324206567,-49.86794593709897,0.0725112775025421,0.0002983021426713089,0.46073387103815705,14.999999853106054,-1.0,"[-194.30712684555812, -128.8365432711083, 49.858225040958246]","[-187.18067419453035, -118.00444434147595, 57.40006204472047]","[-179.3235727259259, -128.16516077421937, 49.65243027201524]",10000000000.0,0.01754474639892578
6,0.22524309158325195,-194.7667236328125,-129.18463134765625,49.911869049072266,0.6197375655174252,0.03498518839478484,0.5431656400349475,23.10330319334228,"array('d', [-130.52630615234375, -129.74416732982036, -129.0075880151861, -128.3047810930318, -127.62548648726656, -126.96068279742795, -126.3023455495429, -125.64326129341134, -124.97690396584198, -124.29735211320484, -123.59923411663989, -122.87769306988965, -122.12836568458525, -121.34737136666101, -120.53131216178085, -119.6785843328144])","array('d', [-197.21270751953125, -195.9336422890691, -194.6271141932789, -193.30198273711983, -191.96462730176532, -190.61999967249344, -189.2721903028178, -187.92474632559905, -186.58088766159625, -185.24365844631302, -183.91603517208904, -182.6010041265987, -181.3016159716926, -180.02102242071513, -178.76249597044813, -177.5285228649778])","array('d', [-49.922264099121094, -49.87924943830015, -49.86523603167616, -49.865370520699365, -49.86586869246353, -49.86624110503564, -49.86665836834382, -49.86706005553456, -49.867466632942396, -49.86787036423077, -49.86827347533158, -49.86867487121698, -49.86907449262175, -49.86947358156118, -49.86986115198273, -49.86709886286625])","array('d', [0.6290825605392453, 0.4944770380874801, 0.37268091407905957, 0.2624752145707066, 0.1627569666950524, 0.07252816023872313, -0.009114239675576964, -0.08298732788250995, -0.14983043045157834, -0.21031248632246857, -0.26503868716774537, -0.3145563316200276, -0.3593593331836536, -0.3998858080719848, -0.4363308598979978, -0.39122519205695094])","array('d', [-0.03901106119155877, -0.018689681374659706, -0.0003021418218862752, 0.0004686029677674103, 0.0002001051502211245, 0.0002948641867087221, 0.00026203456694765627, 0.0002733594440811168, 0.00026881951307349954, 0.0002694778992350739, 0.00026802776966841277, 0.0002671808803323544, 0.00026567282180167885, 0.0002664330805418181, 0.00025059173547111325, -0.0038649921696654157])","array('d', [0.570432619252477, 0.5292827403956265, 0.49904004929802787, 0.4775851765186795, 0.4635113094615181, 0.4558263558533703, 0.45379544796083643, 0.4568510653776815, 0.4645386460466105, 0.4764821372078179, 0.4923613934699673, 0.5118969431382228, 0.5348394848552964, 0.5609622451386345, 0.5900475017673481, 0.6187431091709448])",-126.96068279742795,-190.61999967249344,-49.86624110503564,0.07252816023872313,0.0002948641867087221,0.4558263558533703,14.999999853099713,-1.0,"[-193.89422966726437, -128.62128536280366, 49.85807813854068]","[-186.7114162957642, -117.79388701552539, 57.353052261214756]","[-178.90846181833217, -128.01103446194483, 49.624934800846546]",10000000000.0,0.01604938507080078
7,0.24323701858520508,-194.7667236328125,-129.18463134765625,49.911869049072266,0.6197375655174252,0.03498518839478484,0.5431656400349475,23.10330319334228,"array('d', [-130.2971954345703, -129.5213288959616, -128.79117088836173, -128.094886655632, -127.42218206032419, -126.7640105435622, -126.11232686506908, -125.45989960512192, -124.80018641014806, -124.12725044840472, -123.43570508281185, -122.72067835469218, -121.97779160873395, -121.20314836954894, -120.39333388361563, -119.54673069922188])","array('d', [-196.8068084716797, -195.5239160198784, -194.21378483177656, -192.88521447527384, -191.54453208946657, -190.19664573068258, -188.84560672000106, -187.4949268920451, -186.1477941208924, -184.8072233858623, -183.47616466596872, -182.1575802256061, -180.85449910472846, -179.57005376221977, -178.3075000160993, -177.06931689020615])","array('d', [-49.92007827758789, -49.87744755926811, -49.863781687098445, -49.8640232247283, -49.86449059905896, -49.86488053387148, -49.86529844008811, -49.86570667901796, -49.86611772303301, -49.866526609798505, -49.86693457691756, -49.86734085931816, -49.86774526863316, -49.86814908328241, -49.868541278326724, -49.86578330954297])","array('d', [0.6291900277137755, 0.4945742784076814, 0.37276890074942326, 0.262554828174109, 0.16282900399656186, 0.07259334213867714, -0.009055260976442643, -0.08293396247850707, -0.14978214514964927, -0.21026880021800562, -0.26499916972757315, -0.3145206092172748, -0.3593271381430721, -0.3998573960534326, -0.43632249173754883, -0.39121772152241097])","array('d', [-0.03874197229742998, -0.01844619966343351, -8.183078126986989e-05, 0.00039591127320719497, 0.0002300218833722931, 0.00028890885904265786, 0.00026863760732574624, 0.00027556540823775493, 0.0002725436985186094, 0.00027263710852590647, 0.0002713406874877484, 0.0002703851291930234, 0.00026885285739686936, 0.00026955496166738855, 0.0002536372913176085, -0.0038622718435452107])","array('d', [0.5655365745213367, 0.5243773254832731, 0.49412726995194534, 0.472666321163118, 0.45858726331010274, 0.45089776047238095, 0.44886278954549763, 0.4519147268937547, 0.45959893964954135, 0.4715393252532226, 0.4874157026769155, 0.5069485748283811, 0.5298886247358424, 0.5560090898062584, 0.585092923019155, 0.6137879130183838])",-126.7640105435622,-190.19664573068258,-49.86488053387148,0.07259334213867714,0.00028890885904265786,0.45089776047238095,14.999999853093332,-1.0,"[-193.4833941822754, -128.40983284023656, 49.85940197097257]","[-186.24342766347516, -117.57065544654469, 57.28201055790013]","[-178.49544258927824, -127.8662458361373, 49.60284746419321]",10000000000.0,0.016408681869506836
8,0.26212501525878906,-193.94906616210938,-128.75732421875,49.91104507446289,0.5999412536621089,0.030898099765181347,0.5346288243916368,23.077599297152506,"array('d', [-129.84510803222656, -129.08121636150224, -128.36332695721836, -127.6795118379386, -127.01941062632969, -126.3739285290483, -125.73498052980939, -125.09530084069361, -124.44831597638039, -123.78805972874459, -123.10911676974328, -122.40658637282745, -121.6760604952183, -120.91361226974814, -120.11579486993986, -119.28096477002735])","array('d', [-195.99227905273438, -194.70218874969, -193.38528611268993, -192.05025521646036, -190.7033227326319, -189.3493138061148, -187.99220530903594, -186.6354417980154, -185.2821499555619, -183.93528900309485, -182.5977581396936, -181.27247355120903, -179.9624227417638, -178.6707011196331, -177.40053226859632, -176.1543809209168])","array('d', [-49.916160583496094, -49.87449662524111, -49.86170583025735, -49.86221337313698, -49.86259747792302, -49.8630265520955, -49.8634408116391, -49.86386037987608, -49.86427748297727, -49.86469419952907, -49.8651092718875, -49.86552277868694, -49.86593421083293, -49.86634494203338, -49.866743866426596, -49.86399216649931])","array('d', [0.6295023560523987, 0.4948568847841004, 0.37302461356447236, 0.2627862066546378, 0.16303836379220643, 0.07278277845966975, -0.008883852478658005, -0.08277886695703027, -0.14964181196673898, -0.21014182902469364, -0.2648843014858113, -0.3144167322894061, -0.35923336709981274, -0.3997737654528275, -0.4362739604535703, -0.3911744007206472])","array('d', [-0.038064420223235945, -0.017833125167541018, 0.0004729010000461409, 0.00020823796753153572, 0.00030233208087776834, 0.00027030116864688766, 0.0002818522075961091, 0.0002776423498451202, 0.0002784811380325991, 0.00027716293310878914, 0.0002762815914866697, 0.00027508084756270587, 0.00027352136792730786, 0.0002741104058175387, 0.00025805658373331206, -0.003858324764735691])","array('d', [0.5562318126347405, 0.5150453244161192, 0.48477386225396357, 0.4632952530391458, 0.4492011083665864, 0.4414983838142156, 0.43945160449959725, 0.442492846624598, 0.45016727139764495, 0.46209863134437584, 0.4779666414545497, 0.4974917295562933, 0.520424528204775, 0.5465382745422445, 0.5756169612374655, 0.6043083708454996])",-126.3739285290483,-189.3493138061148,-49.8630265520955,0.07278277845966975,0.00027030116864688766,0.4414983838142156,14.99999985308067,-1.0,"[-193.4833941822754, -128.40983284023656, 49.85940197097257]","[-186.24342766347516, -117.57065544654469, 57.28201055790013]","[-178.49544258927824, -127.8662458361373, 49.60284746419321]",10000000000.0,0.01743483543395996
9,0.2788846492767334,-193.94906616210938,-128.75732421875,49.91104507446289,0.5999412536621089,0.030898099765181347,0.5346288243916368,23.077599297152506,"array('d', [-129.62225341796875, -128.86408167586598, -128.15193073054579, -127.47384670429466, -126.81945160454013, -126.17963955194358, -125.54631605068775, -124.91220686571945, -124.27073057140169, -123.61591317998469, -122.94233147941439, -122.24507656740923, -121.51973180001553, -120.76236118999165, -119.96950806852313, -119.13952193287459])","array('d', [-195.58364868164062, -194.29015918838314, -192.97013640523565, -191.63218547391156, -190.28247139473547, -188.92577395117266, -187.56603154824742, -186.20665565212605, -184.85074404215482, -183.50123050657945, -182.16099176901423, -180.83292415385847, -179.51999767671458, -178.22529246879319, -176.9520190501588, -175.70263629325675])","array('d', [-49.914363861083984, -49.87359854049353, -49.86162115030193, -49.86237163515794, -49.862671333639604, -49.86313066724907, -49.8635350639686, -49.863958801455915, -49.864375150075794, -49.86479280424222, -49.86520818262693, -49.865622167098046, -49.86603395647302, -49.866445028704256, -49.86684417062763, -49.864092591552215])","array('d', [0.6284266710281369, 0.4938835646291643, 0.372143916975644, 0.2619893193287527, 0.16231731020294743, 0.07213034202057376, -0.00947420167585324, -0.08331303758268914, -0.15012515081313615, -0.21057917514312563, -0.26528003656408705, -0.3147748316417395, -0.3595574733012249, -0.4000674835936758, -0.4365490819767432, -0.39142004848726086])","array('d', [-0.037434622645377974, -0.01726326073041453, 0.0009885345132958977, 2.8133454435457512e-05, 0.0003658310610796777, 0.0002485699169185536, 0.00028993565803912325, 0.0002752919574122731, 0.00027976492989528604, 0.00027715091091391953, 0.00027669455906713353, 0.00027530787741073193, 0.00027377027839397807, 0.0002743169105077762, 0.0002581421369695425, -0.003858249017814831])","array('d', [0.551744894185338, 0.5106521766349362, 0.4804544180852923, 0.4590366208991436, 0.44499443046113824, 0.437337240049565, 0.43533112942254054, 0.4384092078785958, 0.4461173456467253, 0.4580797948171821, 0.47397663051821837, 0.49352854615454944, 0.5164863762309647, 0.5426235276216844, 0.5717244823811577, 0.6004361933151655])",-126.17963955194358,-188.92577395117266,-49.86313066724907,0.07213034202057376,0.0002485699169185536,0.437337240049565,14.999999853074499,-1.0,"[-192.6589955017511, -127.99340647678189, 49.864705299009664]","[-185.30624456611915, -117.07561742038199, 57.05768352770731]","[-177.66706714643803, -127.59523570568072, 49.57566511806392]",10000000000.0,0.014548063278198242
10,0.29481077194213867,-193.53900146484375,-128.54705810546875,49.91139602661133,0.5857173204421996,0.028394309803843405,0.5304026166584828,23.058556678767307,"array('d', [-129.40158081054688, -128.6487245456307, -127.94170200223816, -127.26856683484345, -126.61894845270965, -125.98375036995051, -125.3548849119684, -124.72508304167815, -124.08776728262991, -123.43696662685271, -122.76726003774804, -122.07374010517815, -121.35199107963088, -120.59807733357812, -119.80854197843492, -118.98173690366706])","array('d', [-195.17413330078125, -193.87749691673238, -192.55470802371792, -191.21426043568522, -189.86224055001395, -188.5033766359437, -187.14156666360097, -185.7801898717056, -184.42231782941505, -183.07086279396972, -181.72868367719877, -180.39866204180368, -179.08375569482857, -177.78703474113118, -176.51170164105318, -175.26021172865495])","array('d', [-49.9127197265625, -49.873379642856726, -49.86269228980404, -49.86382522137932, -49.86398641739001, -49.8644896812849, -49.86487414268296, -49.86530026982231, -49.86571118286729, -49.866126116112405, -49.86653780190338, -49.86694840933284, -49.8673566832443, -49.86776425862712, -49.868159828865345, -49.86540483530099])","array('d', [0.6253716945648191, 0.49111930735849174, 0.36964271332767284, 0.25972613645326165, 0.16026949742760047, 0.0702774041444485, -0.01115080953077064, -0.08483009563693768, -0.15149784273027156, -0.21182124042979922, -0.26640390942536607, -0.3157917703049823, -0.36047769557575954, -0.40090044201385777, -0.43730887503726495, -0.392098224375301])","array('d', [-0.0364357866346835, -0.016359476501446098, 0.0018063096511230679, -0.0002612428893321856, 0.0004640712268107865, 0.00021116627889890334, 0.0002999675473239262, 0.00026872320281787063, 0.0002789896049954759, 0.00027433242457332286, 0.00027457787933447787, 0.00027292625453509525, 0.0002714633700423935, 0.0002719621524387053, 0.00025573551340990014, -0.0038603993324423562])","array('d', [0.5474861423161362, 0.506659072642952, 0.47667028803658307, 0.4554250153445036, 0.44153028338132033, 0.43400237086038096, 0.4321117516999436, 0.435294456744272, 0.443098362091036, 0.4551491335033575, 0.47112786519238775, 0.49075600110964057, 0.5137849418090873, 0.5399885395484639, 0.5691518565891639, 0.5979196490784556])",-125.98375036995051,-188.5033766359437,-49.8644896812849,0.0702774041444485,0.00021116627889890334,0.43400237086038096,14.999999853068605,-1.0,"[-192.2456178301444, -127.78854295856195, 49.868810284809435]","[-184.83716271979134, -116.80486479913279, 56.90255800334205]","[-177.25201125072337, -127.46809002117544, 49.57036153466436]",10000000000.0,0.014688491821289062
11,0.31107258796691895,-193.1282196044922,-128.339111328125,49.91276550292969,0.5686624646186826,0.025567693635821245,0.526161388554845,23.03540166229298,"array('d', [-129.18463134765625, -128.4370253507612, -127.73480830222357, -127.06608129932665, -126.42051165427196, -125.78903706281604, -125.16359631724096, -124.53694198647185, -123.90251480793516, -123.2543596265863, -122.58706958011422, -121.89575024549472, -121.17599802261438, -120.42388884657122, -119.63597693196643, -118.8106277935908])","array('d', [-194.7667236328125, -193.46698871609516, -192.14162677216825, -190.79897486923457, -189.44501664178136, -188.08441818113397, -186.72103187670803, -185.3582034620713, -183.99897959912855, -182.6462540768465, -181.30287222729152, -179.97170582245755, -178.65570583424375, -177.35793784346646, -176.08160161823034, -174.82915151443655])","array('d', [-49.911869049072266, -49.874598884572926, -49.865785049074674, -49.867469943307434, -49.86742436434404, -49.86798650666873, -49.86833682246627, -49.86876131172157, -49.86915920155671, -49.869565085375406, -49.86996633754026, -49.870367009361566, -49.870765191071364, -49.871162749337344, -49.87154824757562, -49.8687837031167])","array('d', [0.6197375655174252, 0.48602133611306064, 0.36502987776396334, 0.25555226983988405, 0.15649282636709866, 0.06686013048407527, -0.014242887012371221, -0.08762792356698822, -0.15402942296587893, -0.21411191057843987, -0.2684765972391627, -0.3176672260077642, -0.36217471266797546, -0.402436142751686, -0.43870182496580595, -0.3933414934773593])","array('d', [-0.03498518839478484, -0.015046920900810364, 0.002993951017377017, -0.000686034094191484, 0.0006037460358033783, 0.0001532915726181159, 0.00031116256422000554, 0.00025574755527663686, 0.00027446007393902686, 0.0002668453902151544, 0.0002681359767294433, 0.00026612664630690566, 0.0002648043634369041, 0.00026526562883036163, 0.0002490032991445416, -0.003866413649531284])","array('d', [0.5431656400349475, 0.5028259441705971, 0.4732212283793101, 0.4522934290700142, 0.4386702902876402, 0.4313806443215544, 0.42970298798554163, 0.4330786921920027, 0.44105930262199794, 0.45327307309792186, 0.4694029645876264, 0.48917179631241753, 0.5123320048155507, 0.5386582459930451, 0.5679363392673048, 0.5968070381935549])",-125.78903706281604,-188.08441818113397,-49.86798650666873,0.06686013048407527,0.0001532915726181159,0.4313806443215544,14.999999853062992,-1.0,"[-192.2456178301444, -127.78854295856195, 49.868810284809435]","[-184.83716271979134, -116.80486479913279, 56.90255800334205]","[-177.25201125072337, -127.46809002117544, 49.57036153466436]",10000000000.0,0.015002012252807617
12,0.32769227027893066,-192.71682739257812,-128.13351440429688,49.91506576538086,0.5490788221359251,0.02248656563460808,0.5220006267216544,23.007755331046898,"array('d', [-128.75732421875, -128.0196204859257, -127.32556618893607, -126.66348460565497, -126.02322491730102, -125.39587307637062, -124.77348534854632, -124.14891172815484, -123.5156768321118, -122.86790025875486, -122.20024382220043, -121.50787787324548, -120.78646123677208, -120.03213103081751, -119.24150222819473, -118.41300574290659])","array('d', [-193.94906616210938, -192.6435211876614, -191.31383575752184, -189.96789333534252, -188.61141448078695, -187.24890939716664, -185.88412652295997, -184.5203436111258, -183.16056457208435, -181.80765868544268, -180.46446009785637, -179.1338391431912, -177.81875236224525, -176.52227573763184, -175.2476224502439, -173.9972537283948])","array('d', [-49.91104507446289, -49.8796073218869, -49.8745257809355, -49.87681255644826, -49.8765199937382, -49.87713215859206, -49.87742840706377, -49.87783512463805, -49.87820250150999, -49.878582323331436, -49.87895600169732, -49.87932971091698, -49.879700828050886, -49.88007147830317, -49.880430126987434, -49.87764024157539])","array('d', [0.5999412536621089, 0.4681088907827029, 0.3488220255080937, 0.24088679731516421, 0.1432229568525353, 0.0548530548893168, -0.02510733934847634, -0.09745848759059063, -0.16292448616755514, -0.22216049766301343, -0.27575926093128406, -0.3242568522263337, -0.36813724361704797, -0.40783117699087207, -0.443580885465587, -0.39769563159600074])","array('d', [-0.030898099765181347, -0.011348770128595042, 0.004312043592969348, -0.0011715275361551959, 0.0007493989721800421, 7.802080406807382e-05, 0.00031305630535063587, 0.0002306091877858052, 0.00025875708786927607, 0.00024785390387526584, 0.0002503424125637578, 0.0002479760299658124, 0.00024686534757591627, 0.0002473272813022748, 0.00023114097326615507, -0.0038823711164131334])","array('d', [0.5346288243916368, 0.4959762140782295, 0.4677076896944837, 0.4478883513286842, 0.4352159573311087, 0.42876199982710017, 0.42783235141956094, 0.4318866625967358, 0.44048907241274615, 0.4532767353864966, 0.46993904465859615, 0.49020356632358136, 0.5138263165973654, 0.5405847126345967, 0.5702666369526526, 0.5994987111084125])",-125.39587307637062,-187.24890939716664,-49.87713215859206,0.0548530548893168,7.802080406807382e-05,0.42876199982710017,14.999999853052685,-1.0,"[-191.83153166424515, -127.58603107646891, 49.874418140784194]","[-184.36728595217713, -116.52109862967039, 56.719292566050115]","[-176.83648343561626, -127.34713942722617, 49.571995587036454]",10000000000.0,0.014922618865966797
13,0.3428995609283447,-192.71682739257812,-128.13351440429688,49.91506576538086,0.5490788221359251,0.02248656563460808,0.5220006267216544,23.007755331046898,"array('d', [-128.54705810546875, -127.8140298021094, -127.12335951772926, -126.46354366324393, -125.82457492261074, -125.19765108611952, -124.57491852189109, -123.94930259225772, -123.31439342822635, -122.66436956814114, -121.9939475085689, -121.29834966815838, -120.57328550242536, -119.81494215652644, -119.01998466730412, -118.18689609107524])","array('d', [-193.53900146484375, -192.23073742439635, -190.8992776146407, -189.55221951188875, -188.19513078943794, -186.8324281584677, -185.4678025337846, -184.10449772639632, -182.7455001671013, -181.39367332240258, -180.05185387844378, -178.72292060117005, -177.40984246132155, -176.1157103439769, -174.8437534837839, -173.59644083792975])","array('d', [-49.91139602661133, -49.88353151029296, -49.87950602701312, -49.88140403212346, -49.88122886674276, -49.8817809989478, -49.88207922386298, -49.88246615213486, -49.8828213153939, -49.88318627131681, -49.88354603673655, -49.88390554999174, -49.88426263624676, -49.884619282554056, -49.884963892508985, -49.88216063932912])","array('d', [0.5857173204421996, 0.45523854260905194, 0.33717645184457157, 0.23034944555907777, 0.1336883658403968, 0.04622579941164712, -0.03291360358253302, -0.10452188808431123, -0.1693157154727215, -0.22794352061736467, -0.2809919539030181, -0.3289915787083621, -0.37242136032138584, -0.4117073712527645, -0.44708413001695013, -0.40082152766699913])","array('d', [-0.028394309803843405, -0.009083247280406919, 0.0035058811303280337, -0.0009016779744606221, 0.0006423663705901532, 0.00010281079717233647, 0.0002916718517029525, 0.00022533908421849073, 0.0002478366327168408, 0.00023892002023373517, 0.00024073690471417943, 0.0002386489399837614, 0.00023748547900274058, 0.00023803378210550448, 0.00022171832131009936, -0.0038907889580540238])","array('d', [0.5304026166584828, 0.49293886271422255, 0.46561815106769233, 0.44658878647995776, 0.4345962892828508, 0.4287414631016183, 0.4283490932614217, 0.4328915124317896, 0.44194162656515906, 0.455142804180773, 0.4721889406674934, 0.49281093312885915, 0.516767315869216, 0.5438374491658355, 0.5738105866557237, 0.6033030394256454])",-125.19765108611952,-186.8324281584677,-49.8817809989478,0.04622579941164712,0.00010281079717233647,0.4287414631016183,14.999999853047996,-1.0,"[-191.41692104991603, -127.38578050151095, 49.88133875941551]","[-183.89807141098666, -116.22689604576206, 56.51053160699638]","[-176.42073238312747, -127.23020735693537, 49.581134717521834]",10000000000.0,0.014634847640991211
14,0.3681929111480713,-191.89276123046875,-127.72929382324219,49.923274993896484,0.5036008954048153,0.015559398569166471,0.5138705531742911,22.93607826277065,"array('d', [-128.339111328125, -127.61064428157778, -126.92297935800838, -126.26482426340903, -125.62634481962303, -124.99887390751074, -124.3746672769901, -123.74674231102023, -123.10876958285148, -122.45500039991994, -121.78021911848356, -121.07971307078138, -120.34925508505738, -119.58509513099592, -118.78396133728273, -117.94440194534552])","array('d', [-193.1282196044922, -191.81732254666858, -190.48429539466431, -189.1364214286567, -187.77910102198325, -186.41664961558055, -185.05269760796895, -183.69045515188301, -182.33289374888207, -180.9828751509503, -179.64324370341913, -178.31689233552854, -177.00680845985784, -175.71610387825714, -174.44802960385633, -173.20506466207019])","array('d', [-49.91276550292969, -49.88893513059711, -49.886099922285744, -49.887555774229035, -49.88751028378655, -49.88799165322772, -49.88828915328629, -49.888650780146534, -49.888989206928805, -49.88933444679847, -49.889675592008906, -49.89001618995725, -49.89035458432827, -49.89069259353807, -49.89101879095802, -49.88819826230169])","array('d', [0.5686624646186826, 0.43980666950541575, 0.32321311436983813, 0.21771489419574144, 0.1222561499896686, 0.03588150184308785, -0.04227351183522556, -0.11299108381981604, -0.17697896071415323, -0.2348775104655973, -0.2872660825450251, -0.33466862779050066, -0.37755809676824653, -0.4163548753560134, -0.4512809698406343, -0.40456555556181883])","array('d', [-0.025567693635821245, -0.00652561929697674, 0.0025932054609886512, -0.0005988190390071741, 0.0005195091695002134, 0.00012883401314439758, 0.0002655520099631678, 0.00021742008277158957, 0.00023354661227726112, 0.00022688436149114784, 0.00022795801542219648, 0.00022620188374428642, 0.0002250104886298753, 0.00022565765951064083, 0.0002095410797678457, -0.003901667406185087])","array('d', [0.526161388554845, 0.49009879349144353, 0.4639017218513593, 0.44581281405636813, 0.43463221393744655, 0.4294944639627316, 0.42974622571835347, 0.4348745574356638, 0.4444625759082947, 0.45816090609106236, 0.47566871352200957, 0.496720803768651, 0.5210786729632102, 0.5485239694822325, 0.5788474249759066, 0.6086528087199392])",-124.99887390751074,-186.41664961558055,-49.88799165322772,0.03588150184308785,0.00012883401314439758,0.4294944639627316,14.999999853043589,-1.0,"[-191.41692104991603, -127.38578050151095, 49.88133875941551]","[-183.89807141098666, -116.22689604576206, 56.51053160699638]","[-176.42073238312747, -127.23020735693537, 49.581134717521834]",10000000000.0,0.02424001693725586
15,0.3850677013397217,-191.48036193847656,-127.5306625366211,49.92958450317383,0.47845450043678267,0.011891832575201905,0.5098418752339221,22.893092713545443,"array('d', [-128.13351440429688, -127.40939547861304, -126.72429416581934, -126.06716109740503, -125.42835976257527, -124.79937764371864, -124.1725963952469, -123.54113998969375, -122.89877273989727, -122.23983123123904, -121.55917974819, -120.85218241514208, -120.1146872981818, -119.34301916399576, -118.53398145506362, -117.68619977767436])","array('d', [-192.71682739257812, -191.4034422281573, -190.06908509273154, -188.72070900146346, -187.3635386027825, -186.00178360577218, -184.63901284987298, -183.27840425468375, -181.92291754529998, -180.57541708963197, -179.23875997786078, -177.91585880582514, -176.6097250692703, -175.3234970267536, -174.06045264783708, -172.8230829155198])","array('d', [-49.91506576538086, -49.89563297543458, -49.89409357291269, -49.89506462842588, -49.89515797297386, -49.8955596120626, -49.89585374425965, -49.89618522058377, -49.896502843534876, -49.896824046964184, -49.89714236645894, -49.8974598352943, -49.89777536141703, -49.89809058771807, -49.89839424361331, -49.89555252791066])","array('d', [0.5490788221359251, 0.42208665540418905, 0.3071793811175244, 0.20320697109775582, 0.10912883715208331, 0.02400341697702492, -0.05302124830027879, -0.12271603844202082, -0.18577846337728454, -0.24283962781442905, -0.29447049713453793, -0.34118742681938663, -0.3834564499197505, -0.42169134109640743, -0.45609713503735533, -0.4088612927196969])","array('d', [-0.02248656563460808, -0.003737699712780618, 0.0015961803534385035, -0.0002703027185240782, 0.0003838495566246035, 0.0001554789182408417, 0.00023536469707216635, 0.00020707566040768864, 0.00021626826386091503, 0.00021207296797947698, 0.00021234843575929023, 0.00021096640450751845, 0.00020975529831340848, 0.00021053345278345998, 0.0001946067529520501, -0.003915009109439444])","array('d', [0.5220006267216544, 0.48751603924148845, 0.4625928854076874, 0.44557532169594305, 0.4353228580910163, 0.4310069764809092, 0.4319984250574604, 0.43780054698844867, 0.44800779156057, 0.46227886193970225, 0.4803188073012131, 0.5018668091634896, 0.5266876897047089, 0.5545656718609964, 0.5852930363161766, 0.6154589017887012])",-124.79937764371864,-186.00178360577218,-49.8955596120626,0.02400341697702492,0.0001554789182408417,0.4310069764809092,14.999999853039462,-1.0,"[-190.58664665973544, -126.9920556944225, 49.899936837744036]","[-182.96155331875335, -115.62160553014587, 56.02944045573888]","[-175.58917203055648, -127.0072401781748, 49.62512021054126]",10000000000.0,0.01536870002746582
16,0.40750694274902344,-191.06796264648438,-127.33428955078125,49.938148498535156,0.4520802497863768,0.008274504914879651,0.5059366981175283,22.84420102001147,"array('d', [-127.72929382324219, -127.01339526946384, -126.33241542008204, -125.67585529721637, -125.0345251304418, -124.40026366307738, -123.7657415024301, -123.12432983880873, -122.4700125372514, -121.79732769375433, -121.10132990606189, -120.37756728968083, -119.62206904989834, -118.83134066802249, -118.00236827391078, -117.13396470988869])","array('d', [-191.89276123046875, -190.57475013649122, -189.23827379295057, -187.8896126510659, -186.5336326791867, -185.17432763408937, -183.8151442777313, -182.45920170795958, -181.1094450881462, -179.7687553137846, -178.44002768400725, -177.12622752872056, -175.83042795164812, -174.55583304193485, -173.3057862902033, -172.08280515466956])","array('d', [-49.923274993896484, -49.91372966236703, -49.91509752530636, -49.914968118636125, -49.91536420794206, -49.91557699299238, -49.91585401366169, -49.916108218947066, -49.91636962929045, -49.91662741467723, -49.91688509505079, -49.917141300403834, -49.91739620019264, -49.917651034174405, -49.91789483703372, -49.914996791226116])","array('d', [0.5036008954048153, 0.38093652188588745, 0.26994519719968957, 0.16951608524610612, 0.07864406030829356, -0.003580352103827932, -0.07798007651457989, -0.1452997210718953, -0.2062130234645974, -0.2613295762684573, -0.3112008727685485, -0.35632562147797053, -0.39715374694485767, -0.4340832962026476, -0.4672625316338677, -0.4188164877881067])","array('d', [-0.015559398569166471, 0.0025302543517723187, -0.0006533275485065026, 0.0004621764811492408, 7.244412009783469e-05, 0.00020899140369699194, 0.00016116729583606047, 0.00017750061720442733, 0.0001711524129668923, 0.00017253832094685622, 0.0001710601729555044, 0.00017055538819792725, 0.00016933141606345818, 0.0001704289149737758, 0.00015490059831491088, -0.003950480585409638])","array('d', [0.5138705531742911, 0.4829340705491312, 0.46090761431962585, 0.4463459505148471, 0.43823382097695146, 0.43582160949556875, 0.43853200833237477, 0.4459037463344021, 0.4575560501074339, 0.4731653803351226, 0.4924497855981752, 0.5151581665063242, 0.5410627736064597, 0.5699535991554294, 0.6016256317666352, 0.6326329610519689])",-124.40026366307738,-185.17432763408937,-49.91557699299238,-0.003580352103827932,0.00020899140369699194,0.43582160949556875,14.999999853031884,-1.0,"[-190.17122197592013, -126.79865544092343, 49.911747174730955]","[-182.49377280757562, -115.31763854313982, 55.76350120752262]","[-175.17370185059892, -126.8997145504322, 49.65841508641604]",10000000000.0,0.020124435424804688
17,0.4236176013946533,-190.65853881835938,-127.14125061035156,49.950008392333984,0.42466720938682534,0.004761065822094564,0.5021394054081776,22.78914668546364,"array('d', [-127.5306625366211, -126.81876627897573, -126.13955483305092, -125.48282571327111, -124.83962602729882, -124.20198264465999, -123.56272264887436, -122.91535262077392, -122.25397787482521, -121.57324896670521, -120.86832748596238, -120.13486558440825, -119.36899532558921, -118.5673251025347, -117.7269452895901, -116.84677526895068])","array('d', [-191.48036193847656, -190.1601488165102, -188.82277084080096, -187.47418961678665, -186.11909423162237, -184.76137203941673, -183.4044109701225, -182.05130390757787, -180.70499268078638, -179.36837093351252, -178.04435784137317, -176.7359499335521, -175.44625579642738, -174.17851676376176, -172.93611280578608, -171.72157476621675])","array('d', [-49.92958450317383, -49.924144565271625, -49.926354153074335, -49.92588517602022, -49.9263550198936, -49.92649676166567, -49.92675327749634, -49.92696928805014, -49.927198729289685, -49.92742247635675, -49.92764699953778, -49.92786993928094, -49.928091846006495, -49.92831384295166, -49.92852514969501, -49.92559658032454])","array('d', [0.47845450043678267, 0.3581831207345798, 0.24935706659620227, 0.15088717264310758, 0.061787921648396596, -0.018832418359528307, -0.09178071775251183, -0.15778705812548893, -0.2175120325567444, -0.27155333853175434, -0.32045170160707137, -0.3646960689830392, -0.40472743987560517, -0.4409350317883619, -0.4734332292948153, -0.42431604427540104])","array('d', [-0.011891832575201905, 0.004367249197298433, -0.0013261496865855222, 0.0006675873187666504, -2.9499987116207818e-05, 0.00021441994889339431, 0.00012902570974548366, 0.00015849673044414193, 0.00014760659542585112, 0.0001506716989221345, 0.00014872502008257343, 0.00014853120621166567, 0.00014736390127812138, 0.0001486112151264914, 0.00013338510308557734, -0.003969701551619219])","array('d', [0.5098418752339221, 0.480804100409034, 0.46034586798129373, 0.4471250163190471, 0.44018867021953345, 0.4388270439095744, 0.442489321488286, 0.45073242582259654, 0.4631884089506439, 0.47954297809536817, 0.49952098967882586, 0.5228764649597591, 0.5493855938300175, 0.578841443879369, 0.6110402999194726, 0.6425162068674053])",-124.20198264465999,-184.76137203941673,-49.92649676166567,-0.018832418359528307,0.00021441994889339431,0.4388270439095744,14.999999853028323,-1.0,"[-189.75592620009851, -126.60737393315436, 49.925736882795874]","[-182.02793535562077, -115.01504258067601, 55.48415494210157]","[-174.75877917935185, -126.79146763876253, 49.69838089394835]",10000000000.0,0.014789342880249023
18,0.4400615692138672,-190.65853881835938,-127.14125061035156,49.950008392333984,0.42466720938682534,0.004761065822094564,0.5021394054081776,22.78914668546364,"array('d', [-127.33428955078125, -126.62621254253932, -125.94850166763585, -125.29126134422594, -124.6457775464644, -124.00426988146204, -123.35972721375958, -122.705797285093, -122.0367129505735, -121.3472436107953, -120.63266450141734, -119.88873871876771, -119.11170832555779, -118.29829197918006, -117.4456921984077, -116.55294353043898])","array('d', [-191.06796264648438, -189.74567384576522, -188.4075282469938, -187.05919342286987, -185.70518340353286, -184.34928261373216, -182.99482333459628, -181.6448754177324, -180.30238050957195, -178.9702481325572, -177.6514243742426, -176.348939824944, -175.06594115317975, -173.80570918463846, -172.5716619024758, -171.3663421599978])","array('d', [-49.938148498535156, -49.93438975961562, -49.93597051358192, -49.935681965453476, -49.93604856646125, -49.93618622762392, -49.93640389173533, -49.93659319743673, -49.9367917359884, -49.93698614816794, -49.93718093335824, -49.93737445526092, -49.93756703678092, -49.93775989097833, -49.93794226713849, -49.93498647167472])","array('d', [0.4520802497863768, 0.334318709717812, 0.22776365260481385, 0.13134864193554174, 0.044108726423944145, -0.03482921704164126, -0.10625522077150885, -0.17088413046624973, -0.22936275266050268, -0.28227630859156666, -0.33015422906970504, -0.37347521795952787, -0.4126708827213793, -0.44812088252291893, -0.4798848459659032, -0.4300640833807084])","array('d', [-0.008274504914879651, 0.003073512254314512, -0.0008995597036372511, 0.0004916211594978401, 5.293118995751959e-06, 0.0001754170935301251, 0.00011579631882967, 0.0001362697485573883, 0.00012857665959485327, 0.00013060573369821752, 0.0001291324334530437, 0.00012890063860995454, 0.00012789155505800548, 0.00012922512554459846, 0.0001141938326846085, -0.00398684597526192])","array('d', [0.5059366981175283, 0.4788470669459744, 0.4600107631099016, 0.4481847161771756, 0.4424767575499693, 0.44221621993841975, 0.4468784922224491, 0.45603859730567303, 0.4693414078148071, 0.48648191419303966, 0.5071918370546911, 0.5312303843295622, 0.5583777553370439, 0.5884301512064999, 0.6211843214563463, 0.6531528941085059])",-124.00426988146204,-184.34928261373216,-49.93618622762392,-0.03482921704164126,0.0001754170935301251,0.44221621993841975,14.999999853024912,-1.0,"[-189.34372141740758, -126.41930587555028, 49.94286682058147]","[-181.56679238579326, -114.71689154933539, 55.19385470619261]","[-174.3473450377804, -126.6831645231654, 49.74519513662369]",10000000000.0,0.015364885330200195
19,0.46816134452819824,-189.84039306640625,-126.76103210449219,49.979339599609375,0.36724659800529463,-0.0016858532326297017,0.4950499097493033,22.667045646492234,"array('d', [-127.14125061035156, -126.43683750154094, -125.76041151115862, -125.10238393805245, -124.4542810128663, -123.80851796453976, -123.15824935700383, -122.49726871807356, -121.81994160100795, -121.1211618361002, -120.39632424892675, -119.6413091292199, -118.85247504413334, -118.02665763573259, -117.16117895813626, -116.25519719534842])","array('d', [-190.65853881835938, -189.33427742169766, -187.99547627638856, -186.6475230988117, -185.29476382115982, -183.94088455965843, -182.58916566602105, -181.24265724999464, -179.90430382727, -178.57703365585382, -177.2638223794296, -175.96773703169555, -174.69196442238353, -173.43982653532584, -172.2147801801688, -171.01937796076865])","array('d', [-49.950008392333984, -49.94787539654437, -49.94883340695785, -49.948709596809636, -49.94896496098952, -49.94908784038676, -49.94925693594077, -49.9494095149083, -49.94956728777653, -49.94972250393221, -49.9498777492144, -49.95003208857833, -49.95018561747159, -49.95033962793104, -49.95048333208777, -49.94749104948202])","array('d', [0.42466720938682534, 0.3095143627816307, 0.2053197493465796, 0.11104055664775278, 0.025733209361880168, -0.05145607382105058, -0.12129982394659895, -0.18449705069982553, -0.24168023096404073, -0.29342161797520955, -0.3402389015699113, -0.3826001326901753, -0.420927121229146, -0.4555892359796161, -0.48656278676479275, -0.43601153882634025])","array('d', [-0.004761065822094564, 0.0018074885642079173, -0.0004917845028867004, 0.0003132743144058191, 3.190506433327725e-05, 0.00013029283000197436, 9.574425047476777e-05, 0.00010749829434893583, 0.00010294154788837905, 0.00010399574239352339, 0.00010301434071788967, 0.00010277546394369546, 0.00010194360406094735, 0.00010337971566468276, 8.847446997853932e-05, -0.004009822022747156])","array('d', [0.5021394054081776, 0.47703177890433596, 0.4598587431275304, 0.4494713774461157, 0.4450359003946652, 0.44591961946735775, 0.45162354714531083, 0.46174050872983236, 0.4759280495304505, 0.49389037822403586, 0.5153660630696392, 0.5401195120209251, 0.5679349653393968, 0.5986117843873865, 0.6319459790281977, 0.6644275242534516])",-123.80851796453976,-183.94088455965843,-49.94908784038676,-0.05145607382105058,0.00013029283000197436,0.44591961946735775,14.999999853021663,-1.0,"[-189.34372141740758, -126.41930587555028, 49.94286682058147]","[-181.56679238579326, -114.71689154933539, 55.19385470619261]","[-174.3473450377804, -126.6831645231654, 49.74519513662369]",10000000000.0,0.02057027816772461
20,0.4857597351074219,-189.4320068359375,-126.57359313964844,49.996910095214844,0.3376785218715665,-0.004512271843850712,0.49160488049057494,22.60051641737896,"array('d', [-126.76103210449219, -126.06326211913506, -125.38858725146098, -124.72802497988678, -124.0735812160884, -123.41806740134484, -122.75497855138283, -122.07841164085316, -121.38301160490484, -120.66393676205055, -119.91683806806986, -119.13784821554127, -118.32357764302915, -117.47111551456717, -116.57805004346825, -115.64383120866962])","array('d', [-189.84039306640625, -188.5126018449805, -187.1729092133384, -185.82619253619993, -184.47648821542887, -183.12730369800568, -181.7818294569531, -180.4430878075901, -179.11403921077837, -177.79765840561464, -176.49698802804883, -175.2151746911603, -173.95549088077053, -172.72134482259733, -171.51626781444315, -170.3428067121679])","array('d', [-49.979339599609375, -49.98017460186281, -49.9799644371765, -49.98012046135402, -49.98014846250258, -49.98022125288165, -49.98027829553793, -49.980340661320675, -49.98040091534852, -49.98046160167804, -49.980521790226824, -49.980581821902476, -49.98064136067228, -49.980701820203144, -49.98075238782682, -49.977672252887224])","array('d', [0.36724659800529463, 0.2575580403442729, 0.158307720470925, 0.06850231003016502, -0.012756991223873842, -0.0862834503605428, -0.1528129394266001, -0.21301129711788286, -0.2674809843001077, -0.31676708916229285, -0.3613627016650294, -0.4017135267274724, -0.438220647707123, -0.4712295105562805, -0.5001457202916646, -0.4481024104460331])","array('d', [0.0016858532326297017, -0.000535460650237356, 0.0002422670112685661, -2.9697855906138963e-05, 6.544553973526986e-05, 3.216351054758616e-05, 4.370089864391787e-05, 3.9523171970532386e-05, 4.079432717713644e-05, 4.013183130258919e-05, 4.011976887935706e-05, 3.9925703056078546e-05, 3.946697568740039e-05, 4.111818562300477e-05, 2.6548364107155685e-05, -0.004065142857901575])","array('d', [0.4950499097493033, 0.4739696603970063, 0.4602160636387775, 0.45281194249714185, 0.4510319516214839, 0.45431490396812335, 0.46221058774004814, 0.4743460189594282, 0.49040327098944725, 0.5101045257528997, 0.5332018043781656, 0.5594698159848814, 0.5887008729703334, 0.6207006005787432, 0.6552460041807232, 0.688780745330241])",-123.41806740134484,-183.12730369800568,-49.98022125288165,-0.0862834503605428,3.216351054758616e-05,0.45431490396812335,14.99999985301554,-1.0,"[-188.5204774420309, -126.04841976260607, 49.98186837826048]","[-180.6527345358511, -114.1337588305773, 54.57963701500645]","[-173.52661111698998, -126.45711946723772, 49.851725463595244]",10000000000.0,0.016352176666259766
21,0.5044052600860596,-189.02430725097656,-126.3877182006836,50.01606369018555,0.30775600671768166,-0.007097236346453536,0.4882022897389272,22.532204148642126,"array('d', [-126.57359313964844, -125.87902224854636, -125.20507262087055, -124.54305502159048, -123.88521040955541, -123.22454728835083, -122.55473248283297, -121.8700180891784, -121.16519345891498, -120.43555487035078, -119.6768878102281, -118.88545819962162, -118.05800984620923, -117.19176641585155, -116.28447465108299, -115.33580176110124])","array('d', [-189.4320068359375, -188.1025372847135, -186.76247695127816, -185.4164736891232, -184.06842343838727, -182.72175357882233, -181.37961635518337, -180.04502531249636, -178.72095294941278, -177.4104004827986, -176.11644656095564, -174.84227941407715, -173.59121550085715, -172.36670656082214, -171.17230691073308, -170.01050259585514])","array('d', [-49.996910095214844, -49.99903670250781, -49.99829837770625, -49.9985630266894, -49.99847674968795, -49.99851319133505, -49.99850673011843, -49.99851524264716, -49.998518502741916, -49.99852357049577, -49.99852796701338, -49.99853258236288, -49.998536872919736, -49.9985422874447, -49.99853787054539, -49.995405722692])","array('d', [0.3376785218715665, 0.23080373626184847, 0.13409942286386992, 0.04659773457365885, -0.03257707244817199, -0.10421740292949003, -0.16904025177565254, -0.22769437660852382, -0.28076678167701113, -0.3287885659880224, -0.3722401483227794, -0.41155570715519413, -0.4471255151919383, -0.47928089817698866, -0.5061217719226535, -0.45341888992514107])","array('d', [0.004512271843850712, -0.0015752381439140685, 0.0005552638171302581, -0.0001899665656573957, 7.058405891263856e-05, -2.047613032335988e-05, 1.1330575550697618e-05, 2.050586455907244e-07, 4.077140372813703e-06, 2.702791696152079e-06, 3.1517424380764738e-06, 3.0045129964345884e-06, 2.7209597004156156e-06, 4.469241999824558e-06, -1.0115144285296022e-05, -0.00409789533292014])","array('d', [0.49160488049057494, 0.47254156575591433, 0.46051980982200774, 0.45463917510323326, 0.4542236444822271, 0.45874501198532514, 0.4677758115211163, 0.4809591496010279, 0.4979887369878477, 0.5185953508459948, 0.5425375000386399, 0.569594907826695, 0.5995638511462318, 0.6322529782374414, 0.6673854094302382, 0.701387793425818])",-123.22454728835083,-182.72175357882233,-49.99851319133505,-0.10421740292949003,-2.047613032335988e-05,0.45874501198532514,14.999999853012573,-1.0,"[-188.10965566146882, -125.86553836750963, 50.0036784800125]","[-180.1980324240222, -113.85323632627018, 54.25935908582974]","[-173.11748470263416, -126.34067936937244, 49.90854189702215]",10000000000.0,0.017112016677856445
