,current_time,x_pos,y_pos,z_pos,roll,pitch,yaw,vel,x_traj,y_traj,z_traj,roll_traj,pitch_traj,yaw_traj,x_cmd,y_cmd,z_cmd,roll_cmd,pitch_cmd,yaw_cmd,vel_cmd,effector_dmg,effector_x,effector_y,effector_z,cost,time_solution
0,26.876564741134644,-212.3003692626953,-141.17269897460938,49.94286346435547,0.6308610439300535,0.03138576447963706,0.7617865363743642,23.14810184243607,"array('d', [-141.47227478027344, -140.45620148452264, -139.4797940029841, -138.53307860404757, -137.6071672277364, -136.6941599886481, -135.786967986171, -134.87919395847163, -133.96505231753682, -133.0393172148176, -132.09870832042492, -131.14636848650935, -130.18863914580893, -129.23107189210643, -128.2762178126175, -127.32506784489215])","array('d', [-212.6588592529297, -211.55605015712214, -210.41746472603577, -209.25400884115405, -208.07390386822559, -206.88377582399195, -205.6892044478046, -204.49507556522175, -203.30581801332136, -202.12556907871905, -200.95714004869856, -199.79824538727334, -198.64379624723554, -197.48921217543943, -196.33238369622123, -195.17251277850784])","array('d', [-49.94270324707031, -49.91093260422794, -49.905667422937235, -49.90786016824211, -49.907446563294776, -49.907944173364015, -49.90812330397079, -49.90841378861025, -49.908665281458354, -49.9089303059585, -49.9091904825276, -49.909452307977666, -49.90971329244676, -49.90997557037473, -49.9102275476739, -49.90733756906862])","array('d', [0.6309444904327391, 0.4961617907530657, 0.3742053479860369, 0.2638545895100659, 0.16400509587214984, 0.07365755591578187, -0.008092216615836796, -0.08206226208911903, -0.14899228729278902, -0.20954751850055614, -0.1600760254726707, -0.07022174175375975, 0.010626285592163102, 0.03789099612020278, 0.052022844059070636, 0.04672847526010691])","array('d', [-0.031131364405155022, -0.011559836695153362, 0.004275341951981039, -0.0012593469856072605, 0.0006755949345869536, -8.306843351954119e-07, 0.00023572527239928103, 0.00015296814021205154, 0.00018187346355205377, 0.00017166287435670913, 0.00017518054012049175, 0.0001739407451064465, 0.00017403694289639044, 0.00017564021192874887, 0.00016058073224646391, -0.003945394499347186])","array('d', [0.7661762396481374, 0.7248638437733504, 0.694493468505881, 0.6729332762214245, 0.658769449146498, 0.651005662847172, 0.6489043494746528, 0.6518961883310262, 0.6595253548529971, 0.6714147170868219, 0.683615584897414, 0.6911352973309973, 0.6930415709469122, 0.6914397643773028, 0.6884898261647227, 0.6852609190271575])",-136.6941599886481,-206.88377582399195,-49.907944173364015,0.07365755591578187,-8.306843351954119e-07,0.651005662847172,14.999999853326207,-1.0,"[-211.94051460000398, -140.72920833199572, 49.89606268784811]","[-207.84604737037517, -129.0039914008205, 58.30763959247056]","[-197.40268757509813, -137.5027366867391, 51.696469896307306]",10000000000.0,0.015189409255981445
1,26.896100521087646,-212.3003692626953,-141.17269897460938,49.94286346435547,0.6308610439300535,0.03138576447963706,0.7617865363743642,23.14810184243607,"array('d', [-141.17269897460938, -140.1614774878094, -139.19006637161092, -138.24844934257192, -137.32770372933206, -136.41990142078683, -135.5179296894768, -134.61537040170285, -133.70641902855115, -132.7858319349243, -131.8497929558139, -130.89950809925767, -129.94116890797923, -128.98122347336056, -128.02462506650596, -127.07264813311178])","array('d', [-212.3003692626953, -211.19312010921402, -210.05027023137373, -208.8826844104257, -207.698544586421, -206.504441596751, -205.30592372041735, -204.1078485139863, -202.91461934270887, -201.7303506174419, -200.55825995281512, -199.39768317153724, -198.24374135896565, -197.09113403374164, -195.9357481105344, -194.77655630083515])","array('d', [-49.94286346435547, -49.910729771402444, -49.90535703137045, -49.907588866265876, -49.90716298551184, -49.907666330033386, -49.90784490119961, -49.90813703074682, -49.90838939214852, -49.9086555451438, -49.90891674749484, -49.90917960978934, -49.909441762829175, -49.9097045146219, -49.90996326665254, -49.90708621190148])","array('d', [0.6308610439300535, 0.49608627836912605, 0.37413701648209274, 0.26379275270277563, 0.16394912845852153, 0.07360688156691798, -0.008138149253964803, -0.08210405305681374, -0.1490309318844671, -0.20958742923314594, -0.19871234787011738, -0.10508602899896893, -0.02041729454998299, 0.055176339377636795, 0.06338825016271828, 0.0569366573497078])","array('d', [-0.03138576447963706, -0.011790026651028991, 0.004356913892440878, -0.00128697747535131, 0.000686219504262082, -3.5861113782914258e-06, 0.0002376565944347728, 0.00015325742120603548, 0.0001827327454754164, 0.00017231176283133938, 0.0001758982142076194, 0.00017460639960269366, 0.0001749256644732901, 0.00017540211318468915, 0.0001696957865427001, -0.003937261508452852])","array('d', [0.7617865363743642, 0.720481432221442, 0.6901167841884672, 0.6685613152107533, 0.6544015226050963, 0.646641272771468, 0.644543121024776, 0.6475378333560012, 0.6551696649318501, 0.6670616825640764, 0.6805956665764681, 0.6905622470821096, 0.6946277087318216, 0.6934491814834465, 0.6895630574001648, 0.6856271973052178])",-136.41990142078683,-206.504441596751,-49.907666330033386,0.07360688156691798,-3.5861113782914258e-06,0.646641272771468,14.999999851204953,-1.0,"[-211.21549771009163, -140.13788592722096, 49.89579254651936]","[-206.9942997030551, -128.43692704325795, 58.2784561197041]","[-196.64616922917085, -137.01016406529598, 51.61393793311141]",10000000000.0,0.017823219299316406
2,26.925423622131348,-211.21826171875,-140.28411865234375,49.942909240722656,0.6308085918426511,0.03228098526597016,0.7490262548115589,23.15407781085845,"array('d', [-140.57864379882812, -139.57691381660592, -138.61528437378638, -137.68365740675833, -136.77304211041707, -135.87545464512863, -134.98373523975994, -134.09142457860776, -133.19268080253207, -132.28222541654458, -131.35531053578026, -130.4097657260504, -129.4515556474412, -128.48768804021293, -127.5242724436751, -126.56570257932667])","array('d', [-211.580078125, -210.46426226942881, -209.31317316015824, -208.13760121650728, -206.94565353038408, -205.7438533395366, -204.53768809139365, -203.3319604478047, -202.131024113059, -200.9389486102836, -199.75963461314754, -198.59520113524766, -197.44115578661828, -196.29182667978662, -195.14211872459964, -193.9883733783609])","array('d', [-49.94300842285156, -49.90993694678192, -49.90428667689768, -49.90662013394071, -49.90616318346458, -49.90668195288876, -49.90685970033944, -49.907156691621765, -49.90741191194115, -49.90768159292213, -49.90794603460032, -49.90821219275686, -49.90847745266618, -49.908744024056226, -49.909000273539746, -49.90611432252112])","array('d', [0.6308621168136593, 0.4960872506523112, 0.3741378987803518, 0.26379355567898144, 0.1639498642988168, 0.07360756731241848, -0.008137482648923772, -0.08210333250768663, -0.14902993472623768, -0.2095852020491216, -0.26425626481887615, -0.16440535974082765, -0.07409411152158327, 0.007388286611244794, 0.07680119294969132, 0.06898342893901807])","array('d', [-0.03204290196299543, -0.012384630001751969, 0.00456802120818307, -0.0013578832721548788, 0.0007140518364223929, -1.02760040387304e-05, 0.00024304668159851647, 0.00015442016807061507, 0.0001853574995820955, 0.00017439994053498515, 0.00017812679647163135, 0.00017677332715402763, 0.00017690436668412065, 0.00017849757213486337, 0.00016341992092273568, -0.003942858502424134])","array('d', [0.7532599727299548, 0.7119547747673588, 0.6815900528960357, 0.6600345227671209, 0.6458746774593447, 0.6381143804749054, 0.6360161844462242, 0.6390108512692352, 0.6466426257084795, 0.6585345335250963, 0.6743614674597979, 0.6885527737931597, 0.6963443459584294, 0.6984831512924979, 0.6956894819344178, 0.6909181281412144])",-135.87545464512863,-205.7438533395366,-49.90668195288876,0.07360756731241848,-1.02760040387304e-05,0.6381143804749054,14.999999853311822,-1.0,"[-210.48644551601078, -139.55313986169227, 49.89495229447773]","[-206.14282898377292, -127.87773858539245, 58.25066892791178]","[-195.88778961241428, -136.51967974505078, 51.531218021409984]",10000000000.0,0.01921558380126953
3,26.960656881332397,-210.85533142089844,-139.99127197265625,49.942657470703125,0.630603194236755,0.0322578251361846,0.7447662512448169,23.155180447427494,"array('d', [-140.28411865234375, -139.28712399249417, -138.33036958164, -137.40371638204533, -136.49814041688154, -135.60563083386612, -134.71900508249166, -133.83178390712476, -132.93810736573116, -132.03268004094102, -131.11073625368613, -130.17008777359297, -129.21670450536834, -128.25760787433688, -127.29879009900836, -126.34419675503308])","array('d', [-211.21826171875, -210.09822290240817, -208.94307990726494, -207.7635835458012, -206.5678027751435, -205.36222673120702, -204.1523123202063, -202.9428347267326, -201.73812285705057, -200.5422238790063, -199.35901961983708, -198.19062727791183, -197.03259122966767, -195.8792778346294, -194.72573243807267, -193.56869434916098])","array('d', [-49.942909240722656, -49.90949800584587, -49.90374756390018, -49.906118404006264, -49.905650671444846, -49.90617555259271, -49.90635350823491, -49.90665277461238, -49.90690954033079, -49.90718100729777, -49.90744712940728, -49.907714979938575, -49.90798190733259, -49.908250143326754, -49.90850804286142, -49.90562364271098])","array('d', [0.6308085918426511, 0.49603881864798277, 0.37409407519600824, 0.26375390174178653, 0.16391398258168538, 0.07357509714768351, -0.008166871016503834, -0.08212995102918696, -0.1490541400586259, -0.209608056362762, -0.26438719069918304, -0.16476594825430646, -0.07452061357458797, 0.0066044274075570415, 0.06673383588521821, 0.059941522461186655])","array('d', [-0.03228098526597016, -0.012600056688044883, 0.0046450012732507295, -0.0013833105900721658, 0.0007245044837186847, -1.2370375856091352e-05, 0.0002453453573487456, 0.00015518061336269114, 0.0001866487317709296, 0.00017549332361056758, 0.0001792731056375949, 0.00017788411034530302, 0.00017801686779665924, 0.00017960463394270425, 0.00016451315790491614, -0.0039418819636417605])","array('d', [0.7490262548115589, 0.7077257334124676, 0.6773646845556146, 0.6558121833980733, 0.6416549249215445, 0.6338968945982717, 0.6318007229652369, 0.6347972242821301, 0.6424306823950718, 0.6543241795231536, 0.6701565170442524, 0.6843647420874548, 0.6921824651984873, 0.6943610988170685, 0.6919282911652954, 0.687784168273339])",-135.60563083386612,-205.36222673120702,-49.90617555259271,0.07357509714768351,-1.2370375856091352e-05,0.6338968945982717,14.999999853306964,-1.0,"[-209.75303564007442, -138.97510095005993, 49.89427912417162]","[-205.28772926627602, -127.3249012230925, 58.22097626708989]","[-195.1260190403128, -136.03912426962057, 51.45326158790066]",10000000000.0,0.024393320083618164
4,26.977615356445312,-210.49122619628906,-139.70016479492188,49.94229507446289,0.6300008296966548,0.03212349116802205,0.7404762665417528,23.156725096530007,"array('d', [-139.99127197265625, -138.99904661459, -138.04719242514122, -137.1255272629043, -136.22499504876464, -135.3375591342902, -134.45601526700665, -133.57386519019875, -132.68523172492215, -131.78480332120645, -130.86779874170153, -129.93157506463754, -128.98048089043334, -128.0214179153984, -127.06076294638565, -126.1031308069595])","array('d', [-210.85533142089844, -209.7310642614394, -208.57187989065068, -207.38848170082315, -206.18889791075364, -204.97958220472063, -203.76596013784672, -202.55277890776136, -201.34434231640847, -200.1446750004023, -198.9576386771278, -197.78570008230204, -196.62578629055562, -195.47244587828365, -194.32042974760975, -193.16590496250177])","array('d', [-49.942657470703125, -49.90927928661094, -49.90353944350074, -49.905907841543105, -49.90544211532496, -49.90596750173502, -49.906146490014606, -49.90644660735119, -49.90670428066219, -49.90697662121973, -49.90724360806185, -49.90751230031123, -49.90778005550104, -49.908049115235805, -49.90830783437797, -49.90542420479323])","array('d', [0.630603194236755, 0.49585296675806695, 0.37392590903911915, 0.26360173810049065, 0.16377629808762972, 0.07345051256498593, -0.008279606189485799, -0.08223197726743546, -0.14914652959932284, -0.20969204162443913, -0.26446764123655897, -0.1973690203280793, -0.10398885701401979, -0.019785088481762435, 0.05270134966724468, 0.04733790352601858])","array('d', [-0.0322578251361846, -0.012579100535307485, 0.0046386333185921835, -0.0013803542920193788, 0.0007242764323561116, -1.1487179376993062e-05, 0.0002458454024704485, 0.00015581297315602735, 0.00018722739128859383, 0.00017607932897006185, 0.00017984038942829537, 0.0001784393188128662, 0.00017856549682315358, 0.00018015430829002648, 0.00016505640084579575, -0.003941396814317013])","array('d', [0.7447662512448169, 0.7034836728579046, 0.6731367172120882, 0.6515958384003268, 0.6374485058080296, 0.6296991725828638, 0.6276107674749118, 0.6306143032479845, 0.6382542017265123, 0.650153653256239, 0.6659916819920313, 0.681335516176967, 0.6912204909180375, 0.6952293799732019, 0.6941128943186519, 0.6908418065690667])",-135.3375591342902,-204.97958220472063,-49.90596750173502,0.07345051256498593,-1.1487179376993062e-05,0.6296991725828638,14.999999853302075,-1.0,"[-209.75303564007442, -138.97510095005993, 49.89427912417162]","[-205.28772926627602, -127.3249012230925, 58.22097626708989]","[-195.1260190403128, -136.03912426962057, 51.45326158790066]",10000000000.0,0.015543222427368164
5,26.9960834980011,-210.49122619628906,-139.70016479492188,49.94229507446289,0.6300008296966548,0.03212349116802205,0.7404762665417528,23.156725096530007,"array('d', [-139.70016479492188, -138.71273760173597, -137.7657785048795, -136.84906615050616, -135.95351641651595, -135.07107023788822, -134.19450449798572, -133.3173043987693, -132.43357773284183, -131.53799886246915, -130.62577297044373, -129.69374444881757, -128.74441830617718, -127.78457480410498, -126.82091962853664, -125.85838994908771])","array('d', [-210.49122619628906, -209.3627364871781, -208.19954885752747, -207.01230966335913, -205.80900156006138, -204.59603997761627, -203.37881746981654, -202.1620523246725, -200.95002280479352, -199.74673090807332, -198.5560183242907, -197.38074363661434, -196.21938662624592, -195.06669746311874, -193.91718980706875, -192.76674429254388])","array('d', [-49.94229507446289, -49.90910859268764, -49.90342657299621, -49.90577572644901, -49.90531757774315, -49.905841216209936, -49.90602171934399, -49.906322212967396, -49.90658065367196, -49.90685361085306, -49.90712124693042, -49.90739055050345, -49.907658906271486, -49.90792856083401, -49.908187878021856, -49.9053048143133])","array('d', [0.6300008296966548, 0.495307924410186, 0.37343273395924437, 0.2631554942951273, 0.16337251901303038, 0.07308515604375314, -0.008610199662329824, -0.0825311257028059, -0.1494172631683677, -0.20993725796119897, -0.2646914970411921, -0.23395749384762998, -0.1370537688910043, -0.0495387130237924, 0.028012232092954805, 0.025161715836615025])","array('d', [-0.03212349116802205, -0.01245755013120698, 0.004596907953862259, -0.001365236796230561, 0.0007195926163317554, -9.249420558342892e-06, 0.00024566774362228986, 0.00015647828533460004, 0.0001875903150090094, 0.00017653698962259622, 0.00018024919085609056, 0.0001788456566894834, 0.00017896012526556063, 0.00018055272041622033, 0.00016545537360688575, -0.003941040571111722])","array('d', [0.7404762665417528, 0.6992462833288153, 0.668940644923788, 0.6474338433858917, 0.6333156163047752, 0.6255917867829087, 0.6235261569699608, 0.6265503201461822, 0.6342090976999105, 0.6461259681147993, 0.661980224697768, 0.6786160858269348, 0.6908445383388747, 0.696919680364916, 0.6975816684671097, 0.6958440299804556])",-135.07107023788822,-204.59603997761627,-49.905841216209936,0.07308515604375314,-9.249420558342892e-06,0.6255917867829087,14.99999985329716,-1.0,"[-209.38457642685935, -138.68872756537544, 49.89411812449097]","[-204.8578944404083, -127.04829917004045, 58.20131843305574]","[-194.74352214494397, -135.80345953432442, 51.41555096987118]",10000000000.0,0.016545534133911133
6,27.02229356765747,-209.75941467285156,-139.12344360351562,49.94120788574219,0.6252548098564147,0.0313914902508257,0.7323727766659599,23.153884818818682,"array('d', [-139.12344360351562, -138.14493171400093, -137.20674641132481, -136.29863821839518, -135.41150926023266, -134.5372898416966, -133.66874765572453, -132.7993595457281, -131.92322545754683, -131.03501216463712, -130.1299173105592, -129.20405311431048, -128.25724856049223, -127.29615442154179, -126.32796406995332, -125.3579931356452])","array('d', [-209.75941467285156, -208.6231527496638, -207.4528715501202, -206.2590368397679, -205.04950665450787, -203.8306021960302, -202.60764154921884, -201.38528253234125, -200.16775347279676, -198.95901469369244, -197.76287294450063, -196.58274135774326, -195.41933565287297, -194.26769290596755, -193.12200342097768, -191.97782462704157])","array('d', [-49.94120788574219, -49.90906602107093, -49.90369615411744, -49.90593639630418, -49.90551633625428, -49.906026743835994, -49.90621196082465, -49.90651089325946, -49.90676995289169, -49.90704274268254, -49.907310454561525, -49.90757970660766, -49.90784801462501, -49.90811760308512, -49.908376867380866, -49.90549375607412])","array('d', [0.6252548098564147, 0.49101354728442187, 0.36954702006639484, 0.2596395539796704, 0.16019116310404813, 0.07020654319188595, -0.011214883161175662, -0.08488795954391772, -0.15154987624412072, -0.21186718887770517, -0.26643958893562925, -0.2873762797772471, -0.18535804029483177, -0.09314818067424259, -0.010557443610899778, -0.009483208921104823])","array('d', [-0.0313914902508257, -0.011795208296507124, 0.0043656933347099875, -0.001284442981054007, 0.0006914017799599395, 6.645681574602762e-07, 0.00024226110895536303, 0.0001577256963847968, 0.00018719553586823276, 0.00017669928858690193, 0.00018019162844447404, 0.0001788337548849878, 0.0001789090135891399, 0.00018051546441754814, 0.000165422041391741, -0.003941070756314202])","array('d', [0.7323727766659599, 0.6915558513208272, 0.6615750517971856, 0.6403363741762611, 0.6264472805038289, 0.6189243113980809, 0.6170381072042607, 0.6202248072440187, 0.628032355064326, 0.6400864361467777, 0.6560679896564953, 0.6746683748487631, 0.6903769171495024, 0.6994987681825229, 0.7028497536817158, 0.7035045188699423])",-134.5372898416966,-203.8306021960302,-49.906026743835994,0.07020654319188595,6.645681574602762e-07,0.6189243113980809,14.999999853287427,-1.0,"[-208.64457923205916, -138.12098389838033, 49.89412838347992]","[-204.00211963008132, -126.47121197684466, 58.123975467126286]","[-193.97752257872827, -135.33066136362424, 51.340347343393816]",10000000000.0,0.017297983169555664
7,27.062429428100586,-208.656005859375,-138.27536010742188,49.93903350830078,0.5994378924369809,0.026994740590453092,0.7212997237828112,23.12388976289499,"array('d', [-138.8379364013672, -137.86345384687735, -136.92891932964054, -136.0241112964242, -135.13996286314008, -134.26842985191342, -133.40230113348844, -132.5350717076325, -131.66085767211933, -130.77434062259803, -129.8707321670528, -128.94603510818865, -127.99963881644587, -127.03819668648204, -126.0690036421753, -125.09744899530176])","array('d', [-209.3917236328125, -208.25195993884557, -207.07875436709756, -205.88241477893018, -204.67070350464866, -203.44987648612243, -202.22520531670548, -201.00131392279766, -199.78240570464948, -198.57242262248613, -197.3751579847345, -196.1941130329669, -195.03037703494647, -193.87902574508053, -192.73418469431041, -191.59135044742055])","array('d', [-49.94049072265625, -49.90982078771259, -49.90488855410135, -49.90697211297285, -49.90660308062579, -49.90709190317479, -49.90728092037426, -49.907574771889685, -49.907831849347225, -49.90810156612671, -49.9083665795479, -49.90863299419155, -49.90889850718985, -49.90916528463558, -49.90942176499814, -49.90653603486521])","array('d', [0.6194917559623717, 0.48579891989547175, 0.36482862953716605, 0.25537017711079096, 0.1563280704921648, 0.06671107148146563, -0.014377718525944091, -0.08774981542020048, -0.15413940240776866, -0.21421033422744987, -0.2685600286920795, -0.2979801004826347, -0.19494874764082085, -0.10181511248604365, -0.018325123684041177, -0.016460478183277866])","array('d', [-0.030360074713826065, -0.010861944911077451, 0.004037013990951477, -0.00117203403543173, 0.0006496023023223239, 1.2784514363556025e-05, 0.0002355227053429631, 0.0001575795683194888, 0.00018473733426984, 0.00017504670232833478, 0.00017825107477481038, 0.00017698949872314282, 0.00017702720412723447, 0.00017864899874876108, 0.00016357625132423938, -0.003942720021609988])","array('d', [0.7285524169590811, 0.6882339100678871, 0.6586459115607253, 0.6377319421920432, 0.6241206414695118, 0.6168413847193526, 0.6151730153622715, 0.6185571330372864, 0.6265454338884697, 0.6387662511773022, 0.6549024418412068, 0.6739591645899995, 0.6903682549717653, 0.7000996105596266, 0.7039895240123382, 0.7051261106629683])",-134.26842985191342,-203.44987648612243,-49.90709190317479,0.06671107148146563,1.2784514363556025e-05,0.6168413847193526,14.999999853282684,-1.0,"[-207.90038943072742, -137.5603524508943, 49.89608287059042]","[-203.14990761217885, -125.8277232869042, 57.944581823310024]","[-193.20915111526247, -134.86112648049772, 51.267832089271124]",10000000000.0,0.03471517562866211
8,27.07959222793579,-208.656005859375,-138.27536010742188,49.93903350830078,0.5994378924369809,0.026994740590453092,0.7212997237828112,23.12388976289499,"array('d', [-138.55442810058594, -137.583748330213, -136.65238645503456, -135.7501839726449, -134.868135185638, -133.99824584569606, -133.13334644415474, -132.26696791290922, -131.3932585265673, -130.50692960293932, -129.60322093585648, -128.678226276408, -127.73160061326935, -126.77004350427195, -125.80083351443594, -124.82934744297091])","array('d', [-209.02285766601562, -207.87979424848828, -206.70405926468098, -205.5057510904885, -204.29250960608616, -203.0705104365817, -201.8449706957293, -200.62047696744423, -199.40120729902145, -198.1910868760837, -196.99389846016956, -195.8130867265672, -194.64953701978288, -193.4982816066484, -192.35345484842455, -191.21056230360008])","array('d', [-49.93942642211914, -49.910840600399176, -49.90652793519141, -49.90838963186803, -49.90809287544838, -49.908551123431046, -49.908745520839986, -49.909032172287525, -49.909286441687996, -49.90955181017996, -49.90981301280978, -49.91007543024828, -49.91033701607493, -49.910599846005866, -49.910852411578034, -49.90796299508788])","array('d', [0.6109151840209958, 0.47803851591007895, 0.35780672492718374, 0.24901649440796092, 0.15057901998151058, 0.0615091147602979, -0.019084644438698246, -0.09200881917269257, -0.1579931096373864, -0.21769731214949717, -0.271715145418364, -0.2964034872937016, -0.1935228548689144, -0.10052738416551579, -0.017187938117586975, -0.015439012012792193])","array('d', [-0.028899723663926034, -0.009540564633597808, 0.0035715572501060057, -0.0010128156389339633, 0.0005903956049077904, 2.9951060042855875e-05, 0.00022597541233963507, 0.00015737098226800626, 0.00018125643288019287, 0.00017271078625523948, 0.00017551265021989776, 0.00017439590032850862, 0.00017438537812377425, 0.00017602713863501735, 0.00016097799723413414, -0.003945041539167402])","array('d', [0.7248109738018848, 0.6852279418929978, 0.6562212276569344, 0.6357887527472932, 0.6225899875091345, 0.615673050240305, 0.6143287915896606, 0.6180068181032762, 0.6262643362514021, 0.6387335702573762, 0.6551001852173891, 0.6742096795587919, 0.690514389796236, 0.7001550518741418, 0.7039654234604509, 0.7050314652460842])",-133.99824584569606,-203.0705104365817,-49.908551123431046,0.0615091147602979,2.9951060042855875e-05,0.615673050240305,14.999999853278043,-1.0,"[-207.52999414071783, -137.28517911556517, 49.8985463151109]","[-202.72935156684053, -125.47914534186177, 57.80875474549069]","[-192.82754164827344, -134.62864217623337, 51.232975855169755]",10000000000.0,0.014923810958862305
9,27.10654044151306,-207.91885375976562,-137.72323608398438,49.939422607421875,0.5678778886795042,0.022045476362109014,0.7143311659481864,23.081639503906104,"array('d', [-138.27536010742188, -137.3080827785067, -136.37923295483236, -135.47875191734167, -134.5977265065877, -133.72823776467882, -132.8631791775326, -131.99613631454056, -131.121306588379, -130.23344688807904, -129.32784038306656, -128.4008953542962, -127.45331791198113, -126.49190174711097, -125.52377736141536, -124.55421133189166])","array('d', [-208.656005859375, -207.5099903444377, -206.33225909783377, -205.13265379093693, -203.91866775130828, -202.6963829797839, -201.4709555115864, -200.24693231854192, -199.02846670870963, -197.81946960811254, -196.62371695175983, -195.44443443437456, -194.2816570989955, -193.1302826346069, -191.98453722978175, -190.8400153136766])","array('d', [-49.93903350830078, -49.91316643206094, -49.90965992518022, -49.9112289429103, -49.911023665534515, -49.91143904613552, -49.91163753824909, -49.911911852712336, -49.912159525725876, -49.912416292319904, -49.91266960315483, -49.912923895526575, -49.913177456785014, -49.91343223805759, -49.91367680191528, -49.91077984320939])","array('d', [0.5994378924369809, 0.4676534320523367, 0.34840991159432, 0.2405139053260637, 0.1428855585889496, 0.054547782612376874, -0.025383518027281164, -0.09770827338238684, -0.16315017840158857, -0.22236356795505624, -0.2759369577610035, -0.2811073130550134, -0.17968876698244252, -0.08802956489739894, -0.006054532025498851, -0.005438489475048984])","array('d', [-0.026994740590453092, -0.007816864699450195, 0.002961686649869942, -0.0008067955425922618, 0.0005111071093093788, 5.041890617479958e-05, 0.00021154927350361237, 0.00015514429707243584, 0.00017475917690953823, 0.00016771381694444097, 0.00016999589714494995, 0.00016907594785221575, 0.00016900688280078156, 0.0001706736719586405, 0.00015566188831146467, -0.003949791192178275])","array('d', [0.7212997237828112, 0.6826895106557012, 0.6544546988784261, 0.6346634062949135, 0.6220151167562892, 0.6155823780013796, 0.6146717414831576, 0.6187433099222445, 0.6273615274635989, 0.6401637362631124, 0.6568392900834555, 0.6755438394695817, 0.690839865329544, 0.6996023255677725, 0.702638066234095, 0.7030135560185805])",-133.72823776467882,-202.6963829797839,-49.91143904613552,0.054547782612376874,5.041890617479958e-05,0.6155823780013796,14.999999853273586,-1.0,"[-207.52999414071783, -137.28517911556517, 49.8985463151109]","[-202.72935156684053, -125.47914534186177, 57.80875474549069]","[-192.82754164827344, -134.62864217623337, 51.232975855169755]",10000000000.0,0.02513885498046875
10,27.123141288757324,-207.91885375976562,-137.72323608398438,49.939422607421875,0.5678778886795042,0.022045476362109014,0.7143311659481864,23.081639503906104,"array('d', [-137.72323608398438, -136.76232470145035, -135.83733005287624, -134.93849195052408, -134.05716534144284, -133.1856491524794, -132.31702032749502, -131.44502469646648, -130.5640047260527, -129.6688525873219, -128.75498083874598, -127.82000893439542, -126.86874715217508, -125.90833905201632, -124.94530212877412, -123.98437772977742])","array('d', [-207.91885375976562, -206.76734075306967, -205.58655823714162, -204.3857145342637, -203.1719441986108, -201.95110295539217, -200.7282035282818, -199.50770448473358, -198.2937086231283, -197.09010280808366, -195.9006573284348, -194.7277234605404, -193.56794898476542, -192.41572916306936, -191.2657034239348, -190.11391712232086])","array('d', [-49.939422607421875, -49.920619383107784, -49.91920436658605, -49.92000821734479, -49.92003651835454, -49.920336186266, -49.92054105684239, -49.920779036580576, -49.92100530600645, -49.92123546702196, -49.921464031326224, -49.92169298349351, -49.92192147072897, -49.92215111268817, -49.92237062470655, -49.91945000943939])","array('d', [0.5678778886795042, 0.4390967571568019, 0.322570761351311, 0.2171336734446082, 0.1217302486321131, 0.0354056665250677, -0.04270401747603544, -0.11338049423515265, -0.17733092777287726, -0.23519452778089764, -0.287544361369799, -0.2144088992332076, -0.1193860997528737, -0.03364122935586263, 0.040821982344812234, 0.03666781946339031])","array('d', [-0.022045476362109014, -0.0033385856899865725, 0.0013732913828074416, -0.00027400991858174336, 0.00030213338149340425, 0.00010078277022848792, 0.00017120324806947952, 0.00014651492429379242, 0.00015503550715743617, 0.00015189818733797212, 0.00015283853467549122, 0.00015243771044720948, 0.00015221564165993399, 0.00015394478840908884, 0.00013898741259431852, -0.003964688522192101])","array('d', [0.7143311659481864, 0.678332412994699, 0.6521867071665468, 0.6341408923268655, 0.622997558090437, 0.6178927627671216, 0.6181741526494986, 0.6233294476467701, 0.6329422154464082, 0.6466633646762688, 0.6641920111117041, 0.6809249147870362, 0.6918977670630752, 0.6968676055041909, 0.6965920635247154, 0.6940591447562291])",-133.1856491524794,-201.95110295539217,-49.920336186266,0.0354056665250677,0.00010078277022848792,0.6178927627671216,14.999999853264981,-1.0,"[-206.7858317842748, -136.74080650718025, 49.90635707135569]","[-201.88572153008442, -124.73115795937696, 57.44009858902303]","[-192.0614257620433, -134.16885016242017, 51.16210698798796]",10000000000.0,0.015187740325927734
11,27.143707275390625,-207.1777801513672,-137.17930603027344,49.94277572631836,0.5263555645942687,0.016024546697735675,0.7075708071377614,23.020886626285527,"array('d', [-137.4502410888672, -136.49224680681561, -135.56859503014806, -134.66971741044182, -133.78713781806346, -132.91329258582428, -132.04137521512177, -131.16523416562987, -130.27930544535332, -129.37856898962494, -128.45852181906596, -127.51726549729113, -126.56113870147769, -125.59744369534553, -124.63247567824348, -123.67070882243463])","array('d', [-207.54873657226562, -206.39472541218203, -205.21288441311063, -204.0120668861758, -202.79920575581062, -201.5800298587785, -200.3594730187664, -199.14194691950777, -197.93152957147663, -196.73209839412377, -195.54742469161468, -194.37952689377985, -193.22375746388664, -192.0742844023292, -190.92587862189333, -189.77479615668327])","array('d', [-49.94061279296875, -49.925957747196776, -49.925768985153326, -49.92612043270559, -49.92628322124093, -49.926512130522816, -49.92671798082526, -49.926931848650284, -49.92714278292677, -49.927354558464415, -49.92756583569304, -49.92777715526687, -49.92798816847292, -49.92820030544563, -49.92840243525819, -49.925465462459655])","array('d', [0.5481980443000791, 0.4212896959985224, 0.3064582647387594, 0.2025544825098538, 0.10853845051613864, 0.023469234448587225, -0.05350454408471208, -0.1231531989358017, -0.18617356344201946, -0.24319519072938867, -0.2947743791118574, -0.19204402983401928, -0.09911417347099151, -0.015268695602051673, 0.054841433809590445, 0.04926010399886378])","array('d', [-0.01913921535015092, -0.0007088929080075767, 0.00043807643279340205, 3.720760599727886e-05, 0.00017750336458897636, 0.00012852605455992608, 0.00014565526949952717, 0.00013960280144596074, 0.00014160942948930475, 0.00014077192850098992, 0.0001409284349527432, 0.00014083259744731148, 0.00014052350041936085, 0.0001422962208541379, 0.0001274577231756086, -0.003974989427357544])","array('d', [0.71094669500855, 0.6765323340689048, 0.6516660807773612, 0.6346964948372064, 0.6244856752291703, 0.6202067210105381, 0.6212314371530377, 0.6270638800638942, 0.6372989856561024, 0.6515957527454066, 0.6696588713703813, 0.6858556178994092, 0.6953996310809587, 0.6991003580618259, 0.6977673674169301, 0.6943632170725283])",-132.91329258582428,-201.5800298587785,-49.926512130522816,0.023469234448587225,0.00012852605455992608,0.6202067210105381,14.999999853260832,-1.0,"[-206.75786633106273, -136.72065314143794, 49.90676900155172]","[-201.85411374406573, -124.70149506673056, 57.42295485214888]","[-192.0326652418029, -134.15171506546054, 51.159370311887365]",10000000000.0,0.01522207260131836
12,27.160605669021606,-207.1777801513672,-137.17930603027344,49.94277572631836,0.5263555645942687,0.016024546697735675,0.7075708071377614,23.020886626285527,"array('d', [-137.17930603027344, -136.22414992725118, -135.30159777187788, -134.4022935544443, -133.51794657155833, -132.64114424106177, -131.7652089997993, -130.88410354666942, -129.99236857848535, -129.08508270734936, -128.1581894552316, -127.21119282555094, -126.25057838135108, -125.28346845431514, -124.31601596969995, -123.3525406241094])","array('d', [-207.1777801513672, -206.02136061140175, -204.83865658476788, -203.63815544368606, -202.42658084327215, -201.2095293138628, -199.99185285811237, -198.77791529334135, -197.5717702425262, -196.3772870181998, -195.197961081679, -194.03471015123276, -192.8826664525195, -191.73606456399935, -190.58975117270057, -189.4400987988494])","array('d', [-49.94277572631836, -49.93256645014704, -49.93369010567657, -49.93355380987634, -49.93385821230009, -49.934008650729005, -49.934212953252754, -49.934398373856595, -49.93459027406072, -49.934779747987605, -49.93496990420339, -49.93515973112681, -49.935349413055825, -49.935540178117655, -49.9357210269863, -49.93276397975585])","array('d', [0.5263555645942687, 0.40152580131583826, 0.28857515180612114, 0.18637317160768405, 0.09389699437019187, 0.010221097984390972, -0.06549194816887406, -0.13399982746555283, -0.19598788396939315, -0.25207459608518445, -0.27796077805474906, -0.1767989946911803, -0.08529690446903694, -0.0027084114049141963, 0.06500214489845736, 0.058386189005772596])","array('d', [-0.016024546697735675, 0.002109372247093396, -0.0005665249640376739, 0.0003691876710724165, 4.213807445844911e-05, 0.0001565380799590185, 0.00011653265865419086, 0.00013046243964294501, 0.00012548749421763717, 0.00012711722393676767, 0.00012643576752018425, 0.00012666300773736105, 0.00012625306946718604, 0.0001280700327521456, 0.00011330804381452306, -0.00398763088441242])","array('d', [0.7075708071377614, 0.6748784405320509, 0.651412912287861, 0.6356277572058208, 0.6264471621698284, 0.623083187361936, 0.6249332076013195, 0.6315186547134499, 0.642446603134484, 0.6573847055780397, 0.6751505968337513, 0.690238473192544, 0.6988137815789939, 0.7016499223110381, 0.6995745031018121, 0.6955381891563167])",-132.64114424106177,-201.2095293138628,-49.934008650729005,0.010221097984390972,0.0001565380799590185,0.623083187361936,14.999999853256757,-1.0,"[-206.038011905086, -136.2044467452975, 49.918739934978746]","[-201.04162577290214, -123.93540281422804, 56.95483875716768]","[-191.29303292314285, -133.71311504952521, 51.092989143492645]",10000000000.0,0.015931129455566406
13,27.18769931793213,-206.8061065673828,-136.9104461669922,49.94611358642578,0.5026074051856992,0.012717105448245863,0.7041699449208119,22.983070702979113,"array('d', [-136.9104461669922, -135.95810672751816, -135.03649567721757, -134.13648643476492, -133.24998589286994, -132.36974314786616, -131.48921954869294, -130.60250171421745, -129.70424456094887, -128.78963487982702, -127.85558522036267, -126.90489660654619, -125.94434060488987, -124.98056485542456, -124.01854276497578, -123.05916891004686])","array('d', [-206.8061065673828, -205.64732434553406, -204.46388534577324, -203.26391000867642, -202.05390880900322, -200.8393427982125, -199.62498043062934, -198.4151372161929, -197.2138428922135, -196.02495981518035, -194.85128969908232, -193.69104658403154, -192.538950584787, -191.38954400710776, -190.23866929683626, -189.08559118362203])","array('d', [-49.94611358642578, -49.940238466027054, -49.942515902753854, -49.94194363992604, -49.94236784842544, -49.94244375075006, -49.9426414386798, -49.94279649789935, -49.94296635167069, -49.94313089938525, -49.94329717670951, -49.943462797103905, -49.94362840953083, -49.94379506367575, -49.94395189441344, -49.94097219089272])","array('d', [0.5026074051856992, 0.3800375761874138, 0.2691318000510744, 0.16878009817693726, 0.07797812272485463, -0.004182891414703164, -0.07852520971153122, -0.14579278132286422, -0.20665845290032409, -0.26172871805882714, -0.22484227948448712, -0.12875344491811613, -0.04188192930873049, 0.03601502580891373, 0.035666082335234967, 0.03203669548573284])","array('d', [-0.012717105448245863, 0.004594694593080671, -0.001457149486884298, 0.000658833399748739, -8.08821130640129e-05, 0.00017777037529504997, 8.732238701805277e-05, 0.00011889652196217613, 0.00010776093940933527, 0.00011157243230058458, 0.00011015432547843509, 0.00011066435984930907, 0.00011016061269894166, 0.00011201399303400661, 9.73384674453253e-05, -0.004001898169127329])","array('d', [0.7041699449208119, 0.6733092860106934, 0.6513452157890952, 0.636836742229067, 0.6287711595982292, 0.6264004738000386, 0.6291484510201235, 0.6365545513468374, 0.648238498067834, 0.6638769960693238, 0.6800899937551086, 0.6917298129976016, 0.6972789944747246, 0.6974284460999957, 0.6950836607992374, 0.6928709139289988])",-132.36974314786616,-200.8393427982125,-49.94244375075006,-0.004182891414703164,0.00017777037529504997,0.6264004738000386,14.99999985325274,-1.0,"[-205.95783204575494, -136.14779840289853, 49.920503681384716]","[-200.9510181780895, -123.84803112304253, 56.89528251342927]","[-191.2106823870807, -133.66504485975733, 51.0856267601556]",10000000000.0,0.019359588623046875
14,27.219754457473755,-206.0613250732422,-136.37890625,49.95716094970703,0.45066365599632247,0.006221908610314065,0.6973932544377186,22.89133000967132,"array('d', [-136.37890625, -135.4320841498745, -134.51194608488984, -133.60986795955426, -132.718165431225, -131.8299304813778, -130.93892302070827, -130.03949908259005, -129.1265642218179, -128.19598143176853, -127.24738984969267, -126.28705856819381, -125.32187790932001, -124.35776487579203, -123.3978657515127, -122.4396635622027])","array('d', [-206.0613250732422, -204.89798232825575, -203.71338337710947, -202.51495639939193, -201.3087809147808, -200.10004697707166, -198.89335694703095, -197.69293195522914, -196.50275711129817, -195.32633575390503, -194.16438105673137, -193.01209934399625, -191.8638724928975, -190.71474944325377, -189.56210399482777, -188.40805184352556])","array('d', [-49.95716094970703, -49.954318861009064, -49.95548548374211, -49.95525085766925, -49.95550620827943, -49.95559030130114, -49.95573425334943, -49.95585722752892, -49.95598745485285, -49.95611506482065, -49.95624353477066, -49.95637169474598, -49.956499891110404, -49.95662847540456, -49.95675360075832, -49.95375050148789])","array('d', [0.45066365599632247, 0.3330369228958709, 0.22660384441938503, 0.13029920520693136, 0.04315915960843719, -0.035688412733846424, -0.1070326278486195, -0.17158745954266988, -0.2299986013752423, -0.2514935056388518, -0.15282656513555032, -0.06355606988367696, 0.017172009779578876, 0.07653943202870722, 0.012225846565396263, 0.01098178474008534])","array('d', [-0.006221908610314065, 0.002290439896073236, -0.0006853008713261651, 0.00035510996368085196, -8.575479076557523e-06, 0.00011857833052498857, 7.409972773852215e-05, 8.960715199003416e-05, 8.412080501640606e-05, 8.599456250783997e-05, 8.531012368238747e-05, 8.556558333811216e-05, 8.536622930152339e-05, 8.606779317175531e-05, 8.085300389376799e-05, -0.004016636454782709])","array('d', [0.6973932544377186, 0.670407081185306, 0.6516572717234608, 0.6399058340134939, 0.6342637307863964, 0.6340623222969646, 0.6387783602561607, 0.6479878093159035, 0.66133619508115, 0.6774054815718925, 0.6907651679574727, 0.697824145037886, 0.6992979423395737, 0.6961979762779664, 0.6933275947584762, 0.692569356899733])",-131.8299304813778,-200.10004697707166,-49.95559030130114,-0.035688412733846424,0.00011857833052498857,0.6340623222969646,14.999999851177169,-1.0,"[-204.9115689807895, -135.4155922686514, 49.9478281470073]","[-199.7709590453329, -122.71699374382703, 56.056815378685975]","[-190.1378192318469, -133.04071177515925, 50.994852978254926]",10000000000.0,0.017069578170776367
15,27.24888849258423,-205.31581115722656,-135.85533142089844,49.97541427612305,0.3944206237792967,0.00031659571686754165,0.6908667246487478,22.779265067706046,"array('d', [-136.1161651611328, -135.17194542668196, -134.25229271050998, -133.34883829388363, -132.45410691756786, -131.5613682666163, -130.6645390124627, -129.75811826733937, -128.8371460042546, -127.89855678554197, -126.94560423012994, -125.9849140304415, -125.0228041442905, -124.06313829425194, -123.10399495277352, -122.1435393270625])","array('d', [-205.68856811523438, -204.52309679241893, -203.33811525276755, -202.14072283547503, -200.9367913551705, -199.73137994848318, -198.5290112867725, -197.3338621153166, -196.14989770614622, -194.97985054659654, -193.82146273962164, -192.66947728015967, -191.51867596682283, -190.36583574190524, -189.21256038922272, -188.06038308575685])","array('d', [-49.96520233154297, -49.96378375370801, -49.964417819965455, -49.96433440012978, -49.964501871523765, -49.96458165496984, -49.96469207578978, -49.96479174104137, -49.964895103572005, -49.96499711696412, -49.96509956128474, -49.96520185925843, -49.96530398677481, -49.96540721227095, -49.96550061533449, -49.962460956722445])","array('d', [0.42296937108039834, 0.30797809676006876, 0.2039296814816408, 0.10978277786429672, 0.024595139449671892, -0.05248580256137026, -0.12223144485300072, -0.1853395919963246, -0.24244018665746514, -0.19433505092563813, -0.10113522729605305, -0.01687969467025531, 0.05187662533009739, 0.003371735290101317, -0.021930608402295472, -0.019699058092893657])","array('d', [-0.0031614070758222714, 0.0011972569098180883, -0.00032641719696032296, 0.00020630389812645566, 2.0097588896161132e-05, 8.519439595445543e-05, 6.241339794666581e-05, 7.034135148868506e-05, 6.752238339469192e-05, 6.847950726604013e-05, 6.811893626731558e-05, 6.827574664483882e-05, 6.790053420434174e-05, 6.970338365419344e-05, 5.5078010596828445e-05, -0.00403965320021621])","array('d', [0.69411958853272, 0.6691333724732954, 0.6520626476265863, 0.6417640481120207, 0.6374072594628524, 0.6383618545367603, 0.6441303777845475, 0.6543067117258125, 0.6685490865635887, 0.6830385305202301, 0.6927265948207509, 0.6965463509346658, 0.6953638666013536, 0.6935829128451472, 0.6942036410701602, 0.6955639098519938])",-131.5613682666163,-199.73137994848318,-49.96458165496984,-0.05248580256137026,8.519439595445543e-05,0.6383618545367603,14.999999853240976,-1.0,"[-204.70697258964603, -135.27465691626, 49.954685904202876]","[-199.54107154119032, -122.49733597189243, 55.87528856290155]","[-189.9284663494137, -132.9185769557582, 50.9767624801676]",10000000000.0,0.02111530303955078
16,27.27015233039856,-204.9465789794922,-135.59835815429688,49.98924255371094,0.365176975727081,-0.002231218619272211,0.6876865784314017,22.71501022258908,"array('d', [-135.85533142089844, -134.91368707812458, -133.99445542909473, -133.08952173454466, -132.19161991641045, -131.29419910290707, -130.39133569050324, -129.47767569888418, -128.54839799397774, -127.60124610783839, -126.64207805999445, -125.67782365194066, -124.71434377241431, -123.75442262367174, -122.79486276953244, -121.83316160314101])","array('d', [-205.31581115722656, -204.14824780412923, -202.96293480205125, -201.76665766488026, -200.56508806256855, -199.36315869278602, -198.16531552909467, -196.97569308501852, -195.79823841552968, -194.63511040815263, -193.4818604848858, -192.33285573304173, -191.18320154263878, -190.0305741836626, -188.87764552018103, -187.7265079951512])","array('d', [-49.97541427612305, -49.97531353558624, -49.97544389526951, -49.975493510386265, -49.97557138428504, -49.97563938771998, -49.97571082634817, -49.97578103181011, -49.975851629654905, -49.97592206103392, -49.97599253575339, -49.97606300013938, -49.97613338867064, -49.97620419287386, -49.97627144053389, -49.97321353452796])","array('d', [0.3944206237792967, 0.2821461183070497, 0.18055593621843213, 0.08863333159701364, 0.005458316246627254, -0.06980154435829079, -0.13789944679845295, -0.19951677971532256, -0.25526617722262473, -0.15623798727357227, -0.06663707385654276, 0.014411708325708514, 0.06740501043795204, -0.0003678787679903307, -0.03461150872609679, -0.03108942655866035])","array('d', [-0.00031659571686754165, 0.00017408939349242234, 2.584561815072548e-06, 6.256828000624771e-05, 4.1613159259828466e-05, 4.893592986449748e-05, 4.635857084831476e-05, 4.723410701303428e-05, 4.6901895600864626e-05, 4.700489248147491e-05, 4.696211462350323e-05, 4.698993665384899e-05, 4.686354731941248e-05, 4.753092395597787e-05, 4.222119882191088e-05, -0.00405114920488318])","array('d', [0.6908667246487478, 0.6679000545800585, 0.6525382705454809, 0.6437269168299237, 0.6406915331144973, 0.6428383807052284, 0.6496949539290083, 0.6608725837517263, 0.6760419094154927, 0.6896465877861315, 0.6969204160564667, 0.6985852708912054, 0.6958787846483491, 0.6937220178931792, 0.6948847565910643, 0.6970320262707524])",-131.29419910290707,-199.36315869278602,-49.97563938771998,-0.06980154435829079,4.893592986449748e-05,0.6428383807052284,14.999999851174364,-1.0,"[-204.30877853010355, -135.00145542051615, 49.96918233622904]","[-199.0942122894306, -122.07589945328289, 55.51339570329515]","[-189.5213531004849, -132.6809877468467, 50.94256763451661]",10000000000.0,0.01818537712097168
17,27.283576250076294,-204.9465789794922,-135.59835815429688,49.98924255371094,0.365176975727081,-0.002231218619272211,0.6876865784314017,22.71501022258908,"array('d', [-135.59835815429688, -134.65920706203022, -133.7402882198174, -132.83373805892037, -131.93249891621005, -131.03020043098286, -130.12108115550038, -129.19993743234713, -128.26288997457365, -127.31080547900834, -126.34987997930881, -125.38665222966216, -124.42572870704363, -123.46636289173314, -122.50615578692319, -121.54308777128986])","array('d', [-204.9465789794922, -203.77700313913664, -202.59144370913552, -201.39638914144396, -200.19732014104042, -198.9990486500259, -197.80594778706248, -196.62211253610587, -195.45082913106202, -194.2917294615043, -193.13994091964958, -191.99007510793945, -190.83828305602358, -189.68519280963676, -188.53280324638678, -187.3828093078607])","array('d', [-49.98924255371094, -49.990312875561855, -49.98997722362577, -49.990133082339085, -49.990117125060266, -49.990161229993994, -49.99018433235402, -49.99021476204468, -49.990242615071914, -49.99027135790286, -49.990299773203766, -49.99032831295688, -49.99035658483242, -49.990385983779404, -49.99040552978177, -49.98729601066736])","array('d', [0.365176975727081, 0.2556853704664785, 0.1566132623909834, 0.06696910927566142, -0.01414426796546167, -0.08753865170218056, -0.15394848902093378, -0.21403771406052063, -0.2102400283201952, -0.11550592856465865, -0.029808552423351058, 0.04746236879796701, 0.022199633080112344, -0.010819607690370128, -0.044208479943989035, -0.03970959751579826])","array('d', [0.002231218619272211, -0.000754317446505124, 0.00028937070567840417, -7.547276861393584e-05, 5.206875012014186e-05, 7.481630718532186e-06, 2.3061611193924764e-05, 1.7602380907660284e-05, 1.950327832445084e-05, 1.8831699859491882e-05, 1.9051698259645702e-05, 1.9002132878118277e-05, 1.8698761892233378e-05, 2.0470281063584653e-05, 5.835196886293317e-06, -0.004083645559336234])","array('d', [0.6876865784314017, 0.6667486692045558, 0.6531168765808791, 0.6458196353217656, 0.6441351877191182, 0.6475047342667717, 0.6554796994006015, 0.6676882232928575, 0.6817718932359002, 0.6924742146460983, 0.6971903254752259, 0.6965705860305904, 0.6943053927119942, 0.6939512406183445, 0.6957695081584107, 0.6985127840201317])",-131.03020043098286,-198.9990486500259,-49.990161229993994,-0.08753865170218056,7.481630718532186e-06,0.6475047342667717,14.999999853233332,-1.0,"[-204.10810942222088, -134.86438096314126, 49.97738014404527]","[-198.8692757286447, -121.86640188816054, 55.32594644702915]","[-189.31634826621053, -132.5611897809278, 50.925595458052335]",10000000000.0,0.014825820922851562
18,27.316147804260254,-204.20899963378906,-135.0890350341797,50.02226257324219,0.30496436357498147,-0.006575766950845813,0.6811149875309803,22.578008299297625,"array('d', [-135.0890350341797, -134.15513461886792, -133.23705590127437, -132.32742353845333, -131.41959054725342, -130.50754754764944, -129.58586183374516, -128.6499431198336, -127.69859053292016, -126.73760618696812, -125.77362402281797, -124.8116422377331, -123.85210673676802, -122.89280185844548, -121.93194589798554, -120.96748736336139])","array('d', [-204.20899963378906, -203.03522359398735, -201.84900796905168, -200.6562950195061, -199.46221038677632, -198.2713407832089, -197.08792407218155, -195.91573743146742, -194.75603828654036, -193.60429939093865, -192.4550659560494, -191.3041577126036, -190.15120883894812, -188.99806786115022, -187.84621946308826, -186.69739204395793])","array('d', [-50.02226257324219, -50.02531120348919, -50.02415078340619, -50.02446171081364, -50.0242582900196, -50.024234666608976, -50.02414822175308, -50.024083761763286, -50.02401163342004, -50.023942189182335, -50.02387179191393, -50.02380173959064, -50.023731346347354, -50.02366210905316, -50.02358307033607, -50.02038037333793])","array('d', [0.30496436357498147, 0.2012027413003831, 0.1073153372686288, 0.022362500584732232, -0.05450599093395684, -0.12405941079066568, -0.18699354847670852, -0.221577632394547, -0.12575698423364487, -0.03906258070944965, 0.039315141533495114, 0.03929162251992278, -0.0007409711094759216, -0.01656499893979121, -0.05510390591239778, -0.04949584314960636])","array('d', [0.006575766950845813, -0.0023618131021458893, 0.0007624663015180375, -0.00032967726674780793, 5.2081047261267076e-05, -8.135298309259163e-05, -3.46853352685501e-05, -5.0989335443110466e-05, -4.527708157707093e-05, -4.728179356777275e-05, -4.659272663847332e-05, -4.6806800264775886e-05, -4.7046852664920376e-05, -4.52987009581438e-05, -5.984361354213708e-05, -0.004142321100260432])","array('d', [0.6811149875309803, 0.6642447403639018, 0.6541201683127504, 0.6499177103159962, 0.6510113573852664, 0.656906649036219, 0.6671995535381787, 0.6807699306050619, 0.6921985745694226, 0.6975562180643021, 0.6975051986711029, 0.6949334459423371, 0.6936943603850174, 0.6942689241887258, 0.6966348412217687, 0.7000553092035257])",-130.50754754764944,-198.2713407832089,-50.024234666608976,-0.12405941079066568,-8.135298309259163e-05,0.656906649036219,14.99999985322575,-1.0,"[-203.78750707156144, -134.64623362934904, 49.99258937886291]","[-198.51027252549125, -121.53526154444523, 55.01784624141594]","[-188.98902727601288, -132.36930877125727, 50.8984640563678]",10000000000.0,0.014322996139526367
19,27.34007239341736,-203.8410186767578,-134.83644104003906,50.04142761230469,0.2742949724197386,-0.008368755690753538,0.6777959624913075,22.506100298469942,"array('d', [-134.83644104003906, -133.90522193091564, -132.98761088357313, -132.07646828357298, -131.1653485752306, -130.24842210387246, -129.3204220592508, -128.37779182985756, -127.42275218803981, -126.46151586912666, -125.49980447829154, -124.53987927908742, -123.58038065141622, -122.6203641778868, -121.65817302564058, -120.6910239780344])","array('d', [-203.8410186767578, -202.66511546942857, -201.4785362970251, -200.28697584632783, -199.09539757517422, -197.90828529386192, -196.7298156280748, -195.5630170130616, -194.40634722696174, -193.25481674764686, -192.10368220580182, -190.95105774041662, -189.79807796077407, -188.6455293836841, -187.49479658551897, -186.34823429431185])","array('d', [-50.04142761230469, -50.045281691793036, -50.043763081637145, -50.04412257037938, -50.04382554199545, -50.04375801356332, -50.043610313395504, -50.04349067729465, -50.04336125072644, -50.04323524865032, -50.043108033254896, -50.04298125166538, -50.04285409132975, -50.04272808908672, -50.04259220649161, -50.03933568570361])","array('d', [0.2742949724197386, 0.1734519262087046, 0.0822053595591585, -0.00035794736127909996, -0.07506429842061428, -0.14266130985720596, -0.2038250172685981, -0.17216451756684142, -0.0810519682123539, 0.0013573785004662982, 0.03490854327159531, 0.001208936131390712, -0.004786694382270402, -0.022683143784298594, -0.07590115926441268, -0.06817508424057164])","array('d', [0.008368755690753538, -0.0030396337364992396, 0.0009482919000322018, -0.0004457186549596618, 4.155215181514718e-05, -0.00012874909837271194, -6.917822183930286e-05, -8.998940895371708e-05, -8.270093668010603e-05, -8.525915687290641e-05, -8.437610278603442e-05, -8.466126034163517e-05, -8.488216837924625e-05, -8.314972081046192e-05, -9.778295531023959e-05, -0.00417621451201079])","array('d', [0.6777959624913075, 0.6629495376195215, 0.654588346392622, 0.6519540240126902, 0.6544634681759777, 0.6616514389647116, 0.6731343535718952, 0.6855593164191961, 0.6938394009940524, 0.6964032531363581, 0.6951988073694848, 0.6940359143193215, 0.6941561781247347, 0.695064286775966, 0.6983204750647046, 0.7030357205265543])",-130.24842210387246,-197.90828529386192,-50.04375801356332,-0.14266130985720596,-0.00012874909837271194,0.6616514389647116,14.999999853221933,-1.0,"[-202.6726245242192, -133.89585743034198, 50.05398059931264]","[-197.25695239538837, -120.4429079766546, 53.88655758999881]","[-187.85111629841762, -131.71177758401703, 50.79741125335737]",10000000000.0,0.014776468276977539
20,27.362727403640747,-203.4738006591797,-134.58505249023438,50.06218719482422,0.2433994859457014,-0.009845647960901385,0.674453334012304,22.432287505279294,"array('d', [-134.58505249023438, -133.65655660576948, -132.73945673543653, -131.82684286606755, -130.9124679815789, -129.99068136459218, -129.05638282920557, -128.1070141037041, -127.14805518682563, -126.1861325831753, -125.22576708671944, -124.26609471262324, -123.30630458345756, -122.3459227975774, -121.38305496209222, -120.41461474462643])","array('d', [-203.4738006591797, -202.29574788400416, -201.10877237786505, -199.91833796637832, -198.72925650176597, -197.5459157437507, -196.37243560620252, -195.21111176335634, -194.0576858880738, -192.90672803189833, -191.75447046758197, -190.60163532103613, -189.44889819780386, -188.29665404307667, -187.1464876820686, -186.00101639884213])","array('d', [-50.06218719482422, -50.06669492581997, -50.06486539982541, -50.06525112972726, -50.06486251635139, -50.06474460052436, -50.06453213600624, -50.064352769185824, -50.06416184843724, -50.063974965802956, -50.06378665531176, -50.06359885359504, -50.06341064601644, -50.06322360351858, -50.06302667776446, -50.05971242751884])","array('d', [0.2433994859457014, 0.145496531616008, 0.056910270752661384, -0.02324589022559083, -0.09577415828984645, -0.1614003098568423, -0.2207798300144748, -0.12503969541521992, -0.038417824641559205, 0.03910084048090198, 0.004885248577854648, -0.002415091011412357, -0.004361942169066857, -0.026639399531867537, -0.08510627225089515, -0.07644231844169112])","array('d', [0.009845647960901385, -0.0036108033436435447, 0.0010929641871957239, -0.000551229160357228, 2.3490505811727688e-05, -0.00017736100729916947, -0.0001070971614969392, -0.000131649027909568, -0.00012305533315552764, -0.00012607120452898322, -0.0001250268742427195, -0.00012536969725203135, -0.0001255703928299252, -0.0001238483288845283, -0.0001384753277101914, -0.004212567368711981])","array('d', [0.674453334012304, 0.6616184252539676, 0.6550214441249981, 0.6539636610506205, 0.6579016465640225, 0.6663974104861585, 0.679086551332059, 0.6904641351693951, 0.6957769491249719, 0.6957123155700685, 0.6942922712776182, 0.694215479082555, 0.6944381510068838, 0.6954641734884764, 0.6991551077147297, 0.704444538426204])",-129.99068136459218,-197.5459157437507,-50.06474460052436,-0.1614003098568423,-0.00017736100729916947,0.6663974104861585,14.999999853218117,-1.0,"[-202.3022847761097, -133.6483922343258, 50.07695542816536]","[-196.8399608988969, -120.10315631670271, 53.495961394285374]","[-187.4733583398111, -131.49577981358112, 50.76193755413675]",10000000000.0,0.014434814453125
21,27.384212017059326,-203.10751342773438,-134.33474731445312,50.08454132080078,0.21251420676708208,-0.010968078859150486,0.6711718598988398,22.3573047730608,"array('d', [-134.33474731445312, -133.40892326647668, -132.4922979381529, -131.5781840466238, -130.66052967442798, -129.73386170989633, -128.7937763208449, -127.83986732002604, -126.87793172275926, -125.9144113732005, -124.95353556065953, -123.99363588838553, -123.03359650051938, -122.07286985567703, -121.10931575831236, -120.13963699128205])","array('d', [-203.10751342773438, -201.9273614307198, -200.74001865409946, -199.5507356465403, -198.36418430558177, -197.18466409750175, -196.01581431059327, -194.85821446113644, -193.7072689308005, -192.55764839945869, -191.40581661927942, -190.25317073959053, -189.10064121352707, -187.94868463676025, -186.79909343281443, -185.65467106811738])","array('d', [-50.08454132080078, -50.08953282208998, -50.08744594327826, -50.08783336248805, -50.0873559313612, -50.08718084956005, -50.08690017446127, -50.08665645729877, -50.08639982949854, -50.08614771206795, -50.08589400252691, -50.08564085990284, -50.085387290738765, -50.08513489159666, -50.08487261034219, -50.081496554775676])","array('d', [0.21251420676708208, 0.11755037297201024, 0.03162353904321245, -0.04612627082790432, -0.11647717197545752, -0.18013306377780697, -0.19864118157966892, -0.10500149008805144, -0.02028071544438065, 0.055909482093029414, 0.006609794985169169, -0.003131491629099699, -0.004912296139748106, -0.031248073593265133, -0.0931792163211427, -0.08369248686243336])","array('d', [0.010968078859150486, -0.004061935781478171, 0.001191783959683148, -0.0006445905419705266, -2.6924602874838253e-06, -0.0002270079160789149, -0.0001485346453205911, -0.00017596399964345122, -0.0001663665106984406, -0.0001697338931574246, -0.00016856499824230835, -0.00016895204655668734, -0.00016913708605374999, -0.0001674236832211842, -0.00018204080339910255, -0.004251486743966837])","array('d', [0.6711718598988398, 0.6603244619885578, 0.6554815048290058, 0.6559984087673214, 0.6613681441144663, 0.6711779296866447, 0.683724927232339, 0.6936862889090706, 0.6977444622995641, 0.6965371354404584, 0.6945185920713483, 0.6944101644449917, 0.6946741692385155, 0.6958711817254738, 0.6999804389212033, 0.7057740904113166])",-129.73386170989633,-197.18466409750175,-50.08718084956005,-0.18013306377780697,-0.0002270079160789149,0.6711779296866447,14.99999985321427,-1.0,"[-202.25000118528487, -133.61350931226235, 50.08034874916429]","[-196.78116841500622, -120.05614548764714, 53.4403717041069]","[-187.42004710312324, -131.46518405933605, 50.75648522105198]",10000000000.0,0.013625144958496094
