,current_time,x_pos,y_pos,z_pos,roll,pitch,yaw,vel,x_traj,y_traj,z_traj,roll_traj,pitch_traj,yaw_traj,x_cmd,y_cmd,z_cmd,roll_cmd,pitch_cmd,yaw_cmd,vel_cmd,effector_dmg,effector_x,effector_y,effector_z,cost,time_solution
0,0.009871244430541992,-182.2693328857422,-123.51256561279297,49.905113220214844,0.6380028128623961,0.037373393774032475,0.4063144485142568,23.143588156345018,"array('d', [-124.33686828613281, -123.74289158673436, -123.1989359997374, -122.69188806670836, -122.2105554588157, -121.74521389333083, -121.28726831307618, -120.82901698310546, -120.36349389974959, -119.88436238536148, -119.38584342332787, -118.86266840887002, -118.31004941544359, -117.72366222467032, -117.0996397436722, -116.43599369874917])","array('d', [-184.42274475097656, -183.04610620093445, -181.6483480687751, -180.23667951460263, -178.81601866194956, -177.3900301352571, -175.9616452041608, -174.53335836185835, -173.1074280638521, -171.68601791302842, -170.27129795449332, -168.86551785787788, -167.47105912195224, -166.0904708565532, -164.72649162968003, -163.3813483881197])","array('d', [-49.902687072753906, -49.86212419485232, -49.850330044755026, -49.85117850459237, -49.85153040786793, -49.85205978617998, -49.852528807588115, -49.85301927851373, -49.85350120745153, -49.85398387204189, -49.854462993332476, -49.854939267817606, -49.85541158762079, -49.85588126396643, -49.85633662676296, -49.85363692234109])","array('d', [0.6385467052459717, 0.503040550959269, 0.380429501334477, 0.2694864262435643, 0.16910097261123863, 0.0782684519236542, -0.00392021441301123, -0.07828759205136827, -0.14557796288553213, -0.20646476531629696, -0.26155730828593887, -0.311406778369179, -0.3565113450230788, -0.397318297471061, -0.43417558332981976, -0.3893012896946078])","array('d', [-0.037292744964361156, -0.01713488451092528, 0.0011046936036197812, 4.427617937833112e-05, 0.0004186823590920073, 0.0002893135419324964, 0.00033528151464096433, 0.00031895214388142853, 0.000323543202183233, 0.00032006758179435433, 0.0003187822626516496, 0.0003162919409460795, 0.0003135141451440519, 0.0003127339992681056, 0.00029471694689031473, -0.0038255921179984644])","array('d', [0.429376439252172, 0.3873966441394807, 0.356502935750921, 0.33451167078585803, 0.3199800096153534, 0.3118941347211309, 0.3095053456057605, 0.312236941420487, 0.31962806650519837, 0.33129823929317637, 0.34692412935070055, 0.366223935132847, 0.38894665366427716, 0.4148644968497997, 0.44376529887062166, 0.4723020379060853])",-121.74521389333083,-177.3900301352571,-49.85205978617998,0.0782684519236542,0.0002893135419324964,0.3118941347211309,14.99999985289696,-1.0,"[-181.31028980181978, -123.06851807646004, 49.848971899318606]","[-172.4022418888553, -113.18017613958642, 56.76759720495522]","[-166.41599426460436, -124.09256912091685, 48.3959474988244]",10000000000.0,0.034543752670288086
1,0.02885150909423828,-181.83798217773438,-123.35407257080078,49.905357360839844,0.6378332972526547,0.03742170333862293,0.4016973535206653,23.142665209658205,"array('d', [-124.1681137084961, -123.58030709495836, -123.04261356722738, -122.54188822447436, -122.06691724444467, -121.60796015681943, -121.15640896898525, -120.70455093653426, -120.24541008389792, -119.77264017140175, -119.28045258075524, -118.76356874057537, -118.21719016047457, -117.63698129974563, -117.01906285809156, -116.36143655790251])","array('d', [-183.99366760253906, -182.6143857087785, -181.21420739174212, -179.80028380329122, -178.37748342834766, -176.94942725023913, -175.51900801432492, -174.08868570659277, -172.66068758600332, -171.23714888491347, -169.8202137803709, -168.41210836188569, -167.01519270120093, -165.6319965576594, -164.2652412085839, -162.91714475239448])","array('d', [-49.90337371826172, -49.862726663225665, -49.85085632054769, -49.8516818234315, -49.85204133191855, -49.852567652032896, -49.853037372676816, -49.85352723229226, -49.85400899444928, -49.85449130688854, -49.85497009637867, -49.85544597476951, -49.8559178522752, -49.85638702558262, -49.856841805790715, -49.85414150248961])","array('d', [0.6385338902473446, 0.5030289554650256, 0.38041900929053213, 0.2694769326366796, 0.16909238241491487, 0.07826067914035235, -0.003927247627546025, -0.07829395620187414, -0.1455837219273597, -0.20646997751686583, -0.2615620274515581, -0.31141105656743534, -0.35651524254712275, -0.3973219463443942, -0.43418043051046634, -0.3893056166748283])","array('d', [-0.03735173866152744, -0.01718826421863673, 0.0010563937602871287, 6.0883950286472985e-05, 0.00041259349533336064, 0.0002911918992846992, 0.0003343818152346743, 0.0003190206120436435, 0.0003232582553060376, 0.0003198813471295993, 0.0003185272441477694, 0.00031601913049582157, 0.00031319794934745143, 0.00031238010631071844, 0.00029429518745166094, -0.0038259696048125627])","array('d', [0.42489881912735517, 0.3829201543025669, 0.3520273308334876, 0.33003679397860947, 0.31550575360862904, 0.3074204219938291, 0.3050321175757899, 0.3077641520641383, 0.315155678409736, 0.32682622112504967, 0.3424524542108174, 0.361752579563151, 0.384475597465964, 0.4103937260135452, 0.439294861192896, 0.46783195721041754])",-121.60796015681943,-176.94942725023913,-49.852567652032896,0.07826067914035235,0.0002911918992846992,0.3074204219938291,14.999999852890173,-1.0,"[-180.85346326065687, -122.9064866758991, 49.84908154273841]","[-171.88619661322628, -113.05130997821007, 56.73846621273659]","[-165.967645247949, -123.98988332161045, 48.352861705748126]",10000000000.0,0.01634383201599121
2,0.047284603118896484,-181.83798217773438,-123.35407257080078,49.905357360839844,0.6378332972526547,0.03742170333862293,0.4016973535206653,23.142665209658205,"array('d', [-123.83641815185547, -123.26131504376644, -122.73648051651973, -122.24871094431195, -121.78675268089988, -121.34083552576485, -120.90232770353741, -120.46349616386418, -120.01734642818423, -119.55751437211927, -119.07819325905832, -118.57408554868209, -118.04037249038615, -117.47269668705093, -116.8671551476243, -116.22173033829718])","array('d', [-183.13308715820312, -181.74846219665304, -180.34341376900545, -178.92496855481536, -177.4978900766252, -176.0657085270932, -174.63123699848308, -173.1968645030794, -171.76475440183088, -170.33698401921484, -168.91564488391765, -167.5029152087988, -166.10111164676772, -164.71272480912657, -163.34044103396548, -161.98646054971644])","array('d', [-49.90452575683594, -49.86380876513584, -49.85187511949647, -49.85268134217748, -49.85304687816519, -49.85357045559882, -49.85404054856556, -49.8545296965279, -49.85501109502926, -49.85549285804358, -49.85597106965334, -49.85644626115562, -49.85691734840983, -49.85738561039011, -49.857839327846555, -49.85513793325534])","array('d', [0.6382235884666442, 0.5027481827718453, 0.3801649556172111, 0.2692470553224465, 0.1688843807520586, 0.07807247133486703, -0.0040975453204528806, -0.07844804839841453, -0.14572315133966499, -0.20659614082208538, -0.2616761905153168, -0.31151437132824, -0.3566087767307341, -0.397406814935404, -0.4342601726222655, -0.3893768009586919])","array('d', [-0.037400752305984414, -0.017232613602093688, 0.001016264851105308, 7.4410827154037e-05, 0.00040741532356861483, 0.00029260323698466605, 0.00033350507763687577, 0.00031893527661845905, 0.0003228638720196388, 0.00031954224164188643, 0.000318097356861713, 0.00031553408647032566, 0.0003126306961276332, 0.0003117335791273375, 0.00029352674625377943, -0.00382665756349084])","array('d', [0.41569264332321665, 0.37374134177055973, 0.3428699428461662, 0.3208970348875668, 0.30638102573577086, 0.29830884862486384, 0.2959322803567627, 0.298674936502439, 0.30607617816528254, 0.31775567631091056, 0.33339021043608025, 0.3526980603159815, 0.3754282860097063, 0.40135315863640736, 0.4302607244500344, 0.45880369344130956])",-121.34083552576485,-176.0657085270932,-49.85357045559882,0.07807247133486703,0.00029260323698466605,0.29830884862486384,14.999999852876458,-1.0,"[-180.4583507181421, -122.76801144557298, 49.84923790610214]","[-171.44069742561004, -112.94079719833147, 56.712749342276716]","[-165.5800861733321, -123.90170071120626, 48.315617097806445]",10000000000.0,0.01644611358642578
3,0.07042145729064941,-180.97264099121094,-123.04288482666016,49.90583038330078,0.6371543407440186,0.037305008620023616,0.3926058570530751,23.143315854183047,"array('d', [-123.67350769042969, -123.10489259746963, -122.5866304034349, -122.10548657898633, -121.6501866128007, -121.21094490004792, -120.77911737572295, -120.3469605266636, -119.90747036097373, -119.45427357205534, -118.98155412714837, -118.48400475376569, -117.95679630282845, -117.39556015291689, -116.79638113985617, -116.15723175561932])","array('d', [-182.7016143798828, -181.31431171771422, -179.9068255809879, -178.48611919559835, -177.05690249103188, -175.62265954423594, -174.18616287876304, -172.7497652908758, -171.31559747822743, -169.88570711753033, -168.46215874175348, -167.04710597872884, -165.64284315252192, -164.2518407111273, -162.87676696636265, -161.51981288599347])","array('d', [-49.905033111572266, -49.864337988025234, -49.85242413626287, -49.85323596014323, -49.85359898339747, -49.85412294663252, -49.8545924319959, -49.855081323744955, -49.85556232797176, -49.8560437130877, -49.85652149440419, -49.856996214311934, -49.85746677339706, -49.857934448080776, -49.85838750182547, -49.85568543675818])","array('d', [0.6381238698959351, 0.502657953666828, 0.38008331293371705, 0.2691731819492098, 0.16881753732982263, 0.07801198885019191, -0.004152272245222138, -0.07849756759701053, -0.1457679586650195, -0.20663668531833937, -0.26171287951823635, -0.3115475765901488, -0.35663884695622083, -0.3974341376214, -0.434286310159133, -0.38940013339387336])","array('d', [-0.037385426461696465, -0.017218746205398913, 0.0010288125403539324, 6.962063700651316e-05, 0.0004087529777178542, 0.00029181544150630375, 0.0003334701754897894, 0.00031863302102607945, 0.00032263913500945115, 0.0003192640065716705, 0.0003178021506509992, 0.0003152011296976559, 0.00031226005606573807, 0.00031132184267262947, 0.00029305454245817544, -0.0038270801576438984])","array('d', [0.41100664536026515, 0.3690641350409817, 0.3381996199484086, 0.3162323765975175, 0.30172119756487253, 0.29365324764784806, 0.2912804508778401, 0.294026520435301, 0.3014308842943591, 0.3131132604789488, 0.32875046240437494, 0.34806079494425085, 0.3707933376353677, 0.39672037999546605, 0.4256300347869267, 0.4541749288802099])",-121.21094490004792,-175.62265954423594,-49.85412294663252,0.07801198885019191,0.00029181544150630375,0.29365324764784806,14.999999852869527,-1.0,"[-180.38652592541044, -122.743375108877, 49.84929100721345]","[-171.35989185683619, -112.92106674692378, 56.708017990754804]","[-165.50962736437998, -123.8862350462326, 48.30923894043212]",10000000000.0,0.018096923828125
4,0.09635186195373535,-180.10394287109375,-122.7396011352539,49.90642547607422,0.6359837651252747,0.03680872917175285,0.38347442547348526,23.137924131496465,"array('d', [-123.51256561279297, -122.95045829641629, -122.4387847817098, -121.9642803489393, -121.51565015890198, -121.08309361866775, -120.65795471803904, -120.23247977459754, -119.79965553959295, -119.35309975278103, -118.88698729226414, -118.39600134326734, -117.87530253411387, -117.32051118318694, -116.72770010792584, -116.09483194565043])","array('d', [-182.2693328857422, -180.87938010201339, -179.46948520651944, -178.04654754068798, -176.61522317751658, -175.17894988657486, -173.74045949754998, -172.30206850760183, -170.86587489573478, -169.43389665353106, -168.0081712921664, -166.59082783475054, -165.18413825950552, -163.79055283392776, -162.41272182321842, -161.0528269085917])","array('d', [-49.905113220214844, -49.864435265884865, -49.85253695476955, -49.85335409182612, -49.85371663776148, -49.85424221825898, -49.854712614661324, -49.855202669108756, -49.85568472921658, -49.85616716812597, -49.856645946413856, -49.85712160993136, -49.85759304440639, -49.85806152211822, -49.85851528340293, -49.85581383311244])","array('d', [0.6380028128623961, 0.5025484167205223, 0.37998419979152154, 0.2690835006500763, 0.1687363903040045, 0.07793856392979012, -0.004218709968656393, -0.0785576831598374, -0.14582235396539053, -0.20668590534344453, -0.26175741838657024, -0.31158788448039926, -0.35667534313790106, -0.39746727096633794, -0.43431764897869346, -0.38942810887713913])","array('d', [-0.037373393774032475, -0.017207858580130235, 0.0010386640298966903, 6.706043661686938e-05, 0.0004106031786985542, 0.0002921469258453517, 0.0003343443565858718, 0.0003193123549628064, 0.00032336683566077637, 0.00031994219000292424, 0.00031845370668355776, 0.00031580845789827073, 0.0003128206933807013, 0.0003118327393384448, 0.00029348831903994177, -0.003826693445178648])","array('d', [0.4063144485142568, 0.3643826091818151, 0.3335264502130188, 0.31156608321989343, 0.29706076768317213, 0.28899794943242896, 0.2866297311873808, 0.289379944596855, 0.29678809879555207, 0.30847396891766155, 0.3241144095290809, 0.3434277559119602, 0.366163111048022, 0.39209278578682105, 0.421004959601073, 0.44955216193864456])",-121.08309361866775,-175.17894988657486,-49.85424221825898,0.07793856392979012,0.0002921469258453517,0.28899794943242896,14.999999852862583,-1.0,"[-179.56091970577705, -122.46040136003549, 49.849910890091586]","[-170.43139747520976, -112.69494999407931, 56.65342347262734]","[-164.70032294566988, -123.70876780708416, 48.23614351299692]",10000000000.0,0.02134990692138672
5,0.11759328842163086,-179.66836547851562,-122.59107208251953,49.90675354003906,0.6341646909713744,0.03621864691376669,0.37906141678360505,23.134904591605597,"array('d', [-123.35407257080078, -122.79837855928508, -122.29319059282996, -121.82521599402709, -121.38314110721912, -120.95715131858324, -120.53857945529957, -120.11966232061573, -119.69337798233161, -119.25333574750184, -118.79370189491452, -118.30915054111357, -117.7948325599824, -117.24635768000765, -116.6597871790601, -116.03307424997608])","array('d', [-181.83798217773438, -180.44545493096257, -179.03322366780483, -177.60812508839498, -176.17476249764152, -174.73652786778953, -173.2961128985373, -171.855798351237, -170.41765004303804, -168.98365681916079, -167.5558296846928, -166.1362735454511, -164.72723848883678, -163.33115502043484, -161.95065573626835, -160.587913220935])","array('d', [-49.905357360839844, -49.86461047452364, -49.85264976981636, -49.853449031480274, -49.85381930948113, -49.85434370397219, -49.854816065876314, -49.85530698664533, -49.85579027818026, -49.856273781084546, -49.85675362404236, -49.8572302786447, -49.85770264318725, -49.85817197644454, -49.85862650095347, -49.85592571948248])","array('d', [0.6378332972526547, 0.5023950326373945, 0.3798454121159024, 0.26895792034578764, 0.16862276051308941, 0.07783574738745885, -0.0043117423294838815, -0.07864186253847698, -0.14589852308751047, -0.20675482708893617, -0.261819783983882, -0.3116443223088064, -0.3567264331020869, -0.39751360359652543, -0.43436085202904773, -0.3894666752489079])","array('d', [-0.03742170333862293, -0.017251570884641135, 0.0009991115894281725, 8.187210924033477e-05, 0.0004064178349969263, 0.0002946395260684033, 0.0003345112234133559, 0.00032028710652039504, 0.00032403903420241356, 0.00032068743287072494, 0.0003191291875900245, 0.00031645490781277236, 0.0003134152000845649, 0.00031237975226871775, 0.00029396019194847134, -0.0038262727041103108])","array('d', [0.4016973535206653, 0.35978045404209524, 0.328935994719598, 0.30698525591910597, 0.292488150630871, 0.2844325180604261, 0.282070711058583, 0.2848267271128841, 0.2922401889707612, 0.30393095170492873, 0.3195759274571775, 0.33889349398209273, 0.3616327867341892, 0.38756614466003286, 0.41648181633254333, 0.44503220086346407])",-120.95715131858324,-174.73652786778953,-49.85434370397219,0.07783574738745885,0.0002946395260684033,0.2844325180604261,14.999999852855687,-1.0,"[-179.13709562520881, -122.31842281236649, 49.85032474369397]","[-169.95479693626012, -112.5824861107429, 56.62505184734249]","[-164.2852902640226, -123.62191601477691, 48.19963307511675]",10000000000.0,0.01915740966796875
6,0.1354997158050537,-179.66836547851562,-122.59107208251953,49.90675354003906,0.6341646909713744,0.03621864691376669,0.37906141678360505,23.134904591605597,"array('d', [-123.04288482666016, -122.49982827472019, -122.00738072401775, -121.55220075586546, -121.12294244982738, -120.7097678085292, -120.30399098294679, -119.89783275918394, -119.48425642185752, -119.05685671858592, -118.60978485931078, -118.13769885033882, -117.63573203360357, -117.09947492227309, -116.52496769663304, -115.91014649772826])","array('d', [-180.97264099121094, -179.57513173358143, -178.1584060607945, -176.72916934745137, -175.2919164067071, -173.84994797835503, -172.40587634515666, -170.9619119985566, -169.5200578282786, -168.08224589945817, -166.65043576859605, -165.22668567643748, -163.81320346672808, -162.4123815965194, -161.02681870607424, -159.65866995184214])","array('d', [-49.90583038330078, -49.865250006573326, -49.85344001738909, -49.854284232723025, -49.85463888895964, -49.8551690115595, -49.855639661970486, -49.85613147739257, -49.856614715359896, -49.85709842493243, -49.85757828234327, -49.85805489129486, -49.858527081355625, -49.85899612027071, -49.85945019051165, -49.85674889141481])","array('d', [0.6371543407440186, 0.501780687322664, 0.37928952942725763, 0.2684549368231359, 0.16816764211793928, 0.07742393910935248, -0.0046843620859987785, -0.07897902326157377, -0.1462035996229149, -0.20703087377733453, -0.2620695662699172, -0.3118703479162349, -0.35693099210731366, -0.39769888975584033, -0.4345308524685451, -0.38961843011036773])","array('d', [-0.037305008620023616, -0.017145981135272142, 0.0010946528574220645, 4.8420942482480704e-05, 0.00041828399915527125, 0.0002906749295795211, 0.00033610116813134126, 0.00031992263618045233, 0.0003243212923448269, 0.00032068547372272047, 0.0003191500369478181, 0.00031637487374385783, 0.00031326378260399705, 0.00031214018404881826, 0.0002935961461194083, -0.0038265994504297516])","array('d', [0.3926058570530751, 0.3507487644756945, 0.3199511491412264, 0.29803896525401297, 0.28357473985332426, 0.2755478859490398, 0.27321175724573216, 0.27599101486922506, 0.28342573623417744, 0.2951360963001468, 0.31079923750994665, 0.33013370717751644, 0.35288876916040585, 0.3788368669083561, 0.4077664173138114, 0.436329324590599])",-120.7097678085292,-173.84994797835503,-49.8551690115595,0.07742393910935248,0.0002906749295795211,0.2755478859490398,14.999999852841974,-1.0,"[-178.6981074448666, -122.17365332200397, 49.851268159551516]","[-169.46168197252652, -112.46700246405533, 56.59436638038388]","[-163.85550909239677, -123.53658450330265, 48.16612936933164]",10000000000.0,0.0163116455078125
7,0.16167402267456055,-178.7950897216797,-122.30054473876953,49.907493591308594,0.6244067549705505,0.03396048396825781,0.37044258514908346,23.11820493628788,"array('d', [-122.89022064208984, -122.35353894528176, -121.86750980848906, -121.41876857999648, -120.99595415188386, -120.58921775713783, -120.18986493898562, -119.79010908173797, -119.38290659553759, -118.96184540075011, -118.52106957698267, -118.05522944296007, -117.55944991398349, -117.02931221281487, -116.46084627139194, -115.85197997354075])","array('d', [-180.5386962890625, -179.13872102836837, -177.71977910693246, -176.2885077335946, -174.84934590046208, -173.40554820547308, -171.9596868506702, -170.51393694925855, -169.070269765985, -167.63058887479664, -166.19682804807255, -164.7710221631102, -163.3553579299854, -161.95220878112056, -160.5641563831331, -159.19334718187952])","array('d', [-49.90604782104492, -49.86564984266663, -49.85400495027474, -49.85489796326903, -49.85523474145685, -49.855770420624495, -49.85623843337999, -49.856730479108556, -49.857212926508275, -49.857696168867434, -49.85817539898279, -49.85865137758087, -49.859122868599705, -49.85959115562214, -49.860044389136114, -49.85734224978605])","array('d', [0.6367471218109129, 0.501412220358946, 0.37895612669618256, 0.26815326151961194, 0.16789467497018123, 0.07717694815558368, -0.004907848851971583, -0.07918124265868662, -0.14638657573647346, -0.20719643838999827, -0.26221937769336334, -0.31200590926158034, -0.3570536734798586, -0.3978099888465991, -0.4346324925681885, -0.3897091610245723])","array('d', [-0.03717717900872217, -0.017030316116914957, 0.0011993105803809897, 1.1193720756494745e-05, 0.0004308432841207168, 0.00028581498971286365, 0.00033734245324101945, 0.00031902412250034055, 0.0003241535255091913, 0.0003202350053823357, 0.00031876305222912463, 0.0003159224782651748, 0.00031278456950786137, 0.00031161759717708326, 0.00029300425321790045, -0.0038271289389435617])","array('d', [0.3880282203343252, 0.3462069742399777, 0.3154374421044519, 0.2935483757420653, 0.2791038673914182, 0.27109427262666436, 0.2687735446801559, 0.27156674226277716, 0.279014215208408, 0.29073633015390304, 0.306410367538887, 0.3257549762504092, 0.3485194969409281, 0.3744764348645599, 0.40341429638151555, 0.43198469159848496])",-120.58921775713783,-173.40554820547308,-49.855770420624495,0.07717694815558368,0.00028581498971286365,0.27109427262666436,14.999999852835096,-1.0,"[-178.21700389832654, -122.01772557896327, 49.85270951348376]","[-168.9233964934963, -112.33368266030641, 56.54958745432283]","[-163.38431841247848, -123.44905549390916, 48.137269059112505]",10000000000.0,0.024884939193725586
8,0.1854875087738037,-178.35748291015625,-122.15866088867188,49.90805435180664,0.6156042814254759,0.03213383257389061,0.36636956135300186,23.10523060428366,"array('d', [-122.7396011352539, -122.20924575951271, -121.72954777837869, -121.28712530082015, -120.87060657774742, -120.47013608889857, -120.07701386110602, -119.68344839122558, -119.28239134099631, -118.86742567643357, -118.43269005730262, -117.9728287287325, -117.48295974405761, -116.95865658519868, -116.39594049569982, -115.79273265084433])","array('d', [-180.10394287109375, -178.70154325729916, -177.2804443751454, -175.8472072481513, -174.40621065353625, -172.96066240212983, -171.51309455230628, -170.065647241085, -168.6202607939849, -167.17881117559287, -165.74320737912754, -164.31546199693497, -162.89774171690757, -161.4924020583344, -160.10200879618327, -158.7287003233291])","array('d', [-49.90642547607422, -49.866553237182686, -49.85538421249085, -49.856416621346916, -49.85669975693637, -49.85724952545887, -49.85770789392249, -49.85819859619143, -49.85867678337649, -49.85915676499197, -49.85963235980742, -49.86010480362826, -49.860572689065656, -49.86103735641104, -49.86148691514214, -49.858781270796754])","array('d', [0.6359837651252747, 0.5007215066017284, 0.3783311429823905, 0.26758775280920716, 0.16738298146324435, 0.07671394864206008, -0.005326788258391649, -0.07956031492410967, -0.14672957493426075, -0.20750679783588652, -0.262500204774773, -0.31226001810385823, -0.35728361979165146, -0.39801813917438356, -0.4348218659120646, -0.3898782076558331])","array('d', [-0.03680872917175285, -0.016696928907601362, 0.001500970821516154, -9.77554697253654e-05, 0.00046586725055748775, 0.00027041795442513794, 0.0003395861494574235, 0.0003150921688220863, 0.0003223693631981052, 0.0003176842967252259, 0.00031646252062542937, 0.00031351181058231924, 0.00031038756710028857, 0.00030918889221445353, 0.0002905339417300714, -0.003829336350855022])","array('d', [0.38347442547348526, 0.34172032739538916, 0.3110034137175414, 0.2891576692085215, 0.2747501148597251, 0.26677287039830516, 0.2644810113820268, 0.2673003409164525, 0.27477171893761576, 0.28651587101515763, 0.30221033597873365, 0.3215739527886917, 0.3443562053330924, 0.3703297115731066, 0.3992831043411566, 0.42786745254827124])",-120.47013608889857,-172.96066240212983,-49.85724952545887,0.07671394864206008,0.00027041795442513794,0.26677287039830516,14.999999852828276,-1.0,"[-177.37231970388473, -121.7499739484123, 49.85675113113577]","[-167.98096067638974, -112.07490726846264, 56.429076469645445]","[-162.55693534653085, -123.31691210051558, 48.11058642774799]",10000000000.0,0.015370607376098633
9,0.20583796501159668,-177.91932678222656,-122.01911163330078,49.90883255004883,0.6039230227470396,0.02986112609505653,0.36244328419235716,23.0901066077938,"array('d', [-122.59107208251953, -122.06678514768397, -121.59304147932961, -121.15646298234725, -120.74568231009584, -120.35084882139459, -119.96326599450929, -119.57514470158877, -119.17943799428173, -118.76972929523676, -118.34015680213501, -117.88536338786764, -117.40046483071801, -116.88103144686801, -116.32308043002615, -115.72453089411623])","array('d', [-179.66836547851562, -178.26366120631872, -176.84055988475043, -175.40553187314353, -173.96288890415906, -172.5157907463793, -171.06672988036433, -169.6178132856932, -168.1709529643771, -166.72800041419657, -165.29084332044891, -163.8614756472087, -162.44204778760712, -161.03490105072933, -159.64258891340342, -158.2672438904655])","array('d', [-49.90675354003906, -49.86772329730363, -49.857316389548586, -49.85857202600924, -49.858769191251874, -49.859341433271915, -49.859784251206236, -49.860272691463926, -49.86074395208528, -49.86121862343173, -49.86168833260943, -49.862155083527654, -49.862617200649, -49.863076118980615, -49.863519884654465, -49.86080873570345])","array('d', [0.6341646909713744, 0.49907554009020855, 0.3768418107552475, 0.26624014915222427, 0.16616361912276137, 0.07561062383574801, -0.006325117990753829, -0.08046364125960596, -0.14754693882067188, -0.20824638011535204, -0.2631694084576924, -0.312865543786873, -0.3578315383544441, -0.3985139892260302, -0.4352713906776376, -0.39027947674176705])","array('d', [-0.03621864691376669, -0.016163000385627138, 0.00198408734055278, -0.0002722643770329228, 0.000521903082515553, 0.0002456940231885251, 0.0003431048964970081, 0.00030872236729085674, 0.00031944624832030413, 0.00031354730240578597, 0.00031274499984899, 0.0003096413455409995, 0.00030656612591864013, 0.0003053453501449919, 0.0002866540143802229, -0.003832802811660736])","array('d', [0.37906141678360505, 0.33746707841043466, 0.3068754220633747, 0.2851328432706417, 0.27081331441462786, 0.2629131448230274, 0.26069007655297494, 0.26357168187785673, 0.2711000333791551, 0.2828967100647773, 0.2986398651933927, 0.31804878958657307, 0.3408733069747482, 0.3668862988364847, 0.39587663691907893, 0.42449411459867065])",-120.35084882139459,-172.5157907463793,-49.859341433271915,0.07561062383574801,0.0002456940231885251,0.2629131448230274,14.999999852821677,-1.0,"[-176.9355620314372, -121.61483908457811, 49.86007118240285]","[-167.49654000711718, -111.92189994640451, 56.33709164617039]","[-162.1286486681756, -123.26195410313655, 48.115843912662996]",10000000000.0,0.015833616256713867
10,0.22487258911132812,-177.48208618164062,-121.88240814208984,49.910247802734375,0.5893340110778807,0.0271204076707362,0.35851474205521144,23.06918726904843,"array('d', [-122.30054473876953, -121.78772786575709, -121.32455231364007, -120.8977641290906, -120.49608872670161, -120.10974951276454, -119.73010634826869, -119.34941485957573, -118.9606646170587, -118.5574696130678, -118.1339942047625, -117.68490411524347, -117.20533546168967, -116.69087697947263, -116.1375627894239, -115.54333338345575])","array('d', [-178.7950897216797, -177.38606673196838, -175.95946936481192, -174.52149984988782, -173.07629449794618, -171.62690509547087, -170.17574374823386, -168.72485744344738, -167.27611281680134, -165.83132707624614, -164.39236213905437, -162.96119292079246, -161.5399561217683, -160.13098366053234, -158.73682309171429, -157.3596067487398])","array('d', [-49.907493591308594, -49.87168566395638, -49.864195283570595, -49.8663044705727, -49.86617134841019, -49.86682831768444, -49.86721027107626, -49.86768868484401, -49.868132086694615, -49.86858513339034, -49.86903109539564, -49.8694749410666, -49.86991399420033, -49.870350067478036, -49.87077107246576, -49.868038464971995])","array('d', [0.6244067549705505, 0.49024619367221345, 0.36885268701135926, 0.25901129038668985, 0.15962267660779608, 0.06969213371622025, -0.011680389893868368, -0.08530929231379535, -0.15193146607202393, -0.21221366584096601, -0.26675915985514964, -0.31611369202353146, -0.36077060506413117, -0.40117345599959914, -0.43767878080349815, -0.39242831316255894])","array('d', [-0.03396048396825781, -0.014119730021296505, 0.0038328906964450117, -0.0009409996564418602, 0.0007355354693707196, 0.00015018836759484458, 0.0003556552363713759, 0.0002834345886075009, 0.00030736862556146556, 0.00029686880761255245, 0.00029773279930570543, 0.00029412168041856107, 0.00029132909139056314, 0.0002901220821932057, 0.0002715280768753672, -0.0038463152452641856])","array('d', [0.37044258514908346, 0.32969921975800254, 0.2997763353886102, 0.2785854999607823, 0.26473731567032394, 0.2572502245820982, 0.2553960822350264, 0.2586118387551162, 0.2664460021598171, 0.2785246849892334, 0.2945293071048412, 0.3141815632404395, 0.3372330850747702, 0.36345814849441743, 0.3926467605413347, 0.42144186633976527])",-120.10974951276454,-171.62690509547087,-49.86682831768444,0.06969213371622025,0.00015018836759484458,0.2572502245820982,14.999999852809504,-1.0,"[-176.49040322733975, -121.47944761305082, 49.864384449016946]","[-167.0045290468738, -111.75218535814821, 56.22037060827788]","[-161.69187612613567, -123.21547625430092, 48.13528057946839]",10000000000.0,0.015721559524536133
11,0.2496790885925293,-177.48208618164062,-121.88240814208984,49.910247802734375,0.5893340110778807,0.0271204076707362,0.35851474205521144,23.06918726904843,"array('d', [-122.15866088867188, -121.65100581901991, -121.1921139096944, -120.76886490614844, -120.37008439316674, -119.98607313067046, -119.60825044123561, -119.22891970193528, -118.84111023813584, -118.43847030025078, -118.01519472719241, -117.56597717932121, -117.08598005971129, -116.57081739129181, -116.01654805614785, -115.42113985057614])","array('d', [-178.35748291015625, -176.94652363998247, -175.51852975302762, -174.079514757283, -172.63350730489208, -171.18349905166866, -169.73186257703853, -168.28062003616606, -166.83162356732672, -165.386683435249, -163.94766019179897, -162.51653153742697, -161.09544000787406, -159.68672553089397, -158.29294511843014, -156.91623865882713])","array('d', [-49.90805435180664, -49.87485311218283, -49.869288665424584, -49.87182197567092, -49.87151662784056, -49.87221027037007, -49.87255555930795, -49.8730228687308, -49.87344619132992, -49.873882311747145, -49.87431031413865, -49.87473667139596, -49.87515821079789, -49.875576940446436, -49.8759805869349, -49.87323151552127])","array('d', [0.6156042814254759, 0.482281385516012, 0.3616458299110603, 0.25249025582384, 0.1537221999925959, 0.06435316119732752, -0.016511292461928284, -0.0896804741624205, -0.15588667542555895, -0.21579248779158058, -0.26999741261649596, -0.31904378563283653, -0.3634218666293337, -0.4035724288949939, -0.43984962688181956, -0.3943658284017075])","array('d', [-0.03213383257389061, -0.012466907483592025, 0.004760150973298374, -0.001281608459403972, 0.0008391002843472265, 9.811755279350757e-05, 0.0003579334608554612, 0.0002666682710170968, 0.0002972516816878153, 0.00028445568383189245, 0.0002861853293439733, 0.0002823549225908419, 0.0002797412216959072, 0.0002785842771830105, 0.00025992234915071935, -0.0038566821268070203])","array('d', [0.36636956135300186, 0.32638534037821393, 0.29706130050717283, 0.27636583167537193, 0.2629416486355705, 0.25582667526342506, 0.2543052281192467, 0.25782255676425686, 0.2659328753328091, 0.2782663224327443, 0.29450722293550413, 0.31437941224132876, 0.337636133995159, 0.36405290741258306, 0.393420727127409, 0.42237630732434245])",-119.98607313067046,-171.18349905166866,-49.87221027037007,0.06435316119732752,9.811755279350757e-05,0.25582667526342506,14.999999852804129,-1.0,"[-176.0779741997633, -121.3562759952915, 49.86957217792179]","[-166.54866847311624, -111.58497216196882, 56.091626000011814]","[-161.28734700513277, -123.18247669151154, 48.165947158564066]",10000000000.0,0.020122528076171875
12,0.27594709396362305,-176.16806030273438,-121.48639678955078,49.91969680786133,0.5306498408317564,0.01730649173259721,0.34667249123123656,22.983220624153486,"array('d', [-122.01911163330078, -121.51624137495989, -121.06095023627792, -120.64030040632132, -120.24325719334567, -119.86022616914809, -119.48270815281559, -119.10307231146638, -118.71440314570596, -118.31039686459862, -117.88529143192868, -117.43382049940179, -116.95118456427662, -116.43303474628965, -115.87546667858507, -115.27648773165802])","array('d', [-177.91932678222656, -176.50657677289476, -175.0774185146249, -173.63763853518, -172.1911520145124, -170.74088402924568, -169.28916820634512, -167.8380056276513, -166.38923990771877, -164.94468175132158, -163.5061986728153, -162.07578004444332, -160.65558338599976, -159.2479657896162, -157.85550266121984, -156.48034688341224])","array('d', [-49.90883255004883, -49.87887467385508, -49.874265937133146, -49.87644321172939, -49.87624233594383, -49.87687859174312, -49.877223043785335, -49.8776695913366, -49.87807906020383, -49.878498907654254, -49.87891153053622, -49.87932228931863, -49.879728436131366, -49.88013185749073, -49.88052028726173, -49.877756830613876])","array('d', [0.6039230227470396, 0.4717117446174369, 0.35208202246556963, 0.24383656420551453, 0.14589201530375898, 0.057268116458923206, -0.02292210663210286, -0.09548121923269136, -0.1611354070949406, -0.22054173701463756, -0.2742947112938191, -0.3229321421019288, -0.3669401950331153, -0.40675593117884606, -0.44273001857299654, -0.39693635437285163])","array('d', [-0.02986112609505653, -0.010410477598054978, 0.004024623813939505, -0.001037146368684892, 0.0007396710919502606, 0.00011902365657437015, 0.00033661587105920205, 0.0002600580160984229, 0.0002854764552160442, 0.0002745032129654911, 0.0002756416491107574, 0.0002720958869612883, 0.0002694768926192899, 0.0002684356238021706, 0.00024978190884040324, -0.0038657401002934995])","array('d', [0.36244328419235716, 0.32345443725198825, 0.2949187811140956, 0.2748773492377934, 0.2620141556268081, 0.2553922894781883, 0.2543122172473817, 0.25822997258843405, 0.2667071993215645, 0.27937928728390876, 0.2959343562672592, 0.3160990423662902, 0.33962870154297475, 0.36630048445473046, 0.3959066702804887, 0.4250756184240861])",-119.86022616914809,-170.74088402924568,-49.87687859174312,0.057268116458923206,0.00011902365657437015,0.2553922894781883,14.999999852799252,-1.0,"[-175.87567357865788, -121.29764415393848, 49.87290623625279]","[-166.32456055473207, -111.4958504286138, 56.01302673754432]","[-161.08908416006048, -123.17278441636135, 48.187491639762]",10000000000.0,0.024821758270263672
13,0.3033783435821533,-175.72975158691406,-121.35904693603516,49.92546463012695,0.5069609284400939,0.01370209455490096,0.3428157130864006,22.94317987887683,"array('d', [-121.88240814208984, -121.38416191429859, -120.9320123338543, -120.51325097135653, -120.11701798490819, -119.73385032802383, -119.3553513874265, -118.97397354037449, -118.58287146503272, -118.1758027592534, -117.74706097177123, -117.29143167042808, -116.80416515246756, -116.28096134911254, -115.71796453183183, -115.11323390437575])","array('d', [-177.48208618164062, -176.06761434609948, -174.6374465424545, -173.19711278446306, -171.75040286159887, -170.30017041369427, -168.84870996408418, -167.3980044792767, -165.94989414776518, -164.50619667434313, -163.06879407519438, -161.63969553933373, -160.22108201914955, -158.81533626724953, -157.4250604005748, -156.05242534033255])","array('d', [-49.910247802734375, -49.88420137466472, -49.880743993174825, -49.882489927156946, -49.88241329666128, -49.88297854083612, -49.88332018557129, -49.88373990667877, -49.88413089216254, -49.884529360026576, -49.88492170570151, -49.88531195430051, -49.88569787943203, -49.88608122571387, -49.88644988525687, -49.8836678965904])","array('d', [0.5893340110778807, 0.4585110597727492, 0.3401375477946149, 0.23302875560864342, 0.13611270479731552, 0.04841942959644002, -0.03092873031626797, -0.10272591255834397, -0.16769067721272798, -0.22647319102720612, -0.2796617127023778, -0.32778840431876144, -0.37133431618334317, -0.4107318618054821, -0.4463271755775783, -0.40014609761466774])","array('d', [-0.0271204076707362, -0.00793057305689772, 0.003136088490854768, -0.0007434559358085297, 0.0006185607798854665, 0.00014303093712073097, 0.00030971476717003794, 0.0002508946259884059, 0.0002700989959734841, 0.0002613376567652883, 0.000261782498632782, 0.00025860203129674593, 0.00025600808786164245, 0.00025513485475938015, 0.00023671841561456102, -0.003877409281922981])","array('d', [0.35851474205521144, 0.3207504884945859, 0.29318971988306286, 0.2739599864149222, 0.2617948588000925, 0.2557877909018067, 0.2552588178215261, 0.2596770829252653, 0.26861328564564235, 0.2817092303880416, 0.2986576818769576, 0.31918871104316965, 0.343060269943354, 0.37005151868615976, 0.3999563149334875, 0.4293924409688189])",-119.73385032802383,-170.30017041369427,-49.88297854083612,0.04841942959644002,0.00014303093712073097,0.2557877909018067,14.99999985279481,-1.0,"[-174.7323966917067, -120.96986762393847, 49.894371831197766]","[-165.06197540015074, -110.98984731957371, 55.54079961948025]","[-159.9693033452291, -123.12400014138836, 48.34170060377925]",10000000000.0,0.024602890014648438
14,0.32291316986083984,-175.29153442382812,-121.23394775390625,49.93280029296875,0.4817077517509458,0.010128766298294014,0.3390430966999864,22.89955010913216,"array('d', [-121.61605072021484, -121.1268345553772, -120.67999918431359, -120.26340545852055, -119.86662552558407, -119.48052239470006, -119.09695597236238, -118.70858853135807, -118.3087533316583, -117.89136559923693, -117.45086287854612, -116.98216635681241, -116.48065739735813, -115.94216521244553, -115.362963567354, -114.7412486965299])","array('d', [-176.6063232421875, -175.18854991615635, -173.75669312817462, -172.3157242817556, -170.86916155968893, -169.41970672401885, -167.96957718372525, -166.52072801843428, -165.07500601811805, -163.63425989921032, -162.2004200788746, -160.77555623176767, -159.36191770919615, -157.96196013542183, -156.5783600209846, -155.2133366259325])","array('d', [-49.915462493896484, -49.898422776989214, -49.897612148723965, -49.898357151566785, -49.89855948418766, -49.898954045052804, -49.89928201893464, -49.89963283549927, -49.8999741601238, -49.90031637474967, -49.900655080395154, -49.900991240459305, -49.90132383104438, -49.90165427113356, -49.901970792684295, -49.89913989652296])","array('d', [0.552446961402893, 0.42513427396694603, 0.30993698037510253, 0.205702149697516, 0.1113865670403695, 0.026046292958856996, -0.051172783268113364, -0.12104349066608136, -0.18426510842497038, -0.2414703569912696, -0.29323170830051276, -0.3400670375093439, -0.38244445661624854, -0.4207845980461277, -0.45542151002795045, -0.4082587248992439])","array('d', [-0.020809931680559984, -0.00222061906336688, 0.0010846424515153059, -7.2009955000165e-05, 0.0003349970999947642, 0.0001934454289982246, 0.00024302598552855266, 0.0002250296573385538, 0.00022998714933809437, 0.00022635954205049214, 0.0002252662309068197, 0.00022298524499202938, 0.00022051016082803474, 0.00022008373676348945, 0.00020224261348952583, -0.003908205016171626])","array('d', [0.35053737560776277, 0.31578365750480086, 0.2906426050789109, 0.2734414102394007, 0.26302961876962644, 0.2585724923839511, 0.25943671338194213, 0.26512287085245206, 0.27522349504809285, 0.28939592066788783, 0.30734420269293633, 0.3288067942344041, 0.3535480101296902, 0.38135195847786285, 0.41201637686594655, 0.442131583764272])",-119.48052239470006,-169.41970672401885,-49.898954045052804,0.026046292958856996,0.0001934454289982246,0.2585724923839511,14.99999985278691,-1.0,"[-174.28250893951855, -120.84545710289788, 49.9059064185981]","[-164.5665090061318, -110.78135141558082, 55.32006581862884]","[-159.52910092920044, -123.11389514830522, 48.42565613056225]",10000000000.0,0.018042802810668945
15,0.3400886058807373,-175.29153442382812,-121.23394775390625,49.93280029296875,0.4817077517509458,0.010128766298294014,0.3390430966999864,22.89955010913216,"array('d', [-121.48639678955078, -121.00137295017744, -120.55656483356461, -120.14015823025704, -119.74197202117755, -119.3530566309254, -118.96542076356238, -118.57184962816928, -118.16578208881036, -117.741227465871, -117.29271002367649, -116.81523327384932, -116.30425867469116, -115.7556948659435, -115.16589548618234, -114.53314084792828])","array('d', [-176.16806030273438, -174.74878743437134, -173.31629430541258, -171.87526851587276, -170.4290909304884, -168.98038762572463, -167.53134070656515, -166.0838969988592, -164.63991404130536, -163.20126473103204, -161.76991314878862, -160.347969098268, -158.93772612332216, -157.54168610520662, -156.16257214914694, -154.80263280112865])","array('d', [-49.91969680786133, -49.90765771474647, -49.90831377814936, -49.90849802357581, -49.9088505818602, -49.90914573685405, -49.909461458428844, -49.90976942173874, -49.910078605515594, -49.910385075385115, -49.91068953873746, -49.91099126600102, -49.9112899033138, -49.9115866893573, -49.91187011401884, -49.90900823281324])","array('d', [0.5306498408317564, 0.4054114218849472, 0.29209100420883793, 0.18955444124561727, 0.09677551490711431, 0.01282566509907737, -0.06313530307793276, -0.13186762707029542, -0.19405919267691146, -0.2503324110146778, -0.3012504252582001, -0.3473226678389777, -0.3890096040733761, -0.426724900752739, -0.4607956369465522, -0.41305116170328476])","array('d', [-0.01730649173259721, 0.0009494223535017377, -5.786747504475141e-05, 0.00029759817311125015, 0.00017453252872955615, 0.0002182777127580942, 0.0002029402535703783, 0.00020759976979055353, 0.00020469375093728757, 0.0002039452348291528, 0.00020203772829291186, 0.00020029437676996118, 0.00019792818190216495, 0.00019778886480316548, 0.00018040074333502, -0.003927715528517946])","array('d', [0.34667249123123656, 0.3136444864511043, 0.28990511451347356, 0.27388789743804787, 0.2645051313590659, 0.2609613897065653, 0.26264912212478786, 0.269086410431937, 0.27987799858084617, 0.2946899528736186, 0.31323270528305597, 0.3352494657350524, 0.3605081786918108, 0.3887957913785747, 0.4199122877636738, 0.450431259070651])",-119.3530566309254,-168.98038762572463,-49.90914573685405,0.01282566509907737,0.0002182777127580942,0.2609613897065653,14.999999852783466,-1.0,"[-173.87699696384436, -120.73509612224981, 49.91760740330234]","[-164.12100137262001, -110.59237784656825, 55.10854335013954]","[-159.13248505605574, -123.10531310485204, 48.50997106657923]",10000000000.0,0.01579904556274414
16,0.35956883430480957,-174.4159698486328,-120.9901123046875,49.952857971191406,0.4275566935539244,0.002908843569457403,0.33166010777023835,22.797201741021997,"array('d', [-121.35904693603516, -120.87813529016212, -120.43511619116181, -120.01851733673911, -119.61841762921422, -119.22606606618967, -118.83363012821644, -118.43402716922144, -118.02081036759078, -117.58809157491464, -117.13049011232913, -116.64310018496037, -116.12147184171039, -115.56160183430987, -114.95993259127626, -114.31483773289912])","array('d', [-175.72975158691406, -174.30903707856191, -172.87598844323313, -171.43501590199332, -169.98936530617047, -168.54158841388843, -167.0938343221725, -165.6480449318258, -164.20609264575052, -162.7698792256123, -161.34140745647187, -159.92283248255248, -158.51649725319274, -157.12495496844352, -155.75098009567944, -154.396852785201])","array('d', [-49.92546463012695, -49.918570385836965, -49.92073244339772, -49.920334477971906, -49.92083677658992, -49.921024807365754, -49.92132307750796, -49.921582158797584, -49.921853513226345, -49.922118496794994, -49.922383067045324, -49.92264475613747, -49.922903896426206, -49.9231615384705, -49.923406395320164, -49.92050834709756])","array('d', [0.5069609284400939, 0.38397680562182945, 0.27269615962087584, 0.17200525856426202, 0.08089635633797868, -0.0015423930130356383, -0.07613606079769043, -0.14363120004342292, -0.20470331430195882, -0.2599636105678181, -0.3099650934924923, -0.3552080196433628, -0.3961445422417455, -0.43318074490955144, -0.4666357593491917, -0.4182577799718729])","array('d', [-0.01370209455490096, 0.0042107867269930615, -0.0012371560670902614, 0.0006746427901701945, 6.239038007086886e-06, 0.00024055973104804626, 0.00015850267364386634, 0.00018647245919185967, 0.0001755162229860901, 0.000177757812559115, 0.00017504773502715116, 0.00017389036498520068, 0.000171667109595474, 0.00017185252078980715, 0.0001549059726077966, -0.003950488961317221])","array('d', [0.3428157130864006, 0.3116222813815433, 0.28938456207836, 0.2746428669874787, 0.266373249360239, 0.2638205741031413, 0.266403877535879, 0.27365938591027056, 0.285204566947959, 0.30071461776637826, 0.319906663038263, 0.3425289238708427, 0.3683531845251684, 0.39716940963050174, 0.42877996621443, 0.45973984287992875])",-119.22606606618967,-168.54158841388843,-49.921024807365754,-0.0015423930130356383,0.00024055973104804626,0.2638205741031413,14.999999852780263,-1.0,"[-173.8132160755592, -120.71818540718591, 49.91982716307117]","[-164.05092364728418, -110.56216358669965, 55.07277460377451]","[-159.07014191739736, -123.10456168601702, 48.5244875546703]",10000000000.0,0.017524242401123047
17,0.3808727264404297,-173.97897338867188,-120.87112426757812,49.96582794189453,0.39908072352409363,-0.00042122256127196897,0.3280603448536734,22.73791529547333,"array('d', [-121.23394775390625, -120.75698302853141, -120.31546534652654, -119.89827833954843, -119.49576711868644, -119.09938656577664, -118.70147015359886, -118.29507452085147, -117.87387424393627, -117.4320908274541, -116.96444588103657, -116.46613170683241, -115.93279456023467, -115.36052715522013, -114.7458688027089, -114.08729473156856])","array('d', [-175.29153442382812, -173.8694645299898, -172.43594739310043, -170.99514245571146, -169.55016020924654, -168.1034809056637, -166.65722388416563, -165.21332998142768, -163.77369069431697, -162.3402411703678, -160.9150275613271, -159.50025502688032, -158.09832047864558, -156.71183275435757, -155.34362165004967, -153.9960005523042])","array('d', [-49.93280029296875, -49.9282010351195, -49.93013220534301, -49.929773082858496, -49.93021894433009, -49.93038367502778, -49.930646837176596, -49.930874885277554, -49.93111383620399, -49.931347055681535, -49.931579889772784, -49.931810160430814, -49.932038162229475, -49.932265000018596, -49.93247950559373, -49.92955302259046])","array('d', [0.4817077517509458, 0.36112678436260787, 0.2520206035150795, 0.15329724007556794, 0.063968639675528, -0.016859225805397244, -0.08999530541873527, -0.15617156413721425, -0.21605030560968466, -0.27023079282827367, -0.3192552223434699, -0.3636140686198535, -0.40375062254409233, -0.44006287534994604, -0.47286134528995216, -0.4238064159986273])","array('d', [-0.010128766298294014, 0.003764592673425142, -0.0011084043775814484, 0.000601057105448509, 3.395073206873399e-06, 0.0002127533471432009, 0.00013935397103049494, 0.0001642941163981275, 0.00015447099241767387, 0.00015645521411275897, 0.0001540306902162688, 0.00015301381975278377, 0.0001510218099268707, 0.00015142189891452002, 0.00013486178274390787, -0.003968393597800596])","array('d', [0.3390430966999864, 0.3097620267152427, 0.2891021503448509, 0.2757084618266539, 0.2686202707947709, 0.26712278160512076, 0.2706618359613761, 0.27879205580807903, 0.29114386845918194, 0.3074018092108635, 0.3272898746354492, 0.35056145286884977, 0.37699230612368795, 0.40637554150688, 0.43851601468753937, 0.46994838695933466])",-119.09938656577664,-168.1034809056637,-49.93038367502778,-0.016859225805397244,0.0002127533471432009,0.26712278160512076,14.999999852777282,-1.0,"[-172.89388718118474, -120.47475666539897, 49.95273207029564]","[-163.04382538727486, -110.14051048039026, 54.5548661887009]","[-158.17184417209145, -123.0852991909147, 48.750019568954684]",10000000000.0,0.019018888473510742
18,0.39957594871520996,-173.54269409179688,-120.75390625,49.98042297363281,0.3698677718639372,-0.0035458265338094096,0.32455308834579977,22.67482365938007,"array('d', [-120.9901123046875, -120.52072931955715, -120.08166811278646, -119.66252656558804, -119.2541877201621, -118.84852867473101, -118.43822790598718, -118.01663526521577, -117.57768395831464, -117.11583163864027, -116.6260222606108, -116.10366296319705, -115.54461188100395, -114.94517387503356, -114.30210293385618, -113.61409895472833])","array('d', [-174.4159698486328, -172.9913465058845, -171.55706416413506, -170.11682185654436, -168.6734735816934, -167.2293684138765, -165.78657711339122, -164.3470492947834, -162.9127257088203, -161.48561944709974, -160.06787447556118, -158.66180672474218, -157.2699311625677, -155.8949771640253, -154.53989331424518, -153.20706164597837])","array('d', [-49.952857971191406, -49.95160001859675, -49.95225736294207, -49.95224410439523, -49.95246681634441, -49.952607244125865, -49.952776260810516, -49.952934615989484, -49.953095608899396, -49.953254252169074, -49.953412008252414, -49.95356820187495, -49.95372271502778, -49.953876860621676, -49.954019548317795, -49.95102562881999])","array('d', [0.4275566935539244, 0.3121288762479638, 0.20768545884256456, 0.11318113862752198, 0.02767008676827975, -0.04970351759704413, -0.1197140521299632, -0.18306220023644082, -0.24038196062603898, -0.2922469843426243, -0.33917629150345946, -0.38163937934542735, -0.42006052956118095, -0.4548203419462088, -0.4862099052635461, -0.4356975193768043])","array('d', [-0.002908843569457403, 0.0011636349705345251, -0.00026337043823956743, 0.00023733953589157868, 6.252597247198871e-05, 0.00012369072180373717, 0.00010202626668228764, 0.00010899767735149849, 0.00010571431134308774, 0.00010580847951848854, 0.00010455389577951991, 0.00010371820976482939, 0.00010232260884211388, 0.00010319037163705287, 8.732455783254213e-05, -0.004010856574432632])","array('d', [0.33166010777023835, 0.3063455070482119, 0.2889981691231478, 0.27845964787827954, 0.2738902220030181, 0.27465331953562505, 0.2802473267896807, 0.2902632399083304, 0.30435729982502985, 0.3222327662331438, 0.3436275063412164, 0.3683054126613273, 0.3960504003835835, 0.4266620754007607, 0.4599504435425395, 0.4924048123178668])",-118.84852867473101,-167.2293684138765,-49.952607244125865,-0.04970351759704413,0.00012369072180373717,0.27465331953562505,14.999999852771799,-1.0,"[-172.53110918969256, -120.38067763586078, 49.967681705267054]","[-162.64752640925832, -109.97818599645157, 54.338374912794364]","[-157.81762248376634, -123.07475464564358, 48.847298726151344]",10000000000.0,0.01760554313659668
19,0.42528533935546875,-173.1090545654297,-120.63844299316406,49.99857711791992,0.3401314020156858,-0.006422454491257796,0.32111282745865377,22.607979755961757,"array('d', [-120.87112426757812, -120.40538452814472, -119.96733060103954, -119.54691019702815, -119.13527311473652, -118.72450882432076, -118.30747179194825, -117.87766343271768, -117.42915229059435, -116.95652094309443, -116.45483204348922, -115.91960824391082, -115.34682219196237, -114.73289379054552, -114.07469364095762, -113.37104337138696])","array('d', [-173.97897338867188, -172.55314667746623, -171.1185523550279, -169.67868089533619, -168.2362690870406, -166.79360795026938, -165.35275017217884, -163.91565533096716, -162.48429403692333, -161.06072331579392, -159.64714071556236, -158.24592187309224, -156.859644665914, -155.491102089529, -154.1433048608118, -152.81866940676173])","array('d', [-49.96582794189453, -49.96610322843709, -49.96615926401181, -49.96629316675995, -49.966400323062466, -49.966516987602574, -49.966630108838665, -49.96674392497998, -49.9668566760412, -49.96696874761835, -49.96707981937016, -49.96718990738376, -49.967298695895785, -49.967407583707825, -49.967505396833104, -49.964469199592024])","array('d', [0.39908072352409363, 0.2863627507192672, 0.1843713022397614, 0.09208561546173952, 0.008582066343579354, -0.06697507424091526, -0.13534200418112874, -0.1972029571010906, -0.25317704721657214, -0.30382445719858825, -0.3496520194712821, -0.3911181998384247, -0.42863728273027263, -0.46258072131963685, -0.49322980965000823, -0.44194750630735846])","array('d', [0.00042122256127196897, -4.637339698225895e-05, 0.00011833975408369035, 6.115126337792823e-05, 8.138624835754224e-05, 7.428493748816633e-05, 7.650632180059095e-05, 7.526917300195503e-05, 7.506891749770014e-05, 7.437148796141006e-05, 7.373480346429822e-05, 7.306046473182752e-05, 7.200843453401273e-05, 7.315616682886031e-05, 5.752213651102328e-05, -0.004037477694100328])","array('d', [0.3280603448536734, 0.3047667601747172, 0.28912743937949453, 0.28007397514545285, 0.27682309756764173, 0.2787752588228323, 0.2854539919393715, 0.2964678578516017, 0.3114856589841494, 0.3302198322176499, 0.3524150928757635, 0.377840561522297, 0.4062842485644434, 0.43754905815912304, 0.47144765271517686, 0.5044444896813355])",-118.72450882432076,-166.79360795026938,-49.966516987602574,-0.06697507424091526,7.428493748816633e-05,0.2787752588228323,14.999999852769246,-1.0,"[-172.07774187828468, -120.26459555127668, 49.98796841777428]","[-162.1533673120792, -109.77939465094607, 54.05826957977203]","[-157.3750402162785, -123.0581187453008, 48.9746609607358]",10000000000.0,0.02034139633178711
20,0.45568346977233887,-172.24461364746094,-120.41153717041016,50.04092788696289,0.2798743546009062,-0.011002339422702928,0.31461794773605845,22.4672660170629,"array('d', [-120.75390625, -120.2916757191059, -119.8544641208483, -119.43256126493368, -119.0173802238191, -118.60122216925282, -118.1771187344344, -117.73872532416814, -117.28024915308804, -116.79640174546591, -116.28236902139152, -115.73379415141862, -115.14676965030756, -114.51783608775224, -113.843986516426, -113.12417018427155])","array('d', [-173.54269409179688, -172.1157223151612, -170.68086793200575, -169.2414285204401, -167.80003232200508, -166.35891823156157, -164.92012556944894, -163.48562787957283, -162.05742919026065, -160.63763366745832, -159.22849531721923, -157.83245201048854, -156.45214667903684, -155.09043765940729, -153.75039904691707, -152.4344811433025])","array('d', [-49.98042297363281, -49.98213182058232, -49.9816147673575, -49.981878794319286, -49.98186942956827, -49.98195576574541, -49.98200848148073, -49.982072610909576, -49.98213228229791, -49.982192919714606, -49.98225253322023, -49.98231178497484, -49.98237017245262, -49.98242916930941, -49.982477583056784, -49.97939490924173])","array('d', [0.3698677718639372, 0.2599297765746236, 0.16045375600247017, 0.07044412272782791, -0.010999967819281324, -0.08469363303775375, -0.15137442053488895, -0.21170968841216298, -0.2663032811497149, -0.3157015644169513, -0.3603988673348706, -0.40084233808790326, -0.437436001833525, -0.47054190302808185, -0.500430536237987, -0.44835586821503437])","array('d', [0.0035458265338094096, -0.0011883851356308166, 0.0004712939802910755, -0.00010956808487296668, 9.36909840090919e-05, 2.2609697480760505e-05, 4.726662369388108e-05, 3.838740531954306e-05, 4.112871603770341e-05, 3.974426892586443e-05, 3.974046921888337e-05, 3.92697235868638e-05, 3.859155983275505e-05, 4.00466413412203e-05, 2.4760031021660725e-05, -0.004066742854145241])","array('d', [0.32455308834579977, 0.3032923029925937, 0.289384308484004, 0.2818447663773295, 0.2799437567409682, 0.28311704888263917, 0.2909123402416388, 0.3029551729865717, 0.3189265584957894, 0.3385478988595773, 0.3615706351991492, 0.3877690535948628, 0.41693523845777974, 0.4488753992407128, 0.4834048463356409, 0.5169618167806768])",-118.60122216925282,-166.35891823156157,-49.98195576574541,-0.08469363303775375,2.2609697480760505e-05,0.28311704888263917,14.99999985276681,-1.0,"[-171.68575676183872, -120.16501870592758, 50.00821073342872]","[-161.7267576474174, -109.61225728893125, 53.81052096734034]","[-156.99251477505265, -123.04026038194056, 49.09080939144972]",10000000000.0,0.03326082229614258
21,0.4865753650665283,-171.8140411376953,-120.2997055053711,50.06495666503906,0.24965539574623094,-0.012594326399266824,0.311586813130651,22.39436511087883,"array('d', [-120.63844299316406, -120.17963300683016, -119.74316248072103, -119.31965310945947, -118.90077591072917, -118.4790416084766, -118.04765897335419, -117.60043881423991, -117.13172947492279, -116.63637466479449, -116.1096874069147, -115.54743568630094, -114.94583652906496, -114.30155606772533, -113.6117148749499, -112.87539487243426])","array('d', [-173.1090545654297, -171.68097949026625, -170.2458972104264, -168.80692833224606, -167.36660168354192, -165.92711017112606, -164.49048442424507, -163.05871572506632, -161.63384469571056, -160.21802534682436, -158.81357042755351, -157.42298191488743, -156.0489692408212, -154.69445708193263, -153.36258343680367, -152.05583148417543])","array('d', [-49.99857711791992, -50.00159538924235, -50.000533299048044, -50.00090173667974, -50.0007691761276, -50.00081189207907, -50.000793353368344, -50.00079622207865, -50.0007916387693, -50.00078967825758, -50.00078681756409, -50.00078431389643, -50.00078148312657, -50.000779889133916, -50.000768209564555, -49.9976288826574])","array('d', [0.3401314020156858, 0.23302319402504684, 0.13610767111983857, 0.04841487215711684, -0.03093285981397749, -0.10272966115743523, -0.16769409503371213, -0.22647634165284222, -0.2796647021524424, -0.3277914775926261, -0.3713382696189522, -0.4107407054677674, -0.4463923647068752, -0.47864569773043997, -0.5077598977126357, -0.45487597321958806])","array('d', [0.006422454491257796, -0.0022533472269340776, 0.0007865153092359761, -0.000277514956093197, 9.456058917609138e-05, -3.543736189936844e-05, 9.961733371853524e-06, -5.87263742108636e-06, -3.308891750742701e-07, -2.251093632005665e-06, -1.574452118427505e-06, -1.760665046957181e-06, -2.0095429770301653e-06, -1.4685390340289333e-07, -1.5175201994022992e-05, -0.0041024163742189035])","array('d', [0.32111282745865377, 0.30188351022703597, 0.2897187411667781, 0.28371198952964094, 0.2831833004502369, 0.2876018242280565, 0.29653826554009466, 0.3096344335776187, 0.3265830993029092, 0.34711434645899164, 0.370986166711003, 0.39797790984162495, 0.4278856837139106, 0.46051898824653864, 0.49569577495086226, 0.5298268164316317])",-118.4790416084766,-165.92711017112606,-50.00081189207907,-0.10272966115743523,-3.543736189936844e-05,0.2876018242280565,14.99999985276447,-1.0,"[-170.8183279653999, -119.94738547287601, 50.05743106313661]","[-160.78709011588182, -109.26001280959517, 53.24401744397636]","[-156.14557314054034, -122.98284099048496, 49.35296271737666]",10000000000.0,0.027717113494873047
