,x_pos,y_pos,z_pos,roll,pitch,yaw,vel,x_traj,y_traj,z_traj,roll_traj,pitch_traj,yaw_traj,x_cmd,y_cmd,z_cmd,roll_cmd,pitch_cmd,yaw_cmd,vel_cmd,effector_dmg,effector_x,effector_y,effector_z,cost,time_solution
0,-134.92807006835938,-47.39820861816406,44.91807556152344,0.6298910975456237,0.03536078706383695,0.39554460445908124,23.150283936927202,"array('d', [-47.55061721801758, -46.99688055004052, -46.49281566129776, -46.02528870385391, -45.58307724514381, -45.15641355468558, -44.73670323760531, -44.31622779624747, -43.888007678793464, -43.44568747637967, -42.98346600165153, -42.496047513488485, -41.97861188520678, -41.42679730811865, -40.83669408883523, -40.20626715085211])","array('d', [-135.37014770507812, -133.9767520862539, -132.5640965085392, -131.13893867174545, -129.7057788546794, -128.26787187010746, -126.8279274325421, -125.38820251140181, -123.95076605431188, -122.51760955437527, -121.0907532288513, -119.67231342922572, -118.2645539895957, -116.86992030571344, -115.49105994005004, -114.13011138090278])","array('d', [-44.9189338684082, -44.88118056303452, -44.87192944613868, -44.88668004944065, -44.90809125018651, -44.92728746284377, -44.94732204941083, -44.967072038760016, -44.986880683812636, -45.006584240182285, -45.026203119702004, -45.04570106881621, -45.06506936354174, -45.084300060706525, -45.103377486052736, -45.118226938799246])","array('d', [0.629741311073303, 0.49507310014983996, 0.37322025314486806, 0.26296322830304414, 0.163198538841235, 0.0729277092274551, -0.008752717165273653, -0.08266021850119647, -0.14953447206588938, -0.21004474657509437, -0.2647965686841963, -0.3143376709128082, -0.35916295997470016, -0.39971583164602675, -0.43631865524850594, -0.3912142982055853])","array('d', [-0.035323768854141194, -0.015353280767794693, 0.0027167632947257235, 0.016717622178209896, 0.011911813419341423, 0.013654763109416147, 0.01306859241481518, 0.013262257220011748, 0.013151878830132399, 0.013120803852578642, 0.0130397995570315, 0.012959537162658408, 0.012867115253476844, 0.012776035932751843, 0.012663100360502432, 0.00722719858210384])","array('d', [0.3998990813877916, 0.35869174615421245, 0.328403902662756, 0.30691177997765035, 0.2928060918182408, 0.2850932513411138, 0.28303743786960756, 0.2860704979916082, 0.2937374356803815, 0.3056618935376456, 0.3215235097077811, 0.3410426630283827, 0.36396997922328134, 0.3900788696289602, 0.41915712687514267, 0.4478518341741852])",-45.15641355468558,-128.26787187010746,-44.92728746284377,0.0729277092274551,0.013654763109416147,0.2850932513411138,14.999999852363137,-1.0,"[-133.5447550686476, -46.8206037210801, 44.86504543388838]","[-124.45292024220267, -36.993654755917404, 51.63036978122983]","[-118.67687127136303, -48.058737824835724, 43.31164421991941]",10000000000.0,0.017177581787109375
1,-134.48558044433594,-47.2478141784668,44.91718292236328,0.6300434470176695,0.03528389707207672,0.3911914388325551,23.151388146532703,"array('d', [-47.39820861816406, -46.85055474430872, -46.35267212487143, -45.89139505785668, -45.45547970176128, -45.035142450815854, -44.621776122580506, -44.20765146505526, -43.785779182079175, -43.349794530740276, -42.893886926177245, -42.41275083902624, -41.90155572411483, -41.355928557937, -40.77194748484628, -40.14756728173123])","array('d', [-134.92807006835938, -133.53227400141708, -132.11742805085237, -130.69023552773237, -129.25514919859606, -127.81538087543326, -126.37360331658927, -124.93203963418577, -123.49272818318495, -122.05763243216535, -120.62874695091543, -119.20816460011558, -117.7981277768585, -116.40106243018685, -115.01959867512797, -113.65586584022536])","array('d', [-44.91807556152344, -44.88026943283899, -44.87097050488334, -44.88574581324419, -44.90722629170681, -44.92647830758937, -44.94657463023288, -44.96638448951662, -44.98625297504965, -45.006014890824474, -45.02569043702721, -45.045242808255445, -45.064662938374525, -45.08394255561133, -45.10306575578854, -45.11795697143042])","array('d', [0.6298910975456237, 0.49520863256313286, 0.37334288794714177, 0.26307419285523675, 0.16329894369696218, 0.07301855923887819, -0.0086705128106289, -0.08258583722798234, -0.14946716979432306, -0.20998385058219296, -0.2647414717812378, -0.3142878285129862, -0.35911789856580106, -0.39967524076927846, -0.43628463729718403, -0.3911839336151085])","array('d', [-0.03536078706383695, -0.015386776231368105, 0.00268645535273323, 0.016779339002309983, 0.011942986304481519, 0.0136978027298452, 0.013107936583205037, 0.01330272778323446, 0.0131912213719649, 0.013159294792150805, 0.013076893974600264, 0.01299503829215302, 0.012900764651214322, 0.012807652583538057, 0.012692557787128191, 0.0072534808175343775])","array('d', [0.39554460445908124, 0.35432419840654017, 0.3240260848321067, 0.30252549049766464, 0.28841256595121734, 0.28069338414173506, 0.2786319074895148, 0.28165983848301823, 0.289322082231902, 0.3012422117293778, 0.3170998150525761, 0.3366152344578096, 0.35953906914820527, 0.385644715623969, 0.4147200562121763, 0.44341225387079736])",-45.035142450815854,-127.81538087543326,-44.92647830758937,0.07301855923887819,0.0136978027298452,0.28069338414173506,14.999999852357751,-1.0,"[-133.5447550686476, -46.8206037210801, 44.86504543388838]","[-124.45292024220267, -36.993654755917404, 51.63036978122983]","[-118.67687127136303, -48.058737824835724, 43.31164421991941]",10000000000.0,0.014996051788330078
2,-134.48558044433594,-47.2478141784668,44.91718292236328,0.6300434470176695,0.03528389707207672,0.3911914388325551,23.151388146532703,"array('d', [-47.2478141784668, -46.70625033665781, -46.21455778503577, -45.7595383370815, -45.32992639808133, -44.915922883152454, -44.50890784786517, -44.10114145544293, -43.68562477549023, -43.2559838491715, -42.80639879727009, -42.331554399024164, -41.826609778526276, -41.2871807773411, -40.70933345158893, -40.091012475935926])","array('d', [-134.48558044433594, -133.08740729316378, -131.67039763799983, -130.24119841325006, -128.80421329056097, -127.36261176429828, -125.91902920066696, -124.47565493359501, -123.03449664052866, -121.5974897402769, -120.16660310750147, -118.74390606877031, -117.33161953470069, -115.93214995476391, -114.54810993711988, -113.18161959802336])","array('d', [-44.91718292236328, -44.879486512272415, -44.870286892001786, -44.88513040976641, -44.90666422448956, -44.92597695128214, -44.94613262833994, -44.96600253052116, -44.98593013340607, -45.0057499895148, -45.02548166248015, -45.04508793902278, -45.06455935665664, -45.08388733113129, -45.103055712689034, -45.117988112462434])","array('d', [0.6300434470176695, 0.49534648407479726, 0.3734676211567953, 0.26318705612552884, 0.16340106658487052, 0.07311096379201781, -0.008586901844503711, -0.0825101831913529, -0.14939871585863265, -0.20992191247108957, -0.26468543180008897, -0.31423713239370343, -0.3590720632898037, -0.3996339422754059, -0.436249836028102, -0.3911528697951773])","array('d', [-0.03528389707207672, -0.015317203284706928, 0.0027494075543443093, 0.016807910610686153, 0.01198530755993191, 0.013736496553879748, 0.013148360245209056, 0.01334238117176754, 0.013230405878272362, 0.013197388978949306, 0.013113664018815273, 0.013030175366238048, 0.012934047608510997, 0.012838885483071447, 0.01272160804751255, 0.007279397810796958])","array('d', [0.3911914388325551, 0.3499577358684019, 0.31964917520736613, 0.29813996359141537, 0.28401967849375453, 0.27629404669599467, 0.27422680992661325, 0.27724952406299536, 0.28490699363050226, 0.29682272080262734, 0.31267624271496536, 0.3321878643909038, 0.35510815798630235, 0.3812105045278232, 0.4102828700934836, 0.4389725003951925])",-44.915922883152454,-127.36261176429828,-44.92597695128214,0.07311096379201781,0.013736496553879748,0.27629404669599467,14.999999852352358,-1.0,"[-133.5447550686476, -46.8206037210801, 44.86504543388838]","[-124.45292024220267, -36.993654755917404, 51.63036978122983]","[-118.67687127136303, -48.058737824835724, 43.31164421991941]",10000000000.0,0.014613866806030273
3,-133.59927368164062,-46.953086853027344,44.91532897949219,0.6300573348999019,0.03522135317325575,0.38252826134232065,23.155679006472088,"array('d', [-46.953086853027344, -46.42365589224943, -45.94425970382358, -45.50164258063863, -45.08450069978582, -44.683007493853445, -44.288520499569856, -43.89328108527391, -43.49027312856566, -43.07310607429549, -42.63594314638763, -42.17345133807544, -41.68077065603039, -41.15349619119584, -40.587671345281265, -39.98122201638346])","array('d', [-133.59927368164062, -132.19645895454883, -130.7752416144053, -129.34215405732957, -127.90150141582123, -126.45636735850795, -125.00931279477652, -123.56245977674449, -122.11775527294768, -120.67707934870572, -119.2423503407529, -117.81559139882775, -116.39898136417881, -114.99488857134726, -113.60589144972887, -112.23409213617742])","array('d', [-44.91532897949219, -44.87772181691032, -44.86860297558523, -44.88354953130284, -44.905205121300874, -44.924637286650096, -44.944915564477114, -44.9649072818727, -44.98495550043215, -45.00489329267101, -45.02473930039837, -45.044455384434414, -45.06403134031484, -45.083457956895685, -45.10271851795876, -45.11773491150002])","array('d', [0.6300573348999019, 0.4953590503443756, 0.3734789915745121, 0.2631973444769124, 0.16341037581148718, 0.073119387005384, -0.008579280467757681, -0.08250328765269124, -0.1493924777876186, -0.20991627099835214, -0.2646803345861933, -0.314232540736064, -0.3590679765239286, -0.3996305685140785, -0.4362514583970392, -0.39115431803808587])","array('d', [-0.03522135317325575, -0.015260611220577239, 0.002800614172492791, 0.01689352268301173, 0.012062224660184924, 0.013818755082090657, 0.013229601238663917, 0.013423575582656718, 0.013310072141235849, 0.013275018675774583, 0.013188539880715456, 0.01310177670180038, 0.013001904870404037, 0.012902630605440864, 0.012780854072443323, 0.007332255817547959])","array('d', [0.38252826134232065, 0.3412933461355102, 0.3109838330755607, 0.28947383589351566, 0.2753528798100387, 0.26762666004651964, 0.2655588982155505, 0.26858113684053764, 0.27623817130690753, 0.28815349740650376, 0.3040066478290798, 0.3235179247917578, 0.3464379000949087, 0.3725399643699227, 0.4016122656707292, 0.4303020156594669])",-44.683007493853445,-126.45636735850795,-44.924637286650096,0.073119387005384,0.013818755082090657,0.26762666004651964,14.999999852341585,-1.0,"[-132.20855092699242, -46.39353332533247, 44.86250787246189]","[-122.96230621400255, -36.661744711170506, 51.55573198919177]","[-117.36677093705379, -47.789503729361556, 43.19732519139294]",10000000000.0,0.016277074813842773
4,-132.711181640625,-46.66673278808594,44.913108825683594,0.6283590793609616,0.0347343571484087,0.374249176183019,23.15390127977949,"array('d', [-46.808834075927734, -46.28531551925303, -45.81187298873297, -45.37522959548545, -44.96406774397261, -44.56855127924194, -44.1800296483009, -43.79073745021001, -43.39365220040156, -42.982377036728394, -42.55106857181998, -42.094386658521316, -41.60746346087505, -41.085885409435974, -40.52568632273218, -39.92478438813209])","array('d', [-133.15545654296875, -131.75042187313264, -130.3272094847844, -128.8922911137748, -127.44992118295913, -126.00314074328553, -124.55447397022527, -123.1060102977218, -121.65966752680221, -120.21729938697838, -118.78080035287726, -117.35217192281577, -115.93357333094121, -114.52735524285417, -113.13608031896922, -111.76184246305128])","array('d', [-44.91436004638672, -44.876850057373396, -44.86781916885086, -44.88283114914534, -44.904542110148334, -44.92403508162169, -44.94437325365138, -44.96442520533472, -44.98453270083193, -45.00452849435447, -45.024430660193914, -45.04420067463671, -45.06382797945631, -45.08330308559364, -45.10260914505419, -45.11766715249762])","array('d', [0.6297247409820554, 0.49505810689204177, 0.3732066866469902, 0.2629509527538486, 0.16318743131357213, 0.07291765840658462, -0.008761812188725283, -0.0826684494582197, -0.14954192296122226, -0.2100514959422276, -0.26480269453278826, -0.3143432658287328, -0.35916819515898446, -0.3997213940937724, -0.4363356726128706, -0.39122948826057163])","array('d', [-0.03515325486659996, -0.015198993320129492, 0.002856368351539029, 0.016925404041287617, 0.01210401370009965, 0.013858088663610244, 0.013270114239419276, 0.013463393713451916, 0.013349306744009326, 0.013313144468249561, 0.013225320583892627, 0.013136936478281949, 0.013035246523580133, 0.012933980360259351, 0.012810207169966743, 0.007358443611869151])","array('d', [0.37830109993484995, 0.33709521051226976, 0.306808503072884, 0.2853173175279696, 0.2712124298849514, 0.263500290934762, 0.2614451040068069, 0.2644787316628365, 0.27214618889441505, 0.28407112620726177, 0.29993318782569256, 0.3194527582420214, 0.34238047189375986, 0.36848977199957444, 0.3975689236274423, 0.42626488640121146])",-44.56855127924194,-126.00314074328553,-44.92403508162169,0.07291765840658462,0.013858088663610244,0.263500290934762,14.99999985233625,-1.0,"[-131.31585023197147, -46.11870287876329, 44.86101776586732]","[-121.97207531266199, -36.4385133550172, 51.493347751750065]","[-116.49177621943545, -47.621522931885735, 43.13232995171836]",10000000000.0,0.01857924461364746
5,-132.2664794921875,-46.52683639526367,44.91180419921875,0.6251303553581236,0.03391070291399939,0.37024541298416647,23.151595939390653,"array('d', [-46.66673278808594, -46.14881862622704, -45.68090684001415, -45.2497189629137, -44.84393750299221, -44.453728711742095, -44.07044240238079, -43.686313629659374, -43.29431955060273, -42.88806234487268, -42.46169691316354, -42.00988063288232, -41.527742387267516, -41.01086450884142, -40.45527587169771, -39.85889157273321])","array('d', [-132.711181640625, -131.30405489984602, -129.87901079835504, -128.4424447359944, -126.99855172432657, -125.55033163486195, -124.10027156873412, -122.65043080677445, -121.20270066853206, -119.75891191242654, -118.32093874886795, -116.89076480680833, -115.47053353781088, -114.06258172375114, -112.66945991247852, -111.29325599043808])","array('d', [-44.913108825683594, -44.87619659051097, -44.8677067327004, -44.88291559108852, -44.90462838330259, -44.92419278471642, -44.94457841885421, -44.96468580138917, -44.98484479872327, -45.00489169122369, -45.024842775894406, -45.04465969478432, -45.06433146023206, -45.083848439849824, -45.1031936322319, -45.11828733732552])","array('d', [0.6283590793609616, 0.4938224050423174, 0.3720885772691038, 0.2619392454484328, 0.16227200058140082, 0.07208934230296941, -0.009511303763818684, -0.08334661776304556, -0.15015555556747226, -0.21060673487773063, -0.2653050983667249, -0.3147978673966525, -0.35957956106808037, -0.4000937326234907, -0.43667423797206295, -0.39153169143917593])","array('d', [-0.0347343571484087, -0.014819958963407051, 0.0031993327829744774, 0.016851897168682912, 0.012177508468987597, 0.013880690701525759, 0.013310504085726437, 0.013497030937393953, 0.013384321837050274, 0.013346298463282462, 0.013257415127917024, 0.013167413624955538, 0.013064082677388374, 0.012961010361218434, 0.01283538955153012, 0.0073809059607243205])","array('d', [0.374249176183019, 0.33316234672779765, 0.3029692173020414, 0.2815552402072345, 0.26751631386791414, 0.25986198454817827, 0.25785842965780476, 0.26093882354919323, 0.2686490814696812, 0.28061348816924514, 0.2965121449401709, 0.31606577279974596, 0.33902525986753695, 0.3651642482559811, 0.39427122116455304, 0.4229921654143326])",-44.453728711742095,-125.55033163486195,-44.92419278471642,0.07208934230296941,0.013880690701525759,0.25986198454817827,14.999999852331056,-1.0,"[-131.31585023197147, -46.11870287876329, 44.86101776586732]","[-121.97207531266199, -36.4385133550172, 51.493347751750065]","[-116.49177621943545, -47.621522931885735, 43.13232995171836]",10000000000.0,0.01908731460571289
6,-132.2664794921875,-46.52683639526367,44.91180419921875,0.6251303553581236,0.03391070291399939,0.37024541298416647,23.151595939390653,"array('d', [-46.52683639526367, -46.014343083199606, -45.55157481738342, -45.125286370337776, -44.72418506394116, -44.33845970421301, -43.959475095036545, -43.57947898421086, -43.19145836499134, -42.789023469281744, -42.366335698401755, -41.91805772143793, -41.43932269061886, -40.925716347988974, -40.37327021675448, -39.77990401710125])","array('d', [-132.2664794921875, -130.85733731341392, -129.43060762708473, -127.99258179094025, -126.5473802915719, -125.09796057367888, -123.64677068829927, -122.19584200159782, -120.74704250118364, -119.30218438035185, -117.86312659469473, -116.43184036197651, -115.01045901673206, -113.60131117271224, -112.20694087472616, -110.82943349989753])","array('d', [-44.91180419921875, -44.8760673099394, -44.8686412526878, -44.884197893391395, -44.905849329024534, -44.92549587802947, -44.94591279283357, -44.966068037683876, -44.9862673614013, -45.00635505693749, -45.026344286777245, -45.04619753709162, -45.06590334626766, -45.08545213336967, -45.10482682356356, -45.11994733926553])","array('d', [0.6251303553581236, 0.490900934485462, 0.36944512114999595, 0.25954734721356293, 0.16010772134401707, 0.07013102124999895, -0.011283266171287417, -0.08494995597383938, -0.15160631649420428, -0.2119194386600716, -0.2664928841576916, -0.31587262643267, -0.36055206247626964, -0.40097377712159565, -0.4374717500658168, -0.3922435335624832])","array('d', [-0.03391070291399939, -0.014074685740282035, 0.0038736837953363616, 0.016655785311112923, 0.012286706407372248, 0.0138828180206373, 0.013349473534410747, 0.013522115283533833, 0.013412951721153758, 0.013372124274349825, 0.013282466962431579, 0.013190835123608165, 0.013086080478162383, 0.012981452094833694, 0.012854306940027838, 0.007397772144828378])","array('d', [0.37024541298416647, 0.3294392875297093, 0.29946698986994097, 0.27823533491775354, 0.2643522462267466, 0.25683454412552525, 0.2549530484343781, 0.25814402022291644, 0.2659554940664362, 0.27801324836220087, 0.29399846108280053, 0.31363264596361223, 0.3366672878694696, 0.36287649114075227, 0.3920491477627288, 0.42082896469639297])",-44.33845970421301,-125.09796057367888,-44.92549587802947,0.07013102124999895,0.0138828180206373,0.25683454412552525,14.999999852326024,-1.0,"[-130.8689255673925, -45.98438209911055, 44.86094789306983]","[-121.47802502784697, -36.316832563948694, 51.44497956382866]","[-116.05348206631571, -47.54824303607667, 43.112527795886905]",10000000000.0,0.0193328857421875
7,-131.37596130371094,-46.253902435302734,44.90928649902344,0.6110331416130063,0.03073406964540476,0.3624673644688464,23.13381313293329,"array('d', [-46.253902435302734, -45.75145329417078, -45.29734703265068, -44.87854380424361, -44.48390104464785, -44.103733654660466, -43.72949549070858, -43.35350908734191, -42.96882241014294, -42.56909837467125, -42.14854481131434, -41.701866658577444, -41.22423647115406, -40.71127755661133, -40.159057880062, -39.56553815262157])","array('d', [-131.37596130371094, -129.963091838067, -128.5335617628254, -127.093345194501, -125.64635948881762, -124.19547414915273, -122.74305282268404, -121.29108099207896, -119.84139362150448, -118.39578435963769, -116.95610264451315, -115.52431763039529, -114.10256598088604, -112.69318370138777, -111.29872509233105, -109.92128505854377])","array('d', [-44.90928649902344, -44.87808283406761, -44.874759628026354, -44.89157973935388, -44.912865733289664, -44.932713175778716, -44.95312720136148, -44.9733451007076, -44.99357823491421, -45.0137039616578, -45.033724109274175, -45.05360547978804, -45.07333555374273, -45.092905640284336, -45.11229891022323, -45.12743583315297])","array('d', [0.6110331416130063, 0.47814524684220483, 0.35790329662887643, 0.249103871560586, 0.15065807292499464, 0.06158062495955996, -0.019019985458399807, -0.09195042988958584, -0.15794060819163191, -0.2176509441597449, -0.27167896719524326, -0.32056519372275943, -0.3647980879026, -0.4048158013463513, -0.4409488496089316, -0.39534684441581147])","array('d', [-0.03073406964540476, -0.011200348903214813, 0.00647449080834397, 0.01579735163781999, 0.012637648537140445, 0.013806877070163334, 0.01341913277895595, 0.013536918031266092, 0.013442979729863915, 0.013392962405400253, 0.013302863566280767, 0.013207989496407509, 0.013101313984421435, 0.012994654146593829, 0.012865906682660633, 0.0074080715524421316])","array('d', [0.3624673644688464, 0.3228742673724322, 0.29385958490898584, 0.27342050207929336, 0.2602160708591617, 0.25329415508361786, 0.2519454429999032, 0.25561943503174706, 0.26387327171598596, 0.27633915842525886, 0.29270291188469755, 0.3126894651095056, 0.33605287875721684, 0.36256924565371773, 0.3920290501723637, 0.42106599721857324])",-44.103733654660466,-124.19547414915273,-44.932713175778716,0.06158062495955996,0.013806877070163334,0.25329415508361786,14.999999852316684,-1.0,"[-130.8689255673925, -45.98438209911054, 44.86094789306983]","[-121.47802502784697, -36.31683256394869, 51.44497956382866]","[-116.05348206631571, -47.54824303607666, 43.112527795886905]",10000000000.0,0.015407800674438477
8,-130.4843292236328,-45.990474700927734,44.90773010253906,0.5852060317993162,0.025341277942061376,0.35462410847214243,23.10332835525118,"array('d', [-46.1209716796875, -45.62329047479427, -45.17279976294747, -44.75663615717005, -44.36378754012589, -43.98467626272277, -43.610833209821486, -43.23464562549863, -42.84921493181716, -42.44825082750091, -42.02600311085553, -41.57721568168839, -41.09709819215184, -40.581310078166766, -40.02595508965481, -39.42903243763835])","array('d', [-130.93026733398438, -129.5156340512772, -128.08495324249355, -126.64397847427138, -125.19649880145622, -123.74533830788775, -122.29281462793044, -120.84089526939512, -119.39140578872653, -117.94614045019189, -116.50695522239204, -115.07583054797337, -113.65491756661002, -112.24656891772986, -110.85335673876298, -109.47738865350132])","array('d', [-44.90836715698242, -44.88059904459302, -44.88038507170294, -44.89814048808593, -44.919112722806354, -44.93907915354012, -44.959455540057355, -44.979685837212145, -44.9999095164664, -45.02002959860129, -45.04003954674868, -45.059909737091836, -45.079627068949414, -45.09918372521109, -45.11856311241617, -45.13368676599065])","array('d', [0.5996146202087401, 0.46781334048180884, 0.34855460030829377, 0.24064482055419, 0.14300400635982344, 0.05465493850208742, -0.025286606282833357, -0.0976207034167542, -0.16307128431693904, -0.22229337228433904, -0.2758796100555933, -0.32436609204246136, -0.3682372794404986, -0.4079276902998891, -0.44376442785546283, -0.39785941722887413])","array('d', [-0.02832676097750646, -0.00902212581077085, 0.0084454278959907, 0.015117749984676724, 0.012883419964143992, 0.013725231849299432, 0.013448732074653027, 0.013524550727293683, 0.013442540301040995, 0.013385984094314766, 0.013296235531194744, 0.013199736437496251, 0.013092584067014879, 0.012985482864687656, 0.012856568886216564, 0.0073996998305737305])","array('d', [0.3585724393513542, 0.31994734357776966, 0.29170069705248003, 0.2718995587772791, 0.2592428072224405, 0.252802619980116, 0.25188531103381806, 0.2559508264869271, 0.2645635098174146, 0.277360661176106, 0.2940317816363075, 0.31430452511530627, 0.33793500582609426, 0.3647009035655245, 0.3943939503263422, 0.42363964781247665])",-43.98467626272277,-123.74533830788775,-44.93907915354012,0.05465493850208742,0.013725231849299432,0.252802619980116,14.999999852312374,-1.0,"[-129.58435071163657, -45.61132457482161, 44.86552982147186]","[-120.06195202786913, -35.90137131887916, 51.19330439669153]","[-114.79296956735922, -47.397761197303616, 43.1266543116749]",10000000000.0,0.021481752395629883
9,-130.0420684814453,-45.863651275634766,44.9084587097168,0.5681365728378294,0.02198375575244414,0.3507051030781605,23.079664073350312,"array('d', [-45.990474700927734, -45.497467767952784, -45.05019513262649, -44.63601435605278, -44.24407953648632, -43.86494930249149, -43.49025264451062, -43.112459484795636, -42.72473996148094, -42.32086427933316, -41.895136898216386, -41.44235282675939, -40.95777072523742, -40.437098070380465, -39.876486485078594, -39.273986145123274])","array('d', [-130.4843292236328, -129.06797617104087, -127.63628652697327, -126.19475099196201, -124.74701643610307, -123.29586219681335, -121.84355754554622, -120.39205539744698, -118.94317660182227, -117.49872258318278, -116.06056330689313, -114.63069865366988, -113.21130270988724, -111.804753294368, -110.41364875854029, -109.04011460262846])","array('d', [-44.90773010253906, -44.88422287924578, -44.88786490014128, -44.90677027648286, -44.9273367701194, -44.94743579090757, -44.96774963603881, -44.987979649357236, -45.00817600669166, -45.02827380521713, -45.04825623109013, -45.068098218305835, -45.087786039654716, -45.10731304362127, -45.126663036737085, -45.14175913652181])","array('d', [0.5852060317993162, 0.45477590936847445, 0.33675784373561646, 0.2299706728323589, 0.13334563722613796, 0.045915683931011295, -0.03319421152027691, -0.10477580112233272, -0.16954548491149027, -0.2281514714180684, -0.2811802368150345, -0.32916229466722713, -0.3725770513480286, -0.41185441608305345, -0.4473166118814342, -0.40102889443287115])","array('d', [-0.025341277942061376, -0.006320748906327352, 0.010889733267696098, 0.014261861004427702, 0.013179054749921199, 0.013613199691524042, 0.013475059860915722, 0.013498714649416937, 0.013431693786891012, 0.013367248072550091, 0.01327825925165723, 0.013180132406450405, 0.013072839699822442, 0.012965688320792416, 0.012837161586698023, 0.007382332782951145])","array('d', [0.35462410847214243, 0.31720273912686203, 0.2899159131610661, 0.2709148477541191, 0.2589467420380512, 0.2531134331220123, 0.25274037479328704, 0.2573003489323234, 0.26636657283366727, 0.279582636892044, 0.29664260002153914, 0.31727748871157196, 0.34124596782405214, 0.3683276919158604, 0.39831592489422857, 0.4278256819787612])",-43.86494930249149,-123.29586219681335,-44.94743579090757,0.045915683931011295,0.013613199691524042,0.2531134331220123,14.999999852308292,-1.0,"[-129.078115247713, -45.469785103018815, 44.86972225391314]","[-119.50339297422462, -35.71260554266883, 51.04403520457043]","[-114.29649699513541, -47.36564554340021, 43.16400392263385]",10000000000.0,0.01683497428894043
10,-130.0420684814453,-45.863651275634766,44.9084587097168,0.5681365728378294,0.02198375575244414,0.3507051030781605,23.079664073350312,"array('d', [-45.863651275634766, -45.37513938588893, -44.93064412454043, -44.51777937953851, -44.12589588415163, -43.74571256829811, -43.368974523937744, -42.988249820311644, -42.59679069564479, -42.18844005952358, -41.757568467288166, -41.29903309246536, -40.8081525336006, -40.2806933040613, -39.712866097994336, -39.102783581318846])","array('d', [-130.0420684814453, -128.62407973632014, -127.19153832451374, -125.74963968751263, -124.30188329516524, -122.85100592866502, -121.39922827349424, -119.94849244164227, -118.50061953661621, -117.05742451731624, -115.62079845818677, -114.19276829837536, -112.77553890041695, -111.37152108260938, -109.98334700885468, -108.61316459289588])","array('d', [-44.9084587097168, -44.88974358049407, -44.89772208526062, -44.91791127223121, -44.93800556535975, -44.958239182201055, -44.97846722011867, -44.9986814673091, -45.01883157144643, -45.03888893736813, -45.05882530095952, -45.07862085210219, -45.09826126141444, -45.11774128036723, -45.13704522239361, -45.15209835283628])","array('d', [0.5681365728378294, 0.43933082279770874, 0.32278255021930213, 0.21732530319131962, 0.12190363258415704, 0.03556252907610495, -0.04256213423334612, -0.11325224879137888, -0.17721529238565015, -0.2350914002015025, -0.2874597428467029, -0.33484422174224987, -0.3777182522513846, -0.41650626711224, -0.4515244027893672, -0.40478271111722086])","array('d', [-0.02198375575244414, -0.003282737080846103, 0.013638635700148043, 0.013286960141840004, 0.013502634553015471, 0.013476771159825533, 0.013494468627009159, 0.013459264355649099, 0.013409184953114531, 0.013335987928253471, 0.013248079557984096, 0.013148417540999656, 0.013041329666865097, 0.012934540333829259, 0.012806888431991943, 0.007355257150669493])","array('d', [0.3507051030781605, 0.31468530651988763, 0.2885226680034347, 0.2704626468182338, 0.2593070269599362, 0.2541913676446236, 0.25446299159196695, 0.25960940316667913, 0.26921402941876804, 0.2829277170666452, 0.3004497956113809, 0.3215152010011118, 0.345885562531728, 0.37334283600428725, 0.40368206232728643, 0.43350563181329677])",-43.74571256829811,-122.85100592866502,-44.958239182201055,0.03556252907610495,0.013476771159825533,0.2541913676446236,14.999999852304471,-1.0,"[-129.078115247713, -45.469785103018815, 44.86972225391314]","[-119.50339297422462, -35.71260554266883, 51.04403520457043]","[-114.29649699513541, -47.36564554340021, 43.16400392263385]",10000000000.0,0.014508247375488281
11,-129.156982421875,-45.61732482910156,44.9131965637207,0.5269244909286498,0.014403037726878943,0.34275670448807277,23.016853557927412,"array('d', [-45.61732482910156, -45.137637868214114, -44.69787471823367, -44.286245245192575, -43.89257171102546, -43.50793917788167, -43.124371467282515, -42.73467004719828, -42.332285739514845, -41.911238385156274, -41.46606099373709, -40.991764655118075, -40.48381738751225, -39.938133651381094, -39.35107280072869, -38.72090405818766])","array('d', [-129.156982421875, -127.73586590742168, -126.30190824488291, -124.85967286224589, -123.41239212359714, -121.96268839734982, -120.51269836822406, -119.0643480840985, -117.61947346154324, -116.17993213307932, -114.74767551043179, -113.32480371519743, -111.91360275610401, -110.51656888382487, -109.13642063420178, -107.77536131773867])","array('d', [-44.9131965637207, -44.905301818594616, -44.92063821322675, -44.942216088214884, -44.961753885556156, -44.982091341601716, -45.00217302361646, -45.02231177478657, -45.04234783848766, -45.06229392102556, -45.08211052300294, -45.101784964002675, -45.121303542150855, -45.14066386172091, -45.159851747156594, -45.174797080136436])","array('d', [0.5269244909286498, 0.4020405856394413, 0.28904094526496205, 0.1867946337363932, 0.09427833799439525, 0.010566126648878718, -0.06517981637216821, -0.13371757542552273, -0.1957330865728765, -0.2518469927317507, -0.302620825597117, -0.34856252056780007, -0.3901310205268076, -0.4277374806517982, -0.46168183654719924, -0.4138413695238557])","array('d', [-0.014403037726878943, 0.003576580239083499, 0.01665428504547539, 0.012191676802946118, 0.013832094070008231, 0.01329431665174366, 0.013478979041784975, 0.013375226996022869, 0.013340892101248211, 0.013256083447712548, 0.01316828601365974, 0.013066748208619828, 0.01296052911401027, 0.01285569570344586, 0.012730930047470081, 0.007287343928796192])","array('d', [0.34275670448807277, 0.3100199508778474, 0.2865181850313901, 0.2707023075388101, 0.26149493882082653, 0.25810715245891375, 0.25993567493436326, 0.26650150014619944, 0.277411410153736, 0.2923329310438596, 0.31097756206011645, 0.33308930780804286, 0.3584367088862076, 0.3868071147539905, 0.4179996883516731, 0.44858542212629265])",-43.50793917788167,-121.96268839734982,-44.982091341601716,0.010566126648878718,0.01329431665174366,0.25810715245891375,14.999999852297336,-1.0,"[-128.63371281735542, -45.34843568369766, 44.87548573213164]","[-119.01307295038546, -35.535767686112095, 50.88837483132752]","[-113.86091703101444, -47.34878547157073, 43.21322661237252]",10000000000.0,0.014468193054199219
12,-128.2720184326172,-45.38053512573242,44.923675537109375,0.4781939983367918,0.006188412196934048,0.3348102132466177,22.93419225993997,"array('d', [-45.49776840209961, -45.02241248269223, -44.58467427562727, -44.17309740594565, -43.77776983891877, -43.38996858096776, -43.0018757832144, -42.606423195853615, -42.19717492542334, -41.76825223132567, -41.31428221976322, -40.83036572416009, -40.31205842443217, -39.7553619547022, -39.156723517548485, -38.51450452646574])","array('d', [-128.7144012451172, -127.29180118252003, -125.85723204780138, -124.41496905125251, -122.96814032845506, -121.51927903637437, -120.07049354747915, -118.62370281385023, -117.18075765004026, -115.74354366997812, -114.31405034664185, -112.89442238473761, -111.48699448442775, -110.09431351605458, -108.71914870722911, -107.36373492723548])","array('d', [-44.91770553588867, -44.915599819189055, -44.93265177962028, -44.95360230469937, -44.9733216292144, -44.993545202899995, -45.01360568508901, -45.03368160191115, -45.05366187784181, -45.07354403175239, -45.09329574474271, -45.11290369571513, -45.13235621050926, -45.15165193416934, -45.170777614529094, -45.18566526797641])","array('d', [0.5033735036849973, 0.38073076922287075, 0.2697590242590096, 0.16934762854850693, 0.07849163345717632, -0.0037182755781446897, -0.07810487908520183, -0.145412656654621, -0.20631523413285155, -0.2614221153726222, -0.3112847520315141, -0.3564019551788601, -0.3972243959753212, -0.4341556414737964, -0.4674870407215658, -0.41901665690185136])","array('d', [-0.010347417555749267, 0.00724625689231525, 0.015354972937276818, 0.012625510659811675, 0.013650580617112166, 0.013320507942214073, 0.013425842112834433, 0.013344208284791497, 0.013297723190342479, 0.013213988755022499, 0.013123892873024744, 0.013022478321896326, 0.012916699746894193, 0.012813365038590244, 0.012690285713479786, 0.0072510064245022935])","array('d', [0.3387618819859364, 0.30784276007988703, 0.28583058612702594, 0.27128109836506914, 0.26317962357376834, 0.2607769173702125, 0.2634959185365301, 0.2708755249262477, 0.2825350824306678, 0.2981511386750702, 0.3174418093557098, 0.34015605611302335, 0.36606622000037975, 0.3949626365097304, 0.4266467909243384, 0.4576711258709239])",-43.38996858096776,-121.51927903637437,-44.993545202899995,-0.0037182755781446897,0.013320507942214073,0.2607769173702125,14.999999852293977,-1.0,"[-127.29972672361288, -44.99931569477263, 44.90218468652561]","[-117.54054952315445, -34.972793328672, 50.30841346564107]","[-112.5560224498847, -47.34056214889982, 43.43871301618615]",10000000000.0,0.014597177505493164
13,-127.82996368408203,-45.26554489135742,44.931610107421875,0.4516844153404236,0.0020619807764887415,0.3308923999455314,22.88375571826974,"array('d', [-45.38053512573242, -44.909401271644384, -44.47345098820788, -44.06157315552585, -43.66413078448368, -43.27260073323643, -42.879331184497374, -42.47739159872659, -42.06046671213049, -41.62278653097987, -41.15907967300137, -40.66454428052977, -40.13483146096166, -39.56603801478342, -38.95470724875332, -38.299301303898176])","array('d', [-128.2720184326172, -126.8480096262533, -125.41290993835011, -123.97072065523999, -122.52447264779747, -121.07661252467446, -119.62922363883105, -118.18422151262374, -116.74347603273556, -115.30890528132123, -113.8825414676118, -112.46657859328498, -111.06340466944971, -109.6756215837259, -108.30605330790254, -106.95696800459801])","array('d', [-44.923675537109375, -44.92750645993881, -44.94631316110275, -44.966612196804704, -44.98650990508004, -45.00660847280594, -45.02663883136387, -45.04664185890925, -45.06655649409993, -45.08636478526173, -45.10604186233909, -45.12557383194793, -45.14495119053468, -45.164173708118206, -45.1832296244044, -45.1980531844298])","array('d', [0.4781939983367918, 0.3579474085561911, 0.2491437851582995, 0.15069418715045, 0.06161330019875067, -0.0189904244010089, -0.09192369194158814, -0.15791643648733847, -0.21762912241001556, -0.27165934417492094, -0.3205477761555614, -0.36478347332572925, -0.40480825917675023, -0.4410175562762299, -0.47369241741635587, -0.42454706839336415])","array('d', [-0.006188412196934048, 0.011009479653880527, 0.01401662347874379, 0.013065452345907906, 0.01345903811972166, 0.013341809989488196, 0.01336572977903002, 0.013306748350583134, 0.013247861288209081, 0.013165338163686244, 0.013073056776014067, 0.012971991484050071, 0.012866957492093923, 0.012765460488894303, 0.012645118303239038, 0.0072106316518446775])","array('d', [0.3348102132466177, 0.30579189086015873, 0.2853497894876409, 0.2721427698946647, 0.26521857950297384, 0.2638678319584562, 0.2675399780523364, 0.2757921245160734, 0.28825645376026776, 0.3046187684037915, 0.324603998754966, 0.34796623344467026, 0.37448176277239836, 0.4039440404024923, 0.4361569402029024, 0.46765258740185756])",-43.27260073323643,-121.07661252467446,-45.00660847280594,-0.0189904244010089,0.013341809989488196,0.2638678319584562,14.99999985229074,-1.0,"[-126.97118076580881, -44.91678143825381, 44.911195875232174]","[-117.1783899375399, -34.8305404482948, 50.142733936476034]","[-112.23522301324333, -47.34418707192762, 43.511463399287635]",10000000000.0,0.015856266021728516
14,-127.82996368408203,-45.26554489135742,44.931610107421875,0.4516844153404236,0.0020619807764887415,0.3308923999455314,22.88375571826974,"array('d', [-45.26554489135742, -44.798556633527866, -44.36422336283786, -43.95178469031179, -43.551883171929845, -43.156200280787445, -42.757255423731706, -42.34826129684192, -41.923029065163476, -41.47590352591159, -41.0017211042804, -40.495783802049374, -39.953844959655314, -39.372103594689705, -38.74720640681991, -38.07772376899589])","array('d', [-127.82996368408203, -126.40460979319619, -124.96903911834127, -123.52699869910244, -122.08143000704256, -120.63469729583315, -119.1888623764899, -117.74584099146503, -116.30752587383856, -114.87587147714393, -113.45295667507112, -112.04102862777567, -110.6425323482328, -109.26012816471247, -107.89669784968837, -106.55454388408293])","array('d', [-44.931610107421875, -44.94133111805171, -44.9618731751067, -44.98151580075451, -45.00158089895554, -45.02154519815175, -45.04153516505635, -45.0614551948173, -45.08129396910783, -45.10101830893429, -45.120610840011146, -45.14005720189528, -45.15935013508799, -45.17849060074036, -45.197468416331766, -45.21222025739372])","array('d', [0.4516844153404236, 0.3339605437556464, 0.22743957038609747, 0.13105539972882327, 0.04384338890924177, -0.03506930645656972, -0.10647246726880784, -0.17108071370896244, -0.2295406534166477, -0.28243734231639595, -0.3303001080262286, -0.3736077334337804, -0.41279272411112083, -0.448241908213666, -0.4802250698873654, -0.4303672734058331])","array('d', [-0.0020619807764887415, 0.014743224799184843, 0.012681440618342574, 0.013495889842821318, 0.0132622699264304, 0.013356018000376356, 0.013299011452618288, 0.013262419657009254, 0.013191238327020459, 0.013109994941367935, 0.013015695995185511, 0.012915189670936047, 0.012811165907449986, 0.012711804920225517, 0.012594579254096029, 0.007165451212974515])","array('d', [0.3308923999455314, 0.3038316894406994, 0.28501956065881856, 0.27321436464279936, 0.2675248091025303, 0.2672807941416149, 0.27195809020831646, 0.28113198473401035, 0.2944475386688727, 0.3115998804338641, 0.33232083674557944, 0.35636970890519226, 0.38352682353693973, 0.41358883930291923, 0.4463620775605723, 0.4783567149790062])",-43.156200280787445,-120.63469729583315,-45.02154519815175,-0.03506930645656972,0.013356018000376356,0.2672807941416149,14.999999852287607,-1.0,"[-126.41133751359611, -44.778215206282326, 44.9285171384489]","[-116.56232291782918, -34.59039766598216, 49.8484038503481]","[-111.68902606707825, -47.34960512993993, 43.647306955753955]",10000000000.0,0.022007465362548828
15,-126.50755310058594,-44.93288040161133,44.96870422363281,0.3664994835853575,-0.009867401793599325,0.31954772869614173,22.706461637300215,"array('d', [-45.0418701171875, -44.58287776694574, -44.151305826743375, -43.73710715293224, -43.331460017246634, -42.926467096877914, -42.514996392470636, -42.0905591079958, -41.647232021827946, -41.179604151897614, -40.682743270018754, -40.1521759495389, -39.58387775595519, -38.974270695573985, -38.320227533280445, -37.62055488711609])","array('d', [-126.94757843017578, -125.51966380679116, -124.08325834977818, -122.64171555288186, -121.19774641238529, -119.75359062849397, -118.31127023140853, -116.87271591605052, -115.43987587248816, -114.01478816654259, -112.59963489490308, -111.19677898786071, -109.80878803822404, -108.43844683327886, -107.08875906621358, -105.76209652229106])","array('d', [-44.95401382446289, -44.97033268838276, -44.99122303002405, -45.010647875240664, -45.030663309272036, -45.05049188398915, -45.070352396835524, -45.09012102975213, -45.10980071223102, -45.129357876881954, -45.148779907487864, -45.16805532153217, -45.187180252803714, -45.206158489730306, -45.22498342961894, -45.23959601170191])","array('d', [0.39563044905662514, 0.28324081304630805, 0.18154645606434475, 0.08952958892477007, 0.0062692781283075405, -0.06906777080647993, -0.13723555249203837, -0.19891630619547254, -0.2547273397095636, -0.30522719625151684, -0.35092121022378403, -0.3922664416010261, -0.4296756799003473, -0.4635174761061188, -0.4940344634297761, -0.44266375420697684])","array('d', [0.006030196789652255, 0.0155696628350048, 0.012338933961179343, 0.01354152384391191, 0.013152995411132346, 0.013283694217192984, 0.013199173586831954, 0.013160413564737624, 0.01308123697340072, 0.012997124805962313, 0.01290123940653587, 0.012801681003181067, 0.012700604477708231, 0.012605965156430936, 0.012496440123572147, 0.007077728766412896])","array('d', [0.32322688499954744, 0.3001754428646638, 0.2847416577606489, 0.275867472331367, 0.2727761504719665, 0.2748724522122266, 0.2816828485902616, 0.2928179596298499, 0.307948064507091, 0.32678668156654034, 0.349079334213335, 0.3745957579108434, 0.40312443094165845, 0.4344685452582854, 0.4684393020477411, 0.501498545156781])",-42.926467096877914,-119.75359062849397,-45.05049188398915,-0.06906777080647993,0.013283694217192984,0.2748724522122266,14.999999852281581,-1.0,"[-126.41133751359611, -44.778215206282326, 44.9285171384489]","[-116.56232291782918, -34.59039766598216, 49.8484038503481]","[-111.68902606707825, -47.34960512993993, 43.647306955753955]",10000000000.0,0.01538705825805664
16,-126.50755310058594,-44.93288040161133,44.96870422363281,0.3664994835853575,-0.009867401793599325,0.31954772869614173,22.706461637300215,"array('d', [-44.93288040161133, -44.47766011006114, -44.04719573205205, -43.631790244858955, -43.222878567484834, -42.81277499444298, -42.394522945599775, -41.9617867259066, -41.5087807621624, -41.03022214021569, -40.52130101714476, -39.977663621342245, -39.39540451188184, -38.77106547915976, -38.10164089331652, -37.38606404398609])","array('d', [-126.50755310058594, -125.07844231369951, -123.6416911073747, -122.20049629457829, -120.75744590751599, -119.31473295799388, -117.87436431500892, -116.43828508504247, -115.00847634831126, -113.58702301639715, -112.17616322138967, -110.77832174240389, -109.3961308503948, -108.03244033595254, -106.69031693941801, -105.37216663046392])","array('d', [-44.96870422363281, -44.98681052703948, -45.007032579236785, -45.02663378223412, -45.046514320978346, -45.06630311312169, -45.086078676680586, -45.10576841950378, -45.12535971654111, -45.14482684982534, -45.164156881956984, -45.18334080480174, -45.20237615032241, -45.2212683488518, -45.24001221498423, -45.254550731249125])","array('d', [0.3664994835853575, 0.2568820230803517, 0.1576960344549418, 0.06794883307396803, -0.013257799018555965, -0.08673660241761501, -0.15322297377953606, -0.21338232416603198, -0.2678167343643183, -0.31707096899732584, -0.36163789306477173, -0.40196327635090356, -0.43844965847581086, -0.4714560801754883, -0.5012121506472101, -0.44905131506155216])","array('d', [0.009867401793599325, 0.014202621451345225, 0.012784589743841312, 0.013341796716138304, 0.01316924322001019, 0.01321580195769306, 0.013153420905697393, 0.013101194993212729, 0.01302258867669949, 0.012935766333482023, 0.01283992232022371, 0.012740989363561822, 0.012641807183174715, 0.012549988395312276, 0.012444246950824979, 0.007031070358151356])","array('d', [0.31954772869614173, 0.2985188838269942, 0.2848092679464299, 0.27744373426266505, 0.2756982351632492, 0.279012447549727, 0.2869367534744695, 0.29909858806217693, 0.3151803276150977, 0.3349043789812435, 0.3580229380673435, 0.3843108683985012, 0.4135606949512236, 0.44557888871944257, 0.48017916280910206, 0.5137971628567731])",-42.81277499444298,-119.31473295799388,-45.06630311312169,-0.08673660241761501,0.01321580195769306,0.279012447549727,14.99999985227868,-1.0,"[-125.08355604194033, -44.46169751627087, 44.98350508613796]","[-115.10729419162848, -34.03977342163388, 49.08931775352034]","[-110.39546533822387, -47.351340255803976, 44.02958878097187]",10000000000.0,0.015435457229614258
17,-125.63446044921875,-44.72035217285156,45.0063362121582,0.30679175257682795,-0.016529541462659933,0.31240792671707657,22.567172658721855,"array('d', [-44.8255615234375, -44.37403217149646, -43.944584392246895, -43.527860224198186, -43.11554616097758, -42.700165660320266, -42.27493737657895, -41.83367992821252, -41.37074766283891, -40.88098878048517, -40.35971946684458, -39.802709704775445, -39.20617749119229, -38.566789094656684, -37.88166540686714, -37.1498714233078])","array('d', [-126.0684814453125, -124.63821509534897, -123.20114800899255, -121.76033461289585, -120.3182505983743, -118.8770480316621, -117.43872346559648, -116.00524011973872, -114.57861513164298, -113.1609829164792, -111.75463988364946, -110.36207448438856, -108.98598506767485, -107.62928738355717, -106.29511167934442, -104.98589702189665])","array('d', [-44.98532485961914, -45.00505521536011, -45.0246561895539, -45.044406559499485, -45.064151130093975, -45.08388991973173, -45.10357366336551, -45.123176695161526, -45.14267241631774, -45.162042464499336, -45.18127380138926, -45.200359853148214, -45.21929959307356, -45.238100100957965, -45.256757641038874, -45.27121731469197])","array('d', [0.33688235282897944, 0.23008333253317523, 0.1334475743034068, 0.04600791702415254, -0.03311076261811693, -0.10470030830753875, -0.16947720835949764, -0.22808976477251464, -0.28112457716776096, -0.32911240150470394, -0.37253342486826957, -0.4118219367875735, -0.44737004747783027, -0.4795270571630207, -0.50850662768161, -0.4555399766123971])","array('d', [0.013367296196520486, 0.012947605183686477, 0.013183830513816637, 0.01315129998312447, 0.013175156722457339, 0.0131445007530334, 0.01310195407168672, 0.013037245443375893, 0.012959085453740112, 0.012869852123797865, 0.012774228327261898, 0.012676163473762103, 0.012579113167482416, 0.01249036730530108, 0.01238868989932552, 0.006981400630303691])","array('d', [0.315931395688329, 0.29692191381246036, 0.28494655365758964, 0.27910684516936146, 0.27872804358245157, 0.28328279763407666, 0.2923442330006439, 0.30555587639654475, 0.3226117440603377, 0.3432428414046308, 0.36720785639769565, 0.39428667450651345, 0.42427581291620814, 0.45698500060391206, 0.4922303401048681, 0.5264200914826301])",-42.700165660320266,-118.8770480316621,-45.08388991973173,-0.10470030830753875,0.0131445007530334,0.28328279763407666,14.999999852275828,-1.0,"[-125.08355604194033, -44.46169751627087, 44.98350508613796]","[-115.10729419162848, -34.03977342163388, 49.08931775352034]","[-110.39546533822387, -47.351340255803976, 44.02958878097187]",10000000000.0,0.01817607879638672
18,-125.63446044921875,-44.72035217285156,45.0063362121582,0.30679175257682795,-0.016529541462659933,0.31240792671707657,22.567172658721855,"array('d', [-44.72035217285156, -44.27238769150693, -43.843819220778734, -43.42561714186397, -43.009714794563855, -42.58884263274138, -42.15639462041641, -41.70634516211737, -41.23319107078053, -40.73191499316612, -40.197963085957426, -39.62723349360814, -39.01607240663322, -38.361275575556405, -37.6600956112353, -36.911734423352776])","array('d', [-125.63446044921875, -124.20309097210662, -122.76575116840034, -121.32536655953763, -119.88431134686451, -118.44470279320676, -117.00853237015856, -115.57778546341343, -114.15451873149608, -112.74091899005711, -111.33934334787136, -109.95234587392414, -108.58269246135363, -107.23336578864631, -105.90756004107439, -104.60774618630381])","array('d', [-45.0063362121582, -45.02752008565372, -45.04653598848559, -45.06639855748247, -45.085995798092085, -45.10566430197646, -45.125239282952855, -45.1447378122084, -45.16412087898872, -45.18337700466075, -45.202493272358545, -45.22146550671652, -45.24029416459344, -45.258987979180446, -45.277544690283314, -45.29191203477696])","array('d', [0.30679175257682795, 0.2028562290309281, 0.10881147004439316, 0.02371624604904287, -0.05328110242710274, -0.12295118809115102, -0.18599128863894318, -0.24303232348377793, -0.2946451635598406, -0.34134633210548165, -0.3836031352286496, -0.42183819712397125, -0.456433024171485, -0.4877269618842114, -0.5159158917302578, -0.46212768428213663])","array('d', [0.016529541462659933, 0.011795561227446912, 0.013530712725368344, 0.012962958504361428, 0.013164084170626497, 0.013063025349834802, 0.013038106116032584, 0.012961936041653395, 0.012884169835108705, 0.012792892567005873, 0.012697741865197384, 0.012600861428607757, 0.012506253334634775, 0.012420901675309421, 0.012323633004095856, 0.006923231197023989])","array('d', [0.31240792671707657, 0.2954161552306714, 0.28518607843114346, 0.28089004834536585, 0.2818993824679522, 0.2877178102047242, 0.29794005109833654, 0.3122250036542686, 0.3302778659765077, 0.35183795050048355, 0.3766702559858007, 0.4045595841041278, 0.43530639135048055, 0.46872364661805027, 0.504629767497805, 0.5394043877910363])",-42.58884263274138,-118.44470279320676,-45.10566430197646,-0.12295118809115102,0.013063025349834802,0.2877178102047242,14.99999985227307,-1.0,"[-124.2072610688899, -44.25938880461177, 45.03112939529356]","[-114.15216871378698, -33.69967993958791, 48.55074108073377]","[-109.54253503138905, -47.33014889674604, 44.312629081027865]",10000000000.0,0.015880823135375977
19,-124.76966094970703,-44.51344299316406,45.0550651550293,0.2456644326448439,-0.021735120564699267,0.3054743568089345,22.41615950521281,"array('d', [-44.51344299316406, -44.072478403780806, -43.6455371996179, -43.22421057471589, -42.800909133608464, -42.36876869807199, -41.92153228020075, -41.45348865722634, -40.95942574719602, -40.43460370501038, -39.87473909297835, -39.2759981993023, -38.634996386658734, -37.94880178415621, -37.214944423926276, -36.43291423289997])","array('d', [-124.76966094970703, -123.33615621388222, -121.89831615966938, -120.45884321159257, -119.01994088351691, -117.58367459988172, -116.15204071347623, -114.72708007649136, -113.31093750856519, -111.90591180318889, -110.51448703370576, -109.13935249734821, -107.78341163435823, -106.44978189678237, -105.1417845646784, -103.86194901841603])","array('d', [-45.0550651550293, -45.07861302973321, -45.09661463948019, -45.11661150313003, -45.13591060341139, -45.155405181808234, -45.17474054712096, -45.19400504150458, -45.213139964374655, -45.232145925458966, -45.25101091541549, -45.26973537099171, -45.28832281143126, -45.30678525528664, -45.325123558728464, -45.339291030563615])","array('d', [0.2456644326448439, 0.14754593768810437, 0.05876464431297436, -0.02156799860481783, -0.09425598509456987, -0.16002679835354855, -0.21953869079901345, -0.27338727008524644, -0.32211145509947814, -0.3661988557031306, -0.40609060949197756, -0.4421856367236989, -0.4748438683833588, -0.5043841364293115, -0.5309553066380694, -0.4754893886195113])","array('d', [0.021735120564699267, 0.009861596032195647, 0.014070924484011782, 0.012616613625017996, 0.013108032734209872, 0.012889122410088272, 0.012892030410303623, 0.012796266071318275, 0.012718946529458784, 0.012624587366352719, 0.01253095784378203, 0.01243719563524508, 0.012348177605962402, 0.012270334180648743, 0.012182805779380305, 0.006797300549162952])","array('d', [0.3054743568089345, 0.2924928245152047, 0.28576686733673795, 0.28459357680096214, 0.2884267305633787, 0.296826417232338, 0.30942692775318137, 0.3259155902295867, 0.34601846484912907, 0.3694905043103228, 0.39610871063049113, 0.4256673458566574, 0.4579745460302368, 0.49284967046896655, 0.5301152319531659, 0.5660901954933023])",-42.36876869807199,-117.58367459988172,-45.155405181808234,-0.16002679835354855,0.012889122410088272,0.296826417232338,14.99999985226765,-1.0,"[-124.2072610688899, -44.25938880461177, 45.03112939529356]","[-114.15216871378698, -33.69967993958791, 48.55074108073377]","[-109.54253503138905, -47.33014889674604, 44.312629081027865]",10000000000.0,0.015500068664550781
20,-123.9098892211914,-44.309837341308594,45.111995697021484,0.18434230983257283,-0.025377448648214437,0.29873283306625864,22.260464842752747,"array('d', [-44.41132736206055, -43.97379007091534, -43.54761153894252, -43.12467372339428, -42.69761631617095, -42.25977226581539, -41.80505718482797, -41.32791737546438, -40.82328839370046, -40.28657248078767, -39.71362565890378, -39.100753198775934, -38.4447103972968, -37.742707174680284, -36.99241797121095, -36.1934820977512])","array('d', [-124.33910369873047, -122.90456601237277, -121.46649366912365, -120.02749355982164, -118.5897003340343, -117.15516264219008, -115.72588686057377, -114.30394696957015, -112.8915360517744, -111.49101192715345, -110.10492424382872, -108.73603111357374, -107.3873051110291, -106.06193062484428, -104.76329122983047, -103.49394241392737])","array('d', [-45.08256149291992, -45.1070130926512, -45.124588539043074, -45.14460743211641, -45.16375689123702, -45.18314874950475, -45.20235440669336, -45.22149055059743, -45.2404912351478, -45.2593622310735, -45.27809229595753, -45.29668405150378, -45.31514255999034, -45.33348144596963, -45.3517028539119, -45.36576306935231])","array('d', [0.21496428549289684, 0.11976729329179513, 0.033629485168439374, -0.044311233157537, -0.11483491656536654, -0.17864738719626508, -0.2363872976890209, -0.2886325209623975, -0.33590592849415524, -0.3786806087379977, -0.41738455597854923, -0.45240478291931197, -0.4840903713764915, -0.5127497643555795, -0.5385084466295795, -0.4821944960179506])","array('d', [0.023763624951243522, 0.00908511501890935, 0.014262998738832734, 0.012459737017038577, 0.013063497456468528, 0.01279747200557257, 0.012810552673778543, 0.012706730238666778, 0.012629482277004996, 0.012534100782398812, 0.0124415128263017, 0.012349661707980512, 0.012263737541546424, 0.012189950348466906, 0.012107237049372204, 0.006729720916562876])","array('d', [0.30207665363815817, 0.29107235206522214, 0.28609054203288553, 0.2864825355173621, 0.2917385294138615, 0.3014438223635481, 0.31525059509487335, 0.33285915162780433, 0.3540051638158084, 0.37845086303079684, 0.40597890135435566, 0.436388052281827, 0.46949016674155586, 0.5051077369204267, 0.5430652920297697, 0.5796499605129636])",-42.25977226581539,-117.15516264219008,-45.18314874950475,-0.17864738719626508,0.01279747200557257,0.3014438223635481,14.999999852264969,-1.0,"[-123.33944224621644, -44.06243113881991, 45.087665268935204]","[-113.20844421603206, -33.38846251301064, 47.99098624458352]","[-108.69832567259053, -47.28836169207567, 44.60696001301675]",10000000000.0,0.016311168670654297
21,-123.4820785522461,-44.20881652832031,45.143131256103516,0.1538981944322585,-0.026583919301629188,0.29542894760635885,22.181089819074785,"array('d', [-44.309837341308594, -43.87567125609519, -43.450223201978005, -43.02565251233936, -42.59482140172323, -42.151255914998224, -41.6890426323053, -41.20278522693654, -40.68756788994347, -40.13893675634713, -39.55288970643748, -38.92587379422115, -38.254787304764605, -37.53698513355803, -36.770289544803624, -35.95449287672823])","array('d', [-123.9098892211914, -122.47434185083249, -121.03604840159436, -119.59752937735392, -118.16086154681098, -116.72808286153258, -115.30121475117379, -113.8823677966905, -112.4737859246414, -111.0778877183492, -109.69728944170842, -108.33481841615831, -106.99351615127188, -105.6766332107965, -104.38761403895587, -103.12903732885441])","array('d', [-45.111995697021484, -45.13715102043775, -45.15436049371365, -45.17437047732824, -45.19337157928231, -45.212651081264376, -45.2317216359852, -45.25072301081555, -45.26958387219168, -45.28831450510594, -45.30690465040193, -45.32535902232204, -45.343684243145574, -45.36189551646403, -45.37999643714701, -45.39394628647429])","array('d', [0.18434230983257283, 0.09205938139235312, 0.008558327439357308, -0.06699655682947404, -0.1353614480986431, -0.19722056260649373, -0.25319300311341, -0.3038389529395344, -0.34966527694642846, -0.3911305789194699, -0.42864974239570536, -0.46259789883207786, -0.4933132855358503, -0.5210937662650457, -0.5460314726800091, -0.48886900583076875])","array('d', [0.025377448648214437, 0.008447387646556042, 0.014399815878443982, 0.012315725540465698, 0.013008203512575168, 0.012703588886670215, 0.012724159555681262, 0.012613530288075318, 0.012536237230169054, 0.012440191523810451, 0.012348827773063929, 0.012259118886847643, 0.012176495061470548, 0.012106959067339303, 0.012029479569774501, 0.00666017986178477])","array('d', [0.29873283306625864, 0.2896812095393538, 0.28643196982297087, 0.2883856105608945, 0.2950656951887391, 0.3060808061480348, 0.32109976174806654, 0.3398350116237134, 0.362031283604653, 0.38745771682124047, 0.41590237018945375, 0.44716837527020253, 0.4810712075287053, 0.5174364365143235, 0.5560901101605956, 0.5932867580156466])",-42.151255914998224,-116.72808286153258,-45.212651081264376,-0.19722056260649373,0.012703588886670215,0.3060808061480348,14.999999852262304,-1.0,"[-122.47678552192926, -43.86851539003484, 45.15005778426161]","[-112.27235318011324, -33.11119631819827, 47.419341144267705]","[-107.85913366737576, -47.22449386250682, 44.901737927275896]",10000000000.0,0.019405126571655273
22,-123.4820785522461,-44.20881652832031,45.143131256103516,0.1538981944322585,-0.026583919301629188,0.29542894760635885,22.181089819074785,"array('d', [-44.20881652832031, -43.77798702216957, -43.353263165551226, -42.927068559731744, -42.492481445299475, -42.043216890231385, -41.5735306850511, -41.07818354313141, -40.552409070472436, -39.99189884912316, -39.39279472528123, -38.75168800917944, -38.06562266197917, -37.332101334260194, -36.54909707930735, -35.716558390637005])","array('d', [-123.4820785522461, -122.04553717548315, -120.60702598527128, -119.16898730111434, -117.73345061493976, -116.30244907147785, -114.87802399021578, -113.46232581964475, -112.05765167041014, -110.66648235477707, -109.2915014952831, -107.93560570201447, -106.60190489500684, -105.29371472758861, -104.01453876640294, -102.76697579478656])","array('d', [-45.143131256103516, -45.168794257553536, -45.18569768502094, -45.20566915580527, -45.224523979436924, -45.24368251393437, -45.262613535545015, -45.281474718380835, -45.300191153944006, -45.318776999164896, -45.33722318115582, -45.35553640699511, -45.373724861246146, -45.39180529132367, -45.40978272635021, -45.42361947410716])","array('d', [0.1538981944322585, 0.06451240412554098, -0.016367210599676364, -0.08955011834597587, -0.15576875629354112, -0.21568586026924394, -0.26990109670113854, -0.3189570620399468, -0.36334470744266373, -0.403508235938642, -0.4398494955904485, -0.4727318015718836, -0.5024825860278903, -0.5293889743303055, -0.553500239201928, -0.4954913678756474])","array('d', [0.026583919301629188, 0.007946496468240808, 0.014482884207137038, 0.012184871891248995, 0.012942910284383356, 0.012608082921662947, 0.012633525176454802, 0.01251732013348095, 0.012439867191225366, 0.012343501701271853, 0.012253528690741857, 0.012166169854166468, 0.012087017248246124, 0.012021892866085574, 0.011949796524778608, 0.006588913693501455])","array('d', [0.29542894760635885, 0.28830288193833803, 0.286771513185194, 0.290279845878776, 0.29838192608382547, 0.3107077750062365, 0.3269416359754666, 0.34680729354295353, 0.3700579856942667, 0.39646939350679083, 0.42583474219744105, 0.4579613693659159, 0.49266828508126825, 0.529784080077658, 0.5691358286969422, 0.6069447950876521])",-42.043216890231385,-116.30244907147785,-45.24368251393437,-0.21568586026924394,0.012608082921662947,0.3107077750062365,14.999999852259647,-1.0,"[-122.0475695755049, -43.77224547515128, 45.1830024384763]","[-111.80721268320308, -32.98625622906965, 47.13172681654983]","[-107.44150215151275, -47.18460705858809, 45.046683585486946]",10000000000.0,0.020039081573486328
