,current_time,x_pos,y_pos,z_pos,roll,pitch,yaw,vel,x_traj,y_traj,z_traj,roll_traj,pitch_traj,yaw_traj,x_cmd,y_cmd,z_cmd,roll_cmd,pitch_cmd,yaw_cmd,vel_cmd,effector_dmg,effector_x,effector_y,effector_z,cost,time_solution
0,13.998626470565796,75.32247161865234,-418.5607604980469,45.099220275878906,0.6318556666374204,0.03191892430186281,-2.570811498161179,23.128649040053215,"array('d', [-416.729248046875, -417.55233607259026, -418.31242074750764, -419.00584295044246, -419.6290996321422, -420.17888092827656, -420.6522680279835, -421.0478062804291, -421.36705375603265, -421.61404854724606, -421.79424172333705, -421.91365018925217, -421.9782897418205, -421.99384351815553, -421.9654975454884, -421.8965980649233])","array('d', [78.50759887695312, 77.25446702628349, 75.96211225039309, 74.63273297041194, 73.26897142793398, 71.87389139403366, 70.45100281829289, 69.0044714599481, 67.5391456353459, 66.05986549665556, 64.57092056536895, 63.075832030324285, 61.57734444837421, 60.0775195379449, 58.57786304523907, 57.0397605341583])","array('d', [-45.08539962768555, -45.04367631427269, -45.00345157641914, -44.96578604580628, -44.931376171742315, -44.90058001136358, -44.873469356484186, -44.84989507990788, -44.82955554464743, -44.81206051791278, -44.796985227268436, -44.783912253821356, -44.772461824319414, -44.76231256253217, -44.753215185224725, -44.74478403134569])","array('d', [0.6335834264755249, 0.6480304972265934, 0.6611027485736448, 0.6729310117420894, 0.6836336676854161, 0.6933178316383728, 0.6961018839938169, 0.6780285999588853, 0.6453594095118996, 0.6036626674332506, 0.5574363574159323, 0.5100558589672098, 0.4638868157427527, 0.4204415852128243, 0.38051896318300443, 0.34430782732788057])","array('d', [-0.02811210602521909, -0.027535770439139764, -0.026127147197547537, -0.02413212912612311, -0.02179079693718766, -0.019314948461560993, -0.016875267756153667, -0.014596418001320732, -0.01255780654062097, -0.01079877210982835, -0.009326515977876716, -0.008124390995859803, -0.00715910030257126, -0.006386245181917959, -0.005754209406636674, -0.005206624750706873])","array('d', [-2.5361628413160866, -2.584951678719798, -2.6351544177261137, -2.6866624676237403, -2.739373847922716, -2.793193017437792, -2.8476925019524053, -2.9013335480250375, -2.9522472449812254, -2.999359587386987, -3.0422339007950123, -3.0808576322100407, -3.1154628671814155, -3.146401977825014, -3.174068362193204, -3.1982070321011697])",-419.6290996321422,73.26897142793398,-44.931376171742315,0.6836336676854161,-0.02179079693718766,-2.739373847922716,14.999999854181842,-1.0,"[108.74569769236307, -388.99131258253834, 45.04548487217761]","[108.28504889617997, -405.1666575705487, 33.291931485842774]","[91.20935517231094, -397.10059616967334, 39.876712220683366]",10000000000.0,0.06718921661376953
1,14.03419828414917,74.51591491699219,-419.0021667480469,45.100685119628906,0.631196141242981,0.03263821452856081,-2.5796646952589577,23.126307328138857,"array('d', [-417.4291687011719, -418.2359619205718, -418.97930006829273, -419.6555536834112, -420.26125385838367, -420.7931291186574, -421.24829601779464, -421.6253150638144, -421.92577524418317, -422.1537611008522, -422.31477397452096, -422.4148773278796, -422.46012632275534, -422.45623550200264, -422.40841498778065, -422.31952715635987])","array('d', [77.31983947753906, 76.0562161459447, 74.75421935952794, 73.41608427750577, 72.04448870007751, 70.64253064212913, 69.21374816106956, 67.76231166306601, 66.29304399682663, 64.81073544868565, 63.319610435342184, 61.823117997753656, 60.323929659034846, 58.824037233685424, 57.32488193691267, 55.7881173739793])","array('d', [-45.09206771850586, -45.048527851626716, -45.00632435367079, -44.966593111237614, -44.930096755025104, -44.89724774020389, -44.86815947658266, -44.84271201506457, -44.820621774199196, -44.801507390717944, -44.78494592072918, -44.77051674840012, -44.75783359332226, -44.746566630333156, -44.73645722854855, -44.727087868768194])","array('d', [0.6331773996353149, 0.6476631089163561, 0.6607703218545796, 0.6726302195824356, 0.683361499663366, 0.693071563822919, 0.6961637652579606, 0.6782773957817544, 0.6457052923457658, 0.6040454324814867, 0.5578194788521703, 0.5104196680823913, 0.46422262329599223, 0.42074724799857033, 0.3807957517844495, 0.3445582760340322])","array('d', [-0.029255045577883842, -0.028813630125957893, -0.0274872585536531, -0.025526643746068344, -0.02317913979869323, -0.020665001079375023, -0.018163521867981182, -0.0158073681459226, -0.01368279898282942, -0.011834571446516996, -0.010273875178023851, -0.008986790611465267, -0.007941719111920998, -0.007095162260623795, -0.006395809033020162, -0.005787168152090192])","array('d', [-2.5491094469984596, -2.597858968967697, -2.6480253849920437, -2.699499925646519, -2.7521804360168844, -2.805971205331333, -2.860460772909097, -2.9141189354884296, -2.9650639172111792, -3.012212480614974, -3.0551226202259283, -3.0937793045386894, -3.1284138243946664, -3.1593786026174597, -3.1870674356155866, -3.2112301123539546])",-420.26125385838367,72.04448870007751,-44.930096755025104,0.683361499663366,-0.02317913979869323,-2.7521804360168844,14.999999854224962,-1.0,"[108.74569769236307, -388.99131258253834, 45.04548487217761]","[108.28504889617997, -405.1666575705487, 33.291931485842774]","[91.20935517231094, -397.10059616967334, 39.876712220683366]",10000000000.0,0.034362077713012695
2,14.081107378005981,73.70516204833984,-419.4369201660156,45.101810455322266,0.6304084062576292,0.03327561169862762,-2.588385093208176,23.12253853607279,"array('d', [-417.8865966796875, -418.68251307413027, -419.41472835891346, -420.07963313951785, -420.6737807644135, -421.19392400563356, -421.6372018191219, -422.0021860479369, -422.29048484344344, -422.5062093816338, -422.65488889169444, -422.7426121013436, -422.7754551108361, -422.7591487990408, -422.6989154763841, -422.597310571544])","array('d', [76.5241928100586, 75.25375873159831, 73.94554671423165, 72.60180732537265, 71.22523341601756, 69.81893791536925, 68.38647101163146, 66.93200179174427, 65.46033209532568, 63.97621560623969, 62.4838311118778, 60.98657845125566, 59.487080236116846, 57.987282051207885, 56.48858281763842, 54.952804853379455])","array('d', [-45.09560775756836, -45.050104880122305, -45.005701387785514, -44.96362708667129, -44.92472943226323, -44.88949224206045, -44.85808481908197, -44.83042754577308, -44.80626295137328, -44.78522382964698, -44.76689207458586, -44.75084513375584, -44.736690221791356, -44.72408822154533, -44.71276978968135, -44.70227883986291])","array('d', [0.6325182318687439, 0.647066669202793, 0.6602306408358413, 0.6721418959595703, 0.6829196461392053, 0.6926717581936146, 0.6959537194080021, 0.6781904914366553, 0.645691644641543, 0.604070886450207, 0.5578625582038841, 0.5104680477977861, 0.46427004614125017, 0.42079116022614277, 0.3808356037470067, 0.34459433558420594])","array('d', [-0.03046722337603576, -0.03021676770729707, -0.02901656489538952, -0.02712148479138199, -0.024786827908454913, -0.022242866211953222, -0.01967953167417248, -0.017239634401710984, -0.015018282118015204, -0.013067350211887862, -0.011403360070465222, -0.01001611311703431, -0.00887639685953918, -0.007942055188345707, -0.007162338107172425, -0.006480752402553588])","array('d', [-2.5577018141707004, -2.6063875573688966, -2.6564950460124606, -2.70791522132634, -2.7605456459571, -2.814290334486828, -2.8687463096558132, -2.9223883060781297, -2.9733280355299816, -3.0204771986433427, -3.0633905503054817, -3.1020512730519356, -3.1366898049230763, -3.167658238735248, -3.1953503006296082, -3.219518733748248])",-420.6737807644135,71.22523341601756,-44.92472943226323,0.6829196461392053,-0.024786827908454913,-2.7605456459571,14.99999985425449,-1.0,"[107.83456808065344, -390.24661039199043, 45.04357765647903]","[107.06337767046688, -406.41308196641864, 33.29408991511597]","[90.15105300105205, -398.13088940214243, 40.03045099544341]",10000000000.0,0.03537774085998535
3,14.125099182128906,72.89252471923828,-419.8631286621094,45.102169036865234,0.6305024623870848,0.033136989921331475,-2.5961186766584934,23.116835524126202,"array('d', [-418.337646484375, -419.12248741430193, -419.84336195774966, -420.4966808411143, -421.0790201361883, -421.5871577867666, -422.0182561653643, -422.37089873249687, -422.6467140330884, -422.84984197753494, -422.9858420214138, -423.0608303334316, -423.08090579458224, -423.051817101023, -422.9787999123671, -422.8640973127033])","array('d', [75.72413635253906, 74.44688743177541, 73.13245104775801, 71.78309740294081, 70.40153843248189, 68.99090563524398, 67.55476446674263, 66.09728516454561, 64.62325025723119, 63.13737763863481, 61.64380049468541, 60.145868930031405, 58.64615578434021, 57.14655940530376, 55.648435386190435, 54.113780818739826])","array('d', [-45.098243713378906, -45.05115900042745, -45.00503591610167, -44.961170642909316, -44.920468478073616, -44.88346028908917, -44.85035091636746, -44.82108522337757, -44.795420458145756, -44.772996173321516, -44.75339500987627, -44.73619095335608, -44.72098506226416, -44.70743056191007, -44.69524984567355, -44.68395963591487])","array('d', [0.6320317983627318, 0.6466265259257508, 0.6598323826940282, 0.6717815370591752, 0.6825935798947534, 0.6923767212375412, 0.6958507626034527, 0.6782083506973277, 0.6457773604055925, 0.6041886601304843, 0.55799031704962, 0.5105935235791264, 0.46438738941481406, 0.4208983773148014, 0.38093274022935564, 0.34468222831605355])","array('d', [-0.03146352991461767, -0.031328652290630546, -0.03019736444239133, -0.02832918003093549, -0.025986134697470693, -0.02340617778950191, -0.02078694515532681, -0.018278314470464952, -0.01598136786722857, -0.013952640990221305, -0.012212027891551853, -0.010751582462191349, -0.009543441838947337, -0.008546109599542741, -0.007708989167789197, -0.006975382781140106])","array('d', [-2.566400039192063, -2.6150387549771885, -2.6651027909672482, -2.7164828754805, -2.7690763633154325, -2.8227870669099615, -2.8772211954872784, -2.9308586152353024, -2.981803816608515, -3.028963105811262, -3.0718879501908307, -3.11055985036171, -3.1452085498876037, -3.1761859715837213, -3.203885911209104, -3.2280641407186663])",-421.0790201361883,70.40153843248189,-44.920468478073616,0.6825935798947534,-0.025986134697470693,-2.7690763633154325,14.999999854284997,-1.0,"[107.15124732533322, -391.15341252585443, 45.04213808606407]","[106.15101470466448, -407.3064717996118, 33.29146956027237]","[89.36192307121198, -398.8697069790161, 40.143286945863856]",10000000000.0,0.03431248664855957
4,14.171255588531494,71.66531372070312,-420.4879150390625,45.100685119628906,0.6342074275016785,0.030324682593345777,-2.6052713274916237,23.0914325090474,"array('d', [-418.78228759765625, -419.55584375965105, -420.2651660619777, -420.9066851498721, -421.47699987144136, -421.97291369381406, -422.3916129777889, -422.7316934126681, -422.9948047111067, -423.18511631032675, -423.3082185489213, -423.37025550037146, -423.3773491061395, -423.33526601347563, -423.2492552624203, -423.1212455424523])","array('d', [74.91973114013672, 73.63566309911266, 72.31500359311919, 70.96004412185114, 69.57351730211302, 68.15857457694737, 66.71879778944906, 65.2583592284091, 63.78202229723985, 62.29446861988193, 60.79978489381802, 59.30127041988861, 57.80144716988656, 56.30216522305731, 54.80473592056599, 53.27133425364305])","array('d', [-45.10002899169922, -45.051675921651686, -45.004224962887186, -44.95901631154247, -44.91699142133252, -44.87870883452983, -44.84439283211571, -44.81400032498446, -44.78729442939056, -44.76391578683273, -44.743444727379064, -44.725450726140174, -44.70952909155901, -44.69532678365249, -44.68255993918419, -44.670727107120925])","array('d', [0.6315760016441344, 0.6462141039628432, 0.6594592078367957, 0.6714438744552932, 0.6822880501104923, 0.6921002664406266, 0.6957657561394606, 0.6782429750330803, 0.6458783953844132, 0.6043202683512608, 0.5581305160080825, 0.5107301882667112, 0.4645148185102933, 0.42101470658899404, 0.38103811978593405, 0.34477757969057904])","array('d', [-0.03228112682700171, -0.03220212253401061, -0.031094854665911557, -0.02922370063087137, -0.026856325480857833, -0.024236387425119035, -0.021566822278628984, -0.019002090172216463, -0.01664694909862811, -0.014560646116077292, -0.012764907593349108, -0.011252895391169321, -0.009997296807060269, -0.008956755927566291, -0.008080526651971558, -0.007311563829165197])","array('d', [-2.575217711921555, -2.623812391578405, -2.6738357369573755, -2.725178277354508, -2.777737173254695, -2.8314160480909725, -2.885830358763358, -2.9394651003516032, -2.990417459709272, -3.037588325582875, -3.080525893935052, -3.119210016065716, -3.153869775440355, -3.1848569544507517, -3.212565441611377, -3.2367540576412637])",-421.47699987144136,69.57351730211302,-44.91699142133252,0.6822880501104923,-0.026856325480857833,-2.777737173254695,14.999999854316629,-1.0,"[106.438944259298, -392.06815122546595, 45.041786236908855]","[105.20866749657431, -408.21074813087, 33.29857610352791]","[88.54555845023545, -399.61535868820295, 40.259903364812736]",10000000000.0,0.04286050796508789
5,14.22548532485962,70.42953491210938,-421.0938720703125,45.09706115722656,0.6416776180267333,0.024543603882193708,-2.612212646003586,23.037977466503982,"array('d', [-419.4369201660156, -420.1935512973952, -420.8856209234903, -421.50958707185373, -422.0620800546273, -422.5399387740101, -422.9403837403332, -423.2620307871897, -423.5065600491404, -423.6781802993711, -423.7825215249179, -423.8257626754534, -423.8140537862994, -423.7531827417191, -423.6484138253741, -423.50122410768466])","array('d', [73.70516204833984, 72.41110500791468, 71.08137717139573, 69.71829424537013, 68.32461248467528, 66.903506074441, 65.45857493674926, 63.99398969187664, 62.51448016388186, 61.02466913796683, 59.52857035985586, 58.02940504973579, 56.52961813610092, 55.03098737720704, 53.5347583550576, 52.00335959764807])","array('d', [-45.101810455322266, -45.05195391841986, -45.002997406047186, -44.95632017204273, -44.91289239247883, -44.87329179500364, -44.83775363379557, -44.80623913719251, -44.778510691448304, -44.754204705801484, -44.73289512857864, -44.71414397507546, -44.69753880278687, -44.68271907668757, -44.669394059045395, -44.65704542141055])","array('d', [0.6304084062576292, 0.6451576198728625, 0.6585032614147912, 0.6705788982858762, 0.681505387238284, 0.6913920837349021, 0.6953247393286629, 0.6779792504902976, 0.6457247446263468, 0.6042305029586182, 0.5580753160707513, 0.510692386448176, 0.4644853007565505, 0.42098927811106274, 0.38101526179142176, 0.3447568969199807])","array('d', [-0.03327561169862762, -0.033213060780339615, -0.032092579286078726, -0.03018560364764979, -0.027766563882230245, -0.025085116490108122, -0.02234918852649225, -0.019717152349236763, -0.01729660358524618, -0.015148634626207936, -0.01329600076512264, -0.011732277235988462, -0.0104301288714826, -0.009347882490999767, -0.008434282615899782, -0.007631655490877806])","array('d', [-2.588385093208176, -2.636867096725147, -2.6867863180281577, -2.7380327786696084, -2.7905031433165197, -2.8441005530260353, -2.8984515627179506, -2.9520478846718343, -3.0029783599030404, -3.0501371447178247, -3.093067938538535, -3.1317479601554807, -3.1664049022410308, -3.1973898823432463, -3.2250965079038725, -3.2492878676486288])",-422.0620800546273,68.32461248467528,-44.91289239247883,0.681505387238284,-0.027766563882230245,-2.7905031433165197,14.999999854365269,-1.0,"[106.438944259298, -392.06815122546595, 45.041786236908855]","[105.20866749657431, -408.21074813087, 33.29857610352791]","[88.54555845023545, -399.61535868820295, 40.259903364812736]",10000000000.0,0.053262948989868164
6,14.278601169586182,69.58094024658203,-421.4959716796875,45.09318161010742,0.6482968926429749,0.019225193187594542,-2.6166355490644997,22.981838058658994,"array('d', [-420.0733947753906, -420.8156690390798, -421.49289150230743, -422.10154535527744, -422.63829255100165, -423.1000101288494, -423.48395514590004, -423.78875983288816, -424.01613910421355, -424.17035380381867, -424.25708988038775, -424.2825776983045, -424.2530104569762, -424.17421031883464, -424.05146784897926, -423.88584223201684])","array('d', [72.48450469970703, 71.18211088712384, 69.84469858896931, 68.47464185202108, 67.0747527206428, 65.64825721308003, 64.19879863412767, 62.73056835220165, 61.24828690565532, 59.756541612254296, 58.25929303961051, 56.759699877234304, 55.260141788268385, 53.762332995669226, 52.267459860255116, 50.738195940075485])","array('d', [-45.1019287109375, -45.05337226196486, -45.006151878944095, -44.96152991882726, -44.92036187543769, -44.88312224045548, -44.84996000650227, -44.82076938028511, -44.79526464872807, -44.77305096244401, -44.75368486278834, -44.73672161798443, -44.72174975221088, -44.70841492936764, -44.696435884375695, -44.685338735391])","array('d', [0.631240725517273, 0.6459107335517633, 0.6591847069143355, 0.6711954957298335, 0.6820633077316264, 0.6918969111350428, 0.6960779123569317, 0.6788581218617279, 0.6466409984345715, 0.605127830796374, 0.5589223015589989, 0.5114746746355048, 0.4651991186966928, 0.421636758884756, 0.3816013097645758, 0.3452871751028628])","array('d', [-0.03257611393928541, -0.032183677983346315, -0.03081015508326281, -0.028729294574511604, -0.02621035930743733, -0.02349293719447328, -0.020772375980887672, -0.01819394063983241, -0.01585306547562755, -0.013800511786474881, -0.012050862989290933, -0.010591624084706073, -0.009391221541062908, -0.008405225629043507, -0.007580758293338984, -0.0068593546774287995])","array('d', [-2.5994193434675754, -2.64798164903471, -2.6979750787048165, -2.74929001566896, -2.801823477751566, -2.8554789496089548, -2.9098997883619107, -2.9635854659075345, -3.014610336562406, -3.061859333815783, -3.104871797472566, -3.143623764849579, -3.178343382945568, -3.2093828716522337, -3.237137066978869, -3.2613732034210225])",-422.63829255100165,67.0747527206428,-44.92036187543769,0.6820633077316264,-0.02621035930743733,-2.801823477751566,14.999999854405415,-1.0,"[105.11541180497659, -393.73092560318315, 45.04163876545925]","[103.47428366080187, -409.8558238734081, 33.324371413841234]","[87.04195901110909, -400.9767688045194, 40.475671134223525]",10000000000.0,0.049292802810668945
7,14.319987535476685,68.74391174316406,-421.8813171386719,45.08887481689453,0.6550531387329103,0.013523479923606054,-2.6211471438368386,22.91049435687314,"array('d', [-420.4879150390625, -421.2224221226266, -421.89130103289256, -422.49105373319395, -423.0183683885002, -423.4701556018976, -423.84370353847294, -424.1376515163958, -424.3537452789657, -424.4963001473837, -424.57106416036686, -424.5843268179184, -424.54233254540685, -424.4509455912023, -424.3154901262334, -424.13674501875164])","array('d', [71.66531372070312, 70.3583899723749, 69.01663561198815, 67.64250718735562, 66.23889459499992, 64.80909522702665, 63.356813238053974, 61.88628058141361, 60.4022386507008, 58.90927534791877, 57.41133450725896, 55.91154614762458, 54.412254748105944, 52.915137076148085, 51.42134257890533, 49.893724720751436])","array('d', [-45.100685119628906, -45.05593397611601, -45.01324181758937, -44.97363306995266, -44.93774099268748, -44.90584790334236, -44.87794825251656, -44.85382121413132, -44.833103094036716, -44.815352827907894, -44.800105966286466, -44.7869154798295, -44.77538051085832, -44.76516553941176, -44.75601268179642, -44.747539625443714])","array('d', [0.6342074275016785, 0.6485951167594934, 0.6616136375063352, 0.6733932832164015, 0.6840519482706939, 0.6936963076865748, 0.6980543889084586, 0.6808760554122335, 0.6486054528533569, 0.6069820383133275, 0.5606386330970047, 0.513044812790137, 0.466626142315341, 0.4229296290299885, 0.38277133291076426, 0.3463458559213367])","array('d', [-0.030324682593345777, -0.029368320706185926, -0.027591887744701685, -0.025264748811515234, -0.022639726931921185, -0.019932767791046396, -0.017312631983038628, -0.01489842181265172, -0.012762257724157941, -0.010935788833748872, -0.009419015019477088, -0.008189046513335211, -0.007207439590565514, -0.00642566950446523, -0.005788840119919212, -0.005237959918770299])","array('d', [-2.6052713274916237, -2.6541206309080203, -2.704379230805598, -2.7559388118504953, -2.8086976622896644, -2.8625605021891314, -2.9171908121698564, -2.9710955185821573, -3.0223302141221486, -3.0697695262842704, -3.1129494474162787, -3.1518467464467097, -3.186692072140189, -3.2178405750436996, -3.2456898240146295, -3.270010185984995])",-423.0183683885002,66.23889459499992,-44.93774099268748,0.6840519482706939,-0.022639726931921185,-2.8086976622896644,14.999999854425255,-1.0,"[105.11541180497659, -393.73092560318315, 45.04163876545925]","[103.47428366080187, -409.8558238734081, 33.324371413841234]","[87.04195901110909, -400.9767688045194, 40.475671134223525]",10000000000.0,0.038846731185913086
8,14.391095161437988,67.06999969482422,-422.62249755859375,45.08311462402344,0.6680567264556885,0.002612547250464694,-2.631500947471482,22.71800272735657,"array('d', [-420.8940734863281, -421.6220618073746, -422.28366263204435, -422.8754002427871, -423.39399480074957, -423.8363980669779, -424.19993530054114, -424.48325046766746, -424.6881257009023, -424.81894498242707, -424.88153613630317, -424.8822654666958, -424.8274445140055, -424.7229931763532, -424.57428054024496, -424.38180399590914])","array('d', [70.84229278564453, 69.53154038469984, 68.18598276349762, 66.80818889100449, 65.40115353166915, 63.96826947067124, 62.513322457862245, 61.040602688982815, 59.554890631535066, 58.060791210538916, 56.56224424189795, 55.06235990481677, 53.56345312846362, 52.06716652412864, 50.57461432952196, 49.04884231165248])","array('d', [-45.09848403930664, -45.05968534241048, -45.02395048536961, -44.991953070428416, -44.96400308374863, -44.94010669236803, -44.92003905367333, -44.90341854655575, -44.88977476907919, -44.87860575552486, -44.86942207403497, -44.861777950958306, -44.855291576552595, -44.84965745286396, -44.84465349531068, -44.840031131408004])","array('d', [0.6388543844223021, 0.6527998576433299, 0.6654182447374456, 0.6768358345144748, 0.6871668977861899, 0.6965148308408546, 0.7010608093458504, 0.683895904503972, 0.6515177039160186, 0.6097159697490875, 0.5631617069173106, 0.5153495079582033, 0.46871943959662915, 0.4248257736774677, 0.3844872653008766, 0.347898495895276])","array('d', [-0.02675720490515247, -0.025009326326101908, -0.02268051825362818, -0.020030164042414835, -0.01728445767970223, -0.01462315102910206, -0.012175340127647111, -0.010021720690085362, -0.008200615821860288, -0.006716302673733411, -0.00554817006538207, -0.004658873805977694, -0.004000633334299023, -0.003519574374072939, -0.0031584064097951617, -0.0028578448588946425])","array('d', [-2.6100835680922096, -2.6593848598836765, -2.7100609157422344, -2.7620054990570635, -2.8151189253888314, -2.869307884156981, -2.92426255630141, -2.9784990426814546, -3.030047495687071, -3.077769167677832, -3.1211963603803263, -3.160307665436195, -3.195337817125704, -3.2266464744682644, -3.2546353099939678, -3.2790781184174205])",-423.39399480074957,65.40115353166915,-44.96400308374863,0.6871668977861899,-0.01728445767970223,-2.8151189253888314,14.999999854440219,-1.0,"[105.11541180497659, -393.73092560318315, 45.04163876545925]","[103.47428366080187, -409.8558238734081, 33.324371413841234]","[87.04195901110909, -400.9767688045194, 40.475671134223525]",10000000000.0,0.060608625411987305
9,14.45985221862793,66.23392486572266,-422.9781799316406,45.08203125,0.6736234426498412,-0.00204935926012684,-2.637251126762253,22.601842140767843,"array('d', [-421.6898498535156, -422.4056140053969, -423.05301030199007, -423.62862824061705, -424.12927778128795, -424.5520215128692, -424.8942807265136, -425.15470601207596, -425.3351678673985, -425.44022353068726, -425.4759040308296, -425.44877202856924, -425.3653110842147, -425.23158412463175, -425.0530760937373, -424.829675343026])","array('d', [69.16228485107422, 67.84443448464312, 66.49161703676968, 65.10669051965058, 63.692913480826334, 62.25391576073293, 60.79368597963829, 59.31666460645508, 57.82774371753139, 56.33159007682389, 54.832154196075244, 53.33251671043216, 51.83493704984837, 50.34098875131059, 48.85171221888318, 47.330598512840936])","array('d', [-45.090972900390625, -45.06928645253752, -45.05326308360997, -45.04260822499027, -45.03675321374252, -45.03496456384589, -45.03643928264041, -45.04038002081603, -45.04604828416344, -45.05279711151428, -45.060086990072655, -45.06749001434804, -45.074687082984795, -45.081461882165655, -45.08769419655459, -45.093495486984295])","array('d', [0.6516543626785279, 0.6643817579716591, 0.6758979824798224, 0.686318294220329, 0.6957469829332324, 0.7042784136863538, 0.7092628270778104, 0.6920884316713517, 0.6593912535412741, 0.617091939337681, 0.5699604932496962, 0.5215558485668348, 0.47435490769562116, 0.42993002534832764, 0.3891063468498536, 0.35207801409607764])","array('d', [-0.01639919541776191, -0.012580792327107288, -0.00884641546144415, -0.0054173922541512305, -0.0024389977737788258, 1.3222135961457426e-05, 0.001921240671869857, 0.003309917516808529, 0.004232396486579946, 0.004757313859557177, 0.004959194806121878, 0.004912326241196811, 0.004687551863511794, 0.004351156247610789, 0.003965061011786383, 0.003587735587976982])","array('d', [-2.618868815894944, -2.6694308886458766, -2.7212703671157787, -2.7742870099738965, -2.82838696594539, -2.8834825757484857, -2.9393344339315974, -2.9944819689505033, -3.046887603464599, -3.0953777516869456, -3.139476015056172, -3.1791669129579634, -3.21469689922989, -3.2464382294001877, -3.274803896996501, -3.2995758264648156])",-424.12927778128795,63.692913480826334,-45.03675321374252,0.6957469829332324,-0.0024389977737788258,-2.82838696594539,14.999999854466159,-1.0,"[102.21859031605497, -397.04456806243087, 45.03793158189134]","[99.75974227743043, -413.12245421394556, 33.399390297783455]","[83.80956578557272, -403.69735900614916, 40.93327709030713]",10000000000.0,0.04412364959716797
10,14.537366151809692,64.14183807373047,-423.8265380859375,45.08235168457031,0.6837195754051207,-0.009915851056575688,-2.6532523512800754,22.28843938533076,"array('d', [-422.0703125, -422.7794106368063, -423.4190649501582, -423.9859086960094, -424.4768081450307, -424.8888917096866, -425.21963606142555, -425.4676959546209, -425.63498927355704, -425.7261661868536, -425.7473665056004, -425.7052577027434, -425.60641486988504, -425.4569768044436, -425.2624897311962, -425.02252135367195])","array('d', [68.32540130615234, 67.00383708958648, 65.6472626346448, 64.25868547732061, 62.84149758062221, 61.399447465134834, 59.9366255065031, 58.457548751790526, 56.96716656130538, 55.47017693848594, 53.97053470575053, 52.471303662806264, 50.974712844127936, 49.48229837071536, 47.995060836917574, 46.4767333868499])","array('d', [-45.0869255065918, -45.07462211380002, -45.06927802831353, -45.070083200979525, -45.07600830995005, -45.08593799885943, -45.0987758464422, -45.113518059422695, -45.12929740220604, -45.14540190173966, -45.16127527656918, -45.176506606891195, -45.190815338821594, -45.20403573921909, -45.21610316874972, -45.227314984698715])","array('d', [0.6584271192550658, 0.670510002101985, 0.6814430475801725, 0.6913356770663234, 0.7002868990906509, 0.7083863000970069, 0.7136109447575437, 0.6964354464632914, 0.6635703746836124, 0.6210070960868431, 0.5735690261514905, 0.5248496682400592, 0.4773455984040708, 0.43263874789859763, 0.3915575914770069, 0.3542959921562553])","array('d', [-0.010674755088985003, -0.005811104423102682, -0.0013881476484765537, 0.002398542343588451, 0.005450710389977, 0.0077506077031056775, 0.009340215530041437, 0.010300368578718484, 0.010731944011075441, 0.010740983968622263, 0.010429113726115909, 0.009888691445156769, 0.009201373483764149, 0.00843877737712283, 0.007664223600625765, 0.006934876613747661])","array('d', [-2.6236135840376438, -2.674852397724239, -2.7273157158162373, -2.7809066410859513, -2.8355345661422513, -2.8911149642800638, -2.9474469856295498, -3.0030828365475823, -3.0559478645518463, -3.1048494521250345, -3.14930652082019, -3.18930689612246, -3.2251034568199595, -3.257075318246715, -3.2856416092960665, -3.310588713407614])",-424.4768081450307,62.84149758062221,-45.07600830995005,0.7002868990906509,0.005450710389977,-2.8355345661422513,14.999999854481313,-1.0,"[100.48074490793032, -398.98992079542114, 45.03556792805368]","[97.53929673690178, -415.025463674757, 33.45069644744876]","[81.88759525667918, -405.28587171866195, 41.2072800576966]",10000000000.0,0.06523323059082031
11,14.575670957565308,63.30839157104492,-424.1495361328125,45.08356857299805,0.6861699819564816,-0.011743265204131503,-2.660062777992112,22.15876006215906,"array('d', [-422.9781799316406, -423.6681558345829, -424.28611512864165, -424.828821567569, -425.29329790607306, -425.67684648510215, -425.9770875797398, -426.192691712821, -426.32569340898306, -426.3809663438765, -426.36490953363983, -426.2844382686546, -426.1463424215898, -425.9569374518979, -425.7219111388086, -425.4400261519245])","array('d', [66.23392486572266, 64.90225949683098, 63.53578216707357, 62.13783331246241, 60.7120971801945, 59.26258160968783, 57.793601420287004, 56.30984541449245, 54.816385576047445, 53.31797655862313, 51.81856441502708, 50.321154473660215, 48.82788669306483, 47.34019343058155, 45.85896780599346, 44.34855528669263])","array('d', [-45.08203125, -45.09036694250081, -45.108136752455316, -45.133442810735026, -45.164305285985755, -45.19883874517764, -45.235370374574245, -45.272504782452, -45.30914421384607, -45.34447517752752, -45.377934875105815, -45.40916998540746, -45.43799631354144, -45.46436389106913, -45.488329295314266, -45.51056623933468])","array('d', [0.6736234426498412, 0.6842602053750999, 0.6938847471389723, 0.7025933933981068, 0.7104733030062573, 0.7176033404011849, 0.7234353076417964, 0.7062935869708312, 0.6730653305209756, 0.6299098800573955, 0.5817773218584118, 0.5323428448399292, 0.4841492820499804, 0.43880094578631007, 0.3971340336847162, 0.35934176618204694])","array('d', [0.00204935926012684, 0.008949862501612872, 0.014648735397769633, 0.019021359607857318, 0.022080495295901125, 0.023937218647529936, 0.0247626687150223, 0.024755061378318653, 0.02411308381153523, 0.023017503935638752, 0.021622403804658515, 0.02005359575442068, 0.018411276329244896, 0.016774611386156144, 0.015206778002955086, 0.01375966267622377])","array('d', [-2.637251126762253, -2.6900336246013685, -2.7439182182044415, -2.798815992503243, -2.854644052077219, -2.91132528705747, -2.9687515692296502, -3.025506293088185, -3.0794259630321164, -3.129272089771142, -3.1745520925805994, -3.215261381988412, -3.251667829591184, -3.2841665508907907, -3.3131909464365203, -3.3385386691250267])",-425.29329790607306,60.7120971801945,-45.164305285985755,0.7104733030062573,0.022080495295901125,-2.854644052077219,14.999999854529866,-1.0,"[100.48074490793032, -398.98992079542114, 45.03556792805368]","[97.53929673690178, -415.025463674757, 33.45069644744876]","[81.88759525667918, -405.28587171866195, 41.2072800576966]",10000000000.0,0.0366818904876709
12,14.648920059204102,62.06333923339844,-424.61712646484375,45.08590316772461,0.6888162493705745,-0.013632753863930647,-2.670688855644089,21.9642894948315,"array('d', [-423.3244934082031, -424.0058446052378, -424.6142996115837, -425.146675525563, -425.600055868733, -425.9718083919867, -426.2596074289077, -426.4621330587871, -426.5814631791638, -426.62255027598866, -426.591883058628, -426.49646142004957, -426.34314764571485, -426.1383159978995, -425.8877007346062, -425.5897555559401])","array('d', [65.3968505859375, 64.06080855362323, 62.69018054134231, 61.28841291431281, 59.859282539593885, 58.40687985418698, 56.9355920956092, 55.45016404890586, 53.95570288572252, 52.4569722532084, 50.95790329756162, 49.46146941937121, 47.96976900297359, 46.48418899117266, 45.005577080618785, 43.498510078906946])","array('d', [-45.0816535949707, -45.09614886191448, -45.12067354836755, -45.153023667127464, -45.19096034817766, -45.23239531389053, -45.27551002999826, -45.318815766132474, -45.36116557177754, -45.40173091618863, -45.43995808218079, -45.47551817145097, -45.50825978161158, -45.5381689574061, -45.56533792890373, -45.59054082759149])","array('d', [0.6783397793769835, 0.6885277237095466, 0.6977461577614199, 0.706087342534511, 0.7136347592124482, 0.7204639445465414, 0.7265212044414207, 0.7094097784520741, 0.6760765643596066, 0.6327378330581624, 0.5843865195993048, 0.5347253598791186, 0.48631272986413077, 0.4407604359015407, 0.39890726256712583, 0.36094625017083193])","array('d', [0.00589776784181597, 0.013306015522804434, 0.019295161789499124, 0.02376710977615358, 0.02677044355978999, 0.028455109281201617, 0.029029516456592734, 0.028724577071689853, 0.02776533953425842, 0.02635196425428669, 0.02465148326556364, 0.02279734919011672, 0.020893367476507354, 0.01901944329891138, 0.017237562642562685, 0.015597192770803767])","array('d', [-2.643453347679001, -2.696722269973414, -2.751054203322332, -2.806362855329196, -2.8625678545261803, -2.9195945088931747, -2.9773663130558514, -3.034477575046625, -3.088734670894778, -3.1388833545455013, -3.184426894163964, -3.2253630106918076, -3.261964401854064, -3.2946313678215198, -3.323801934269097, -3.34927795380948])",-425.600055868733,59.859282539593885,-45.19096034817766,0.7136347592124482,0.02677044355978999,-2.8625678545261803,14.999999854553872,-1.0,"[99.26854231892531, -400.3030408992784, 45.032722933883065]","[95.99747761306361, -416.3058214183756, 33.49100939785781]","[80.55568856149105, -406.3540216966568, 41.39751514853746]",10000000000.0,0.06423401832580566
13,14.704576969146729,60.82188415527344,-425.0658264160156,45.08856201171875,0.6906415224075315,-0.014969898387789598,-2.6819255232771457,21.770114462433124,"array('d', [-423.8265380859375, -424.4943492991585, -425.0881642695381, -425.6048733685867, -426.04164163765137, -426.39592384296157, -426.6654819138902, -426.8490708246864, -426.9488392846519, -426.96983496997575, -426.918651440245, -426.8023854151126, -426.6279805304752, -426.4018758647271, -426.1298558510383, -425.8099446091161])","array('d', [64.14183807373047, 62.799065107305246, 61.42217341571283, 60.01473689938574, 58.58064518158646, 57.12409027058011, 55.64955168951671, 54.16184886398456, 52.66611856343998, 51.16711429394184, 49.66872691354272, 48.173870160742304, 46.68457338708892, 45.20215243462451, 43.72738635298795, 42.225160693592166])","array('d', [-45.08235168457031, -45.10319489126713, -45.13453580159691, -45.17387463351821, -45.218731186931926, -45.266835856851586, -45.316246706709464, -45.365402548426914, -45.41312525652531, -45.45858576097396, -45.50125032029558, -45.54082201345457, -45.577186893564004, -45.610369299588356, -45.64049750616962, -45.668437600662436])","array('d', [0.6837195754051207, 0.6933955648994724, 0.7021507630158874, 0.7100727945441496, 0.7172409456503233, 0.7237269572842748, 0.7295957095229165, 0.7125499021459554, 0.6791291765389895, 0.6356135117776014, 0.5870436991942779, 0.5371532285675704, 0.488517846521072, 0.4427577706590796, 0.40071474817260494, 0.3625817309272795])","array('d', [0.009915851056575688, 0.017745443625203958, 0.023942171483266165, 0.02844062073295546, 0.03132887456181788, 0.03279719657016936, 0.03309095714923715, 0.03247222504512842, 0.03119018374574717, 0.02946194377471725, 0.027465129143285888, 0.02533873333438364, 0.02318840569061934, 0.02109336920881129, 0.0191133115268531, 0.01729444070027471])","array('d', [-2.6532523512800754, -2.7070804876598817, -2.7619263911167637, -2.817706851060848, -2.8743444553830306, -2.931767340984796, -2.989908929624275, -3.0473794168433637, -3.1019792911808834, -3.152436542530014, -3.1982492876404596, -3.2394172048257412, -3.276217783870235, -3.309056597159654, -3.338376409225085, -3.363984483673928])",-426.04164163765137,58.58064518158646,-45.218731186931926,0.7172409456503233,0.03132887456181788,-2.8743444553830306,14.9999998545934,-1.0,"[99.26854231892531, -400.3030408992784, 45.032722933883065]","[95.99747761306361, -416.3058214183756, 33.49100939785781]","[80.55568856149105, -406.3540216966568, 41.39751514853746]",10000000000.0,0.05039048194885254
14,14.755591869354248,59.99720001220703,-425.35430908203125,45.09032440185547,0.6918627619743346,-0.01587167382240292,-2.6899495005568093,21.643488444645868,"array('d', [-424.4634704589844, -425.112288952056, -425.68602794206055, -426.1816611667721, -426.5964442770368, -426.92792819739384, -427.1739759157947, -427.3334422399545, -427.40856008011906, -427.40447731136885, -427.3278926629179, -427.18599684314347, -426.9858101382744, -426.73383079391067, -426.4358874099257, -426.0894787246634])","array('d', [62.4776611328125, 61.12569652393966, 59.740445169918054, 58.32559906128871, 56.885153927472764, 55.42339844997807, 53.94490077740472, 52.45454968099009, 50.95749239046146, 49.45844325810435, 47.96122035654287, 46.46864584545304, 44.98265077824478, 43.50445407273948, 42.03474383762273, 40.538768482760176])","array('d', [-45.085086822509766, -45.11081896534236, -45.14719101886223, -45.191506416475164, -45.24113854945966, -45.29372018994166, -45.347254475262005, -45.40015962654787, -45.45126224659318, -45.49975471147815, -45.545134056566305, -45.58713775884886, -45.625685881131886, -45.66083381468834, -45.69273644706848, -45.7223138467451])","array('d', [0.6880339980125425, 0.6972994162667556, 0.7056831141290935, 0.7132689982970416, 0.720132990668227, 0.7263437880829355, 0.7319635350273517, 0.7150198724859901, 0.6815563661532219, 0.6379124626298439, 0.5891734104145584, 0.5391012169251601, 0.4902877371533061, 0.4443610151408829, 0.4021656125486259, 0.363894527422044])","array('d', [0.013088881969451809, 0.021088959445409294, 0.027308195066716712, 0.031714149006300006, 0.03442884396297651, 0.035673616343785935, 0.035719822408917266, 0.03484953365517316, 0.033325904956526105, 0.03137454595130485, 0.029177150511827944, 0.026873549239278163, 0.024568077765745173, 0.022337345996100027, 0.020237737122205644, 0.01831186314396128])","array('d', [-2.6670935034712375, -2.7213735282276805, -2.7766345137779167, -2.832795793335151, -2.889782392230517, -2.9475247724805635, -3.005958565461039, -3.0637100879637122, -3.118582297000215, -3.1692865618712482, -3.215315542886647, -3.2566698796237565, -3.293630680096357, -3.3266076914065796, -3.3560474867539085, -3.381763392335701])",-426.5964442770368,56.885153927472764,-45.24113854945966,0.720132990668227,0.03442884396297651,-2.889782392230517,14.999999854652195,-1.0,"[99.26854231892531, -400.3030408992784, 45.032722933883065]","[95.99747761306361, -416.3058214183756, 33.49100939785781]","[80.55568856149105, -406.3540216966568, 41.39751514853746]",10000000000.0,0.04085874557495117
15,14.848954200744629,57.94846725463867,-426.0366516113281,45.094749450683594,0.6962875723838805,-0.0199545677751302,-2.7122707247694557,21.332264071953297,"array('d', [-424.61712646484375, -425.2610171826784, -425.82959714103157, -426.31985947293117, -426.7290806953129, -427.0548338728557, -427.29500535960165, -427.4484732573757, -427.5174903911584, -427.5072273988441, -427.4244061764795, -427.2762376771304, -427.06975834753507, -426.81147861344164, -426.5072359077092, -426.1544011606543])","array('d', [62.06333923339844, 60.70903712703316, 59.32168195363655, 57.90499007752827, 56.46297945010131, 54.99995916079179, 53.52051604771184, 52.029552963631936, 50.53221684221779, 49.033209533518125, 47.53632869639141, 46.044372005145874, 44.55924490688458, 43.082141485938756, 41.61372681771162, 40.11933652546968])","array('d', [-45.08590316772461, -45.11245064066809, -45.149620829611116, -45.194690242652825, -45.24501528881098, -45.29822034190177, -45.35230687714629, -45.405696247017204, -45.45722119078257, -45.506081722913954, -45.55178286640015, -45.59406964294408, -45.63286873876302, -45.66824100649937, -45.70034555317686, -45.730108323389985])","array('d', [0.6888162493705745, 0.6980072266301874, 0.7063235674891601, 0.713848504514746, 0.7206573496264399, 0.726818247734762, 0.7323928455239205, 0.7154757999731687, 0.6820083360467886, 0.6383423728122347, 0.5895724373617862, 0.5394664713081775, 0.49061967374835996, 0.44466171061479814, 0.4024377291726042, 0.36414074874778046])","array('d', [0.013632753863930647, 0.021632370090195852, 0.02782965229385301, 0.03219910123681074, 0.03486903554409939, 0.03606595680789265, 0.03606507495918272, 0.035151041533019615, 0.033588475115548806, 0.031603551099846985, 0.029377879879356347, 0.027050793408862486, 0.0247259005075589, 0.022478988279764106, 0.020365605032207006, 0.018427562823875355])","array('d', [-2.670688855644089, -2.725051142346633, -2.780387665782801, -2.836618227477915, -2.8936683009703583, -2.951468775348416, -3.0099556873018853, -3.067758770010757, -3.122681592467299, -3.1734320499511472, -3.2195015802427345, -3.2608909111854456, -3.297881794583445, -3.330884751184935, -3.360347068321121, -3.38608348833034])",-426.7290806953129,56.46297945010131,-45.24501528881098,0.7206573496264399,0.03486903554409939,-2.8936683009703583,14.999999854667983,-1.0,"[95.84063758657693, -403.69713668897305, 45.018698718672674]","[91.69207267290787, -419.5826746487256, 33.59770520294314]","[76.83301213746371, -409.07962452894327, 41.89796171616892]",10000000000.0,0.0886843204498291
16,14.900286197662354,56.72547149658203,-426.4184875488281,45.099029541015625,0.6997728943824766,-0.023848965764045677,-2.726832735534531,21.15041133937266,"array('d', [-425.35430908203125, -425.97174850554705, -426.5128157819559, -426.9746011392233, -427.35448475105596, -427.65014949976893, -427.8595977665972, -427.98182395803997, -428.0191813114944, -427.97695105481404, -427.86196429690114, -427.6815252480357, -427.44274311462414, -427.152181730337, -426.8157159829491, -426.43006584330703])","array('d', [59.99720001220703, 58.6307054605539, 57.2324772340458, 55.806339969911846, 54.35641118338254, 52.88709175463682, 51.40305236236223, 49.90925656849618, 48.41083848914607, 46.91242418406934, 45.417696110465954, 43.92931792369912, 42.44905739435563, 40.97797665558769, 39.516619420393084, 38.03076797367603])","array('d', [-45.09032440185547, -45.12014435439803, -45.16036310378437, -45.2081729267109, -45.26089115475961, -45.31613865422633, -45.371938499499315, -45.426749021275704, -45.47944720778121, -45.52927842465911, -45.57578991679047, -45.61876328777702, -45.658154999055775, -45.6940486259781, -45.726619253237494, -45.75680507800436])","array('d', [0.6918627619743346, 0.7007638254794536, 0.7088178415019741, 0.7161054171791026, 0.72269948884356, 0.7286660518915192, 0.7340648124595494, 0.717285901525518, 0.6838186385180818, 0.6400712266936366, 0.591179747447846, 0.5409385546778904, 0.4919576294889089, 0.4458737394396255, 0.4035345592226487, 0.3651332017081441])","array('d', [0.01587167382240292, 0.023759402812574052, 0.029771806317959275, 0.033916330020464985, 0.03634856297396265, 0.03731531106574809, 0.03710515940018259, 0.036010081379331135, 0.03429721280117955, 0.03219177271178867, 0.02987220168430209, 0.02747349655695325, 0.025094522717705372, 0.022806395834487125, 0.020660327520126177, 0.018694238782836194])","array('d', [-2.6899495005568093, -2.74463313394184, -2.8002646664980078, -2.856765744835527, -2.9140636067804557, -2.9720908210640378, -3.030785017034878, -3.08879132615696, -3.14391636989483, -3.194852528321459, -3.241085495423617, -3.282615995223839, -3.319728249133426, -3.352835869121763, -3.3823890246878614, -3.408209506225607])",-427.35448475105596,54.35641118338254,-45.26089115475961,0.72269948884356,0.03634856297396265,-2.9140636067804557,14.999999854756538,-1.0,"[95.31633936065688, -404.1851103271917, 45.016326947945664]","[91.0359442533953, -420.0469268493709, 33.61102141313186]","[76.2674597686144, -409.46436989170905, 41.97172438959436]",10000000000.0,0.04018712043762207
17,14.973228931427002,55.10300064086914,-426.8935546875,45.10860061645508,0.7052931189537047,-0.029787821695208515,-2.7478288292845314,20.913401599927912,"array('d', [-425.7705078125, -426.36989208573374, -426.89215621505406, -427.3344614417712, -427.6942631662268, -427.9693232907068, -428.1577270482584, -428.2585514378544, -428.27422078039666, -428.2100941684174, -428.0730791920821, -427.87054500976313, -427.6096512038468, -427.29699835028424, -426.93848691454036, -426.53040110583134])","array('d', [58.76581954956055, 57.39138305333494, 55.9861146623175, 54.553914544264245, 53.098969023985276, 51.62574222618085, 50.138962681998, 48.64363628542977, 47.1448897466902, 45.64729805252655, 44.15446494563073, 42.668962125918995, 41.192462768588456, 39.7259383127059, 38.26984903350748, 36.79029112260945])","array('d', [-45.092769622802734, -45.12572249474488, -45.168965980799996, -45.21959983856659, -45.27488668473346, -45.332424254179955, -45.39023649369917, -45.44679906198539, -45.501016037279996, -45.55216418223468, -45.599822385467, -45.64380144467374, -45.68408301462722, -45.72077115324566, -45.754056559241306, -45.784898261484244])","array('d', [0.6942049860954282, 0.7028831576984281, 0.7107354927697249, 0.717840579959659, 0.7242695291988698, 0.7300866832901662, 0.7353502547810787, 0.7186543345789798, 0.685174846773684, 0.641359762596454, 0.5923742617312455, 0.5420309587096948, 0.4929498631547352, 0.44677240582749855, 0.4043477890585441, 0.36586904255974895])","array('d', [0.017977761104702943, 0.025832025119397646, 0.03173554794784153, 0.03572262333241745, 0.0379723585686689, 0.03875025209574304, 0.03835836910005084, 0.03709731547094957, 0.03523875009937591, 0.03300920727839949, 0.030586196344626844, 0.028102403911917623, 0.025653676893684224, 0.023307863766891194, 0.02111294184821972, 0.01910378119957627])","array('d', [-2.702978122230393, -2.7579098753105873, -2.8137691141558223, -2.8704789272739637, -2.9279679294844434, -2.9861699988456256, -3.045024004691522, -3.1031856106894327, -3.158463244481149, -3.2095385067044124, -3.2558933670771695, -3.2975288849727784, -3.334731303261294, -3.3679166221141745, -3.397537190441842, -3.423419703652112])",-427.6942631662268,53.098969023985276,-45.27488668473346,0.7242695291988698,0.0379723585686689,-2.9279679294844434,14.999999854820613,-1.0,"[95.31633936065688, -404.1851103271917, 45.016326947945664]","[91.0359442533953, -420.0469268493709, 33.61102141313186]","[76.2674597686144, -409.46436989170905, 41.97172438959436]",10000000000.0,0.07055401802062988
18,15.005841493606567,54.2956657409668,-427.1160583496094,45.11539077758789,0.7081394195556641,-0.032946314662694896,-2.75905953645311,20.796864026789184,"array('d', [-426.2935791015625, -426.86649230975587, -427.3610792082661, -427.77461761064035, -428.1046850962915, -428.3491704724906, -428.50629077009074, -428.5752534117882, -428.5585944725211, -428.4617962111707, -428.29188763243434, -428.05634114795737, -427.76239652598724, -427.41671295852956, -427.025231800181, -426.5836019631373])","array('d', [57.132781982421875, 55.74728242433325, 54.33225795271986, 52.891728866154885, 51.42998990925127, 49.951604864408985, 48.46139404234296, 46.964432529320334, 45.46584292634666, 43.97012965790366, 42.480782697527495, 41.00023864876655, 39.53003059318806, 38.070995037068116, 36.62346738467048, 35.15402517993558])","array('d', [-45.09737777709961, -45.13706404115283, -45.186965845390624, -45.2439668670122, -45.305186562251464, -45.36814355357518, -45.430834140933264, -45.4917442618778, -45.54981343886288, -45.60436800636082, -45.65504181292089, -45.70169976497427, -45.74437278326668, -45.78320710473852, -45.81842750509455, -45.85105129489744])","array('d', [0.6985304951667786, 0.7067970405140459, 0.7142769207135788, 0.7210449967692774, 0.7271690056983072, 0.7327102383705218, 0.7377241476050233, 0.7211285606492097, 0.6875994940952576, 0.643649257969069, 0.5944897499744409, 0.5439625253582449, 0.4947031645244072, 0.4483600682571214, 0.4057844770398383, 0.367169011720963])","array('d', [0.022449130192399035, 0.030340557231939545, 0.03611128692134014, 0.039846119416594945, 0.041770726046279676, 0.04218960771435502, 0.041434789819514754, 0.039827856672773825, 0.037653356093872985, 0.03514399385640993, 0.032478427325963, 0.029787127190804927, 0.027161721692790006, 0.024664825835182296, 0.022338819462932858, 0.02021300123476713])","array('d', [-2.7218793511351174, -2.777271773461351, -2.8335536006349646, -2.8906506388032818, -2.948494093892728, -3.0070203039433734, -3.066170464521906, -3.1246166818378223, -3.180169546159517, -3.231493466086992, -3.2780650960508004, -3.319886835167169, -3.357248892996868, -3.3905716780014497, -3.4203114629823044, -3.446302468762598])",-428.1046850962915,51.42998990925127,-45.305186562251464,0.7271690056983072,0.041770726046279676,-2.948494093892728,14.999999854919471,-1.0,"[92.84397180718585, -406.4219218215874, 45.00547969846027]","[87.9325376345745, -422.16371549111796, 33.68851250605252]","[73.60919762472527, -411.20858697440866, 42.338777828262934]",10000000000.0,0.031534671783447266
19,15.064778804779053,53.892948150634766,-427.2234802246094,45.11947250366211,0.709459900856018,-0.03449520096182809,-2.7648451209028786,20.739555409292308,"array('d', [-426.54095458984375, -427.09968676277975, -427.57942423112286, -427.9775115306688, -428.2915954564822, -428.5196361187074, -428.6599241663903, -428.7116594717843, -428.677078116901, -428.5614291030486, -428.3716553114093, -428.1152445332137, -427.79951299010924, -427.431231129679, -426.75478785190234, -426.3127013382839])","array('d', [56.318851470947266, 54.92770286532167, 53.507732114285645, 52.063024593151056, 50.59793368248359, 49.11707726452313, 47.625325769592266, 46.12779092852238, 44.62961270816575, 43.135328276924554, 41.648457499497674, 40.17144731591918, 38.7058168244924, 37.25236574755163, 34.846431659343985, 33.400281693038636])","array('d', [-45.10097122192383, -45.144923803900205, -45.19905961876185, -45.260127654186576, -45.32515707878119, -45.391615463034874, -45.45747983769814, -45.52124059199508, -45.5818580021999, -45.6386892307664, -45.69140385472968, -45.73990327000656, -45.78425266430479, -45.82462839901991, -45.885695358807524, -45.919153678142514])","array('d', [0.7010653614997863, 0.7090906826829898, 0.7163522942301084, 0.7229228726533435, 0.7288681783780239, 0.7342477138674955, 0.7391153184954694, 0.7252186280290256, 0.6936475184481458, 0.6509748100369366, 0.6025111407263034, 0.5521930909914168, 0.5027295527836632, 0.4558176401115789, 0.4125329570863504, 0.3732752895461664])","array('d', [0.025277826935052688, 0.033201968739357844, 0.03889984333199277, 0.04248691872895772, 0.044217309396589896, 0.04441951351385247, 0.04344417219399825, 0.041626130358225204, 0.03925861279730747, 0.036579220131659464, 0.03376833591452833, 0.030955764859718432, 0.028230855258848872, 0.025652979807590785, 0.02324562167893732, 0.021033510090161987])","array('d', [-2.7319233298262184, -2.78758721241941, -2.8441179490912813, -2.9014429724908664, -2.9594950366961683, -3.0182119472050246, -3.0775362854066644, -3.136307622059473, -3.192434582873564, -3.244469421572737, -3.291801951520114, -3.3343766633011263, -3.3724472561750183, -3.4064102986420615, -3.4245915246211034, -3.4514496677074114])",-428.2915954564822,50.59793368248359,-45.32515707878119,0.7288681783780239,0.044217309396589896,-2.9594950366961683,14.999999851793941,-1.0,"[91.7392672572816, -407.3635075112883, 45.002030017583955]","[86.55239180101754, -423.0461829173391, 33.725948468142484]","[72.42935577245588, -411.93371646698193, 42.503929028934124]",10000000000.0,0.055597543716430664
20,15.128279685974121,51.899478912353516,-427.7189636230469,45.14774703979492,0.7153537869453429,-0.04231248050928107,-2.794384109969956,20.451480582960304,"array('d', [-426.6609802246094, -427.2123868289478, -427.6844499868258, -428.07454945247787, -428.38036838857465, -428.59990430441087, -428.7314864592508, -428.7743526491958, -428.730770972078, -428.60602612751075, -428.4070965008522, -428.14150014337935, -427.81657671590534, -427.43911367726065, -426.7473962527497, -426.2898008181263])","array('d', [55.91291046142578, 54.518914777522376, 53.09645980340479, 51.64966471200594, 50.18291354163852, 48.700852614914936, 47.20837878097534, 45.710624527664805, 44.21273214310734, 42.71922187286792, 41.23358320555264, 39.75822570731, 38.29462903520035, 36.843554503026645, 34.441993621666356, 32.97758330994696])","array('d', [-45.103240966796875, -45.149411503669576, -45.205725198451766, -45.268864432663925, -45.33581524440407, -45.40402237808722, -45.47145613669672, -45.5366118852066, -45.5984625164848, -45.65638198496055, -45.71005811262611, -45.759410059990046, -45.80451907177334, -45.84557517770304, -45.907662872849826, -45.942174983342305])","array('d', [0.7024182677268979, 0.7103148429206542, 0.717459960252862, 0.7239251303157078, 0.729775058552005, 0.7350682927760923, 0.7398578074178374, 0.7259845561150667, 0.6943940668673036, 0.65167771695558, 0.603159691291794, 0.5527849141648539, 0.5032666872160951, 0.4563040227412205, 0.4129730804207875, 0.37367352963220324])","array('d', [0.02675689756870259, 0.034681506909491865, 0.04032699140458165, 0.04382522063963715, 0.04544518106826179, 0.045527657735492055, 0.04443260665827453, 0.0425012992510636, 0.0400308300526924, 0.037260569921297934, 0.03437111049683773, 0.031491425771830776, 0.028709421552811084, 0.026082723937663987, 0.023633415928889644, 0.021384400663399507])","array('d', [-2.7370921254118503, -2.7929013482234617, -2.849565317431098, -2.9070123442557527, -2.9651760182067988, -3.023994935927455, -3.0834124250529102, -3.142273000522463, -3.1984859062467934, -3.25059819822562, -3.2979981087319787, -3.340630595352844, -3.3787506277656902, -3.412756168143083, -3.4309594732419235, -3.4574632203256908])",-428.38036838857465,50.18291354163852,-45.33581524440407,0.729775058552005,0.04544518106826179,-2.9651760182067988,14.999999854973893,-1.0,"[91.7392672572816, -407.3635075112883, 45.002030017583955]","[86.55239180101754, -423.0461829173391, 33.725948468142484]","[72.42935577245588, -411.93371646698193, 42.503929028934124]",10000000000.0,0.04761171340942383
21,15.240172147750854,49.925418853759766,-428.1481628417969,45.18760299682617,0.7209260463714597,-0.04951707273721688,-2.8239574313124245,20.17277583943989,"array('d', [-427.1160583496094, -427.63616173781736, -428.0754617173499, -428.4314905182506, -428.70208780967533, -428.885411800693, -428.97995774948134, -428.98512706340654, -428.9033272847391, -428.73999646785916, -428.5022633967761, -428.1977727883905, -427.83396121447487, -427.4176854653264, -426.66143443845846, -426.17125747611135])","array('d', [54.2956657409668, 52.89002766604089, 51.45749710148341, 50.002333290851126, 48.52904864571049, 47.04240937789184, 45.547423846188245, 44.04931193913588, 42.5532251381583, 41.063609540495236, 39.58382237522549, 38.1161112068534, 36.66178535711619, 35.221440800664986, 32.83951651165218, 31.40922997793318])","array('d', [-45.11539077758789, -45.17076701851206, -45.235986260972375, -45.307481805577275, -45.382089389278704, -45.45718602167652, -45.53073748283514, -45.60127868058617, -45.667849111075675, -45.72990238828132, -45.787208416063805, -45.839763590132364, -45.88771716697641, -45.931315748412274, -45.99721391670543, -46.03330824452396])","array('d', [0.7081394195556641, 0.7154915556897576, 0.7221440441601913, 0.728163465181884, 0.7336100630220971, 0.7385383489194635, 0.7429976461063763, 0.7292056151161764, 0.6975219613341216, 0.6546152996041101, 0.6058656108946994, 0.5552517068404953, 0.5055044139853405, 0.45832996968008144, 0.41480630706666727, 0.3753323018589767])","array('d', [0.032946314662694896, 0.040775046113393956, 0.04612226852745672, 0.049190116476468086, 0.05030906351143425, 0.04986899783606007, 0.04826571584564387, 0.04586400634961599, 0.04297397417715491, 0.03983966756278063, 0.03664037262091686, 0.033499955453898084, 0.030499127337145215, 0.027687426329830726, 0.02508071539564841, 0.022693971700669])","array('d', [-2.75905953645311, -2.815486926803964, -2.8727173001430484, -2.9306827657721133, -2.989320518240267, -3.048572562334408, -3.108385435717873, -3.1676236504390274, -3.2241985479572373, -3.276635928817502, -3.3243179276065304, -3.3671918579592997, -3.4055182642839092, -3.4397010854503876, -3.4579964548376774, -3.485022796889849])",-428.70208780967533,48.52904864571049,-45.382089389278704,0.7336100630220971,0.05030906351143425,-2.989320518240267,14.999999851851298,-1.0,"[88.57508222108288, -409.95401682797234, 44.99696397159631]","[82.6140566553085, -425.4543073223956, 33.85213697461357]","[69.0725656254449, -413.88910579200115, 42.955660152454364]",10000000000.0,0.10967683792114258
22,15.274582862854004,49.139366149902344,-428.3020324707031,45.206703186035156,0.7230796813964843,-0.051968988031148716,-2.8358125567396706,20.063931415427426,"array('d', [-427.7189636230469, -428.18835087515794, -428.57495372229187, -428.8765395677359, -429.09118658862377, -429.2172971620361, -429.2536190159418, -429.1996608484454, -429.0574049897222, -428.8320096811802, -428.5306024927938, -428.1610037152737, -427.73092003612584, -426.94220426620706, -426.1062976398689, -425.5674668839549])","array('d', [51.899478912353516, 50.47670693133228, 49.029707484216516, 47.56291809979548, 46.08101875536837, 44.58893481417736, 43.091823130039465, 41.595023244869985, 40.10375816994513, 38.62249829899387, 37.15454850183856, 35.702022891868964, 34.26602889196226, 31.89503696896214, 29.54002784273394, 28.127601527862847])","array('d', [-45.14774703979492, -45.21683310284165, -45.29492864209324, -45.37818520710545, -45.46330418842115, -45.54764308350877, -45.629229448113385, -45.706711045181436, -45.779266937547554, -45.84649891268453, -45.908320551418875, -45.96485844994776, -46.01637328831812, -46.09439290178256, -46.165125437658844, -46.2038571148868])","array('d', [0.7153537869453429, 0.7220193858444036, 0.7280506696802643, 0.733508001455131, 0.7384459998708612, 0.7429140859542169, 0.7469569774870031, 0.7379352904082429, 0.7094699541824516, 0.6683745486055256, 0.6202399586074684, 0.5692380621731028, 0.5182418108497895, 0.46967286928951074, 0.42507055365752644, 0.384619777083408])","array('d', [0.04231248050928107, 0.049711647160766544, 0.05438497355437302, 0.056643209989029004, 0.056905390670477236, 0.05562713657323267, 0.05324810445177499, 0.05015827475224083, 0.04667877430102503, 0.04305441272761583, 0.03945783624939426, 0.03600158478656158, 0.03275260582434512, 0.029723771560337665, 0.026916656124611266, 0.024355199719620472])","array('d', [-2.794384109969956, -2.8515993463439697, -2.9095509616841406, -2.9681760530621215, -3.027416533238167, -3.0872188533480354, -3.147533726479422, -3.2075354832608243, -3.265304877491372, -3.3191386290267695, -3.368244895825262, -3.412457639028928, -3.4519673360385816, -3.4730822535322763, -3.4918961947728278, -3.5196725261348725])",-429.09118658862377,46.08101875536837,-45.46330418842115,0.7384459998708612,0.056905390670477236,-3.027416533238167,14.999999851909587,-1.0,"[88.00798743381476, -410.39522598947656, 44.996699514652235]","[81.91277678287841, -425.86297156695207, 33.879269331772825]","[68.4749756151365, -414.2172555966514, 43.033656220872366]",10000000000.0,0.03183293342590332
