,current_time,x_pos,y_pos,z_pos,roll,pitch,yaw,vel,x_traj,y_traj,z_traj,roll_traj,pitch_traj,yaw_traj,x_cmd,y_cmd,z_cmd,roll_cmd,pitch_cmd,yaw_cmd,vel_cmd,effector_dmg,effector_x,effector_y,effector_z,cost,time_solution
0,6.07414436340332,-41.92808151245117,-252.0352325439453,45.06294631958008,0.6357161998748775,0.03785455971956236,0.7741723815586903,23.12611094849219,"array('d', [-254.5447540283203, -252.75823168324197, -251.01008137620653, -249.29246474712832, -247.59932737786295, -245.9259510654234, -244.2686554999996, -242.6245799956903, -240.99151293394078, -239.367752627768, -237.7519912738375, -236.14321777075494, -234.5406372997538, -232.9436066408416, -231.3515847499141, -230.37429209228256])","array('d', [-44.68013000488281, -42.932992052426755, -41.14637188240652, -39.3299952786943, -37.49066125684074, -35.6333091696125, -33.76160323729337, -31.87828959743565, -29.985435088927137, -28.08459873339081, -26.17696120252828, -24.263425407674394, -22.344695284726043, -20.42133669870769, -18.49382270248988, -17.303178135559506])","array('d', [-45.06510543823242, -44.9917254973543, -44.95037364608693, -44.92970539603183, -44.92252099630926, -44.92417003834005, -44.93158688000128, -44.942700804962556, -44.95607189572815, -44.97066535221703, -44.985712831075915, -45.00063033083873, -45.014974391407925, -45.02842538226215, -45.04079037584428, -45.047709347565444])","array('d', [0.6331705451011652, 0.5069432623793257, 0.40674814916619845, 0.32716444591641425, 0.26421502186127876, 0.2147668313077344, 0.17624323397139388, 0.1464736933981151, 0.12361072483124826, 0.10608197638051912, 0.09256146896104266, 0.08195169156238528, 0.07337216798864646, 0.06615218469374204, 0.059826474283824004, 0.05413323742565274])","array('d', [-0.0373159535229205, -0.02165823764604825, -0.011592804037408706, -0.005051141924635785, -0.0007678441058846774, 0.0020402339006511, 0.003862844126161064, 0.005009201997390489, 0.00567658837494668, 0.005992965258645341, 0.0060442351165936985, 0.005892368841683982, 0.005588019661743815, 0.005179637543015471, 0.004720064254800533, 0.004270890834642393])","array('d', [0.8097008029606675, 0.7845568111164438, 0.7652898705508661, 0.7502280695340263, 0.7382929687320944, 0.728726525911224, 0.7209677485535937, 0.7145900275342748, 0.7092659063132986, 0.7047451126041451, 0.70083927061814, 0.6974100728172836, 0.69435928328657, 0.6916197286047036, 0.6891468235107363, 0.6855171320567262])",-245.9259510654234,-35.6333091696125,-44.92417003834005,0.2147668313077344,0.0020402339006511,0.728726525911224,25.000000246074848,-1.0,"[-41.20704051605479, -251.2889083134284, 45.00654551434953]","[-35.89848436111432, -235.65276266383904, 56.290613077718305]","[-21.86627717297214, -246.79995828484954, 47.41158209365392]",10000000000.0,0.028669357299804688
1,6.110874652862549,-41.23139190673828,-251.42767333984375,45.06256866455078,0.6358898878097533,0.0383191145956515,0.7657770673420765,23.125564378474156,"array('d', [-253.5902099609375, -251.827762155144, -250.104099115484, -248.41111744933332, -246.74259333218356, -245.09369772866188, -243.46067944760554, -241.84063578690441, -240.23133436775572, -238.631068229189, -237.03853516823273, -235.4527368160508, -233.87289521950262, -232.29838583843843, -230.7286864467249, -229.76474499689775])","array('d', [-43.65668487548828, -41.88525718549382, -40.07499819959818, -38.23563697155736, -36.373945675610784, -34.49482618315412, -32.601901643864494, -30.697876356665606, -28.784775837988743, -26.864119019909257, -24.937048217468096, -23.00443011405002, -21.066934859358128, -19.12509719424322, -17.179361819682786, -15.977355782881748])","array('d', [-45.06416702270508, -44.99095294653445, -44.94970310295836, -44.929114299946086, -44.922006460480716, -44.923737174323776, -44.93124275086209, -44.94245148140081, -44.95592118732501, -44.97061442789514, -44.9857603077396, -45.000772611048426, -45.015206138535184, -45.02874007556194, -45.041180912825226, -45.04814412624468])","array('d', [0.6340001225471492, 0.5054446230617253, 0.4036776349355629, 0.3230615416786245, 0.25948330133784875, 0.209713184707296, 0.17109988568947523, 0.14141239057841076, 0.11875315553478043, 0.10150828258785241, 0.0883177284916897, 0.07805678112078095, 0.06982420917902327, 0.0629346854042848, 0.05691424375098705, 0.051498142031048674])","array('d', [-0.03723082691431028, -0.02160999590292564, -0.011559183819126222, -0.005021141808317959, -0.0007366162042872692, 0.002074296202142502, 0.003899723067067867, 0.005048134029861255, 0.00571653272003487, 0.006032850532945012, 0.006083089266519766, 0.00592938947376921, 0.005622614221280998, 0.005211447344176873, 0.004748978450949467, 0.00429705348356745])","array('d', [0.7960163513806201, 0.770890207132565, 0.7517345206890419, 0.7368342244123757, 0.7250884487589608, 0.7157252938258621, 0.70817424827104, 0.7020018536318064, 0.6968757366746721, 0.6925422544474975, 0.6888109455246468, 0.6855424797988514, 0.6826384483862342, 0.6800321409656035, 0.6776798567435471, 0.6742281281542746])",-245.09369772866188,-34.49482618315412,-44.923737174323776,0.209713184707296,0.002074296202142502,0.7157252938258621,25.000000246053006,-1.0,"[-40.504347511030026, -250.68720184467585, 45.00574709976997]","[-35.03567306777663, -235.08643767859633, 56.26228996461421]","[-21.122599356163107, -246.32374625137925, 47.30967716525402]",10000000000.0,0.030313491821289062
2,6.176245212554932,-40.176456451416016,-250.5278778076172,45.06153106689453,0.6336450576782224,0.03837271034717552,0.7526596943524221,23.12825927540292,"array('d', [-252.96238708496094, -251.21574254413903, -249.50815580498337, -247.83135115357533, -246.1789940756343, -244.54618279132438, -242.9291193837873, -241.32487330167024, -239.73119825825918, -238.14638356318264, -236.56913044306916, -234.99844866153597, -233.4335711294165, -231.87388537664313, -230.3188813502049, -229.36373066909033])","array('d', [-42.96804428100586, -41.181044517890136, -39.35561749981087, -37.50149808383647, -35.62544276283221, -33.732330142470815, -31.825757560879012, -29.908402954966814, -27.982265810433862, -26.048839828743606, -24.109243207100732, -22.164319865398774, -20.214718733471578, -18.260955008372544, -16.3034555885375, -15.094098289210454])","array('d', [-45.063724517822266, -44.99022211689923, -44.94877268622818, -44.928054705042115, -44.92087210387723, -44.92256908225124, -44.930071039593265, -44.94129752694524, -44.95479943571194, -44.9695338732493, -44.98472569800198, -44.99978544851919, -45.0142655362785, -45.027843518277706, -45.040324956551714, -45.04731216502244])","array('d', [0.6347348690032957, 0.5046413574564518, 0.4018333371944505, 0.3205297252494991, 0.25652828317958176, 0.20653609634669895, 0.16785314183653793, 0.13820895065943214, 0.11567329967041816, 0.09860514438756808, 0.08562216207570282, 0.07558183154514284, 0.06756931615165206, 0.06088969177377643, 0.05506325857167143, 0.04982330122895667])","array('d', [-0.037366289645433315, -0.021705956724040857, -0.011623444898105685, -0.005060640295150744, -0.0007572422364338171, 0.0020676998060617817, 0.0039032551389284256, 0.005058690379386002, 0.005731662724674368, 0.006050634401831149, 0.006102042493319427, 0.005948393846691808, 0.005640871157966662, 0.005228447863439567, 0.004764484082126286, 0.004311083560098914])","array('d', [0.7871440807965139, 0.7620193551273701, 0.7429280186495356, 0.7281260403377402, 0.716497602502559, 0.7072616034170617, 0.6998412173140381, 0.6937984378489186, 0.6887976186764, 0.6845828621911445, 0.6809622986478768, 0.6777958899243605, 0.6749850791165756, 0.6724634276377057, 0.6701877853054051, 0.666849126969004])",-244.54618279132438,-33.732330142470815,-44.92256908225124,0.20653609634669895,0.0020676998060617817,0.7072616034170617,25.000000246038127,-1.0,"[-39.43985282412792, -249.79697435813628, 45.003979256273404]","[-33.720289797486316, -234.24013742236014, 56.19645098230182]","[-19.996435536178527, -245.62816102416627, 47.1427919065971]",10000000000.0,0.0620121955871582
3,6.224863052368164,-39.46624755859375,-249.93594360351562,45.06061553955078,0.6241182088851925,0.03720310702919946,0.744040207066808,23.136611993738043,"array('d', [-252.0352325439453, -250.31194863958547, -248.6280994693882, -246.97516313292556, -245.34664629609068, -243.73754259334632, -242.1439870004672, -240.56300920321044, -238.99234341801633, -237.43027427814334, -235.87550875741331, -234.32706920040457, -232.7842050461104, -231.24632206491216, -229.71292854108228, -228.77070129224077])","array('d', [-41.92808151245117, -40.11858607881362, -38.27125538558207, -36.39583107967744, -34.49904489592499, -32.58574000548402, -30.65947508948253, -28.722889060057327, -26.777943199873548, -24.826094417697263, -22.868425903419887, -20.905748642844415, -18.93868093177293, -16.967709790574244, -14.993236469110256, -13.773252089393852])","array('d', [-45.06294631958008, -44.988419490862036, -44.946273122237216, -44.9250905948114, -44.91760883488229, -44.919124222956135, -44.926527663745155, -44.93771357689556, -44.9512143729667, -44.9659734654246, -44.981205532722306, -44.996313589539604, -45.010844613757705, -45.02447245535602, -45.03700046758086, -45.04401574829443])","array('d', [0.6357161998748775, 0.5033948718390235, 0.3990805929619944, 0.3167832966079139, 0.25217146036618704, 0.20186072489657916, 0.16308052440596285, 0.13350317618121138, 0.11115099526298737, 0.09434345962072069, 0.08166581704572017, 0.07194960981422943, 0.06426018258993017, 0.05788863308734846, 0.05234691529925704, 0.04736545197334513])","array('d', [-0.03785455971956236, -0.02204017870063052, -0.01184867493505227, -0.005208354811446829, -0.0008497765807872562, 0.0020143088541567647, 0.0038773736011050147, 0.005051795509433392, 0.005737455773234814, 0.006064432101788688, 0.006120363959906861, 0.005968685260355374, 0.005661326856440721, 0.005247897222810801, 0.004782321244910335, 0.0043272232938570045])","array('d', [0.7741723815586903, 0.749054283990604, 0.7300599906648529, 0.7154037269577675, 0.7039482295480446, 0.6948991877527693, 0.6876706830553848, 0.6818181362480497, 0.6770011560949876, 0.6729605697811507, 0.6695024598044382, 0.6664857592651483, 0.6638116988070757, 0.6614142398505523, 0.659251039297427, 0.6560782278030645])",-243.73754259334632,-32.58574000548402,-44.919124222956135,0.20186072489657916,0.0020143088541567647,0.6948991877527693,25.00000024601538,-1.0,"[-38.72358755963815, -249.2112569606042, 45.004192829790156]","[-32.83841021224933, -233.6372393658885, 56.086370573774744]","[-19.24037476509689, -245.1752655252624, 47.032786514210855]",10000000000.0,0.0423734188079834
4,6.25570821762085,-38.7502326965332,-249.3504638671875,45.05990219116211,0.6035363078117371,0.03452159464359272,0.7353422204640252,23.148207398230202,"array('d', [-251.42767333984375, -249.7196471176924, -248.05125339143802, -246.41382101356626, -244.80076014065597, -243.20700105265527, -241.6286385424745, -240.06267915208292, -238.50684663493013, -236.95942444054776, -235.41912486474538, -233.88497980265805, -232.3562506368968, -230.83235605327914, -229.31281719809903, -228.37886543443477])","array('d', [-41.23139190673828, -39.40752790978753, -37.546241933304344, -35.65727072863926, -33.747324054771276, -31.821218153902688, -29.882483943958515, -27.93373317219845, -25.97690106003829, -24.013419762590843, -22.044349144181762, -20.070478393155227, -18.092405621236626, -16.110599336211777, -14.125443962521391, -12.898761383642569])","array('d', [-45.06256866455078, -44.987069670282395, -44.944263528053746, -44.9226376527786, -44.91486351424761, -44.91619218004319, -44.92348276296848, -44.9346070923589, -44.948081333463705, -44.96283709634856, -44.978080429334774, -44.99320805006525, -45.00776242373767, -45.021414320644546, -45.03396522697332, -45.04099469492589])","array('d', [0.6358898878097533, 0.5022061643427893, 0.39697725994484107, 0.3140839719504511, 0.24911481059017593, 0.1986286349428715, 0.15981086201044215, 0.13029794699777233, 0.10808235225330702, 0.09145867045079259, 0.07899168703506884, 0.0694965816068567, 0.06202621314723836, 0.05586290167296494, 0.05051340146715574, 0.04570641990138499])","array('d', [-0.0383191145956515, -0.02235620450436312, -0.012062258473117678, -0.005350653079088334, -0.0009422143549695048, 0.0019567862849846278, 0.0038442032557146014, 0.005035418227033583, 0.0057323999163146795, 0.006066702047310155, 0.00612703334143637, 0.005977629348438131, 0.005671049657076602, 0.005257422254695343, 0.004791123779615536, 0.004335188157341225])","array('d', [0.7657770673420765, 0.7406866393572531, 0.721772089034354, 0.7072232570336998, 0.6958903394048833, 0.6869712259684437, 0.6798745640264373, 0.6741518083402747, 0.6694596911740784, 0.6655370579576206, 0.6621887679236687, 0.6592731661313206, 0.6566914062041775, 0.654377756166381, 0.6522904336026054, 0.6492294837678921])",-243.20700105265527,-31.821218153902688,-44.91619218004319,0.1986286349428715,0.0019567862849846278,0.6869712259684437,25.00000024600006,-1.0,"[-38.36340379173571, -248.92074761148325, 45.00482375105315]","[-32.39683415855987, -233.3014850324436, 55.979279696541994]","[-18.860887598128077, -244.94778590941166, 46.97140388721452]",10000000000.0,0.029575109481811523
5,6.345011472702026,-37.670433044433594,-248.4883575439453,45.06311798095703,0.551779747009277,0.027748204767703937,0.7219893495228624,23.166030479255884,"array('d', [-250.82626342773438, -249.1343641578536, -247.4822348902572, -245.86106037288417, -244.26415851910318, -242.68640000152394, -241.1238428813556, -239.57347383495537, -238.03300930922367, -236.5007346113243, -234.97537026941743, -233.45596048543476, -231.9417811666148, -230.4322663055333, -228.92695210599987, -228.0014869059611])","array('d', [-40.529441833496094, -38.69063675529958, -36.81490965781766, -34.911970385646036, -32.98849321292546, -31.049258393740626, -29.09776258507288, -27.13658545807646, -25.167632303869222, -23.192307373853183, -21.21164457411058, -19.22640904916992, -17.23717677841616, -15.244396045764198, -13.248432932700783, -12.014975823110822])","array('d', [-45.06194305419922, -44.98574340842942, -44.94245765673312, -44.920510384951434, -44.912528165401376, -44.91372967624033, -44.92095047654801, -44.932045134891524, -44.945517073167025, -44.96028843691044, -44.97555823204305, -44.99071797242436, -45.005306369035026, -45.01899163438522, -45.03157373188777, -45.038622042539636])","array('d', [0.6352066397666927, 0.5002437648783326, 0.39416835961296987, 0.3107383753267755, 0.24546546157873886, 0.19485329022687786, 0.15604405412006214, 0.12663870566730415, 0.10459999008199755, 0.08819765140979013, 0.07597602357428662, 0.0667339485369349, 0.05951185821354478, 0.05358339433277073, 0.048450252486186805, 0.04383960533541973])","array('d', [-0.03865215554833404, -0.022585684994357664, -0.012217760481716652, -0.005453163063224619, -0.0010068028435212444, 0.00191920031061493, 0.0038256454821281576, 0.005030019421428817, 0.005735809495873422, 0.006075680474565018, 0.006139172301543488, 0.0059911633086455985, 0.005684732033750559, 0.005270446018877439, 0.004803071225324601, 0.004345998654232936])","array('d', [0.7569474140789844, 0.7319297759497728, 0.7131305811997772, 0.6987191100548441, 0.6875348554129997, 0.6787688797433645, 0.6718249487724457, 0.6662508893928316, 0.6617007841602223, 0.6579116660303344, 0.6546873107643398, 0.6518855996309267, 0.6494077242484153, 0.6471883673302206, 0.6451864086247249, 0.6422512085957707])",-242.68640000152394,-31.049258393740626,-44.91372967624033,0.19485329022687786,0.00191920031061493,0.6787688797433645,25.000000245983586,-1.0,"[-36.54512766146615, -247.49742070277009, 45.02150101487168]","[-30.15746595376519, -231.26536339584948, 54.8050634280633]","[-16.94497473809549, -243.8554109151119, 46.62455125958844]",10000000000.0,0.0869135856628418
6,6.400003433227539,-36.20999526977539,-247.36026000976562,45.083763122558594,0.45446726679801924,0.015498028136789695,0.7028415362027027,23.18673039999237,"array('d', [-249.93594360351562, -248.26728701959743, -246.63789163950295, -245.03887682122533, -243.46351564440096, -241.9066602680851, -240.3643693328781, -238.8336445039183, -237.31222791439515, -235.79843803209997, -234.29103319307362, -232.78909764547282, -231.29194762413505, -229.7990562410126, -228.3099965851118, -227.3940616250523])","array('d', [-39.46624755859375, -37.60619823489004, -35.71064129813395, -33.789026643638806, -31.84786276339759, -29.891806369335786, -27.924256100838644, -25.94771013274522, -23.964003665600217, -21.974479266980584, -19.98011577498056, -17.981628792877114, -15.979549599304365, -13.974286151882735, -11.966168220673435, -10.725143325476186])","array('d', [-45.06061553955078, -44.9874119437651, -44.946127175854166, -44.92555347605163, -44.91854313792017, -44.92045495270319, -44.92821249084, -44.93972629851983, -44.95353587031528, -44.96858692300017, -44.98409409544194, -44.9994594312801, -45.01422883664897, -45.028075484176206, -45.040802737198995, -45.04793372629403])","array('d', [0.6241182088851925, 0.48998511987648147, 0.3837866069176924, 0.30045322712580536, 0.23545185754279982, 0.18524638267174903, 0.14694300397195642, 0.11811028663406836, 0.09668239917902016, 0.08090459102343779, 0.06930096736643644, 0.0606544638046979, 0.05399387805128051, 0.04858537617113175, 0.043927202446948484, 0.03974698004573657])","array('d', [-0.03720310702919946, -0.02162855225853557, -0.011568721557300023, -0.00500003260256285, -0.0006803111814943915, 0.002162342519223078, 0.004012828974036965, 0.005178799455203041, 0.005857590679388595, 0.006177979419418088, 0.006227019876763818, 0.006067979195021671, 0.005752870410197361, 0.005331532975619163, 0.004858209412383647, 0.004395889753509514])","array('d', [0.744040207066808, 0.7196091947258368, 0.7013060504948694, 0.687353320682544, 0.6765985574516262, 0.6682358577140016, 0.6616697573312854, 0.6564479855040262, 0.6522244060705463, 0.6487360950799744, 0.6457872945951397, 0.6432368005315829, 0.6409871117586373, 0.6389745100732259, 0.6371596422177146, 0.6344994521994545])",-241.9066602680851,-29.891806369335786,-44.92045495270319,0.18524638267174903,0.002162342519223078,0.6682358577140016,25.000000245959853,-1.0,"[-35.43752648707928, -246.66513574006572, 45.04834876878835]","[-28.77775954001298, -229.8863186519593, 53.65757645393127]","[-15.778763743493617, -243.2505672849378, 46.41720583095872]",10000000000.0,0.04934501647949219
7,6.45297384262085,-35.101715087890625,-246.5287628173828,45.11821365356445,0.37417086958885165,0.006032394245266783,0.6889043609288076,23.195710198495835,"array('d', [-248.774169921875, -247.13541349968324, -245.53212089801204, -243.9558751601365, -242.40030143887074, -240.8605362646593, -239.33288245721695, -237.81455949617884, -236.30350788887625, -234.79822839554936, -233.29764717993385, -231.80100273130964, -230.30775259647132, -228.81749893892558, -227.32993239232172, -226.41391996125782])","array('d', [-38.03190994262695, -36.144938761028406, -34.227056964282916, -32.28665548421553, -30.329583067871287, -28.3600481439647, -26.38112025180737, -24.395041017262557, -22.40343635450457, -20.40747233646054, -18.407975442181925, -16.405527655387104, -14.400541862410794, -12.39332045717164, -10.384098744911455, -9.142785107216527])","array('d', [-45.06127166748047, -45.00233734911335, -44.97063822595966, -44.95661940196776, -44.95417304525171, -44.95932179001198, -44.9694194387669, -44.9826597159527, -44.99777146587533, -45.013829016069195, -45.03013563438046, -45.04615510490842, -45.061476446074586, -45.07580248940486, -45.08895600025421, -45.09632537482526])","array('d', [0.5716472268104551, 0.44250744441839945, 0.34105091240620966, 0.261765660967858, 0.20033861898647876, 0.1533505200386255, 0.1179729059300426, 0.09181282089353737, 0.07282895487064694, 0.05928415718535002, 0.049717019250109455, 0.04292379600465343, 0.037946312190259304, 0.03406375116335155, 0.030787348309908927, 0.027857547278498686])","array('d', [-0.03032849915325625, -0.017045263298697662, -0.008458045059459993, -0.002850630502356703, 0.0008321082773276086, 0.0032466126558820074, 0.00480552331744838, 0.005770648053847151, 0.006309830891786965, 0.0065325815690772055, 0.0065131299489537475, 0.006305989589084807, 0.005956982157254438, 0.005511349265682899, 0.00501970951094629, 0.004542021098787743])","array('d', [0.7265600721028188, 0.704776497156654, 0.6885875219951976, 0.6764100039746932, 0.6671967976326625, 0.6601986922262795, 0.6548536504332056, 0.6507309102022162, 0.6474994792753896, 0.6449080559153448, 0.6427704570964211, 0.6409537644206841, 0.6393678561174146, 0.6379556784823054, 0.6366839261529681, 0.6348203648957594])",-240.8605362646593,-28.3600481439647,-44.95932179001198,0.1533505200386255,0.0032466126558820074,0.6601986922262795,25.000000245932092,-1.0,"[-34.69251748722738, -246.11788200522108, 45.07467097282821]","[-27.849825668873166, -228.9833075131502, 52.793733458305496]","[-14.997350712445847, -242.85943742641211, 46.29243311724401]",10000000000.0,0.048918724060058594
8,6.496999025344849,-34.36162567138672,-245.9821319580078,45.15476608276367,0.32194468379020663,-0.00019610609160742624,0.6805948774006705,23.195207115551845,"array('d', [-247.92132568359375, -246.30603014919188, -244.721420126924, -243.15972639979367, -241.61505974494784, -240.08294660049404, -238.56001909692287, -237.04378386586492, -235.53243640796808, -234.02470599254033, -232.51972435091676, -231.01691516292982, -229.51590293225522, -228.01644049001388, -226.51835463992325, -225.5948552592764])","array('d', [-36.94300079345703, -35.03541249340717, -33.10189229241336, -31.149710250912957, -29.18401422609976, -27.208532504483358, -25.225979926149993, -23.238320199301757, -21.24695158788478, -19.252847572697714, -17.256667970986847, -15.258848307504875, -13.25967144598572, -11.259323592100989, -9.257935807821955, -8.022093757656755])","array('d', [-45.070343017578125, -45.029298223350516, -45.009626035476224, -45.00382117274715, -45.00707236677507, -45.01623475904116, -45.02920488892174, -45.04453584633614, -45.06119821255787, -45.07843148778484, -45.09565341568342, -45.11240792809977, -45.12834020676852, -45.14319173771713, -45.1568104163276, -45.164438621923864])","array('d', [0.5058506131172177, 0.3844291732514986, 0.28944396093454805, 0.21560430221323368, 0.15888888575901128, 0.1160464562264499, 0.08435272081947283, 0.06148436852324292, 0.04545067259396212, 0.0345543663223919, 0.0273676667170579, 0.022716402493710708, 0.019668865855276177, 0.017527867164125698, 0.015825358503890424, 0.014319377827925393])","array('d', [-0.02171687781810751, -0.011294449336383643, -0.004555905635900633, -0.00016130320021161496, 0.0027142894028715846, 0.004584443913385098, 0.005771897949356446, 0.006481113858875023, 0.006842843383121848, 0.006942227924775107, 0.006837175718366861, 0.006570975217273279, 0.006181432307044731, 0.005707764067188769, 0.005195773751304509, 0.004701330625702832])","array('d', [0.7124571959164478, 0.6937571166630775, 0.6800348173204455, 0.6699304717074189, 0.6625129771488584, 0.6570979486831917, 0.6531630485136414, 0.6503040413448198, 0.6482091918262491, 0.6466422116137258, 0.645429262199741, 0.6444479288483212, 0.6436172026328713, 0.6428880192930155, 0.6422341255685939, 0.6412764615335711])",-240.08294660049404,-27.208532504483358,-45.01623475904116,0.1160464562264499,0.004584443913385098,0.6570979486831917,25.000000245912194,-1.0,"[-33.57015202460397, -245.30634863287582, 45.1311706251634]","[-26.47746360674618, -227.71900547538692, 51.48562824701552]","[-13.82912050863234, -242.27166954320637, 46.17155397188605]",10000000000.0,0.032440900802612305
9,6.550521373748779,-33.990447998046875,-245.71014404296875,45.176170349121094,0.2969159781932828,-0.003045769874006648,0.6766663948681693,23.193973094423278,"array('d', [-247.36026000976562, -245.76098329671305, -244.18870674314323, -242.63614628525292, -241.0977817110301, -239.56944045824554, -238.04801162033738, -236.5312272810831, -235.01748362630576, -233.50568970521232, -231.9951386406967, -230.48539906838613, -228.97622574865207, -227.467488702639, -225.95912037930952, -225.0448920077066])","array('d', [-36.20999526977539, -34.288708433223285, -32.34506866362645, -30.385601681604864, -28.414977863228575, -26.436590242705027, -24.452900738379903, -22.465671330028115, -20.476132595355082, -18.48511447193628, -16.49315140851326, -14.50056796645844, -12.507547944506376, -10.514188621718153, -8.520540969273194, -7.3116324245720685])","array('d', [-45.083763122558594, -45.05564035111993, -45.04465435650828, -45.04477526129232, -45.05212728142898, -45.06416762251557, -45.07918622440686, -45.095997247996785, -45.113747289681, -45.13179639769431, -45.14964606557727, -45.16689900088535, -45.18324165613323, -45.1984439482467, -45.212372217437256, -45.22003533323189])","array('d', [0.45446726679801924, 0.33920227785292945, 0.2492359820694112, 0.17965159302815112, 0.1266310440501201, 0.08704306447674405, 0.058239576968814745, 0.03794966839111979, 0.024221864010746604, 0.015390758297172253, 0.010056023346995263, 0.007067937061971903, 0.0055167515065253905, 0.004724802040283711, 0.0042409703854776526, 0.0038373890443345374])","array('d', [-0.015498028136789695, -0.007140155380792406, -0.0017387849482317994, 0.0017768608236660352, 0.004066568109340929, 0.0055411439144557924, 0.006458506732252433, 0.006981685846626789, 0.007214581535387885, 0.007224662009861524, 0.007057974184168658, 0.006749627380990242, 0.0063315640319720244, 0.005838568760729342, 0.005312873896651735, 0.004807287423786901])","array('d', [0.7028415362027027, 0.6864201378774722, 0.6745532329275705, 0.6660272783561094, 0.6599868987477784, 0.6557911369120614, 0.6529449451943813, 0.6510628468184108, 0.6498471265051209, 0.6490727117039105, 0.6485751640657472, 0.6482401615790983, 0.6479937544074947, 0.647793072574313, 0.6476173213007648, 0.6473561108594954])",-239.56944045824554,-26.436590242705027,-45.06416762251557,0.08704306447674405,0.0055411439144557924,0.6557911369120614,25.000000248512254,-1.0,"[-32.82095660962949, -244.77085227792693, 45.18073899686842]","[-25.578778351553666, -226.95034556589582, 50.65617455988145]","[-13.054888150996312, -241.87248618639742, 46.130481955830774]",10000000000.0,0.0491490364074707
10,6.584616184234619,-32.87385177612305,-244.89825439453125,45.253170013427734,0.22946093976497625,-0.009661725722253399,0.6657729307797291,23.18633855028058,"array('d', [-247.08181762695312, -245.49070390068246, -243.92468913789267, -242.37672953413406, -240.84149084076762, -239.3149543333229, -237.79414187773327, -236.2769029594687, -234.7617387957615, -233.24765279417318, -231.73402289072678, -230.22049390951423, -228.7068890380175, -227.19313980504833, -225.67923404994912, -224.7451472544192])","array('d', [-35.84164047241211, -33.913497076192776, -31.96478502369051, -30.00168165763166, -28.028629082489644, -26.048857115944877, -24.064702581370174, -22.077826327060706, -20.08937391896526, -18.10010186593771, -16.11048003312967, -14.120775509017793, -12.13112056803702, -10.14156608723701, -8.152121136982379, -6.924861990726238])","array('d', [-45.093231201171875, -45.07160051820732, -45.06497727158042, -45.06807176119393, -45.07747816491853, -45.09095654513644, -45.106994975562316, -45.1245392562487, -45.142824837196066, -45.16127269292742, -45.179426699418144, -45.19691934827084, -45.21345803162508, -45.22882710142149, -45.242902252706514, -45.25078146864635])","array('d', [0.42777222394943215, 0.31562768770691313, 0.22823327727035225, 0.1608457472234539, 0.10974276897118847, 0.07185005487054788, 0.04455597573766589, 0.025614930015935455, 0.01309468953537862, 0.005345752322527874, 0.0009817302512436289, -0.0011345134540163612, -0.0019013114123523876, -0.001986114629040615, -0.001831155488538933, -0.0016568981510800005])","array('d', [-0.012373801320791118, -0.005053123321642922, -0.000324370168931542, 0.002748698520738938, 0.004743171604018303, 0.006018313526283433, 0.0067994874921120585, 0.007228888961798234, 0.007396903291978615, 0.007362095748072369, 0.0071645327120769976, 0.006835194507750428, 0.006403057567488974, 0.005900656779083735, 0.005368402829721863, 0.004857531889271697])","array('d', [0.6979820291188098, 0.6827091761135454, 0.6717908690035418, 0.6640792145360932, 0.6587534827762485, 0.6551928806761989, 0.6529152325794285, 0.6515440798730814, 0.650788591745763, 0.6504293146571832, 0.6503065971999484, 0.6503102874554822, 0.6503701013615333, 0.6504464005121116, 0.6505212447238619, 0.6506320737303988])",-239.3149543333229,-26.048857115944877,-45.09095654513644,0.07185005487054788,0.006018313526283433,0.6551928806761989,25.000000245892338,-1.0,"[-32.07009945520921, -244.23770105269867, 45.23714702857429]","[-24.6905928700288, -226.243891700193, 49.902520276767675]","[-12.2825476612193, -241.4631425484085, 46.10583518115724]",10000000000.0,0.029758214950561523
11,6.640340805053711,-32.1278076171875,-244.35935974121094,45.313209533691406,0.1906827837228773,-0.01262958627194177,0.6590427319195608,23.17866848665368,"array('d', [-246.25497436523438, -244.68625724029332, -243.136978331714, -241.6007798804989, -240.0728705264358, -238.54968834154576, -237.02865419478252, -235.50797300182393, -233.98646512663979, -232.4634209624454, -230.93847617631752, -229.41150666805316, -227.88254265792722, -226.35170130598596, -224.8191372340336, -223.872125619927])","array('d', [-34.732086181640625, -32.78554111870028, -30.823488337544973, -28.851197716674974, -26.87250057078802, -24.89017949739904, -22.906221263792418, -20.921998556734426, -18.938411081123355, -16.956000472815305, -14.975045896318388, -12.99564357665321, -11.01777181722816, -9.04134227380747, -7.0662378890735855, -5.848350768263142])","array('d', [-45.135440826416016, -45.133605621107804, -45.14027541714866, -45.15241382178605, -45.168049016462774, -45.185867111298045, -45.2049631509844, -45.224686889490236, -45.24454687267847, -45.26415163038691, -45.283175719268705, -45.301343615214286, -45.31842747044009, -45.334256302895405, -45.348734689060834, -45.35683981441864])","array('d', [0.34779328107833846, 0.24478984182032348, 0.16502364417967846, 0.10420397077597075, 0.05886282257974158, 0.02607924971034913, 0.0033411290446203543, -0.011526575854911325, -0.020400965098131427, -0.02488471282905225, -0.026322228846262657, -0.025812174357816457, -0.024217696372976848, -0.02217468468516883, -0.020097980112313975, -0.01818540607595606])","array('d', [-0.0028468046803026767, 0.0013093069898883587, 0.003981952649460333, 0.005700147404686987, 0.0067899109486523855, 0.0074536138403898744, 0.007817299402878109, 0.007959483050098247, 0.007929176038909276, 0.007757652106508292, 0.007466620773769054, 0.007074367436204552, 0.0066007244230272925, 0.006071258723128119, 0.005520699430816845, 0.004995335564902442])","array('d', [0.6846729675915577, 0.6727190793929598, 0.6645867844267347, 0.6592909945431108, 0.6560988995011054, 0.6544419324998139, 0.6538720818771604, 0.6540375505067406, 0.6546669315378331, 0.6555570581887871, 0.656562428949992, 0.6575853706429234, 0.6585666394987458, 0.6594763525727417, 0.6603051860685456, 0.6615214799053146])",-238.54968834154576,-24.89017949739904,-45.185867111298045,0.02607924971034913,0.0074536138403898744,0.6544419324998139,25.000000245874297,-1.0,"[-30.942034012781452, -243.4408924915694, 45.33215340947822]","[-23.373014816355923, -225.2823634363882, 48.93462075232571]","[-11.126784821135612, -240.8366703322645, 46.08973272411412]",10000000000.0,0.04026317596435547
12,6.694136619567871,-30.637392044067383,-243.28521728515625,45.449825286865234,0.12751111388206463,-0.015511401928961393,0.647685603299413,23.166276487602964,"array('d', [-245.71014404296875, -244.15502198153357, -242.61575204005146, -241.086387326201, -239.56246981998535, -238.04072411610022, -236.51882544981092, -234.99520781223376, -233.46889857318422, -231.93937481670255, -230.40643995563462, -228.87012012714908, -227.33057988920496, -225.78805655863277, -224.2428124380317, -223.2872670322499])","array('d', [-33.990447998046875, -32.03304368227582, -30.063169668630042, -28.085615116488437, -26.103874666208544, -24.12047568257447, -22.137199053663625, -20.15524367767979, -18.175357968775398, -16.197949273253787, -14.223176177684234, -12.251025937659033, -10.281378031780045, -8.314054325490675, -6.348856105727175, -5.13768256876154])","array('d', [-45.176170349121094, -45.18657367787409, -45.201447900378234, -45.21914986496206, -45.238596744536004, -45.259050089414316, -45.27998291093418, -45.3009970090359, -45.32177166726756, -45.342032926718, -45.361537419600154, -45.38006754708466, -45.39743634529607, -45.41350106689187, -45.42818449227879, -45.43640295152771])","array('d', [0.2969159781932828, 0.1995062231247044, 0.12448481254732584, 0.0677984203763967, 0.026114141452487933, -0.003407141366952553, -0.02322401453272524, -0.03547274589319549, -0.04199908925954252, -0.04437803621935267, -0.04392832430604862, -0.041724487020805646, -0.03860723592804776, -0.03519213285103097, -0.03187628784184386, -0.028842860595761678])","array('d', [0.003045769874006648, 0.0052403094453864095, 0.006635859065968279, 0.007511228352076052, 0.008037650463728258, 0.008320489556009584, 0.008424232547229502, 0.008387850664808306, 0.008234623195389885, 0.007978828858072131, 0.007630730644440093, 0.0072006811363075065, 0.006702775289350724, 0.006158175484710512, 0.005597977632695185, 0.0050652597798019955])","array('d', [0.6766663948681693, 0.6667470286894742, 0.6603562356240884, 0.6565896703497514, 0.6547591551757611, 0.6543232558077692, 0.6548522943827365, 0.6560082825236115, 0.6575311853236998, 0.6592277398784742, 0.6609612899690706, 0.6626421043155035, 0.6642180401872819, 0.6656655234415383, 0.666980814034986, 0.6689102956457548])",-238.04072411610022,-24.12047568257447,-45.259050089414316,-0.003407141366952553,0.008320489556009584,0.6543232558077692,25.000000245863383,-1.0,"[-29.815659957022802, -242.64525162439685, 45.43680561035764]","[-22.086780668779966, -224.40076167887895, 48.157653194414394]","[-9.978465738863047, -240.18443810257227, 46.09264275616025]",10000000000.0,0.0493929386138916
13,6.726550579071045,-30.265378952026367,-243.01708984375,45.48629379272461,0.11435197293758374,-0.015576146543026075,0.6453257362034657,23.16317055863963,"array('d', [-244.6286163330078, -243.0983871187868, -241.5778390100563, -240.06167637104946, -238.54598572645025, -237.02797306064258, -235.50575071286565, -233.978152768262, -232.4445720553098, -230.90481739921955, -229.35899129725635, -227.807388063076, -226.250411951363, -224.68851435348253, -223.12214899835433, -222.15230302648])","array('d', [-32.50093460083008, -30.524163210522467, -28.539915230130426, -26.552301437367273, -24.56431850016645, -22.57810046785369, -20.59509959386466, -18.61622917094255, -16.64198318300818, -14.672539129581784, -12.707846503136045, -10.747701779780755, -8.791810210923957, -6.839834551754515, -4.891430835676834, -3.6916714368141452])","array('d', [-45.28245162963867, -45.309835728673455, -45.3360392097017, -45.36136334990276, -45.38596968452409, -45.40992747128197, -45.43324172353573, -45.45587008413151, -45.47773375942361, -45.49872604781771, -45.51872105789911, -45.53758464195555, -45.55518912035719, -45.57143285550008, -45.58626500909858, -45.59456489724781])","array('d', [0.209430858492851, 0.1210510215847092, 0.05384573217534058, 0.004081153474656254, -0.03139638486215882, -0.055320411280225794, -0.0700819446978178, -0.07776793646881508, -0.0801824405504006, -0.07886124888617245, -0.07508455557505701, -0.06988896833578113, -0.064078720399948, -0.058235481526521526, -0.05272620383467574, -0.04770864645718668])","array('d', [0.011234024539589974, 0.010682886927005588, 0.010286887727173153, 0.009977924913227144, 0.009711898348000566, 0.009458845713399375, 0.00919719123592515, 0.008910526456413801, 0.008586049572006855, 0.00821418192619235, 0.0077890880606940015, 0.007309915929281952, 0.0067825802275881, 0.006221853414766482, 0.00565342170725997, 0.005115427657514871])","array('d', [0.6623075763371326, 0.6557891846073288, 0.6523697907516254, 0.6512490132514239, 0.6517966419560938, 0.6535070192870208, 0.6559755384832572, 0.658884192795136, 0.6619904348954226, 0.6651170316133614, 0.668142187755501, 0.6709898575179946, 0.6736203389644088, 0.676021227201551, 0.6781987287668187, 0.681391955622681])",-237.02797306064258,-22.57810046785369,-45.40992747128197,-0.055320411280225794,0.009458845713399375,0.6535070192870208,25.000000245842376,-1.0,"[-29.441312489057534, -242.38031265845433, 45.47309145674515]","[-21.662872939260843, -224.12022233359386, 47.93580936549871]","[-9.597477916568447, -239.9641818865631, 46.09320560172745]",10000000000.0,0.03297305107116699
14,6.766493797302246,-29.521116256713867,-242.4807586669922,45.561038970947266,0.09089569002389893,-0.015053629875183204,0.6411304036763054,23.15773183467911,"array('d', [-244.35935974121094, -242.8348863566524, -241.318766745637, -239.8058346336875, -238.29228806414736, -236.7754342682106, -235.2534794103055, -233.72534469081813, -232.19050325901154, -230.64883726680307, -229.1005155242501, -227.5458918784559, -225.98542379046955, -224.4196101209874, -222.84894697369518, -221.87616485260014])","array('d', [-32.1278076171875, -30.14663490122048, -28.159026783101112, -26.168969331860072, -24.179364250442294, -22.192268095354134, -20.209066510628666, -18.23061352901582, -16.257349361226947, -14.289402247597742, -12.326676407027936, -10.368926699712977, -8.415820168448876, -6.4669845405304205, -4.522043781545304, -3.32464676970745])","array('d', [-45.313209533691406, -45.34348051856938, -45.37159533256178, -45.398189607844586, -45.42363951550287, -45.44815405176795, -45.47183056401173, -45.494688685232745, -45.516691963458214, -45.53776314749586, -45.55779718845086, -45.57667487580469, -45.59427923507309, -45.610516093361085, -45.62533937404172, -45.633634046481816])","array('d', [0.1906827837228773, 0.10412811248053801, 0.0385304855788311, -0.009789229756867546, -0.04395513921033319, -0.06668435992329028, -0.08035797872085615, -0.0870557295759078, -0.08857517179207261, -0.0864454380459744, -0.0819396690887332, -0.07608714918411594, -0.06968479859082449, -0.06330730574014101, -0.05731527502182786, -0.05186101015732685])","array('d', [0.01262958627194177, 0.011604888247596127, 0.010899209441182025, 0.010385187005879287, 0.009981819700224296, 0.009635894245282777, 0.009311018185106172, 0.00898123493513595, 0.00862751557520353, 0.008236159782770631, 0.0077985447882395805, 0.007311867368810996, 0.00678059908485433, 0.006218358215874149, 0.0056498202201092215, 0.005112168896872526])","array('d', [0.6590427319195608, 0.6532414973005161, 0.6504583435294075, 0.6499101095185256, 0.6509761217295905, 0.6531566421362495, 0.6560513673039485, 0.6593459375376158, 0.6628012027303768, 0.6662431985592134, 0.6695532629529101, 0.6726582989062826, 0.6755213230320295, 0.6781323931062423, 0.6804999205843718, 0.6839715739304464])",-236.7754342682106,-22.192268095354134,-45.44815405176795,-0.06668435992329028,0.009635894245282777,0.6531566421362495,25.00000024583726,-1.0,"[-29.067168480758287, -242.1150112308112, 45.50965706779369]","[-21.24528313770111, -223.84251959654227, 47.73095379620233]","[-9.21756829851726, -239.7376219668985, 46.09394543239602]",10000000000.0,0.03201723098754883
15,6.8032941818237305,-28.7766056060791,-241.94415283203125,45.63688278198242,0.07028628885745981,-0.013602351769805055,0.6372797052052358,23.153205553222318,"array('d', [-243.82159423828125, -242.30759821394355, -240.7995520847252, -239.2925151865574, -237.78288347894375, -236.26814634043276, -234.74668032485553, -233.21756577392148, -231.68042305919892, -230.13526895049907, -228.58239405202545, -227.02226151818616, -225.45542642164833, -223.88247461404418, -222.3039797565398, -221.32584140692768])","array('d', [-31.381099700927734, -29.391975230139426, -27.39827456152354, -25.40377377997762, -23.411212202219357, -21.42251190273933, -19.43894137334063, -17.46124924531868, -15.489779243439639, -13.524570641407026, -11.565445502967048, -9.612082917795629, -7.664080198439779, -5.721001040526053, -3.7824107182407887, -2.5893384265963997])","array('d', [-45.37893295288086, -45.41338142934349, -45.44423509568736, -45.472621415862996, -45.49923297976181, -45.52448527049278, -45.54861245054186, -45.57172633006674, -45.59385371412842, -45.614961625343135, -45.634976597409924, -45.65380226194201, -45.67133816120045, -45.68750170162431, -45.70225414438909, -45.71050888641002])","array('d', [0.15682052075862865, 0.07348083513128392, 0.010737751807940208, -0.03499944368948511, -0.06680836579317925, -0.08738142693068476, -0.09908538160913558, -0.10398953839014, -0.10388156606268949, -0.1002798200871712, -0.0944455139326618, -0.08739520108619978, -0.0799128694420062, -0.07256072413388999, -0.06568793120757684, -0.05943690344849755])","array('d', [0.014655529521405813, 0.012932864462614055, 0.011770093723090963, 0.010953080229747812, 0.010346688883105413, 0.009863547011394176, 0.009445470958102806, 0.009052452379774704, 0.008656294646631733, 0.00823722582281924, 0.007782508460042501, 0.0072864409082315845, 0.006751320449059601, 0.0061889829407831805, 0.005622490053143321, 0.005087439536911833])","array('d', [0.653124109902654, 0.6486104855257576, 0.6469771660991326, 0.6474682594026894, 0.6494780636189343, 0.6525161569700272, 0.6561891797529839, 0.6601888888998982, 0.6642820338314395, 0.6683004651848674, 0.6721311775512991, 0.6757064440679782, 0.6789942563838239, 0.6819891906487425, 0.6847037082230264, 0.6886836521525238])",-236.26814634043276,-21.42251190273933,-45.52448527049278,-0.08738142693068476,0.009863547011394176,0.6525161569700272,25.000000245827717,-1.0,"[-27.94512389310059, -241.31780995582315, 45.62066619978698]","[-20.00994084675189, -223.0280694164488, 47.20756916572626]","[-8.08061818741475, -239.04203138471237, 46.092094841309425]",10000000000.0,0.033559322357177734
16,6.837260961532593,-28.404279708862305,-241.67567443847656,45.67466354370117,0.06077320501208285,-0.012527340091765031,0.635518626370702,23.152122132499734,"array('d', [-243.28521728515625, -241.78094763691252, -240.28053928582364, -238.77923350396892, -237.27359089405573, -235.76125602420214, -234.24075308716206, -232.71130188349065, -231.1726527443017, -229.6249418131262, -228.06856798102055, -226.50409171279236, -224.93215500671616, -223.35342114933107, -221.76853277240104, -220.78597420304814])","array('d', [-30.637392044067383, -28.640931596459165, -26.64149336646189, -24.642684677987532, -22.64711250184816, -20.656587578816485, -18.672279897030794, -16.694848242859045, -14.724553178999923, -12.761356644780928, -10.805008841738129, -8.855122281844963, -6.911232810426181, -4.972847551707085, -3.0394798441518702, -1.8499756788845743])","array('d', [-45.449825286865234, -45.48601073552214, -45.51794736889437, -45.546984537025814, -45.573958538146364, -45.599379384228286, -45.62354451866086, -45.64660898782138, -45.66862984486143, -45.689595832629, -45.70944947954266, -45.728106402947084, -45.745475105423516, -45.761479402712546, -45.77608453101797, -45.7842568802584])","array('d', [0.12751111388206463, 0.04682527601958289, -0.013530492623881748, -0.057082839110087304, -0.08687799812845658, -0.1055937464905005, -0.1155896818668553, -0.1189301473702112, -0.11739733091628363, -0.11250254143782584, -0.10549831274182955, -0.0973913231967049, -0.0889551228528288, -0.08074156545171014, -0.07309013107509092, -0.06613469147084954])","array('d', [0.015511401928961393, 0.013471994020541415, 0.01210088226653532, 0.011145315978831059, 0.010445970338355275, 0.009900162215164628, 0.00943992405525395, 0.009018935910965878, 0.008604884685921318, 0.00817526895579385, 0.007715485615322861, 0.007218482662327383, 0.006685482635315193, 0.0061273534045882755, 0.0055661772924125675, 0.005036485639289408])","array('d', [0.647685603299413, 0.6442811597875148, 0.6436474167211618, 0.6450479192631661, 0.6478873331826982, 0.6516816248551095, 0.6560423715158219, 0.6606659690672883, 0.665323907971678, 0.669852901850886, 0.6741447965391765, 0.6781365440637869, 0.681800514806437, 0.6851352879431751, 0.6881569275293197, 0.6925865872582719])",-235.76125602420214,-20.656587578816485,-45.599379384228286,-0.1055937464905005,0.009900162215164628,0.6516816248551095,25.000000245818427,-1.0,"[-27.197228502822092, -240.78535185513624, 45.6934540623505]","[-19.194885617097913, -222.49627250948987, 46.90674917399952]","[-7.323917839227132, -238.57087025425406, 46.077634368453204]",10000000000.0,0.031099319458007812
17,6.894312381744385,-26.91664695739746,-240.6007080078125,45.82186508178711,0.025369670242070954,-0.0074571506120265476,0.6292120377209521,23.139012547906226,"array('d', [-243.01708984375, -241.5170313099076, -240.019894805924, -238.52100102035388, -237.01698379092096, -235.50555753487356, -233.98531333485485, -232.45553437424348, -230.91603010810277, -229.36699097098182, -227.80886505027084, -226.2422569559853, -224.6678480570037, -223.08633665556303, -221.4983965247619, -220.51373891445957])","array('d', [-30.265378952026367, -28.26575412319726, -26.263865215407126, -24.26324689857296, -22.266448816498837, -20.275233064787724, -18.290726196898387, -16.31354706291132, -14.343919026674357, -12.381769277070104, -10.42681562174206, -8.478640496865081, -6.536751941142832, -4.600631462450219, -2.6697688659921943, -1.4819643826590763])","array('d', [-45.48629379272461, -45.52258994670066, -45.55455359056503, -45.58356160892524, -45.610468669922874, -45.63579731123097, -45.65985376005115, -45.68279944321975, -45.70469624308272, -45.72553671496927, -45.74526650225784, -45.76380380489317, -45.781059223918604, -45.7969581447322, -45.81146672586683, -45.81958515416012])","array('d', [0.11435197293758374, 0.03484157216930278, -0.024451143605973016, -0.06702656063792552, -0.09591853182003404, -0.11379947898359674, -0.12302664327143491, -0.12566271403408139, -0.1234877766716932, -0.11801017478411069, -0.11047863370959643, -0.10189541726593633, -0.09302936974130471, -0.08442766154118192, -0.07642538716357758, -0.06915255625169354])","array('d', [0.015576146543026075, 0.013496494536732, 0.012098441425778858, 0.011124738027495367, 0.010413196547499136, 0.009859303270879523, 0.009393916361002355, 0.008969960300922026, 0.008554632030350109, 0.008125103934601316, 0.0076665394967930615, 0.0071716935334345845, 0.006641594435132308, 0.006086881711810786, 0.005529349155054349, 0.005003162159567725])","array('d', [0.6453257362034657, 0.6424177249918348, 0.6422332103231974, 0.6440434929409333, 0.6472573129153681, 0.6513931567231309, 0.6560646215770751, 0.6609700895726711, 0.665883146404281, 0.6706426922804014, 0.675142772647082, 0.6793224684160185, 0.6831561440663884, 0.6866442008850029, 0.6898043408707228, 0.6944367497227261])",-235.50555753487356,-20.275233064787724,-45.63579731123097,-0.11379947898359674,0.009859303270879523,0.6513931567231309,25.00000024581432,-1.0,"[-26.07677664491607, -239.98518986099728, 45.79927468032007]","[-17.984054615816007, -221.70883546406108, 46.49405530563237]","[-6.1919409134881, -237.85650971738383, 46.04833045783026]",10000000000.0,0.04854583740234375
18,6.924343109130859,-26.545223236083984,-240.33163452148438,45.857208251953125,0.016689846292137905,-0.006108295638114313,0.6279281536724904,23.13712952274598,"array('d', [-241.94415283203125, -240.45850085583476, -238.9726143731734, -237.48206184970323, -235.9837141909804, -234.4755175120361, -232.95628819708614, -231.4255248901299, -229.88323908897416, -228.32980726507813, -226.76584627556892, -225.19211218463082, -223.6094213522387, -222.0185920113657, -220.42040444976632, -219.42866372195778])","array('d', [-28.7766056060791, -26.76618119837688, -24.75588177626902, -22.749010135505046, -20.747932250094827, -18.754252794256214, -16.76895601861886, -14.792528403151174, -12.825068835902458, -10.866387382317289, -8.91609209971648, -6.973663155458073, -5.038513798833442, -3.1100380673194215, -1.1876453174787316, -0.005563579560728415])","array('d', [-45.63688278198242, -45.66896353231058, -45.69787432309217, -45.72459026804281, -45.749710520603195, -45.77359363142553, -45.7964398816324, -45.81834204746071, -45.83931763857001, -45.85933082435145, -45.87830945941542, -45.89616093751272, -45.91278949168287, -45.92811666039791, -45.94210571344174, -45.949934422514275])","array('d', [0.07028628885745981, -0.005444827190733247, -0.06127886149803085, -0.10064308025701633, -0.12654089922198578, -0.1416354139477062, -0.14828270555876882, -0.14854508127867472, -0.14419941808999615, -0.13674688582967012, -0.12742537026793968, -0.117223626814775, -0.10689554070462395, -0.09697304716989681, -0.08777674122832095, -0.079423687084831])","array('d', [0.013602351769805055, 0.012088213944077558, 0.011058119056449857, 0.010327236557215357, 0.009778458439864033, 0.009335706801391775, 0.008948015169355703, 0.008580079468783726, 0.008206816999635937, 0.007810513711979074, 0.007379726533787705, 0.006909422904144115, 0.006401983637655165, 0.00586872401514631, 0.005331538191164674, 0.004824175381634008])","array('d', [0.6372797052052358, 0.6360312712671028, 0.6373595133614034, 0.6405567659091246, 0.6450422276129947, 0.6503407424167, 0.6560713595371856, 0.6619383479973289, 0.6677219246112207, 0.6732681744941572, 0.6784785222597741, 0.6832992741802704, 0.6877116076587688, 0.6917221727358006, 0.6953542992907447, 0.7006772797511943])",-234.4755175120361,-18.754252794256214,-45.77359363142553,-0.1416354139477062,0.009335706801391775,0.6503407424167,25.000000245799484,-1.0,"[-25.703943454954466, -239.7179707326182, 45.833050704034086]","[-17.585764751263135, -221.447217922358, 46.357232238716016]","[-5.815934415339228, -237.61407069559849, 46.034795776863874]",10000000000.0,0.02525496482849121
19,6.95361852645874,-25.802234649658203,-239.79281616210938,45.9262580871582,-0.0012289526639508166,-0.0033943585585803795,0.625360623994146,23.134824280884967,"array('d', [-241.67567443847656, -240.1931826891304, -238.70977236015239, -237.221061783143, -235.72397141856786, -234.21649699565808, -232.69750385402838, -231.16653785694334, -229.62365499153324, -228.06927279099583, -226.50404539503432, -224.92876232200692, -223.34426972832995, -221.7514122897509, -220.150993746866, -219.15770482462688])","array('d', [-28.404279708862305, -26.391488738124888, -24.3793393790901, -22.371086421870473, -20.369057697014274, -18.374824882678645, -16.389342056871715, -14.413067329828358, -12.446072679761963, -10.48814268822045, -8.53886142367341, -6.597686629789957, -4.6640107285428885, -2.737208511893797, -0.816671620111507, 0.3641615599375799])","array('d', [-45.67466354370117, -45.70447768390689, -45.73180364025005, -45.757382559868674, -45.781663780660615, -45.804908865716826, -45.82725467483424, -45.84875214551912, -45.86939099159665, -45.889116831924014, -45.90784512508911, -45.925475001387795, -45.94190521180334, -45.95705366263164, -45.97088117012583, -45.97861986608718])","array('d', [0.06077320501208285, -0.014173787568328851, -0.06928169661963875, -0.10796490583277402, -0.13322247313117466, -0.14771723466562361, -0.1538064032737887, -0.1535532640298286, -0.14873478738399878, -0.14085115665563555, -0.13113830470459262, -0.1205823258525625, -0.10993403378375846, -0.09972216157783168, -0.0902642088799619, -0.08167444109597977])","array('d', [0.012527340091765031, 0.011344274520441386, 0.010530501615862694, 0.00994279533114794, 0.009490039559107733, 0.009112592934285183, 0.008770007328682982, 0.008433789859606114, 0.008083320999008057, 0.00770384536189127, 0.007285901412353975, 0.00682579205645267, 0.006326795172614821, 0.00580081409007058, 0.005270101683342673, 0.004768585325524767])","array('d', [0.635518626370702, 0.6346282939423215, 0.6362851274951614, 0.6397850402713927, 0.6445488561160135, 0.6501023742121443, 0.6560655581537163, 0.6621437970576806, 0.6681186661012215, 0.6738377787625162, 0.6792041601378516, 0.6841656999173886, 0.6887050769610467, 0.6928303225727567, 0.69656601234923, 0.7020404344943124])",-234.21649699565808,-18.374824882678645,-45.804908865716826,-0.14771723466562361,0.009112592934285183,0.6501023742121443,25.000000245796063,-1.0,"[-25.33137629563313, -239.45044688208395, 45.866370638433324]","[-17.189663401816556, -221.1860889135596, 46.220967807431734]","[-5.440494876477569, -237.36996036018846, 46.02261468249044]",10000000000.0,0.028274059295654297
20,6.9888036251068115,-25.430665969848633,-239.52308654785156,45.95990753173828,-0.01046764757484217,-0.00196245708502839,0.624092117944036,23.134823684068145,"array('d', [-241.13829040527344, -239.66189741469395, -238.18328445820308, -236.69816234290883, -235.20354448010028, -233.69752048263547, -232.17904887786048, -230.64776574422865, -229.10381224928852, -227.5476846291459, -225.98010851083075, -224.40193755495446, -222.81407502563684, -221.21741624886928, -219.6128098555728, -218.6166050905809])","array('d', [-27.65958023071289, -25.642244783523417, -23.6265242701057, -21.615587070616485, -19.611691529638964, -17.616348499426984, -15.630455856574585, -13.654418435088619, -11.688257375852242, -9.731708914905884, -7.784311480958733, -5.8454800734757155, -3.9145673625310358, -1.9909113766116207, -0.07386989531653673, 1.104613673164379])","array('d', [-45.749576568603516, -45.774489455904806, -45.798396126921865, -45.82152993526528, -45.84401469222378, -45.86590097467995, -45.887187495837466, -45.90783391260169, -45.92776916718341, -45.94689820158463, -45.965109183542666, -45.98228295542889, -45.99830606425733, -46.01308829732657, -46.02658501161802, -46.034139414132476])","array('d', [0.04278044775128345, -0.03071784372330465, -0.08447496673430713, -0.1218838148230115, -0.14593747228677573, -0.15930012891364465, -0.16433261876800334, -0.1631012294320477, -0.15738397443536176, -0.14867979911846702, -0.13822138153242242, -0.12699007718641386, -0.1157310764242988, -0.10496716154400344, -0.09501002304243034, -0.08596863171803412])","array('d', [0.010201035067439176, 0.009737339988673615, 0.009394015562224642, 0.009117901254747311, 0.00887421191802755, 0.00863896201259944, 0.008394538039459188, 0.008127242049916534, 0.007826153299181212, 0.007482948813014396, 0.007092479358521741, 0.0066539615391695475, 0.006172642645687399, 0.005661735685364434, 0.005144319755106962, 0.004654773120112186])","array('d', [0.6321325461056572, 0.6319198253757073, 0.6342006136334115, 0.6382766584792432, 0.6435712243004814, 0.6496114904921675, 0.6560188776989813, 0.6625007355723346, 0.6688411312164666, 0.6748905446722157, 0.6805550361083255, 0.68578551540182, 0.6905675343884953, 0.6949117719721123, 0.6988451935448537, 0.7046086739518953])",-233.69752048263547,-17.616348499426984,-45.86590097467995,-0.15930012891364465,0.00863896201259944,0.6496114904921675,25.00000024578933,-1.0,"[-24.586113555572535, -238.91473668913332, 45.931349615218906]","[-16.397419887995305, -220.66794883015643, 45.936720655556066]","[-4.689693581648065, -236.88292907937432, 45.99638851238675]",10000000000.0,0.030887603759765625
21,7.02509880065918,-24.687463760375977,-238.98289489746094,46.02519989013672,-0.028803313151002128,0.000820181157905509,0.6215197006848197,23.133805152250524,"array('d', [-240.86959838867188, -239.39594902572296, -237.9194477268688, -236.43585090486235, -234.94221775223562, -233.43668406667783, -231.91825413415467, -230.38660822619215, -228.84192912305141, -227.28475139895355, -225.71583540557057, -224.1360658773333, -222.54637367816218, -220.94767856311935, -219.3408507785245, -218.34311622188778])","array('d', [-27.288240432739258, -25.268867287114197, -23.251577548075034, -21.23949964744815, -19.23485932632036, -17.239138543664218, -15.253208234384859, -13.277447536550387, -11.311852979731276, -9.35613734610855, -7.40981690017141, -5.472285874619247, -3.5428776247080034, -1.6209123168362563, 0.29426872021166106, 1.471510194124914])","array('d', [-45.78596878051758, -45.80808272814708, -45.83004460741265, -45.85179549291839, -45.87327161071766, -45.894401803377725, -45.915104955477005, -45.93528787061057, -45.9548442026639, -45.973655176626146, -45.99159295563241, -46.00852757485277, -46.024338306443596, -46.03893006789116, -46.05225496250357, -46.059713645771744])","array('d', [0.03407176956534365, -0.038721579755300974, -0.09182101445675168, -0.12860949331383417, -0.15207750492073793, -0.1648900539448708, -0.1694097706727144, -0.16770434714268126, -0.16155218941056057, -0.15245149649864656, -0.1416332137266423, -0.13007625386716584, -0.11852295736082187, -0.10749312715262845, -0.09729557689699204, -0.08803668655382528])","array('d', [0.008870716206729506, 0.00882149356868303, 0.008749437695792058, 0.008653097229860199, 0.008530060665832097, 0.008376850435927868, 0.008188994234116224, 0.007961311350610154, 0.0076884653652869095, 0.007365837798568592, 0.006990765438624464, 0.00656415030843821, 0.006092389194975088, 0.005589475855384396, 0.005079005986386605, 0.004595674772949231])","array('d', [0.6305992762234547, 0.6307143722112215, 0.6332973235232963, 0.6376524539303449, 0.6432040713749146, 0.6494799593143161, 0.6561022291511416, 0.6627791950967973, 0.6692961607927191, 0.6755050279998346, 0.6813133573046111, 0.6866735456048946, 0.6915725533487193, 0.6960223523019725, 0.7000510705622413, 0.705953832362266])",-233.43668406667783,-17.239138543664218,-45.894401803377725,-0.1648900539448708,0.008376850435927868,0.6494799593143161,25.000000245786282,-1.0,"[-23.840683316084835, -238.37816597057227, 45.993611316955]","[-15.60493775343295, -220.1560304863927, 45.63826159701276]","[-3.9389801214798013, -236.3979289197683, 45.96409561823308]",10000000000.0,0.02507948875427246
