,x_pos,y_pos,z_pos,roll,pitch,yaw,vel,x_traj,y_traj,z_traj,roll_traj,pitch_traj,yaw_traj,x_cmd,y_cmd,z_cmd,roll_cmd,pitch_cmd,yaw_cmd,vel_cmd,effector_dmg,effector_x,effector_y,effector_z,cost,time_solution
0,-102.58961486816406,20.884172439575195,49.970516204833984,0.6303802728652951,0.03276843577623355,0.359794692197118,23.105444232204324,"array('d', [20.048545837402344, 20.960312934884946, 21.81889006128088, 22.634241714532113, 23.414011889112547, 24.164176866024064, 24.88945773009047, 25.593604941740526, 26.279608715936842, 26.949862703527074, 27.60629558292381, 28.25047848280261, 28.88371256706597, 29.507099142768066, 30.12159354721713, 30.728042426507844])","array('d', [-105.21595001220703, -102.88910600520883, -100.5415917385826, -98.17848984502332, -95.80330752160589, -93.41856191517292, -91.02610776710063, -88.6273369394326, -86.22330848068108, -83.81483808638166, -81.40256215951904, -78.9869849502776, -76.56851372955482, -74.14748500660087, -71.7241836832999, -69.29886036901152])","array('d', [-49.966835021972656, -49.90299813136974, -49.86081550431967, -49.83258631258287, -49.81346889331698, -49.80037734291398, -49.79131669952341, -49.78497799553319, -49.780488938222454, -49.77725891426659, -49.77488192382611, -49.7730756183791, -49.771643199222815, -49.770450009235475, -49.76940964079409, -49.76847611592385])","array('d', [0.6314937472343443, 0.5235243719981231, 0.43555640819214503, 0.3638638263638314, 0.3055680535461609, 0.258328028425643, 0.22017896787424573, 0.18944266905274038, 0.16467536657121418, 0.14463648744527405, 0.12826952862291408, 0.11469023109853095, 0.10317934138859966, 0.09317843253293405, 0.0842879302685749, 0.07626688010356081])","array('d', [-0.03092562220990656, -0.020326496443711126, -0.013534574412537064, -0.009122873083938901, -0.006219648214076806, -0.0042859002798237966, -0.0029843433061146982, -0.0021013554307303646, -0.0014999254167336149, -0.0010909175254137583, -0.0008152733936757273, -0.0006328148492170302, -0.0005150845044564685, -0.0004407082564333724, -0.000392392515545934, -0.00035505154488173224])","array('d', [0.3867407600071764, 0.36118611749088564, 0.3408000244969507, 0.3242422656536694, 0.31061152346431414, 0.2992595404656167, 0.2896998920119216, 0.28155864500644895, 0.2745453166695679, 0.2684342736146515, 0.26305171102992747, 0.2582656882477564, 0.2539778624582553, 0.25011616911887063, 0.2466280215521227, 0.24347377181789537])",24.164176866024064,-93.41856191517292,-49.80037734291398,0.258328028425643,-0.0042859002798237966,0.2992595404656167,25.000000248968664,-1.0,[],[],[],10000000000.0,0.027818918228149414
1,-102.14936065673828,21.016992568969727,49.97063446044922,0.6304542422294616,0.0329769402742385,0.35536547104385907,23.105326592403006,"array('d', [20.19240379333496, 21.094004340670697, 21.942459022475923, 22.74779726929306, 23.517700835926163, 24.258167069883648, 24.97392691937829, 25.668732835115023, 26.34557143424048, 27.006828896974692, 27.654423913549444, 28.289916195777312, 28.914594926661273, 29.52954952834111, 30.13572401445198, 30.733954558628554])","array('d', [-104.78011322021484, -102.44932385743876, -100.09813764285114, -97.73160687074228, -95.35320902817956, -92.9654345483283, -90.57011485687862, -88.16862167921069, -85.76199671746213, -83.35104070913297, -80.93637712410147, -78.51849899233862, -76.09780381525262, -73.6746195648737, -71.24922365654776, -68.82186011518853])","array('d', [-49.96747970581055, -49.90317495030119, -49.8606732999552, -49.832223441104546, -49.812951292854045, -49.799749788318344, -49.790609932134814, -49.78421330985102, -49.77968117582649, -49.776418447169945, -49.77401599057442, -49.7721892436563, -49.77073984594366, -49.769532060558724, -49.7684787760403, -49.76753362173747])","array('d', [0.6310917735099791, 0.5224170116052604, 0.4339835568894388, 0.3619997799691648, 0.3035432075420532, 0.25624062953853083, 0.21810227842449195, 0.18742983148695563, 0.16276304549243817, 0.14284782747790553, 0.12661670699768654, 0.11317675408101933, 0.10180216831298618, 0.09192997869973878, 0.08315798411628698, 0.07524446245200131])","array('d', [-0.031149528920650368, -0.020478213974770277, -0.013638904068899942, -0.009195615804529388, -0.006271048487357977, -0.0043227079998175025, -0.003011074351281667, -0.0021210761211164723, -0.0015147478669580191, -0.0011023159771314792, -0.0008242876484284382, -0.0006401812648104617, -0.0005213198053307557, -0.00044616230767934506, -0.000397280765432968, -0.0003594746166876419])","array('d', [0.3823588649418692, 0.35684629405662655, 0.3365270038502221, 0.3200487100772275, 0.3065034793453607, 0.29523891300637994, 0.2857657772571687, 0.27770817305811013, 0.2707742618867931, 0.26473753553594265, 0.25942370742446286, 0.2547006756801043, 0.2504701892424809, 0.2466604616673101, 0.24321930392952745, 0.24010751811287925])",24.258167069883648,-92.9654345483283,-49.799749788318344,0.25624062953853083,-0.0043227079998175025,0.29523891300637994,25.00000024896751,-1.0,[],[],[],10000000000.0,0.017803192138671875
2,-100.79425048828125,21.412229537963867,49.96859359741211,0.6300352811813351,0.03386844322085368,0.3419001857426503,23.113210552844276,"array('d', [20.334428787231445, 21.22568596586034, 22.06383165915021, 22.858963183600054, 23.618802025961564, 24.34936798120939, 25.055402846694818, 25.740661767239416, 26.408128258310313, 27.06018137144055, 27.69873003755852, 28.325322700047913, 28.941236654947552, 29.547549499103773, 30.14519396269828, 30.73499577741952])","array('d', [-104.34349822998047, -102.00874969701634, -99.65387558664824, -97.2838988949839, -94.90226779697247, -92.51144616152588, -90.11324215686355, -87.70900740248652, -85.29976628222875, -82.88630460880222, -80.46923295808044, -78.04903318260342, -75.62609305777879, -73.20073205982835, -70.77322015479456, -68.34379481739194])","array('d', [-49.96830749511719, -49.903441519660795, -49.86055812117101, -49.83184476846698, -49.812388167712875, -49.799055727652785, -49.789821581094166, -49.78335599313512, -49.7787725106319, -49.77547072920961, -49.77303779625784, -49.77118652907259, -49.76971672324618, -49.7684913694608, -49.76742252746388, -49.76646336324514])","array('d', [0.630796730518341, 0.521389916112644, 0.43247103781070234, 0.3601809194163522, 0.3015520304999299, 0.25417822124726, 0.2160441421991344, 0.18543086997609337, 0.16086128351714055, 0.14106743337654987, 0.12497060003732761, 0.11166895112983578, 0.10042995548094191, 0.0906859602126743, 0.08203204445385898, 0.07422567002271037])","array('d', [-0.03141839429736126, -0.020659934415890157, -0.013763580023410087, -0.009282381625158653, -0.006332275287582478, -0.004366521626627664, -0.0030428936378443998, -0.0021445684716882027, -0.0015324312736694839, -0.0011159424873466344, -0.0008350893578807046, -0.0006490283807561783, -0.0005288216252657822, -0.00045273077973386264, -0.00040316961463685095, -0.0003648030682776588])","array('d', [0.37791176239517726, 0.3524359869588254, 0.3321799111660144, 0.3157785371911738, 0.3023169760830927, 0.2911384809895795, 0.281750869468847, 0.2737761766097958, 0.26692113442409027, 0.26095830525170244, 0.2557128808562663, 0.2510525699443735, 0.24687919418515986, 0.2431212332429198, 0.2397268887876586, 0.23665740909857974])",24.34936798120939,-92.51144616152588,-49.799055727652785,0.25417822124726,-0.004366521626627664,0.2911384809895795,25.000000248966302,-1.0,[],[],[],10000000000.0,0.03762984275817871
3,-100.34770965576172,21.538206100463867,49.96770477294922,0.6295428276062011,0.03385844826698279,0.33756633202103187,23.115119181965955,"array('d', [20.74949073791504, 21.609048199482203, 22.41556324903724, 23.179346771062555, 23.908246174122013, 24.608353401852717, 25.284446293388818, 25.94029060959263, 26.57886236924409, 27.20252049689637, 27.81314549594591, 28.412252561129016, 29.001083683939843, 29.58068121511912, 30.15194419260872, 30.71566714721192])","array('d', [-103.02915954589844, -100.68261876925425, -98.31675245383323, -95.93650024088474, -93.54522405131259, -91.1453087401218, -88.73849308341285, -86.32606872550718, -83.90900848241807, -81.48805383486025, -79.06377715773138, -76.63662726646646, -74.20696324393292, -71.77507953522941, -69.34122417230405, -66.90561534224666])","array('d', [-49.97015380859375, -49.90304755701052, -49.85864861918859, -49.8288955569406, -49.80871608134366, -49.79487445159204, -49.785276857919044, -49.77854813602806, -49.77377100017965, -49.77032381457177, -49.76777891614844, -49.76583869981135, -49.76429563063879, -49.763007644068914, -49.76188351700679, -49.760874604160605])","array('d', [0.6303262114524839, 0.5186262513452724, 0.4281782429592702, 0.3549130578682282, 0.2957239342567712, 0.24810322123800213, 0.209956808605362, 0.17950233002791738, 0.15521064062945875, 0.1357710306048467, 0.12007002107885793, 0.10717823067173078, 0.09634226052074657, 0.08697990080660195, 0.07867772288197247, 0.07119055407744201])","array('d', [-0.03249397128820402, -0.021383107852613915, -0.01425686505203113, -0.009623462258377662, -0.006571217199574271, -0.004536094882859954, -0.0031648741373487815, -0.0022336447768843528, -0.0015986590800739114, -0.001166302837413791, -0.0008744843533537483, -0.0006809179325520181, -0.0005556275653163794, -0.00047608859474932726, -0.0004240806724199044, -0.0003837241775189977])","array('d', [0.36434252659348054, 0.33895651190665554, 0.31887565220551056, 0.30269445211250473, 0.28947595553749494, 0.2785496423130319, 0.2694139856018231, 0.2616844572389549, 0.2550632243120347, 0.24931985105253604, 0.24427780767827995, 0.23980412120713526, 0.235800752740415, 0.2321969284248432, 0.2289419897454027, 0.22599850379890318])",24.608353401852717,-91.1453087401218,-49.79487445159204,0.24810322123800213,-0.004536094882859954,0.2785496423130319,25.00000024896243,-1.0,[],[],[],10000000000.0,0.018512725830078125
4,-99.900634765625,21.66214942932129,49.96674728393555,0.6282228231430053,0.03359169512987131,0.3332219878819324,23.11902582640898,"array('d', [20.884172439575195, 21.733058269344326, 22.52890374436452, 23.282096295646227, 24.00052863378245, 24.69031904871109, 25.35625908397961, 26.002119330094132, 26.63087431346103, 27.244877044832865, 27.845999187378563, 28.435745368238006, 29.015346236340008, 29.58583275356773, 30.148093039231888, 30.702911501045158])","array('d', [-102.58961486816406, -100.2392090234009, -97.86973953041318, -95.4861179896359, -93.09167767185554, -90.68877734782696, -88.27913298135852, -85.86401657077786, -83.44438409772884, -81.02096261845257, -78.59431211646827, -76.1648707195329, -73.73298824783785, -71.29895107709162, -68.86300017282197, -66.42534750917825])","array('d', [-49.970516204833984, -49.902836556566946, -49.85804692098314, -49.82802407207815, -49.80765596442819, -49.793680857510175, -49.78398767293008, -49.77718960291786, -49.77236139439962, -49.76887588197876, -49.766301516892646, -49.76433794144265, -49.76277567371581, -49.76147130056134, -49.76033272079998, -49.75931080508055])","array('d', [0.6303802728652951, 0.5178803083755522, 0.42689485736754584, 0.3532823093896643, 0.29388817510728016, 0.2461701434872051, 0.20800725388061758, 0.1775955171144271, 0.15338804744842752, 0.1340595381611654, 0.11848462866139928, 0.10572450442553247, 0.09501860454097624, 0.0857797043464646, 0.07759142037793117, 0.07020762683545237])","array('d', [-0.03276843577623355, -0.021569011706677577, -0.014384542394881884, -0.009712278503767373, -0.006633750183692754, -0.004580645321026639, -0.0031970042069127346, -0.002257137500614297, -0.0016161251064442208, -0.0011795683639645622, -0.0008848407002902296, -0.0006892821148076726, -0.0005626447007521844, -0.00048219590630847845, -0.0004295462271074664, -0.00038866961635717815])","array('d', [0.359794692197118, 0.3344277854791077, 0.31439720032161067, 0.29828294514808246, 0.2851402047287284, 0.2742935690526598, 0.26523819740108173, 0.25758723055785904, 0.2510412061121773, 0.24536860605308583, 0.24039226277215575, 0.23597892689900477, 0.23203056857423018, 0.22847663446977148, 0.22526682455148353, 0.22236412879235817])",24.69031904871109,-90.68877734782696,-49.793680857510175,0.2461701434872051,-0.004580645321026639,0.2742935690526598,25.00000024896106,-1.0,[],[],[],10000000000.0,0.019515275955200195
5,-99.900634765625,21.66214942932129,49.96674728393555,0.6282228231430053,0.03359169512987131,0.3332219878819324,23.11902582640898,"array('d', [21.016992568969727, 21.855468127905333, 22.64090365906513, 23.383761926788186, 24.091980122874737, 24.771702396422935, 25.427733765322838, 26.06384961013446, 26.68302306223326, 27.28760141033064, 27.879447729721335, 28.46005636603287, 29.030646924424406, 29.592239273582443, 30.145710895649117, 30.69183633599797])","array('d', [-102.14936065673828, -99.79523367835341, -97.42229869583332, -95.03543869950573, -92.63795848117076, -90.23219117330154, -87.81983045920778, -85.40212923117146, -82.98002715270991, -80.55423733551426, -78.12530781098472, -75.69366641712577, -73.2596540691164, -70.82354939267948, -68.38558657066616, -65.94597161381284])","array('d', [-49.97063446044922, -49.90251788718292, -49.85742843575898, -49.82719730559124, -49.806682883094126, -49.79260391618104, -49.782836247107035, -49.77598416825517, -49.77111628227856, -49.767601123116734, -49.76500409577398, -49.763022669004826, -49.76144581394084, -49.76012904089804, -49.75897954627087, -49.757947815195934])","array('d', [0.6304542422294616, 0.5171712210543606, 0.4256593651578919, 0.3517060820211278, 0.29211026418380215, 0.24429578369167954, 0.20611548760171383, 0.17574428748288995, 0.15161797757013643, 0.13239699278299144, 0.11694436051626775, 0.10431204291774204, 0.09373247303952328, 0.08461351777152307, 0.07653589847595306, 0.06925255103648179])","array('d', [-0.0329769402742385, -0.021711286281554068, -0.014482893460172062, -0.009781058288784096, -0.006682362749853, -0.00461535404353112, -0.003222044827074991, -0.0022754169077804347, -0.0016296667620187002, -0.0011897993532153277, -0.0008927777928156338, -0.000695652222403677, -0.0005679620275606999, -0.0004868102191038551, -0.0004336719583063435, -0.00039240273265975483])","array('d', [0.35536547104385907, 0.3300160836010504, 0.31003362457995376, 0.2939838866765426, 0.28091436388794044, 0.27014486286304173, 0.2611672988462036, 0.25359252769687235, 0.247119486995492, 0.24151559356758368, 0.23660304946185312, 0.23224832892907793, 0.22835340547630792, 0.22484793659101798, 0.221681968561599, 0.21881890120207445])",24.771702396422935,-90.23219117330154,-49.79260391618104,0.24429578369167954,-0.00461535404353112,0.27014486286304173,25.000000248959694,-1.0,[],[],[],10000000000.0,0.015561819076538086
6,-99.00475311279297,21.903873443603516,49.964664459228516,0.619811415672302,0.03240031376481044,0.32495041290787247,23.131313050593523,"array('d', [21.284265518188477, 22.101612037330153, 22.865966684728875, 23.587933721631572, 24.275533377632623, 24.934957307519316, 25.57103424041453, 26.187546496605616, 26.78746217066516, 27.373115141112383, 27.946349557473265, 28.508637630079065, 29.061175457689295, 29.604959440124226, 30.140844625805094, 30.669584788010607])","array('d', [-101.24029541015625, -98.87878954485491, -96.49899793038439, -94.10574370568563, -91.70227228355188, -89.2908636014483, -86.8731653666612, -84.45039126133818, -82.0234476334002, -79.59301925865856, -77.15962998126412, -74.72368688801268, -72.28551298491801, -69.8453713434532, -67.4034825527716, -64.96004068087146])","array('d', [-49.969364166259766, -49.89987676875957, -49.85386014012576, -49.82299473427778, -49.802042086133284, -49.78765772178926, -49.77767557049459, -49.77067170820963, -49.76569544701494, -49.76210193116228, -49.75944714380278, -49.75742186201189, -49.75581030859987, -49.75446469892208, -49.753290094414965, -49.752235839904735])","array('d', [0.6302129030227659, 0.5154062767425065, 0.4228771125885531, 0.34827278193693945, 0.28830024734596205, 0.24031660820472023, 0.2021228893434094, 0.17185217163469896, 0.14790585484832627, 0.12891602949813202, 0.11372262988873429, 0.10135928073272114, 0.09104450177989466, 0.08217643718972638, 0.07433011017031402, 0.0672566710605001])","array('d', [-0.033634908497333436, -0.022154001109279595, -0.014784403941392715, -0.009988575622241454, -0.006826495784946171, -0.004716264086232991, -0.003293218009882789, -0.0023260141971900095, -0.0016660076441366253, -0.0012163079108123726, -0.0009125889993243635, -0.0007109995114120008, -0.0005804215953469834, -0.0004974503148007275, -0.0004431393318917125, -0.00040096916730366234])","array('d', [0.346388296284948, 0.32109440540652956, 0.30122429280544616, 0.28531689864146514, 0.2724051999287036, 0.2617999371903054, 0.2529868419556431, 0.24557239493502, 0.239252465861622, 0.23379243729941374, 0.2290133254766262, 0.22478111386585514, 0.2209978363433912, 0.21759361974469488, 0.21451924606784917, 0.2117389738830305])",24.934957307519316,-89.2908636014483,-49.78765772178926,0.24031660820472023,-0.004716264086232991,0.2617999371903054,25.000000248956827,-1.0,[],[],[],10000000000.0,0.019764423370361328
7,-98.555908203125,22.0216121673584,49.96367645263672,0.6116291284561155,0.03132033348083485,0.3208164731648305,23.137991723506435,"array('d', [21.412229537963867, 22.21899349360333, 22.97279608236147, 23.684311186716506, 24.361599600084023, 25.010875989011097, 25.6369803722404, 26.243698103098186, 26.83399441356343, 27.410196199494195, 27.974137918737053, 28.527280521663418, 29.07080818935231, 29.60570544428211, 30.13281599209633, 30.65288310727103])","array('d', [-100.79425048828125, -98.4291228065596, -96.04597408426315, -93.64959447333561, -91.24319823539221, -88.82903801285696, -86.40873821892019, -83.98349283777522, -81.55419158743973, -79.12150517234132, -76.68594547652482, -74.24790936131193, -71.80771103149321, -69.36560592933603, -66.92180798441663, -64.47650541980208])","array('d', [-49.96859359741211, -49.89861780260746, -49.852267940584895, -49.821172908495534, -49.80006075130906, -49.78556487557927, -49.775504370036195, -49.768445200988424, -49.7634296890938, -49.75980807224459, -49.757132845445874, -49.75509228516768, -49.753468825648014, -49.75211343373459, -49.75093035992373, -49.749868518885954])","array('d', [0.6300352811813351, 0.5144788224196618, 0.4214500134723261, 0.3465269484071699, 0.2863712098498862, 0.2383069424981234, 0.20010957322065948, 0.16989149470830722, 0.14603707582842954, 0.12716435856310954, 0.11210182417103205, 0.09987400013634148, 0.08969250411253694, 0.08095065952542718, 0.07322066892586883, 0.06625280701849047])","array('d', [-0.03386844322085368, -0.02231259272297793, -0.014893275713337246, -0.0100639778010139, -0.006879086058705717, -0.0047531464958539315, -0.0033192013362209234, -0.002344403150173796, -0.0016791075471300767, -0.0012257498509331013, -0.0009195401708914326, -0.0007162986921716318, -0.0005846649164674292, -0.0005010436267088279, -0.0004463282104242314, -0.0004038545841819143])","array('d', [0.3419001857426503, 0.31663684906185513, 0.29682480737666034, 0.28098993713422005, 0.2681581643680183, 0.25763581772164557, 0.2489056092126189, 0.24157187605333494, 0.2353289814988254, 0.2299413085071025, 0.2252292918876714, 0.221058677436596, 0.2173315344773592, 0.21397822815895798, 0.21094991092108764, 0.20821127269143072])",25.010875989011097,-88.82903801285696,-49.78556487557927,0.2383069424981234,-0.0047531464958539315,0.25763581772164557,25.000000248955345,-1.0,[],[],[],10000000000.0,0.02547001838684082
8,-98.1064224243164,22.137266159057617,49.96287536621094,0.6005519628524779,0.029908971861004722,0.31665654579666636,23.146560269378835,"array('d', [21.538206100463867, 22.334760918284086, 23.078416380207827, 23.779907593124598, 24.44733008335598, 25.086917374943113, 25.703517771412987, 26.300917468577904, 26.882077234794203, 27.449315813424008, 28.004457115557287, 28.548950202943878, 29.083966868759756, 29.610479394454057, 30.129319847548746, 30.64122075031695])","array('d', [-100.34770965576172, -97.9791234043582, -95.59278850184953, -93.19345523897985, -90.78430381947399, -88.36755842428464, -85.94481979952317, -83.51726222764083, -81.08575896292227, -78.65096687718788, -76.21338615688354, -73.77340369942301, -71.33132515695895, -68.88739857293423, -66.44183142802835, -63.99480629072775])","array('d', [-49.96770477294922, -49.89774408843628, -49.851395488010176, -49.82029613870139, -49.799178289225864, -49.78467730122712, -49.774613019291316, -49.76755155411888, -49.762535080236155, -49.75891356986707, -49.75623922174405, -49.75420003094063, -49.752578188730894, -49.75122447078659, -49.750042997497445, -49.7489826226277])","array('d', [0.6295428276062011, 0.5133128989912293, 0.41984112948249347, 0.34464203111709507, 0.28433537516621077, 0.23621480882944693, 0.1980319721379178, 0.1678799703783661, 0.14412725965067893, 0.1253787412364698, 0.11045218308704578, 0.0983636122322991, 0.08831821319224599, 0.07970483898108269, 0.07209310862999861, 0.06523254817928721])","array('d', [-0.03385844826698279, -0.02231036464972275, -0.014894437702266483, -0.010066251304690532, -0.006881366435896258, -0.004754963730431636, -0.003320415304795753, -0.00234503578675583, -0.0016792526359563765, -0.0012255257370012735, -0.0009190655232790561, -0.000715680159895409, -0.0005839905322663783, -0.0005003786780248015, -0.00044571192972821445, -0.00040329695029773176])","array('d', [0.33756633202103187, 0.31234891033013257, 0.29260521273642, 0.27685008226926716, 0.2641034677542774, 0.2536679203209223, 0.24502353864179285, 0.237772791565785, 0.23160872887668826, 0.22629487141210183, 0.22165117020777328, 0.2175432013195191, 0.2138731150049047, 0.21057154352495755, 0.2075900268509593, 0.2048936962287935])",25.086917374943113,-88.36755842428464,-49.78467730122712,0.23621480882944693,-0.004754963730431636,0.2536679203209223,25.00000024895389,-1.0,[],[],[],10000000000.0,0.020137548446655273
9,-97.65628051757812,22.250810623168945,49.962154388427734,0.5867590904235839,0.028140656650066268,0.31250818172958883,23.156155885138617,"array('d', [21.66214942932129, 22.448512995855086, 23.182124866993764, 23.87376363947331, 24.531547392536513, 25.161719622140758, 25.769130145841913, 26.35756067164021, 26.929963202273097, 27.488644787800364, 28.035415830000655, 28.571710986076393, 29.098687493696513, 29.61730349916164, 30.12837775455185, 30.632630527201165])","array('d', [-99.900634765625, -97.52862880915828, -95.13917981453562, -92.73698453263627, -90.32518190235878, -87.90596355395115, -85.48090409855068, -83.05115654839582, -80.61757665169579, -78.18080672647773, -75.74133474342031, -73.29953725032829, -70.85571105037592, -68.4100965545232, -65.96289460691048, -63.51428196913134])","array('d', [-49.96674728393555, -49.8973324732383, -49.85133757538833, -49.82047118278251, -49.799509519421946, -49.78511529536339, -49.77512555881514, -49.76811737845144, -49.76314000250745, -49.75954803365579, -49.756896743488724, -49.754876189530535, -49.753269953545164, -49.75192973799887, -49.750760252978125, -49.74971068084096])","array('d', [0.6282228231430053, 0.5114520017453367, 0.4176404873783342, 0.34224818504015553, 0.2818583342579791, 0.23373752134933012, 0.19561601510251642, 0.16556943650757372, 0.14195173800606853, 0.1233558172588083, 0.10858966335579569, 0.09666157416248826, 0.08677093126249966, 0.07830261821064327, 0.07082404806388871, 0.06408425458931237])","array('d', [-0.03359169512987131, -0.022138655905491314, -0.01478214296552925, -0.009991538863012265, -0.006830723867684726, -0.004719933232485218, -0.003295637955701463, -0.002327071460905534, -0.0016658622447197377, -0.0012152312436551566, -0.0009108784848557695, -0.0007089336858203862, -0.0005782354853631463, -0.0004953201851388974, -0.00044117117010443425, -0.0003991883007128019])","array('d', [0.3332219878819324, 0.30809267454415795, 0.28844883556210493, 0.2727983710254474, 0.260157377944906, 0.24982586249180078, 0.24128208672503793, 0.23412717378193998, 0.22805323022558163, 0.22282318736352488, 0.21825671859157297, 0.21421938879997462, 0.21061355251727, 0.20737020599705094, 0.2044413540471076, 0.20179263284079188])",25.161719622140758,-87.90596355395115,-49.78511529536339,0.23373752134933012,-0.004719933232485218,0.24982586249180078,25.000000248952414,-1.0,[],[],[],10000000000.0,0.022468090057373047
10,-97.65628051757812,22.250810623168945,49.962154388427734,0.5867590904235839,0.028140656650066268,0.31250818172958883,23.156155885138617,"array('d', [21.903873443603516, 22.671178855440882, 23.386630198198752, 24.060956205718803, 24.70222919478302, 25.316647866429946, 25.909016674041855, 26.48307093791471, 27.041715492222426, 27.58721007458033, 28.121318434810405, 28.64543005039952, 29.160659165432616, 29.667923670749097, 30.168005155517914, 30.66158997280836])","array('d', [-99.00475311279297, -96.62643986790277, -94.23145791844618, -91.82433034814134, -89.40807800728808, -86.98480707834022, -84.55602760679268, -82.12284227463218, -79.68606665705342, -77.24631038857243, -74.80403441737896, -72.35959263529115, -69.91326261893879, -67.4652682932132, -65.01579624430882, -62.56501082699164])","array('d', [-49.964664459228516, -49.897703018750406, -49.85332249453543, -49.823534713460695, -49.80330495269607, -49.78941528938751, -49.77977916956017, -49.7730232643555, -49.76822951369245, -49.7647743987572, -49.762228047857974, -49.760290721948884, -49.758753031140316, -49.75747144487899, -49.75635373231455, -49.75535075352965])","array('d', [0.619811415672302, 0.5029554971883532, 0.4092323393396779, 0.3340625405976364, 0.2739973487817673, 0.22627611859368246, 0.18860547486846893, 0.15904049682588214, 0.1359175222280895, 0.11781469764483292, 0.10352807753414546, 0.09205677578402015, 0.08259365316964014, 0.07451963722276671, 0.06740065426035836, 0.06098663949864448])","array('d', [-0.03240031376481044, -0.021359698837146314, -0.014265013713688626, -0.009642902186869766, -0.00659198458422495, -0.00455380593263135, -0.003178059738735328, -0.0022422817875875495, -0.001603379286428795, -0.001167976914786449, -0.0008740081287118676, -0.0006791041276537173, -0.0005531497551928479, -0.00047344885866208546, -0.0004215863835443863, -0.0003814672514088885])","array('d', [0.32495041290787247, 0.30028709994441327, 0.2810566873323651, 0.265782518469013, 0.2534881885574328, 0.2434774585695423, 0.235230528657449, 0.22834963387799334, 0.22252770146645298, 0.2175284760279012, 0.213172571666367, 0.2093266650682267, 0.20589438194274434, 0.20280810458938875, 0.20002127539700013, 0.19750094604185])",25.316647866429946,-86.98480707834022,-49.78941528938751,0.22627611859368246,-0.00455380593263135,0.2434774585695423,25.000000248949657,-1.0,[],[],[],10000000000.0,0.01723456382751465
11,-96.7477035522461,22.47223472595215,49.962154388427734,0.5516330003738404,0.02387948520481579,0.3041380206730701,23.17516936564156,"array('d', [22.0216121673584, 22.7796294959516, 23.48665136920065, 24.1532943807501, 24.787549412596686, 25.39555050469482, 25.982047350374053, 26.550726844662233, 27.10444987162009, 27.645435749108135, 28.175410878898656, 28.695730247210417, 29.20747635429429, 29.711538013554446, 30.208670308843747, 30.69953553490016])","array('d', [-98.555908203125, -96.17455355237747, -93.77704094484325, -91.36776111010953, -88.94965078876947, -86.52475855940227, -84.09455279060086, -81.66010474039672, -79.22220551485968, -76.78144519082365, -74.33826874207381, -71.89301677560022, -69.44595565611125, -66.99729973541177, -64.54722735405332, -62.095895726830975])","array('d', [-49.96367645263672, -49.89894366797836, -49.856036932397394, -49.82723807223358, -49.80768150957774, -49.794256725100794, -49.78494633948551, -49.778422242171864, -49.77379638977647, -49.77046550226607, -49.76801355598811, -49.76615039368268, -49.764673270743145, -49.76344318794302, -49.76237082843382, -49.761408639089794])","array('d', [0.6116291284561155, 0.4953660939299611, 0.4021822913112989, 0.32752177491363316, 0.2679448577965452, 0.22069349902475197, 0.1834739005706831, 0.15433941408801874, 0.13162428941423232, 0.11390475746582203, 0.09997541993627551, 0.08883454266453482, 0.07967479467005546, 0.07187756850288786, 0.0650098877685681, 0.05882338432315293])","array('d', [-0.03132033348083485, -0.02064993315157249, -0.013791618414523196, -0.009322551305226263, -0.006372083621033137, -0.004400684090099978, -0.0030698431750391555, -0.002164542938077256, -0.0015464520984487938, -0.00112528460408819, -0.0008410149045990097, -0.0006526572460062266, -0.0005310694893421492, -0.00045427781904238996, -0.0004044411808315569, -0.0003659536290537598])","array('d', [0.3208164731648305, 0.2965835279097928, 0.2777083597135949, 0.26274052427537686, 0.25071697685766803, 0.24094895220255536, 0.23292117208137972, 0.22623884087996077, 0.2205970234650123, 0.21576115494091916, 0.21155329814621837, 0.2078414424444895, 0.20453043964252848, 0.20155382947758868, 0.19886614361887145, 0.1964354460859938])",25.39555050469482,-86.52475855940227,-49.794256725100794,0.22069349902475197,-0.004400684090099978,0.24094895220255536,25.00000024894834,-1.0,[],[],[],10000000000.0,0.021069765090942383
12,-96.29277038574219,22.579809188842773,49.963470458984375,0.5310284495353697,0.021445736289024225,0.2998400489476061,23.182746901257044,"array('d', [22.137266159057617, 22.886100506064864, 23.58509026088688, 24.244680013628717, 24.872738531003797, 25.47530551570852, 26.057053155336583, 26.621601866351753, 27.1717538906844, 27.709675944508817, 28.23704682714365, 28.755178283863433, 29.265113506056206, 29.767705602124078, 30.26367727087966, 30.753661138536035])","array('d', [-98.1064224243164, -95.72208272867657, -93.32218001339928, -90.9109430773858, -88.49120799336885, -86.06495575680026, -83.63360666512564, -81.19819622519968, -78.7594879917698, -76.31805018006911, -73.87430999056343, -71.42859328890297, -68.98115401648892, -66.53219592741937, -64.08188824305805, -61.63038196070874])","array('d', [-49.96287536621094, -49.901056913783414, -49.86008005971942, -49.83257757349725, -49.81390407638645, -49.80108912830512, -49.792205752243824, -49.78598505954349, -49.78157840838079, -49.778409147671084, -49.77607951780156, -49.77431202863415, -49.77291273961239, -49.771748664828685, -49.77073435628071, -49.769824361522105])","array('d', [0.6005519628524779, 0.48533191666009684, 0.39304082088361475, 0.3191753979612299, 0.2603221463585733, 0.21373676137937453, 0.1771328715456384, 0.1485680035583443, 0.12637897984752386, 0.10914391948989581, 0.09565913186759437, 0.08492466905278294, 0.07613517895850153, 0.06867425750661375, 0.06211134514605744, 0.05620067426298567])","array('d', [-0.029908971861004722, -0.01972100181143033, -0.013171270673048734, -0.008902392110117202, -0.00608357284089202, -0.004199856090838645, -0.002928075950038649, -0.0020629160423915856, -0.0014722600479636827, -0.0010698619918022348, -0.0007983711683664828, -0.000618618897101376, -0.0005027453695223095, -0.0004297324825167893, -0.0003825022644846684, -0.00034610247483957997])","array('d', [0.31665654579666636, 0.2929931626251619, 0.27457952537634644, 0.2600035039789629, 0.248321801285286, 0.2388568877116753, 0.23110041822458782, 0.22466222042740344, 0.21924069203756485, 0.21460385581994687, 0.21057591382574795, 0.20702670743568669, 0.20386273948871095, 0.20101904454550326, 0.19845151512131814, 0.19612945090639478])",25.47530551570852,-86.06495575680026,-49.80108912830512,0.21373676137937453,-0.004199856090838645,0.2388568877116753,25.000000248947067,-1.0,[],[],[],10000000000.0,0.01993584632873535
13,-95.38175201416016,22.788944244384766,49.970001220703125,0.48530423641204823,0.016021225601434715,0.29120512405899535,23.198125566449768,"array('d', [22.250810623168945, 22.990638804209134, 23.68203976758323, 24.335233555480766, 24.957930444218782, 25.556048903801553, 26.134162793876413, 26.695809403204297, 27.243718710855216, 27.77999349735077, 28.306255397367927, 28.82376474538948, 29.33351835510929, 29.83632743449886, 30.332876799220873, 30.823764902051572])","array('d', [-97.65628051757812, -95.26903429179912, -92.86689144553362, -90.45389431210562, -88.03276450031542, -85.60540709606876, -83.17318898387609, -80.73710629288075, -78.29789242617296, -75.85609177291111, -73.41211220482158, -70.96626356674543, -68.5187862952978, -66.06987261796017, -63.619681833706046, -61.16835589116444])","array('d', [-49.962154388427734, -49.9039891919167, -49.86543416877166, -49.83956000138308, -49.821996412434835, -49.80994820545395, -49.80160166267738, -49.795762200814416, -49.79163068920171, -49.788663988393566, -49.786487357408646, -49.78483929326184, -49.783536980944135, -49.78245504082692, -49.78151292038124, -49.78066782057801])","array('d', [0.5867590904235839, 0.4730000494293845, 0.3819320094047136, 0.3091299495325263, 0.2512218410602521, 0.2054871950735549, 0.1696542547019027, 0.14179017977498312, 0.12023871116127471, 0.10358342795563209, 0.09062533135490446, 0.08036875709756816, 0.07201239544408106, 0.06494370047932335, 0.05873578544035647, 0.053146341257811876])","array('d', [-0.028140656650066268, -0.01855577350083541, -0.012392335069588523, -0.008374409210955955, -0.0057208482253428205, -0.003947341469528452, -0.00274988150798149, -0.0019352814646763647, -0.0013792057895383265, -0.0010004734148929275, -0.0007450918535103266, -0.0005761773777689341, -0.00046748570725051983, -0.00039920545578529646, -0.00035522459967602966, -0.00032142062081558546])","array('d', [0.31250818172958883, 0.2895396113638896, 0.2716845134063284, 0.2575790348212411, 0.24630501924211748, 0.23719941036690628, 0.22976290583674153, 0.22361142440076054, 0.2184477712599496, 0.21404337235745666, 0.2102252020587242, 0.20686545142021226, 0.20387266803534268, 0.20118369460832086, 0.19875603693673805, 0.19656044163015488])",25.556048903801553,-85.60540709606876,-49.80994820545395,0.2054871950735549,-0.003947341469528452,0.23719941036690628,25.00000024894585,-1.0,[],[],[],10000000000.0,0.030950069427490234
14,-95.38175201416016,22.788944244384766,49.970001220703125,0.48530423641204823,0.016021225601434715,0.29120512405899535,23.198125566449768,"array('d', [22.47223472595215, 23.1942508420624, 23.871384618701356, 24.5132794184552, 25.12723723193626, 25.718864707456465, 26.2924841064242, 26.85142165838361, 27.39822554386589, 27.934839217351026, 28.46274313626197, 28.98307165964372, 29.496708668395936, 30.004363794878504, 30.506630262941055, 31.00402401380385])","array('d', [-96.7477035522461, -94.35480086897451, -91.94850453702426, -89.53243439274516, -87.10905329777347, -84.68009547559956, -82.24680814498268, -79.81009955226948, -77.37063595971807, -74.92890872061767, -72.48528262221626, -70.04003170278483, -67.59336611418718, -65.14545214611697, -62.69642670115693, -60.246411072027996])","array('d', [-49.962154388427734, -49.912795220206355, -49.88008043297267, -49.858133191632575, -49.84324511430717, -49.83304315926754, -49.82598680121023, -49.82106093166149, -49.81758617636881, -49.81510057298221, -49.813285226369445, -49.81191748178141, -49.810841599317534, -49.8099507301067, -49.80917624669553, -49.80848178579643])","array('d', [0.5516330003738404, 0.44189170583047166, 0.3541517383131831, 0.28420282829420246, 0.2287919062470656, 0.18527039468311257, 0.15141337345910472, 0.1253208354794924, 0.10536131115033323, 0.0901384218324571, 0.07847026986497861, 0.06937629389057313, 0.0620687304393174, 0.05594718139535584, 0.05059551574631678, 0.045780719978611634])","array('d', [-0.02387948520481579, -0.015746203804051114, -0.010513691514098785, -0.007101261619687309, -0.00484688062634411, -0.0033398470743709187, -0.0023222230510693085, -0.0016300224619147, -0.001157662569238386, -0.0008361833697318931, -0.000619705321477138, -0.0004768731191920176, -0.00038535949968632123, -0.0003282879443630846, -0.000291905716573144, -0.00026412732094305047])","array('d', [0.3041380206730701, 0.28288443574699, 0.2664067225226045, 0.2534583203525756, 0.24318322403835388, 0.234954736443167, 0.22829662855892596, 0.22284057403456384, 0.21830087923565994, 0.214457865893517, 0.2111457121200044, 0.20824263969407686, 0.20566235923736517, 0.20334619916086416, 0.20125560339586998, 0.19936480943886808])",25.718864707456465,-84.68009547559956,-49.83304315926754,0.18527039468311257,-0.0033398470743709187,0.234954736443167,25.000000248943515,-1.0,[],[],[],10000000000.0,0.026073455810546875
15,-94.0127182006836,23.08884620666504,49.99180603027344,0.41193524003028853,0.00757413264363991,0.2792533198979235,23.21669595992006,"array('d', [22.579809188842773, 23.292778473053527, 23.962905682355423, 24.599505985627285, 25.209646534669453, 25.79875343977157, 26.37100279491517, 26.929598103619686, 27.476981933219463, 28.0150053724366, 28.54506724866583, 29.06822927465758, 29.58531035782962, 30.09696179283182, 30.60372425460723, 31.106066203884556])","array('d', [-96.29277038574219, -93.897052414159, -91.48874908786634, -89.0712571529185, -86.64690192955248, -84.21732645333543, -81.78371390558551, -79.34692538462768, -76.90759102155702, -74.4661735161542, -72.02301426739548, -69.57836777284163, -67.132427566732, -64.68534563126259, -62.237246454939175, -59.78824059307706])","array('d', [-49.963470458984375, -49.91914115727569, -49.889761574601984, -49.8700553538753, -49.85669208944149, -49.847540046212636, -49.841215013160415, -49.83680467782679, -49.833698331293284, -49.8314806105526, -49.82986472012323, -49.828650366270224, -49.82769741497935, -49.82690970853381, -49.82622549579957, -49.82561210226582])","array('d', [0.5310284495353697, 0.42369773778613234, 0.3379551438881862, 0.26971382449756426, 0.2157908666228046, 0.1735811701106146, 0.14088886575290258, 0.11583482606978544, 0.09680367645942758, 0.08241222076582122, 0.07148985108851867, 0.06306592912403847, 0.056361488277919834, 0.05078388135071237, 0.04592367735971608, 0.04155346541252187])","array('d', [-0.021445736289024225, -0.014141492079529163, -0.009441147743900752, -0.00637514518498766, -0.004349313905392806, -0.002994931320223598, -0.002080357558413716, -0.0014582898881993261, -0.0010338681715146027, -0.0007451254459389744, -0.0005508282410731927, -0.0004227907902289353, -0.00034093575855011384, -0.0002900778139880638, -0.0002578303272978387, -0.00023329463090896311])","array('d', [0.2998400489476061, 0.27956227457693644, 0.26387303346549185, 0.2515888795460323, 0.24188786920275493, 0.23416353839706192, 0.2279526811820039, 0.22289598108365827, 0.21871439408550628, 0.2151934233874177, 0.21217145631130938, 0.20953023546947028, 0.20718647390879363, 0.20508409365500882, 0.203186801932615, 0.2014708325773202])",25.79875343977157,-84.21732645333543,-49.847540046212636,0.1735811701106146,-0.002994931320223598,0.23416353839706192,25.00000024894236,-1.0,[],[],[],10000000000.0,0.026839256286621094
16,-93.55586242675781,23.185556411743164,50.00261688232422,0.38731673359870894,0.004874085541814416,0.2757609645512444,23.221820743744424,"array('d', [22.685348510742188, 23.389252270499284, 24.05248809711432, 24.68402730092038, 25.290688661558757, 25.87770606972247, 26.449099295856282, 27.0079402398197, 27.556558074319753, 28.096704692688036, 28.62969128994267, 29.156501644242997, 29.67788501100571, 30.194430184205274, 30.706621560834712, 31.21487677510279])","array('d', [-95.83744812011719, -93.43895194987498, -91.0286976076549, -88.60985825124945, -86.18462032345975, -83.75453429390123, -81.32071806455865, -78.88398448534542, -76.44492656405073, -74.00397743107422, -71.56145423620644, -69.11759111936388, -66.67256422065569, -64.22651047949547, -61.779541278817156, -59.33175570814194])","array('d', [-49.96593475341797, -49.92696899423245, -49.90114484587369, -49.88382602622448, -49.87208527739483, -49.86404840271847, -49.8584981239647, -49.854631976299764, -49.85191267452645, -49.84997472024365, -49.84856569506502, -49.84750927460237, -49.84668206834497, -49.84599939606067, -49.845406885086035, -49.84487580069429])","array('d', [0.5087720751762389, 0.40405649306559765, 0.3204861495471632, 0.2541027277786842, 0.20179749236455566, 0.16101194018579223, 0.1295817563471466, 0.10565079010655715, 0.08762158206152153, 0.07412573187768151, 0.06400535953735001, 0.05630102161446158, 0.05024365060933835, 0.045249273801507166, 0.040915893970111784, 0.03702223520978007])","array('d', [-0.018850505352020056, -0.01243051607764155, -0.008298121194284134, -0.005602025674642779, -0.0038203312827393156, -0.002629052749575865, -0.0018245939519900376, -0.0012774528243605311, -0.000904215358500709, -0.0006503826468914804, -0.00047968512053430084, -0.00036732564658841844, -0.0002956353027160561, -0.00025124307692907304, -0.00022323296708441433, -0.0002019896419964005])","array('d', [0.2955109635975701, 0.27626502481503196, 0.26141446224136666, 0.2498392429752419, 0.24075210777296485, 0.23356742485449591, 0.2278355358556905, 0.22320658965376736, 0.21940858950785963, 0.21623256773481184, 0.21352142323000609, 0.21116067995086724, 0.20907027554577504, 0.2071969138172283, 0.2055067248000032, 0.20397807601746962])",25.87770606972247,-83.75453429390123,-49.86404840271847,0.16101194018579223,-0.002629052749575865,0.23356742485449591,25.000000248941216,-1.0,[],[],[],10000000000.0,0.01792764663696289
17,-93.09883117675781,23.280866622924805,50.01487731933594,0.36299967765808094,0.0023040771484374124,0.2724054614689688,23.22471181985116,"array('d', [22.788944244384766, 23.48386576099524, 24.14038036564187, 24.767109647314687, 25.370617016557446, 25.95593714162347, 26.52692685047484, 27.08652035098301, 27.636927911704504, 28.179797297931714, 28.716347684764806, 29.247481023543457, 29.773873461835713, 30.296048212718038, 30.814430634032224, 31.32938504281227])","array('d', [-95.38175201416016, -92.98054462473627, -90.56840924038995, -88.14829993611454, -85.72226602327068, -83.29176603760207, -80.85785273030119, -78.42129057169481, -75.98263516203605, -73.54228967894144, -71.10054657344148, -68.65761913609856, -66.2136655983318, -63.768807335203505, -61.32314210817392, -58.876757037311215])","array('d', [-49.970001220703125, -49.936882384163006, -49.91493245802545, -49.90021278663058, -49.890235824593, -49.883408469651144, -49.87869576792018, -49.875415309848286, -49.87311011213221, -49.87146925376518, -49.870277975507015, -49.86938623669524, -49.868689025202094, -49.868114267198024, -49.867615689138496, -49.867168856849325])","array('d', [0.48530423641204823, 0.38334329759861496, 0.3020691735260246, 0.23765269636050526, 0.18706072415150135, 0.14778281745422217, 0.11768759375938166, 0.09494316360170818, 0.07797118650842245, 0.06541918490411404, 0.05614305027619711, 0.049195481201481935, 0.04381814401211576, 0.03943644684873437, 0.03565638956209618, 0.03226323839004394])","array('d', [-0.016021225601434715, -0.010565661159732355, -0.007053110619035154, -0.004760935066621072, -0.0032459297442929626, -0.0022328611800552637, -0.001548715388247729, -0.0010834139742437487, -0.0007660388976667836, -0.0005502477065105742, -0.00040519470045584404, -0.0003097879321835167, -0.00024899540456848474, -0.0002114375382580342, -0.0001878189138711144, -0.00016994567863192926])","array('d', [0.29120512405899535, 0.27302433998331, 0.259045360846893, 0.24820988219299395, 0.23976487656776557, 0.23314550979322832, 0.2279157956898451, 0.22373553659036047, 0.22033999278139624, 0.2175259355645406, 0.21514097318808767, 0.21307458989824551, 0.21125010513728898, 0.2096171399147093, 0.20814436295337574, 0.20681237568859986])",25.95593714162347,-83.29176603760207,-49.883408469651144,0.14778281745422217,-0.0022328611800552637,0.23314550979322832,25.000000248940093,-1.0,[],[],[],10000000000.0,0.01902627944946289
18,-93.09883117675781,23.280866622924805,50.01487731933594,0.36299967765808094,0.0023040771484374124,0.2724054614689688,23.22471181985116,"array('d', [22.990591049194336, 23.668825111837265, 24.313251711188283, 24.931803502383005, 25.530532902033254, 26.11407122652422, 26.68594263042077, 27.248798657175243, 27.80460471123595, 28.354793817774652, 28.90039533048, 29.442142471440018, 29.98056073665028, 30.516038284289593, 31.048878942755607, 31.579337293736298])","array('d', [-94.46934509277344, -92.06322745833387, -89.64777031052634, -87.2255282254521, -84.79829637615067, -82.36736080712608, -79.93365077358783, -77.49783816652685, -75.06040631706352, -72.6216999654402, -70.18196289702082, -67.74136692501347, -65.3000343316916, -62.858054991491, -60.41549889274613, -57.972428596624425])","array('d', [-49.98280334472656, -49.961497365901515, -49.94736787694945, -49.93788629840142, -49.93145469805208, -49.92704919877447, -49.92400438503141, -49.92188139146, -49.92038628838245, -49.91931909442388, -49.918541698779094, -49.91795763622195, -49.91749941278334, -49.91712071504623, -49.91679180205375, -49.91649693917072])","array('d', [0.4366189539432524, 0.3403644628134097, 0.26387229640073834, 0.20356170904678125, 0.15654808399336548, 0.12041720363257186, 0.09310485040187672, 0.0728295343755435, 0.058053296491929786, 0.04745772552029505, 0.039928419382420456, 0.03454436396164213, 0.030570456792020872, 0.02745232988200316, 0.024813090215239992, 0.022451814517389344])","array('d', [-0.010304008610546514, -0.006799452375908135, -0.00454186236561511, -0.003068006129846048, -0.0020935360798703755, -0.0014417384759630102, -0.0010014578734266434, -0.0007019338347354464, -0.0004975580833105392, -0.0003585165906625862, -0.00026496062898735944, -0.00020331774252833632, -0.00016391826850205936, -0.00013944813001872067, -0.00012394095279534567, -0.00011214650404541835])","array('d', [0.28313775459793583, 0.26709931743147813, 0.2548907141442286, 0.2455667941142252, 0.238438616243894, 0.23298099780311732, 0.2287844822324401, 0.22552792786427886, 0.2229611445312194, 0.22089255375655711, 0.21917940662648852, 0.21771933603453622, 0.21644263202804276, 0.21530492596986853, 0.21428010875796216, 0.21335336994552143])",26.11407122652422,-82.36736080712608,-49.92704919877447,0.12041720363257186,-0.0014417384759630102,0.23298099780311732,25.000000248938047,-1.0,[],[],[],10000000000.0,0.01753687858581543
19,-91.72038269042969,23.561670303344727,50.066532135009766,0.2937214374542236,-0.003997232299298117,0.2626592675831653,23.233883539460923,"array('d', [23.08884620666504, 23.759054712906597, 24.39774670691946, 25.01252546005401, 25.609194937330134, 26.19218769262898, 26.764862249580478, 27.329728360828643, 27.888627969640485, 28.442885472426166, 28.99343401386965, 29.540921211302535, 30.085796095068996, 30.62837826642848, 31.168909863778197, 31.707589785337618])","array('d', [-94.0127182006836, -91.60430528755334, -89.18730404573597, -86.76409154845904, -84.33634760923614, -81.90527866594641, -79.4717561915332, -77.03640822139212, -74.59968344487791, -72.16189826652922, -69.72327261273027, -67.28395775199158, -64.84405799316367, -62.40364732900525, -59.96278163990667, -57.52151084350634])","array('d', [-49.99180603027344, -49.976138232837435, -49.96573598814055, -49.95874491433996, -49.95399281161565, -49.95072844256384, -49.94846353307012, -49.946876061295036, -49.94575039953691, -49.94493990472978, -49.94434337214636, -49.94389017877978, -49.94353096077114, -49.9432318677574, -49.94297114598234, -49.942737214207455])","array('d', [0.41193524003028853, 0.3185350624347133, 0.24445204895923603, 0.1862195950983419, 0.14102247965907042, 0.10649207489087945, 0.08059643631355988, 0.06157865745598054, 0.047920773896348495, 0.038321468388687385, 0.031681401985298584, 0.027092988032365987, 0.023833043574600147, 0.021357597741776282, 0.019298549376015252, 0.017462051170831352])","array('d', [-0.00757413264363991, -0.00500308097002061, -0.0033463768000410654, -0.00226453699095509, -0.001549082723480392, -0.0010703986624923832, -0.0007469253492653358, -0.0005267255177709189, -0.0003763130898703808, -0.00027379300028420233, -0.00020458755103828949, -0.00015873210088307788, -0.00012913602566401932, -0.00011045010197445758, -9.832951202713074e-05, -8.897231201703156e-05])","array('d', [0.2792533198979235, 0.26427073611150964, 0.252944245471888, 0.24437881262731284, 0.23791446489401008, 0.2330442660487424, 0.22937118691156733, 0.22658317434893877, 0.2244370963247378, 0.22274710862948707, 0.22137526206368308, 0.22022327752533732, 0.21922495958157076, 0.2183389784596513, 0.21754186889158342, 0.21682114458109047])",26.19218769262898,-81.90527866594641,-49.95072844256384,0.10649207489087945,-0.0010703986624923832,0.2330442660487424,25.00000024893707,-1.0,[],[],[],10000000000.0,0.024869918823242188
20,-91.2611312866211,23.653425216674805,50.08714294433594,0.2722108662128446,-0.005648455582559232,0.2595365802433827,23.235239856783906,"array('d', [23.185556411743164, 23.848644704983865, 24.4824749914578, 25.094331232440886, 25.689774163386883, 26.273040375986465, 26.84732434552052, 27.414995033812275, 27.977771677955733, 28.536870726088644, 29.093129793992812, 29.64711159376663, 30.199189400664682, 30.74961496059188, 31.298569393271265, 31.846196519915175])","array('d', [-93.55586242675781, -91.14544596070091, -88.7271499725659, -86.3031906513843, -83.87514201400352, -81.44413682937632, -79.01099267767867, -76.57629637484912, -74.14046378944894, -71.70378425822254, -69.2664547309284, -66.82860654041703, -64.39032643531932, -61.95167279846932, -59.512687571102546, -57.07340820079216])","array('d', [-50.00261688232422, -49.992524182448, -49.98580402028568, -49.98126934665886, -49.978169646832605, -49.97602390002608, -49.974519502107576, -49.97345037240843, -49.972678631149854, -49.97211063779808, -49.971681897231576, -49.97134752100597, -49.97107622145234, -49.970846583743274, -49.97064481622388, -49.9704634455886])","array('d', [0.38731673359870894, 0.2967747193476465, 0.22510989836304407, 0.1689646407979524, 0.12559098578437497, 0.09266514035849831, 0.06818737411298824, 0.05042567132725185, 0.03788255325362641, 0.029274359175368272, 0.02351737421271297, 0.01971794995718401, 0.017165251449287787, 0.015326029985452965, 0.013841183857683858, 0.012524022198691599])","array('d', [-0.004874085541814416, -0.0032275643809250316, -0.0021662764202825943, -0.0014730292506898, -0.0010143823858636606, -0.0007073373818997753, -0.0004996457261369567, -0.00035802063991811624, -0.00026099101815794116, -0.00019451265422797487, -0.00014923511676690328, -0.00011877401373874316, -9.860213456228367e-05, -8.532944602830353e-05, -7.62362605481504e-05, -6.898150958885703e-05])","array('d', [0.2757609645512444, 0.26181251848931975, 0.25135452948943665, 0.24353810879620957, 0.2377303484326624, 0.23344159435189768, 0.2302867498147146, 0.22796260177459202, 0.22623295810307356, 0.2249176565232443, 0.22388352480447166, 0.22303635869796354, 0.22231346363580384, 0.22167653056982117, 0.22110471525536515, 0.2205878302051994])",26.273040375986465,-81.44413682937632,-49.97602390002608,0.09266514035849831,-0.0007073373818997753,0.23344159435189768,25.000000248936228,-1.0,[],[],[],10000000000.0,0.018763065338134766
21,-90.80204772949219,23.744495391845703,50.10923767089844,0.2516884803771971,-0.006892876233905678,0.25643284718063847,23.23581609183367,"array('d', [23.280866622924805, 23.937117863461317, 24.566320011563317, 25.175453236786794, 25.76984427645855, 26.353539496799133, 26.929573024334548, 27.50017551289707, 28.066945241029906, 28.630992008820474, 29.19305892810545, 29.753624657222574, 30.3129874533146, 30.87133186274577, 31.42877857958422, 31.98541688822029])","array('d', [-93.09883117675781, -90.68652476324897, -88.26701133978237, -85.84236183142633, -83.41405319550628, -80.98314977462432, -78.55041856617449, -76.1164073264731, -73.68150053752252, -71.24596142464685, -68.80996459300945, -66.3736218469401, -63.93700262346819, -61.50014983075648, -59.063091523977626, -56.62585267347895])","array('d', [-50.01487731933594, -50.01008939338457, -50.0068688094611, -50.0046644724743, -50.00312797327274, -50.00203610343637, -50.00124395085734, -50.0006561686314, -50.00020917758473, -49.999860027943235, -49.999579367285264, -49.999346972524755, -49.99914890254678, -49.99897568548449, -49.99882116850963, -49.99868178595079])","array('d', [0.36299967765808094, 0.27525108590569125, 0.20596104281578576, 0.15187231842333337, 0.11029949805012312, 0.07896082623843463, 0.05588705012309395, 0.03936994231855393, 0.027931804878918734, 0.020306183622579427, 0.015424701691374953, 0.012407467174301723, 0.010555876126499053, 0.009347323569036505, 0.008431649940300809, 0.007629273052774451])","array('d', [-0.0023040771484374124, -0.001539028544220989, -0.0010456695187756693, -0.0007231800557076859, -0.0005095826038718349, -0.00036630346637636055, -0.00026904113082972854, -0.00020229805703733743, -0.00015606602110274074, -0.00012379208378516087, -0.00010111474402490554, -8.506874207640391e-05, -7.357891215262209e-05, -6.513558789243739e-05, -5.858723052945988e-05, -5.3012005395189666e-05])","array('d', [0.2724054614689688, 0.25946239422095024, 0.24985443999152973, 0.24277435119121232, 0.23761395516380912, 0.23389958443855757, 0.2312573205863846, 0.22939233945503676, 0.22807511401333905, 0.22713099383874333, 0.22643147610541461, 0.22588636102293488, 0.2254364064102763, 0.2250462882960632, 0.22469775535030853, 0.22438289536914138])",26.353539496799133,-80.98314977462432,-50.00203610343637,0.07896082623843463,-0.00036630346637636055,0.23389958443855757,25.000000248935418,-1.0,[],[],[],10000000000.0,0.02587723731994629
22,-89.8843994140625,23.92506217956543,50.15753173828125,0.2137803435325621,-0.008366115391254557,0.25040407578018664,23.23923930105705,"array('d', [23.46909523010254, 24.111849524274405, 24.73176482301409, 25.33526932900071, 25.927257222071926, 26.51141809043729, 27.090481797315572, 27.66641419981207, 28.240580460452673, 28.81388386951318, 29.38688394685089, 29.959895709527824, 30.53307117325525, 31.106463793991924, 31.680076359897168, 32.25389174382856])","array('d', [-92.17977142333984, -89.76382789948646, -87.34191474001032, -84.91585577019379, -82.48695869129392, -80.0561662067334, -77.62415392677774, -75.19139799209236, -72.75822453424624, -70.32484760228708, -67.89139922109052, -65.45795359245828, -63.024546518018916, -60.59119060423517, -58.15788652852776, -55.72463451036208])","array('d', [-50.04756546020508, -50.05188846174484, -50.05465249932631, -50.05640695125447, -50.057499929935645, -50.05815523930072, -50.05851902192242, -50.05868836467038, -50.05872902352079, -50.058686491486505, -50.05859292530267, -50.058471442640766, -50.05833870821692, -50.05820637765728, -50.058081767091664, -50.05796800886657])","array('d', [0.31608667969703663, 0.2335929397311887, 0.16880827859915107, 0.11864708140535982, 0.0805316701982412, 0.05225316957276596, 0.03189563676023828, 0.017792985307781183, 0.008503098751481815, 0.002790957357319343, -0.00038340338195745827, -0.0018740964962502334, -0.0023565893235017745, -0.0023331947768942996, -0.0021369041515200476, -0.0019335510101801184])","array('d', [0.0021161322947592844, 0.0013549684389908506, 0.0008644449849700119, 0.0005444547393165359, 0.00033344823507481787, 0.0001931398809431399, 9.944916241214674e-05, 3.706571486438317e-05, -3.8559795026262085e-06, -2.9737885859923404e-05, -4.4862747669678046e-05, -5.220096485142454e-05, -5.3957274479088755e-05, -5.1940810877561326e-05, -4.781644335969222e-05, -4.326619326533622e-05])","array('d', [0.26583655277756263, 0.2547941630563771, 0.24680991747643877, 0.2411464245192705, 0.2372376846412322, 0.23463773252021983, 0.23299237548208845, 0.23202188651569666, 0.23150896500499796, 0.23128924231329137, 0.2312430450140487, 0.23128782509374635, 0.2313709891950674, 0.2314629952697727, 0.23155063450985378, 0.23163043052367233])",26.51141809043729,-80.0561662067334,-50.05815523930072,0.05225316957276596,0.0001931398809431399,0.23463773252021983,25.000000248933787,-1.0,[],[],[],10000000000.0,0.022716045379638672
23,-89.42583465576172,24.014793395996094,50.18339920043945,0.19631691277027113,-0.008640384301543366,0.2474659244206289,23.240260597221116,"array('d', [23.561670303344727, 24.197848164334516, 24.813173578326698, 25.413826256610378, 26.004502253875806, 26.58872538390878, 27.16908252676573, 27.74741403473021, 28.32497389214645, 28.902566469153264, 29.480663083294214, 30.059499985301535, 30.639158721891096, 31.21962954726473, 31.800858397104115, 32.38277684093372])","array('d', [-91.72038269042969, -89.30270722386713, -86.87962687048325, -84.45286128116724, -82.02364511364978, -79.59286762464285, -77.16116364474072, -74.72897689329021, -72.29660671855926, -69.86424430254773, -67.43200163616835, -64.99993504630616, -62.56806420376414, -60.13638707285372, -57.704891014912874, -55.27356414138576])","array('d', [-50.066532135009766, -50.07472684546833, -50.08002278607976, -50.08344051620844, -50.08562670480646, -50.0869969630918, -50.08782245692765, -50.08828303967074, -50.0885001889874, -50.08855759085224, -50.08851404752901, -50.088411524556015, -50.08828004992936, -50.08814052772403, -50.08800615111806, -50.087882893052075])","array('d', [0.2937214374542236, 0.21367210711713397, 0.15100035402357131, 0.10269292141656221, 0.06621779260964611, 0.03939713179793178, 0.02033789838665225, 0.007392360055867848, -0.0008658382706894111, -0.005657553618770074, -0.00800975735924537, -0.00876462970564372, -0.00858682410343228, -0.007969093759966352, -0.007236285113994862, -0.0065476621317635385])","array('d', [0.003997232299298117, 0.0025821546066061643, 0.0016698207032827719, 0.0010742987567158462, 0.0006812098443448882, 0.00041936492571856493, 0.00024395631417123978, 0.00012646978814419632, 4.8549528814206175e-05, -1.7883021352962234e-06, -3.25334655539288e-05, -4.920676816530885e-05, -5.586191112802107e-05, -5.575759234842478e-05, -5.180955261245565e-05, -4.687930825947694e-05])","array('d', [0.2626592675831653, 0.25250711659998254, 0.24529063172554078, 0.24030137548381358, 0.23699109673671395, 0.2349256813528085, 0.23375953944540645, 0.2332196671806812, 0.2330943185825157, 0.23322387657846064, 0.2334928034294255, 0.23382217172106326, 0.2341625575836494, 0.2344871899216638, 0.2347852853511271, 0.23505550573463388])",26.58872538390878,-79.59286762464285,-50.0869969630918,0.03939713179793178,0.00041936492571856493,0.2349256813528085,25.000000248932977,-1.0,[],[],[],10000000000.0,0.019331932067871094
