,x_pos,y_pos,z_pos,roll,pitch,yaw,vel,x_traj,y_traj,z_traj,roll_traj,pitch_traj,yaw_traj,x_cmd,y_cmd,z_cmd,roll_cmd,pitch_cmd,yaw_cmd,vel_cmd,effector_dmg,effector_x,effector_y,effector_z,cost,time_solution
0,-200.81204223632812,-119.59378051757812,44.93549728393555,0.6286157369613645,0.036111298948526424,1.3952120403435568,23.110054153828337,"array('d', [-122.30663299560547, -120.82975917120547, -119.36686188862669, -117.92248490449842, -116.50093864769268, -115.10658405635492, -113.7440353526738, -112.41795068929669, -111.13305193667223, -109.89406514990607, -108.7056872190819, -107.57254504044913, -106.49915861133842, -105.48990361762226, -104.54808716529098, -103.67218677828764])","array('d', [-201.4421844482422, -201.18360920511554, -200.85298641736918, -200.44916806905667, -199.97134896633352, -199.419114236988, -198.79252128423173, -198.09204960716647, -197.31862430629073, -196.47360547338488, -195.55878608360382, -194.57638248665833, -193.52902375918632, -192.41973871457606, -191.25263587940137, -190.03519309706755])","array('d', [-44.946006774902344, -44.90764071765521, -44.89783498808328, -44.91145052973627, -44.930906360436595, -44.94756115472599, -44.964487012376665, -44.980713356259606, -44.99665994164404, -45.01226191857584, -45.027618756313785, -45.04277040318002, -45.05777538217132, -45.072686999419965, -45.08754531462492, -45.0984694127184])","array('d', [0.6275637745857235, 0.6425836904305491, 0.6561742733843469, 0.66847154216083, 0.6795985713683098, 0.6896667229941013, 0.6987767602211928, 0.7070198539173712, 0.7144784892716175, 0.7212272721741444, 0.7273336024707648, 0.7328579957777086, 0.7378522544988684, 0.7423259171029646, 0.7093523928115427, 0.6322480621950884])","array('d', [-0.03575318306684496, -0.015741831043993678, 0.0023651874116593858, 0.015568982848326748, 0.010458139896954637, 0.011727534471911574, 0.010855306117691324, 0.010781472939219992, 0.010485971270581807, 0.010319811840219477, 0.010159012174208365, 0.010045422265726743, 0.00996292635010459, 0.009920269044435357, 0.009891619564111151, 0.004759601266930824])","array('d', [1.4214500496771671, 1.3732417858346817, 1.3235755762651613, 1.2725626240868309, 1.2203074610618054, 1.1669081107805548, 1.1124562725888112, 1.0570375272734536, 1.0007315635383442, 0.9436124236312214, 0.8857487687444726, 0.8272041806496511, 0.7680376397610041, 0.708306240564644, 0.650289581571117, 0.598417305812666])",-115.10658405635492,-199.419114236988,-44.94756115472599,0.6896667229941013,0.011727534471911574,1.1669081107805548,14.999999851429148,-1.0,"[-200.6666923939987, -118.56742783538202, 44.88333451160948]","[-205.8414603284635, -107.28854506336675, 53.309993412951826]","[-191.07018204165865, -109.04203996571052, 51.37748380075781]",10000000000.0,0.023178815841674805
1,-200.70010375976562,-119.1435546875,44.93356704711914,0.6288178563117978,0.03606263920664796,1.390640498199735,23.111947559566982,"array('d', [-121.85311889648438, -120.37741506335438, -118.91601776228113, -117.47347508749998, -116.05410088290759, -114.66226000548222, -113.30256683872969, -111.97967823764004, -110.6983124408069, -109.46318981973104, -108.278999468078, -107.1503584444857, -106.08177490604032, -105.07761059086405, -104.14034014446884, -103.26539830793293])","array('d', [-201.3420867919922, -201.07689353844654, -200.7396986190951, -200.32937589532358, -199.84514097981702, -199.28660069729472, -198.65383480674356, -197.9473455523897, -197.16808096091157, -196.31742405605064, -195.39719055409813, -194.40961917789755, -193.357360839096, -192.24346562364636, -191.07269140380544, -189.8545332785434])","array('d', [-44.94438552856445, -44.90617579229577, -44.89651155180686, -44.91014746474127, -44.929556460358135, -44.94619529080929, -44.963101858270456, -44.979316635994756, -44.9952550850468, -45.01085341583364, -45.026210417034626, -45.04136604294134, -45.056378662638394, -45.071301598996115, -45.086174726656544, -45.09711436173314])","array('d', [0.6276970505714413, 0.6427042835393995, 0.656283390549397, 0.6685702754586197, 0.6796879089460965, 0.6897475589523462, 0.6988499035409291, 0.7070860364905921, 0.7145383729982653, 0.7212814546940588, 0.7273826189624043, 0.7329022986297667, 0.737891970533296, 0.7423548080755371, 0.6744042710177933, 0.60190888026768])","array('d', [-0.035643633455038064, -0.015642706448775297, 0.0024548790396499882, 0.015508949028319792, 0.010454775641764426, 0.011709851134231834, 0.010847109296372727, 0.010774231378006701, 0.010482304145124802, 0.010318576606563523, 0.010160421256829621, 0.010049278025283033, 0.009969218071243574, 0.00992902903915789, 0.009902573874069167, 0.0047693830737952385])","array('d', [1.4169741282847264, 1.3687530636886607, 1.3190750211234215, 1.2680511467174969, 1.2157859165438696, 1.1623772999678381, 1.1079169437579193, 1.052490377956357, 0.9961772425341996, 0.9390515332202131, 0.8811818673105097, 0.8226317871797963, 0.7634602549788609, 0.7037247525120118, 0.6477222656162028, 0.5992444122108934])",-114.66226000548222,-199.28660069729472,-44.94619529080929,0.6897475589523462,0.011709851134231834,1.1623772999678381,14.999999851429736,-1.0,"[-200.6666923939987, -118.56742783538202, 44.88333451160948]","[-205.8414603284635, -107.28854506336675, 53.309993412951826]","[-191.07018204165865, -109.04203996571052, 51.37748380075781]",10000000000.0,0.025773048400878906
2,-200.47027587890625,-118.24472045898438,44.92966079711914,0.629125118255615,0.03611542657017706,1.3814671794560294,23.116973427930414,"array('d', [-121.40015411376953, -119.92562288963556, -118.4657188411339, -117.02499809108635, -115.6077808449251, -114.21843573844146, -112.8615784909677, -111.54186514137406, -110.2640108696412, -109.03273079053001, -107.85270656694404, -106.72854570327272, -105.66474473071904, -104.66565153537815, -103.73295010761314, -102.85925202985486])","array('d', [-201.24002075195312, -200.96839265867305, -200.62479237890605, -200.2081170552363, -199.7176046943497, -199.15288460931635, -198.51406010599203, -197.80165712030114, -197.0166475879441, -196.1604383755324, -195.23486881618746, -194.24220082847373, -193.1851079327812, -192.06666225165677, -190.89222949603666, -189.67315626465128])","array('d', [-44.942710876464844, -44.90444030110878, -44.89472099404562, -44.90832053237539, -44.927706720867874, -44.944325340897265, -44.96121773566565, -44.97742251872686, -44.99335537371907, -45.00895205815523, -45.02431124570799, -45.03947273558683, -45.054494829303984, -45.06943086424982, -45.084320480101795, -45.09527715726054])","array('d', [0.6279448270797726, 0.6429284810149093, 0.6564862528306188, 0.6687538328530612, 0.6798539985475984, 0.6898978430200476, 0.6989858861143299, 0.7072090783748847, 0.7146497051485026, 0.7213821896024155, 0.7274737573424223, 0.7329847113130076, 0.7379661215688877, 0.7424127053768018, 0.6404831192565454, 0.5722393263348511])","array('d', [-0.035686269402504044, -0.015681285050899454, 0.002419971685647559, 0.015495005258542215, 0.010438348786649147, 0.011699232227657699, 0.010838791685119826, 0.010769167710800397, 0.01047986486349685, 0.010318776606037246, 0.010163095273683009, 0.010054382492040196, 0.009976706494978177, 0.009938965427554342, 0.00991458815920068, 0.004780113617865371])","array('d', [1.4126237342741825, 1.364378865131649, 1.3146788180812394, 1.2636346331999315, 1.2113506829330483, 1.1579248357464165, 1.1034486405785062, 1.0480075330500205, 0.9916810624375877, 0.9345431378232941, 0.8766622944206525, 0.8181019991880949, 0.7589211646808279, 0.6991777589382046, 0.6450554948025419, 0.5997284536853654])",-114.21843573844146,-199.15288460931635,-44.944325340897265,0.6898978430200476,0.011699232227657699,1.1579248357464165,14.99999985143027,-1.0,"[-200.18815985574327, -116.77248505113788, 44.875499433050614]","[-205.10614046623778, -105.42019669545985, 53.35718651784319]","[-190.38378638777283, -107.38970263425082, 51.26593408320648]",10000000000.0,0.02353954315185547
3,-200.35232543945312,-117.79615783691406,44.927669525146484,0.6293123364448543,0.03602993860840798,1.3769338438895082,23.117803365849667,"array('d', [-120.4958724975586, -119.02376963235987, -117.56692366211239, -116.12990710029645, -114.71705281860855, -113.33273429662161, -111.98156877358663, -110.66820915749337, -109.39736341685547, -108.17373523158192, -107.00199073340347, -105.88671788893465, -104.83238990439557, -103.84332846940055, -102.92024905836341, -102.05239514306308])","array('d', [-201.02996826171875, -200.7455193410729, -200.3891848883431, -199.95990651979855, -199.4569650474218, -198.88003193382252, -198.22925516434594, -197.5052054198129, -196.70889989441275, -195.84179056848313, -194.90576147442593, -193.90311840554466, -192.8365775242104, -191.70925136691466, -190.52722432789477, -189.30395944961595])","array('d', [-44.939212799072266, -44.900611652841434, -44.89059314147799, -44.90406595671562, -44.92343070472856, -44.94000590477265, -44.95687610490812, -44.973063658675514, -44.98898903763407, -45.00458559712367, -45.01995232029112, -45.03512849522662, -45.050172598334015, -45.06513669068175, -45.08007046854104, -45.09108153768718])","array('d', [0.6282585263252255, 0.6432123279405544, 0.6567430883537079, 0.6689862276561177, 0.6800642789391975, 0.6900881145341013, 0.6991580553718295, 0.7073648742400822, 0.7147907019020631, 0.7215098410942314, 0.7275894782086196, 0.7330901910753035, 0.7380652513053481, 0.7425329314613811, 0.5986752637343056, 0.5354487362673196])","array('d', [-0.03591793403029452, -0.0158909034407575, 0.002230303674056985, 0.015512253311437102, 0.010393546814944601, 0.011685617151684043, 0.010822850845276271, 0.01076198865698341, 0.010477003289044485, 0.01032138041134788, 0.010170460077637077, 0.010066519198896026, 0.009993833937409583, 0.009959198062713984, 0.009952939147998701, 0.004814356255884229])","array('d', [1.403935969867978, 1.355660950917986, 1.3059330346709157, 1.2548631267330024, 1.2025554681391157, 1.1491077993652417, 1.0946115451462226, 1.0391520209378553, 0.9828086597951983, 0.9256552573784478, 0.8677602333800627, 0.8091869150574041, 0.7499939165544834, 0.6902373274364998, 0.6383400630366581, 0.596720170727347])",-113.33273429662161,-198.88003193382252,-44.94000590477265,0.6900881145341013,0.011685617151684043,1.1491077993652417,14.999999850519236,-1.0,"[-200.18815985574327, -116.77248505113788, 44.875499433050614]","[-205.10614046623778, -105.42019669545985, 53.35718651784319]","[-190.38378638777283, -107.38970263425082, 51.26593408320648]",10000000000.0,0.019581079483032227
4,-200.23118591308594,-117.34513092041016,44.92559814453125,0.6296645998954769,0.03560418263077737,1.372632534303937,23.121149489234394,"array('d', [-120.0445556640625, -118.57368938693389, -117.11838938560481, -115.68323606312447, -114.27256835410657, -112.89076185690769, -111.54243435209071, -110.23223698723933, -108.96487397825872, -107.74504318024776, -106.57740288619901, -105.46653122325864, -104.41688948227522, -103.43278288083972, -102.51489852597037, -101.65244775013483])","array('d', [-200.92198181152344, -200.63122937711253, -200.26863742621438, -199.83316941527002, -199.32412716818385, -198.7412027660359, -198.08456606984143, -197.35480964293532, -196.55297280796236, -195.68052959299916, -194.73938587520706, -193.7318689170037, -192.66071592682832, -191.52906201173448, -190.34299649543368, -189.1159163302886])","array('d', [-44.9373779296875, -44.89860724829606, -44.888435284398774, -44.90184480393059, -44.92120113109869, -44.93775593978857, -44.95461648701262, -44.9707966457442, -44.9867194189412, -45.00231693397372, -45.01768833794036, -45.032872710397854, -45.047928275272604, -45.062908367851655, -45.07785191441779, -45.08886380688187])","array('d', [0.6284028291702269, 0.6433428984788057, 0.6568612332863477, 0.6690931292159032, 0.6801610065820224, 0.6901756353030037, 0.6992372427195195, 0.7074365144819749, 0.7148554954558476, 0.7215683880006625, 0.7276422020873344, 0.7331369387399184, 0.7381021307688334, 0.7424632865059166, 0.5989768073401762, 0.5357148499728165])","array('d', [-0.03603674471378323, -0.01599840824415936, 0.0021330268138753093, 0.015523326513085989, 0.010371792859965088, 0.011679913264887341, 0.010815707385274145, 0.010759198864257245, 0.010476283990966924, 0.010323329313716722, 0.010174714093970472, 0.010073155982422395, 0.010002447229647115, 0.009971851918862155, 0.009953512124300817, 0.004814881471204408])","array('d', [1.3996586511519293, 1.3513697587196725, 1.3016290187177972, 1.2505472748482709, 1.1982287076834106, 1.1447709988851231, 1.0902655162918493, 1.0347975207622957, 0.9784463937620855, 0.9212858842056357, 0.8633843762462848, 0.8048052023862193, 0.7456072398099506, 0.6858527322950925, 0.6339435080378557, 0.5922975232963248])",-112.89076185690769,-198.7412027660359,-44.93775593978857,0.6901756353030037,0.011679913264887341,1.1447709988851231,14.999999851431705,-1.0,"[-200.06353730996616, -116.32521194127919, 44.873636309599455]","[-204.91728822366954, -104.95498335622277, 53.3682819167622]","[-190.20782926732085, -106.9790805381361, 51.2387637060715]",10000000000.0,0.018414020538330078
5,-200.1078338623047,-116.89495086669922,44.92338180541992,0.6304481029510495,0.03467062488198288,1.3686623285200927,23.121885046943152,"array('d', [-119.59378051757812, -118.12422756367278, -116.67056611106325, -115.2373844421645, -113.82902760406579, -112.44987409631135, -111.10454243052918, -109.79768220582211, -108.53399388235543, -107.31816935077896, -106.15485877430655, -105.04863003221531, -104.00393209436612, -103.02505359265714, -102.11262995155424, -101.2557576106072])","array('d', [-200.81204223632812, -200.51473765157397, -200.14563463979042, -199.7037201715797, -199.18831867198625, -198.59914466012884, -197.93639158149873, -197.20067564173794, -196.39306001139784, -195.51504246043788, -194.56855235199993, -193.5559399799906, -192.47996497484712, -191.34378594894977, -190.15351440688752, -188.9225321118246])","array('d', [-44.93549728393555, -44.89662021894309, -44.8863519645534, -44.89971396518512, -44.91905374803286, -44.93558854622047, -44.952437185047344, -44.96860888733146, -44.98452786396395, -45.0001254664127, -45.015500857846106, -45.03069293613189, -45.04575989107162, -45.06075506619827, -45.07571717504228, -45.08674812778635])","array('d', [0.6286157369613645, 0.6435355454313411, 0.6570355474710385, 0.6692508552215397, 0.6803037229728898, 0.6903047704093648, 0.6993540889079344, 0.7075422410090225, 0.7149511598792482, 0.7216549455459196, 0.7277205088830164, 0.7332077139056016, 0.7381653017270482, 0.74242599699058, 0.5982626740287323, 0.5350846955414504])","array('d', [-0.036111298948526424, -0.016065867708843343, 0.002071986979138615, 0.015520042468466527, 0.010353270329411439, 0.011671583489663, 0.010808145483605681, 0.010755421709361723, 0.010474957885012001, 0.010324726549466043, 0.010178592370525997, 0.01007951134721077, 0.010011238743729212, 0.00998312999123975, 0.009966948972484773, 0.004826882996089688])","array('d', [1.3952120403435568, 1.346902673505003, 1.2971430085802942, 1.2460437978313614, 1.1937091324926516, 1.140236607255481, 1.08571750565041, 1.0302370071844722, 0.9738744152077051, 0.9167034040594958, 0.8587922874757657, 0.800204335000734, 0.7409984114107683, 0.6812424595270722, 0.6293725953409278, 0.5877883837166722])",-112.44987409631135,-198.59914466012884,-44.93558854622047,0.6903047704093648,0.011671583489663,1.140236607255481,14.99999985143226,-1.0,"[-199.80687433163962, -115.42637338256414, 44.871386286446246]","[-204.5433757616451, -104.02744987869235, 53.39371561336358]","[-189.85760092029432, -106.15967621797401, 51.20702218555495]",10000000000.0,0.020139217376708984
6,-199.85401916503906,-115.99746704101562,44.91851043701172,0.6337127089500425,0.031001873314380684,1.3620145777848105,23.11538555667706,"array('d', [-119.1435546875, -117.67537756078197, -116.22342907196165, -114.79230311693014, -113.38634903856978, -112.0099487990463, -110.66772105328452, -109.36431370024641, -108.10442310734193, -106.89273487143252, -105.73389064127332, -104.6324476304742, -103.59284202608416, -102.61933536429981, -101.71248019722165, -100.86128362187964])","array('d', [-200.70010375976562, -200.39606938531497, -200.02028325254406, -199.57175598672865, -199.0498345902214, -198.4542566813712, -197.78523958648464, -197.04342362919957, -196.22989623580904, -195.34617934208921, -194.3942261995625, -193.37641052349352, -192.29551474030356, -191.15472957689605, -189.96020973952292, -188.72529573177374])","array('d', [-44.93356704711914, -44.894759416103184, -44.88455400818418, -44.89791491022665, -44.91721942302199, -44.93373818845031, -44.95057129981499, -44.966733767929846, -44.98264738857166, -44.99824397803271, -45.01362227510628, -45.028821141167555, -45.04389867611666, -45.0589082525305, -45.07388833637351, -45.084937824008236])","array('d', [0.6288178563117978, 0.6437184305981206, 0.6572010288258114, 0.6694005889511828, 0.680439207652059, 0.6904273619899335, 0.6994650142633418, 0.7076426101267737, 0.7150419766550792, 0.7217371164951086, 0.7277948451141928, 0.733274884802044, 0.7382249752964269, 0.7419637446686639, 0.5975185280074793, 0.5344280024719785])","array('d', [-0.03606263920664796, -0.01602183854979618, 0.0021118262050913725, 0.015480068268352517, 0.010345673360534404, 0.011657903607148662, 0.01080101156705224, 0.010750210608340523, 0.010472973434436062, 0.010325317316325333, 0.010181831808392822, 0.010085280539395612, 0.01001953478972417, 0.009993993786627737, 0.009980016276941275, 0.004838552895464875])","array('d', [1.390640498199735, 1.3423116887594337, 1.2925340529867653, 1.241418256247183, 1.1890683048799395, 1.1355817109351658, 1.0810496778374044, 1.025557307802322, 0.9691838299716469, 0.9120028478612348, 0.85408260842999, 0.7954863223135255, 0.7362728592236513, 0.6765416181068464, 0.6247358406440311, 0.5832159450959301])",-112.0099487990463,-198.4542566813712,-44.93373818845031,0.6904273619899335,0.011657903607148662,1.1355817109351658,14.999999851432793,-1.0,"[-199.80687433163962, -115.42637338256414, 44.871386286446246]","[-204.5433757616451, -104.02744987869235, 53.39371561336358]","[-189.85760092029432, -106.15967621797401, 51.20702218555495]",10000000000.0,0.029389381408691406
7,-199.59036254882812,-115.104248046875,44.91316604614258,0.6393649578094481,0.024734836071729636,1.3566829721119742,23.097618007535633,"array('d', [-118.24472045898438, -116.7794009208705, -115.3309781977649, -113.90405872574487, -112.50300128279234, -111.13219275668601, -109.79625153088726, -108.499821068736, -107.24758879690317, -106.04422701724197, -104.89435976733219, -103.80252244519373, -102.77312529697859, -101.80910060929752, -100.90610758274143, -100.05303980640757])","array('d', [-200.47027587890625, -200.1527649291397, -199.76361288966928, -199.30187697262357, -198.76694872943287, -198.1586104930675, -197.47712630222094, -196.72318342743426, -195.89791658549817, -195.00289478854097, -194.0401178237028, -193.0120050126421, -191.92138314828293, -190.7725440859272, -189.5750599772614, -188.3414127350106])","array('d', [-44.92966079711914, -44.89077784231156, -44.88050425690449, -44.893806803728715, -44.91306429672645, -44.92954689610372, -44.94635423854952, -44.96250014855487, -44.97840601810332, -44.99400307630721, -45.00938975589647, -45.024604670132106, -45.03970583734111, -45.054747060130865, -45.069763775728305, -45.08084867249243])","array('d', [0.629125118255615, 0.6439964527251995, 0.6574525936674034, 0.6696282142417025, 0.6806451715209401, 0.6906137257436187, 0.699633642960412, 0.7077951910641006, 0.7151800356015307, 0.7218620302182028, 0.7279078409098823, 0.7333769487311484, 0.7383153607533798, 0.6860931845364941, 0.5473114383123916, 0.490004184441242])","array('d', [-0.03611542657017706, -0.01606960253267331, 0.00206860757852284, 0.015445334896052548, 0.010317597288986178, 0.01163762529216976, 0.010786827488006683, 0.010742212728770226, 0.010470543061539384, 0.01032828270011543, 0.010189957612691628, 0.01009846894562841, 0.010037773409731112, 0.010017858595237319, 0.010004977950772745, 0.004860849210364058])","array('d', [1.3814671794560294, 1.3331088027700273, 1.2833038385802211, 1.2321628199840098, 1.1797896241056776, 1.1262816372198567, 1.071729940844523, 1.0162195195865076, 0.959829489697387, 0.9026333470325464, 0.8446992373758071, 0.7860902839791493, 0.7268653805776867, 0.6704282724837739, 0.6240642810255917, 0.5867630362324565])",-111.13219275668601,-198.1586104930675,-44.92954689610372,0.6906137257436187,0.01163762529216976,1.1262816372198567,14.999999851433907,-1.0,"[-199.40860558877714, -114.08430542271404, 44.873647771563995]","[-204.012007270572, -102.6791287216218, 53.46030238048537]","[-189.35220810415777, -104.96690798066749, 51.25658859183673]",10000000000.0,0.037038326263427734
8,-199.4547576904297,-114.65943908691406,44.910560607910156,0.6427896618843076,0.02069399505853655,1.3543324927475788,23.082588506610982,"array('d', [-117.34513092041016, -115.88266421774772, -114.43776261518063, -113.01503680294687, -111.61884881901845, -110.25359496372211, -108.92389285728991, -107.63438298020695, -106.38974450164716, -105.19463719147355, -104.05366804764739, -102.97135113603282, -101.95207112985264, -100.99710166052319, -100.09627863985158, -99.23845114425929])","array('d', [-200.23118591308594, -199.90069944078672, -199.4986551831813, -199.02415717035467, -198.4766412925428, -197.85593767149993, -197.16235819155656, -196.3966389760487, -195.55996351849302, -194.65394939617693, -193.6806442581207, -192.64251425466162, -191.54243164862055, -190.38602156793934, -189.1868602812872, -187.95649119418303])","array('d', [-44.92559814453125, -44.88744470242396, -44.877831414800504, -44.89129459274942, -44.91042898257841, -44.926900304048985, -44.94367122637261, -44.9598016793605, -44.97569639129866, -44.99129171711331, -45.006683866037456, -45.021911917683205, -45.0370336215778, -45.05210308454194, -45.067151881545, -45.078267101736856])","array('d', [0.6296645998954769, 0.6444845959415514, 0.6578942839501961, 0.6700278721612316, 0.6810067969637698, 0.6909409379259429, 0.6999297165930032, 0.7080630889368253, 0.715422437535059, 0.7220813568783578, 0.7281062619894041, 0.7335562832638608, 0.7384752743429596, 0.61285608848294, 0.4831302088665225, 0.4329548272407544])","array('d', [-0.03560418263077737, -0.015607009854922761, 0.002487178669796894, 0.015251158793245045, 0.01034394112546215, 0.011597354446547558, 0.010778010366829145, 0.010730468136534513, 0.01046726869965146, 0.010329177533302527, 0.010196265311278456, 0.0101095982610291, 0.010053943638548972, 0.010039256618757505, 0.010026357589179628, 0.00487994015405193])","array('d', [1.372632534303937, 1.3242222133510226, 1.2743692400557158, 1.2231839147903458, 1.1707698873450334, 1.1172243227337548, 1.062638088040859, 1.007095961010291, 0.9506768593058339, 0.8934540892309927, 0.8354956176092062, 0.7768644079112503, 0.7176193315099367, 0.6651983405987136, 0.6253012558916258, 0.5930837726447838])",-110.25359496372211,-197.85593767149993,-44.926900304048985,0.6909409379259429,0.011597354446547558,1.1172243227337548,14.999999851434849,-1.0,"[-199.13266067460484, -113.19475819787677, 44.87952183078143]","[-203.66662313791645, -101.8064637504472, 53.5253262444798]","[-189.0198142475435, -104.20345231213918, 51.35151963762387]",10000000000.0,0.022808074951171875
9,-199.4547576904297,-114.65943908691406,44.910560607910156,0.6427896618843076,0.02069399505853655,1.3543324927475788,23.082588506610982,"array('d', [-116.89495086669922, -115.43378840030874, -113.99053284651163, -112.56978936745499, -111.17591709515364, -109.81332470486716, -108.4866307508666, -107.20047757884937, -105.95954238719892, -104.76848066187426, -103.63189236896739, -102.55428203508093, -101.5400222802005, -100.58996433172359, -99.69250254406248, -98.83640390684889])","array('d', [-200.1078338623047, -199.7714805276658, -199.36354107493145, -198.88314607028255, -198.3297565023656, -197.7032333408594, -197.00391694019044, -196.2325733320172, -195.3904153410151, -194.47908973072373, -193.5006727277629, -192.4576583428281, -191.35294579687024, -190.19249009515488, -188.9908016607538, -187.75922296603997])","array('d', [-44.92338180541992, -44.886560514555796, -44.878152969595575, -44.89195824293599, -44.91093738858614, -44.92743111952366, -44.94416911483123, -44.96029137820979, -44.976174708773165, -44.99176491865161, -45.007154793592306, -45.02238451296962, -45.0375114354665, -45.05258973445955, -45.06764956543947, -45.07877567694775])","array('d', [0.6304481029510495, 0.6451935388867791, 0.6585357621103468, 0.6706083056507236, 0.681531994937554, 0.6914161567101091, 0.700359712262832, 0.7084521648187074, 0.7157744868997145, 0.7223999002143187, 0.7283944724977957, 0.7338169340649482, 0.7387090035306271, 0.5944588773020223, 0.4665025334610152, 0.41813902717359924])","array('d', [-0.03467062488198288, -0.01476229181779324, 0.003251510999229889, 0.01496055449180645, 0.010421392670985845, 0.01155183512623943, 0.010778850816233629, 0.010718914338732184, 0.01046351633246845, 0.010326097074632841, 0.01019626229382298, 0.010111788447869714, 0.010058669639180649, 0.010046274354198201, 0.010034041451383695, 0.004886792341178138])","array('d', [1.3686623285200927, 1.3201764972087016, 1.2702537384560386, 1.219004013518677, 1.1665306409708838, 1.112930463512361, 1.058294035910563, 1.002705834657565, 0.9462444882026682, 0.8889830265753208, 0.8309891545451035, 0.7723255938600088, 0.7130511071257207, 0.6615817205847248, 0.6232433894029688, 0.5922936042127952])",-109.81332470486716,-197.7032333408594,-44.92743111952366,0.6914161567101091,0.01155183512623943,1.112930463512361,14.999999851435145,-1.0,"[-199.13266067460484, -113.19475819787677, 44.87952183078143]","[-203.66662313791645, -101.8064637504472, 53.5253262444798]","[-189.0198142475435, -104.20345231213918, 51.35151963762387]",10000000000.0,0.017542362213134766
10,-199.1759490966797,-113.77393341064453,44.906280517578125,0.650331318378448,0.011493936181068337,1.3493654737856726,23.038938594508735,"array('d', [-115.99746704101562, -114.53851291263823, -113.09817733596525, -111.68103289937501, -110.29142885299203, -108.93382289541795, -107.61284130736789, -106.33314080797994, -105.09940172937216, -103.91627721250104, -102.78835772363466, -101.72013202434901, -100.71595097972316, -99.77659325166277, -98.89019217935018, -98.04520214210775])","array('d', [-199.85401916503906, -199.50769983098664, -199.08950313326025, -198.59862353753908, -198.0345857443799, -197.3973361813364, -196.6872888598484, -195.90528875992933, -195.05262492127954, -194.13101979801817, -193.1426232385654, -192.09000069163554, -190.97611990056254, -189.80698638596562, -188.59711585602162, -187.35788851125614])","array('d', [-44.91851043701172, -44.88692459046325, -44.88325549700418, -44.89844005543114, -44.91685878431921, -44.93347096983424, -44.95010297155241, -44.9662066282728, -44.98205078710663, -44.997618546646166, -45.01298972758307, -45.02820901140355, -45.04333254381867, -45.058413503607326, -45.073491106831526, -45.08464604917066])","array('d', [0.6337127089500425, 0.6481474769081988, 0.6612085962000052, 0.6730267865926184, 0.6837203281358747, 0.6933962448152003, 0.70215137532943, 0.710073341264655, 0.7172414207692789, 0.7237273298200279, 0.729595883240908, 0.7349052554529204, 0.7397007975563443, 0.5946279267493347, 0.46378137978192296, 0.4157132092115236])","array('d', [-0.031001873314380684, -0.011442667399886019, 0.006255233903788071, 0.01386430429045997, 0.010746637218681606, 0.011392620589463956, 0.0107938257704304, 0.01068002760648437, 0.010449752071789104, 0.010309965438508227, 0.010187346917909188, 0.010106724815601239, 0.010059121009088333, 0.010049327638380161, 0.01005439733853615, 0.004904916309597618])","array('d', [1.3620145777848105, 1.31321321723656, 1.2629989085687345, 1.2114801855164457, 1.1587589729722214, 1.104930758077351, 1.0500847827094348, 0.9943042573553258, 0.9376665946286737, 0.8802436600483123, 0.8221020396535996, 0.763303343400637, 0.7039049491212896, 0.652372929979999, 0.6141457244217812, 0.5834016198162465])",-108.93382289541795,-197.3973361813364,-44.93347096983424,0.6933962448152003,0.011392620589463956,1.104930758077351,14.99999985052059,-1.0,"[-199.13266067460484, -113.19475819787677, 44.87952183078143]","[-203.66662313791645, -101.8064637504472, 53.5253262444798]","[-189.0198142475435, -104.20345231213918, 51.35151963762387]",10000000000.0,0.028862953186035156
11,-198.8856964111328,-112.89259338378906,44.904476165771484,0.6579589843749999,0.0010659387335180228,1.3440549532559258,22.976814063628158,"array('d', [-115.55028533935547, -114.09226035213216, -112.65323439809663, -111.23774795409693, -109.85014722303781, -108.49492881282586, -107.17672600574102, -105.90020825624117, -104.67006098915034, -103.49093916942121, -102.36743053146378, -101.30401714081555, -100.30503855869019, -99.37124124322305, -98.4906856091781, -97.65179173794677])","array('d', [-199.7234344482422, -199.37288725916906, -198.9501933618612, -198.45458395622242, -197.8856245774169, -197.2433184158995, -196.52812604909107, -195.7409429694418, -194.88310646886214, -193.95638685617982, -192.96298033288332, -191.90549726693277, -190.78694909494368, -189.61337021884492, -188.3992389993915, -187.15587693402824])","array('d', [-44.9159049987793, -44.88835317144313, -44.8883349338795, -44.904590382742185, -44.92258891342114, -44.93929918048865, -44.95585448423232, -44.97194627194618, -44.987760632535455, -45.0033094323976, -45.01866259277778, -45.03386835855271, -45.048981534779244, -45.06405690060029, -45.079121936342965, -45.09025596804966])","array('d', [0.6362498402595517, 0.6504431683672915, 0.6632858237214189, 0.6749063395122719, 0.6854210171188426, 0.6949350897217096, 0.7035437745187575, 0.711333222804304, 0.7183813728539215, 0.7247586946532365, 0.7305287263332931, 0.7357474840001891, 0.7404348882542656, 0.5953481676414484, 0.4649383699907139, 0.41674469360156796])","array('d', [-0.028175212442874922, -0.00888499927961565, 0.008569502867817498, 0.013030453851495637, 0.011002005875850839, 0.011274269476960133, 0.01080770073073319, 0.010651041409800433, 0.010438705777328128, 0.010295783108827651, 0.010177429411489922, 0.01009858759551423, 0.010053408744962472, 0.010047515684959022, 0.010039667016810699, 0.004891738678222488])","array('d', [1.3592528263714652, 1.3102052361798389, 1.2597634751608233, 1.2080349511650377, 1.1551204906554362, 1.101114513334631, 1.0461052283762184, 0.9901748519763444, 0.9333998445752474, 0.8758511665152989, 0.8175945580809446, 0.7586909124040725, 0.6991985028338441, 0.647589117368741, 0.6092795274839435, 0.5784480303662317])",-108.49492881282586,-197.2433184158995,-44.93929918048865,0.6949350897217096,0.011274269476960133,1.101114513334631,14.999999851434593,-1.0,"[-198.71128997218528, -111.90606659773049, 44.89478975734429]","[-203.14099437917417, -100.54911662009316, 53.63535072745066]","[-188.51544143336704, -103.13118431011455, 51.53151435702162]",10000000000.0,0.026953458786010742
12,-198.73619079589844,-112.45362854003906,44.904842376708984,0.6618174910545348,-0.004432966466993052,1.3411402712252478,22.939331532342678,"array('d', [-115.104248046875, -113.64710435135514, -112.20936679325733, -110.79553031485538, -109.40994395994231, -108.05715357414705, -106.74180158979163, -105.4685735355883, -104.24216189870336, -103.06722499895864, -101.94834868394736, -100.89000865259166, -99.89653291546261, -98.96863112471945, -98.09426368253267, -97.26176306287216])","array('d', [-199.59036254882812, -199.23582678088113, -198.8087980065171, -198.30854660270543, -197.73468686535372, -197.0872891342176, -196.3668678455163, -195.57437704832057, -194.71120973468277, -193.7791913918444, -192.7805715452483, -191.71801210697274, -190.5945745055342, -189.41632936026957, -188.19773434347718, -186.95008272060156])","array('d', [-44.91316604614258, -44.89052436280309, -44.89494964732601, -44.91251074618639, -44.93000097003188, -44.94683229192726, -44.96329531633096, -44.97937294908485, -44.99515067506627, -45.0106753929267, -45.02600502147966, -45.04119212730739, -45.05629018217345, -45.07135438459719, -45.08641116910533, -45.09753845826551])","array('d', [0.6393649578094481, 0.6532618435432099, 0.6658362667201834, 0.677214075976476, 0.6875091436027879, 0.6968245048400202, 0.7052533880754615, 0.7128801449332274, 0.7197810847766973, 0.7260252011293435, 0.7316746782726702, 0.7367840756069092, 0.7413407012637071, 0.5961401954711469, 0.4654477926072485, 0.4171987974850863])","array('d', [-0.024734836071729636, -0.005772017902003099, 0.011386241271743956, 0.012018544671658998, 0.011314035587085727, 0.011131247425583047, 0.01082500158783072, 0.010615743654226772, 0.01042479784742896, 0.010277650458051676, 0.010164104448473526, 0.010087002330054749, 0.010044781822761448, 0.010041218462347155, 0.010034935913257952, 0.004887471717162928])","array('d', [1.3566829721119742, 1.307331835634082, 1.2566097551054987, 1.2046227357048134, 1.151470236339456, 1.0972453487389717, 1.0420349982459156, 0.9859201655966372, 0.9289761277937733, 0.8712727168070533, 0.8128746028916906, 0.7538416838642239, 0.6942332362639341, 0.6425333015222843, 0.6041663031207047, 0.5732962944854699])",-108.05715357414705,-197.0872891342176,-44.94683229192726,0.6968245048400202,0.011131247425583047,1.0972453487389717,14.999999851433905,-1.0,"[-198.39473021659418, -110.99302576793109, 44.911491804631225]","[-202.7406087164496, -99.65557295526253, 53.71918751832435]","[-188.13458099536984, -102.38909327645348, 51.67179384228499]",10000000000.0,0.018754959106445312
13,-198.4302520751953,-111.58174133300781,44.90825271606445,0.669396877288818,-0.015361501835286584,1.3348357240345816,22.846526273470428,"array('d', [-114.65943908691406, -113.2031208224868, -111.7666274593076, -110.35438909317081, -108.97076514577078, -107.62036003284443, -106.30782601404107, -105.03786669446409, -103.81518260640055, -102.64443628584668, -101.53021218234018, -100.47697985829474, -99.4890467518938, -98.56705079534117, -97.69885215213296, -96.87270628670797])","array('d', [-199.4547576904297, -199.0965331477864, -198.665426917221, -198.16074555687126, -197.5821572215886, -196.92980623174336, -196.20426432089747, -195.40654826872327, -194.53811040839273, -193.60083500940388, -192.5970282903087, -191.52940690179142, -190.40109287876172, -189.21822090976494, -187.9952232874246, -186.7433547555728])","array('d', [-44.910560607910156, -44.89368637117984, -44.90333066620651, -44.92242709171777, -44.939322878080205, -44.95629784073721, -44.97265343572036, -44.98871471651212, -45.00444906744408, -45.01994452329826, -45.035244907187696, -45.05040785455969, -45.06548526128796, -45.08053282450352, -45.09557582983091, -45.106691103769535])","array('d', [0.6427896618843076, 0.6563606442165322, 0.6686401777739504, 0.6797511598423858, 0.6898047922172698, 0.6989016937658452, 0.7071329064172575, 0.7145808032830434, 0.7213199029649295, 0.7274175758615894, 0.7329345171840705, 0.7379236387684599, 0.7419561548581315, 0.5966802501045148, 0.4658035285287058, 0.41751591464041854])","array('d', [-0.02069399505853655, -0.002115713741224649, 0.014694582125781903, 0.010832450623804831, 0.011681576708325911, 0.010964158630794214, 0.01084570968263142, 0.010574269049797585, 0.01040802379895848, 0.010255496166464836, 0.010147176633458538, 0.010071690267906363, 0.010032510909112625, 0.010031264004604884, 0.010026492006844199, 0.004879880638790329])","array('d', [1.3543324927475788, 1.3046460713208103, 1.253614463019497, 1.2013421044406962, 1.1479269264760468, 1.0934605385017575, 1.038028434245213, 0.981710218187701, 0.9245798503590322, 0.866705908249403, 0.8081518736239575, 0.7489765424886473, 0.6892635126940423, 0.6375018855705918, 0.5990953521112444, 0.5681984421035278])",-107.62036003284443,-196.92980623174336,-44.95629784073721,0.6989016937658452,0.010964158630794214,1.0934605385017575,14.999999851432872,-1.0,"[-198.39473021659418, -110.99302576793109, 44.911491804631225]","[-202.7406087164496, -99.65557295526253, 53.71918751832435]","[-188.13458099536984, -102.38909327645348, 51.67179384228499]",10000000000.0,0.018302202224731445
14,-198.27366638183594,-111.1490249633789,44.911460876464844,0.6728880405426022,-0.020714897662401272,1.3314353833582737,22.793910191923867,"array('d', [-113.77393341064453, -112.31946514167866, -110.88564767707531, -109.4768322454502, -108.09748739221047, -106.75226958160867, -105.44587627721313, -104.18304217163791, -102.96848734176947, -101.806881915493, -100.70280670185734, -99.66071684330434, -98.6833823082077, -97.76574219289438, -96.8955086500933, -96.0620524809022])","array('d', [-199.1759490966797, -198.80992662652517, -198.37013559745526, -197.85597755243586, -197.26727019102276, -196.60429409833796, -195.867758285914, -195.0588143738088, -194.17904723631426, -193.23047022741116, -192.21551459326275, -191.13701723493332, -189.99947698118586, -188.8131742251083, -187.59159729902169, -186.3445669126443])","array('d', [-44.906280517578125, -44.90253824179734, -44.9179645257787, -44.93677947693512, -44.95365858494337, -44.97053198196697, -44.986823027435754, -45.002815600166436, -45.018492039315724, -45.03393577793037, -45.0491927369103, -45.064320288291185, -45.07937182576902, -45.09440060034036, -45.10942408700282, -45.12051848135747])","array('d', [0.650331318378448, 0.6631846178246273, 0.6748147649927297, 0.685338157900554, 0.6948601175559526, 0.7034759416487073, 0.711271857236809, 0.7183258804949701, 0.7247085866244447, 0.7304837725961562, 0.7357088661399329, 0.7404334340460645, 0.6784103971755572, 0.5391987223242453, 0.41424592492343537, 0.3715035810154663])","array('d', [-0.011493936181068337, 0.006208843263095634, 0.014226207517531739, 0.010916279854524938, 0.011578623892672347, 0.01093052549771966, 0.01079358025837043, 0.010534575041744092, 0.010370462288254875, 0.010223996563492993, 0.01012068973013738, 0.010050885323311167, 0.010018705021727468, 0.0100199751193736, 0.010011811282557658, 0.004866696156500712])","array('d', [1.3493654737856726, 1.2989348123717082, 1.2472165253929275, 1.1943114931129863, 1.1403141874520872, 1.085312867961346, 1.0293897989858738, 0.9726214860463843, 0.9150789288489916, 0.8568278896612309, 0.7979291865146366, 0.7384391311781581, 0.6823189894923947, 0.6367283260246259, 0.6029826110330024, 0.575902049886447])",-106.75226958160867,-196.60429409833796,-44.97053198196697,0.7034759416487073,0.01093052549771966,1.085312867961346,14.999999851429934,-1.0,"[-198.0796278318197, -110.12347807271924, 44.93129406259264]","[-202.33444911380275, -98.80323898927496, 53.80533952968625]","[-187.75181651091705, -101.69215770710906, 51.80509579178751]",10000000000.0,0.016219377517700195
15,-198.11480712890625,-110.71855163574219,44.91554641723633,0.6762130856513974,-0.025896875187754617,1.3278290341284613,22.736872757830657,"array('d', [-113.33343505859375, -111.87998934041416, -110.44758169395637, -109.0405546365808, -107.66345277208808, -106.32094501079445, -105.01775550917822, -103.75863269469751, -102.5483062932035, -101.39144932210937, -100.29263991877971, -99.25632497313144, -98.28441000636893, -97.3687493159106, -96.49697532474843, -95.65906746894433])","array('d', [-199.0327606201172, -198.66270201468762, -198.2184156230283, -197.69935943122292, -197.1054354780802, -196.4369895242428, -195.69480320435073, -194.88009680409098, -193.9945235710101, -193.04016299119743, -192.0195104043719, -190.93546421683715, -189.79327294265423, -188.60541797882578, -187.38492677697215, -186.14087477836753])","array('d', [-44.90487289428711, -44.90841642899126, -44.92600299686306, -44.94401238439151, -44.96111044581247, -44.977852828555946, -44.99413783319793, -45.0100856813998, -45.02573568983968, -45.04115183084849, -45.05638702837826, -45.071496464093265, -45.08653488658985, -45.10155378075185, -45.11656687338657, -45.12765023397191])","array('d', [0.6541456580162047, 0.6666359753666791, 0.6779376827223196, 0.6881638909695416, 0.6974169467932484, 0.7057894565935221, 0.7133652122108142, 0.7202200262014452, 0.7264224792495708, 0.7320345606043405, 0.7371120424166762, 0.7417027644046494, 0.6414314485788765, 0.5057536353587639, 0.384753315602636, 0.3451428765626545])","array('d', [-0.006389745976775971, 0.010827303890509028, 0.012592546052234085, 0.01143977960662609, 0.01135946929968387, 0.010970657739532434, 0.010746842302206462, 0.010521121644892408, 0.010348809600304612, 0.010208743732416177, 0.010106901364786968, 0.010040462102739874, 0.01001158560688581, 0.010013902531522907, 0.010004052600427252, 0.004859729511525145])","array('d', [1.346781329312597, 1.2959711124958169, 1.243902834636819, 1.190675521448387, 1.1363818442038125, 1.081108321889651, 1.024935544078643, 0.9679384121980189, 0.9101863964314806, 0.8517438070566564, 0.7926700906977739, 0.7330202843042435, 0.6788859141728498, 0.6366465118059571, 0.6054706309217109, 0.5805047394292242])",-106.32094501079445,-196.4369895242428,-44.977852828555946,0.7057894565935221,0.010970657739532434,1.081108321889651,14.999999851427978,-1.0,"[-197.9181199221773, -109.69210308407332, 44.942531000779304]","[-202.1236066558052, -98.37809937677584, 53.847990081845175]","[-187.55438786274942, -101.34728093211803, 51.86763035404657]",10000000000.0,0.024390459060668945
16,-197.9537353515625,-110.29039001464844,44.92074203491211,0.6794179081916807,-0.03085392527282235,1.3240169594672064,22.676886121901212,"array('d', [-112.89259338378906, -111.44027153717202, -110.00936196811774, -108.60421780171536, -107.2294676018496, -105.8897926906903, -104.5899437847981, -103.33468246907441, -102.12874748397846, -100.97681397507934, -99.88345657920092, -98.85311311563558, -97.88678652935961, -96.97318646597414, -96.09984122550289, -95.25730215201214])","array('d', [-198.8856964111328, -198.51140583447162, -198.06242352790815, -197.53826936349168, -196.93893377681238, -196.26482901062974, -195.51681079955506, -194.6961692932595, -193.80462728122308, -192.84433143101063, -191.8178421244259, -190.72812004499835, -189.58118051903094, -188.39171763331865, -187.1723377490912, -185.93140953607818])","array('d', [-44.904476165771484, -44.91561891374011, -44.93545570130536, -44.9526203666641, -44.96994325710669, -44.9865454374304, -45.002820849946694, -45.018718847834, -45.03433818906399, -45.04972249680867, -45.06493198946597, -45.08001951931689, -45.09504133748299, -45.110045690401805, -45.125053427513315, -45.13614059495651])","array('d', [0.6579589843749999, 0.6700864161479502, 0.6810597711329722, 0.6909888740848844, 0.6999730984549936, 0.7081023608037293, 0.7154580203016453, 0.722113691746111, 0.7281359780262594, 0.7335851190647659, 0.7385154983084655, 0.7429752678679576, 0.6018999511727657, 0.46992575462951425, 0.35274189762062697, 0.31650418869603064])","array('d', [-0.0010659387335180228, 0.015644480173399523, 0.010884767786159167, 0.011983622492302079, 0.011128346846012922, 0.011010314814108885, 0.010695906291833727, 0.010505005940842508, 0.010324175579580125, 0.010190819243485392, 0.010090525116959206, 0.01002757095226192, 0.010002276853939783, 0.010003834801278038, 0.010006766344002951, 0.004862097880434558])","array('d', [1.3440549532559258, 1.2928631353038689, 1.2404431244692637, 1.1868920531757299, 1.1323007567294094, 1.0767539817038663, 1.0203306143755104, 0.9631039264561877, 0.9051418348116593, 0.8465071723201848, 0.7872579716723136, 0.7274478138473686, 0.6753575212953175, 0.6365377468439017, 0.6080460468684988, 0.5853259224441412])",-105.8897926906903,-196.26482901062974,-44.9865454374304,0.7081023608037293,0.011010314814108885,1.0767539817038663,14.999999850517233,-1.0,"[-197.58748649290126, -108.83652601394719, 44.96701558020888]","[-201.68499833933066, -97.53223135268209, 53.93492051278171]","[-187.14635833231827, -100.66472597267828, 51.981609425885075]",10000000000.0,0.018384695053100586
17,-197.6251983642578,-109.44120788574219,44.93450927734375,0.6853177547454832,-0.03982773795723923,1.3160018185761313,22.548202154700608,"array('d', [-112.45362854003906, -111.00250308822145, -109.57316641332453, -108.17004102890428, -106.79778727193526, -105.46111552446817, -104.1647973817801, -102.91360896341347, -101.71229681347363, -100.56553757978457, -99.47790131739956, -98.45381542672855, -97.49415353747955, -96.58719883166297, -95.72038703850379, -94.88428228682167])","array('d', [-198.73619079589844, -198.35738954170435, -197.90342410918234, -197.3738961200208, -196.76887013601947, -196.0888335279292, -195.33471598525148, -194.50788061514567, -193.61012148030366, -192.64365451617113, -191.61110695902124, -190.51550368309515, -189.3629812805925, -188.16844203032832, -186.94440817975587, -185.69913491078898])","array('d', [-44.904842376708984, -44.91979644066183, -44.93945559300866, -44.95663196121671, -44.97390418387938, -44.99048090940553, -45.00672648036203, -45.022600945604125, -45.038199735727616, -45.05356794065362, -45.068765545332354, -45.08384581370411, -45.098864700093664, -45.11387088485665, -45.12887344283846, -45.13994679775945])","array('d', [0.6618174910545348, 0.6735777375935956, 0.6842188495004007, 0.6938473262091439, 0.7025595321076085, 0.7104426605645316, 0.717575605418462, 0.7240297469848835, 0.729869653945946, 0.7351536768112212, 0.7399342276244748, 0.7442548974391255, 0.5987744155698749, 0.46714787468433033, 0.3505023726586578, 0.3144997218885066])","array('d', [0.004432966466993052, 0.015324521204722705, 0.010961241769526557, 0.011925006632220896, 0.011118586092069897, 0.010986370376449478, 0.01067992676808268, 0.010489597317584825, 0.010312125214944732, 0.01018135490424495, 0.010084087491882034, 0.010024273688730663, 0.010001620749470813, 0.010006871729910993, 0.00999703625583883, 0.004853393244998032])","array('d', [1.3411402712252478, 1.28956011731585, 1.2367823160432412, 1.1829020428900547, 1.1280082380536978, 1.0721838212574393, 1.0155059259160812, 0.9580461497510612, 0.8998708188679392, 0.8410412644334583, 0.7816141260598471, 0.7216418846704677, 0.6696452884775382, 0.6310867773444903, 0.6027903468646736, 0.5802255440816244])",-105.46111552446817,-196.0888335279292,-44.99048090940553,0.7104426605645316,0.010986370376449478,1.0721838212574393,14.99999985142325,-1.0,"[-197.58748649290126, -108.83652601394719, 44.96701558020888]","[-201.68499833933066, -97.53223135268209, 53.93492051278171]","[-187.14635833231827, -100.66472597267828, 51.981609425885075]",10000000000.0,0.022240400314331055
18,-197.4578857421875,-109.02024841308594,44.943023681640625,0.6880035996437069,-0.04377794265747075,1.3119146982815604,22.48116379921394,"array('d', [-111.58174133300781, -110.1332410381454, -108.70729921199423, -107.30852592338302, -105.94161152989824, -104.61133264913282, -103.32249695009999, -102.07990812636135, -100.88832519089549, -99.75242498755483, -98.67676536277101, -97.66574989233608, -96.72016868786099, -95.82806185263338, -94.97663653941514, -94.15623085387695])","array('d', [-198.4302520751953, -198.04175895985017, -197.57717602836837, -197.03628616255094, -196.4192940839496, -195.72684387550348, -194.96001377743912, -194.12031535320685, -193.20968670797018, -192.23048385489892, -191.18546889903615, -190.07779598554043, -188.91369547135696, -187.7080282959654, -186.4732428430472, -185.2175714159329])","array('d', [-44.90825271606445, -44.928343244431446, -44.946130476283955, -44.963851204779104, -44.980842060675954, -44.99743062347769, -45.013596192074786, -45.02943274120421, -45.04499003341348, -45.06032957460893, -45.07550619428033, -45.09057555514986, -45.10559280710634, -45.12060527028443, -45.13561997064539, -45.14670716425438])","array('d', [0.669396877288818, 0.6804358504853917, 0.690424327222977, 0.6994622751521519, 0.7076401484496114, 0.715039792674547, 0.7217352626597725, 0.7277935597665983, 0.7332752883052194, 0.7382351982579376, 0.7427223063467204, 0.7467714070708508, 0.6009920461099096, 0.4691203014829493, 0.35073899633641753, 0.31471152381537626])","array('d', [0.015361501835286584, 0.011491250865877552, 0.012213565232969174, 0.011427732500174556, 0.011230516723676367, 0.010893638018718853, 0.010664690263427649, 0.010454605741193576, 0.010291542875349136, 0.010163668621195037, 0.01007367105417031, 0.010020042866854895, 0.010003569136863738, 0.010013221558174716, 0.01000681979771419, 0.004862080115028283])","array('d', [1.3348357240345816, 1.2824861515546249, 1.2289999060885537, 1.1744681927495766, 1.118976114917906, 1.0626029015577463, 1.0054221520263729, 0.9475020950697005, 0.8889058589563731, 0.8296917525825179, 0.7699135793054139, 0.7096215301167631, 0.6573706869297907, 0.6186268353894869, 0.5902444546963128, 0.5676632520418976])",-104.61133264913282,-195.72684387550348,-44.99743062347769,0.715039792674547,0.010893638018718853,1.0626029015577463,14.999999851417188,-1.0,"[-197.47505738604494, -108.55687923564386, 44.97602329643864]","[-201.5340347065685, -97.25478913425457, 53.964207899101936]","[-187.00652555099128, -100.4403513913764, 52.013907706664426]",10000000000.0,0.031051158905029297
19,-197.11572265625,-108.18429565429688,44.96565628051758,0.6926808357238766,-0.05050206929445262,1.3035798827793932,22.34093277752394,"array('d', [-111.1490249633789, -109.70196883341683, -108.27785368977517, -106.88139121404149, -105.5172857740407, -104.19034423824374, -102.90538974682643, -101.66723733649097, -100.48065007121926, -99.35030294066132, -98.28074597900407, -97.27636911133747, -96.33791944218972, -95.45331875340476, -94.60967109956268, -93.79723534185568])","array('d', [-198.27366638183594, -197.87999900068834, -197.40982130141035, -196.86300757200394, -196.23983051844488, -195.54101011790115, -194.76769630546605, -193.92147225423588, -193.00434545140567, -192.0187393076178, -190.9674807364469, -189.8537861561031, -188.68392982544228, -187.47274515749427, -186.2326330308336, -184.97179048464105])","array('d', [-44.911460876464844, -44.934061172083844, -44.95092216776183, -44.96890260340833, -44.985748918833444, -45.00233737076733, -45.018458279077535, -45.03427124159606, -45.04980354246843, -45.06512469013159, -45.080286937485404, -45.09534708918938, -45.11035985615113, -45.12537183625831, -45.14038889376826, -45.15147939183585])","array('d', [0.6728880405426022, 0.6835947859159897, 0.6932826504599364, 0.7020485932008097, 0.7099803459948281, 0.7171572911279137, 0.7236512545122178, 0.7295272204512797, 0.7348439669030856, 0.739654582855018, 0.7440064783056023, 0.7479189214484826, 0.6020236769893811, 0.47004453536392043, 0.35134877659709907, 0.3152573105450536])","array('d', [0.020714897662401272, 0.009605454433279353, 0.012822686686343631, 0.011179220902269686, 0.011281302527020714, 0.01084437349289039, 0.01065376470576126, 0.010434238247571158, 0.010278465186180693, 0.010152193583719818, 0.010065919899105194, 0.010015461634393385, 0.010002117863010728, 0.010013991649120136, 0.010009166430907015, 0.004864144267557307])","array('d', [1.3314353833582737, 1.278728413990399, 1.2249133024105074, 1.170079366198646, 1.1143098886170462, 1.0576823515802898, 1.0002686851034734, 0.9421355297955106, 0.8833445093771832, 0.8239525135293033, 0.7640120187199994, 0.7035728560198656, 0.6512046803156466, 0.6123741579896271, 0.5839320548774042, 0.5613085747513695])",-104.19034423824374,-195.54101011790115,-45.00233737076733,0.7171572911279137,0.01084437349289039,1.0576823515802898,14.999999851413778,-1.0,"[-197.07425423992404, -107.57162234645324, 45.008669622439484]","[-200.9950383065661, -96.27847120561717, 54.069143650491135]","[-186.50877764023915, -99.64788378083853, 52.12098790590381]",10000000000.0,0.021090030670166016
20,-197.11572265625,-108.18429565429688,44.96565628051758,0.6926808357238766,-0.05050206929445262,1.3035798827793932,22.34093277752394,"array('d', [-110.29039001464844, -108.84654281965214, -107.42641944862945, -106.03494437518256, -104.67684982508527, -103.35699780752945, -102.08023800870144, -100.85140362086503, -99.6752616454624, -98.55647943568879, -97.49958776773943, -96.50794398195725, -95.57844827075543, -94.6988311565054, -93.85688908742338, -93.04336104535233])","array('d', [-197.9537353515625, -197.54887988526974, -197.06674417826912, -196.5073880756075, -195.8712189810554, -195.15910615239696, -194.37234037557386, -193.51264531502667, -192.58216443709247, -191.58345308500563, -190.5194648841499, -189.39439505657828, -188.2173784778951, -187.00255163700618, -185.7612705726915, -184.50112572980171])","array('d', [-44.92074203491211, -44.94808026609933, -44.963164750546206, -44.981620311730524, -44.99817662793778, -45.01475068901337, -45.03077404657805, -45.04653071158797, -45.062005180908, -45.07728207770427, -45.092408672960076, -45.107444767197165, -45.12244314002205, -45.1374446201777, -45.15245049294026, -45.163529651433116])","array('d', [0.6794179081916807, 0.6895032550346285, 0.698628854884176, 0.706886039438879, 0.7143574487280707, 0.7211178577284854, 0.7272349233634298, 0.732769857176098, 0.737778020956045, 0.7423093969600887, 0.7464083973794268, 0.706919875115489, 0.5649251186313462, 0.43647812850348355, 0.32116237071806975, 0.2882290262984425])","array('d', [0.03085392527282235, 0.006014391878084757, 0.013965997498244816, 0.01069658980587705, 0.0113677510499148, 0.010741887967989328, 0.010624946169242802, 0.010388275291816509, 0.0102470722255547, 0.010124520267049459, 0.010045926543755603, 0.010003246988127401, 0.009995053450779976, 0.010007053323358257, 0.010001208032986016, 0.004856969725628973])","array('d', [1.3240169594672064, 1.2706363438880024, 1.2162017272864432, 1.1607987923080951, 1.1045073243811925, 1.047401454894189, 0.9895499187174777, 0.9310163224911223, 0.871859420783688, 0.8121334013528619, 0.7518882178342641, 0.693777304353661, 0.645490426627054, 0.6097292256877471, 0.583736276895776, 0.5631864007262273])",-103.35699780752945,-195.15910615239696,-45.01475068901337,0.7211178577284854,0.010741887967989328,1.047401454894189,14.999999851406338,-1.0,"[-196.7208154762173, -106.74091290228218, 45.04131613065962]","[-200.51993501706662, -95.45252974143547, 54.159380416912995]","[-186.07066637173443, -98.96657772966728, 52.192122845718096]",10000000000.0,0.017252445220947266
21,-196.7667694091797,-107.35834503173828,44.99140548706055,0.6968385577201841,-0.05572181940078732,1.2953098277237753,22.198297265000637,"array('d', [-109.44120788574219, -108.00101820218362, -106.58527378757589, -105.19914247605725, -103.84745202015768, -102.53508409620295, -101.26691755302865, -100.0477950267215, -98.88248319904613, -97.77563679315448, -96.73176328992129, -95.75245083268017, -94.82828538895187, -93.94680664468926, -93.09706493197199, -92.27084415057278])","array('d', [-197.6251983642578, -197.2084010140899, -196.71363053383538, -196.14113674755149, -195.49148327505733, -194.76567153442548, -193.96513202545114, -193.09172175641388, -192.14771521250836, -191.13579385629095, -190.05903253574064, -188.92317590069806, -187.74191887584084, -186.5284138238888, -185.2924428111369, -184.04057294565334])","array('d', [-44.93450927734375, -44.97235873462505, -44.98976134704023, -45.00721518890934, -45.02392803432067, -45.040273447423104, -45.05621576398389, -45.07185474835391, -45.0872385946616, -45.10242978026216, -45.11748326126535, -45.1324572853543, -45.14740282974244, -45.16235211455518, -45.17730110434468, -45.18832372418639])","array('d', [0.6853177547454832, 0.6948416574402583, 0.7034592415684855, 0.7112567544414342, 0.7183122355335707, 0.7246962970306938, 0.7304728290731967, 0.7356996343353204, 0.7404289875693988, 0.7447080622466846, 0.7485785732343179, 0.631577278730627, 0.4967575713128842, 0.374816508633804, 0.26899781548335683, 0.24148234868542442])","array('d', [0.03982773795723923, 0.011124150231708494, 0.012064173187145944, 0.011222188058683774, 0.011064694459776566, 0.010735119298915128, 0.010525205023929328, 0.010330401869552504, 0.010184192093887448, 0.010072924658608817, 0.009999938010127952, 0.00996632001741515, 0.00996148300378142, 0.009971066817513412, 0.0099614103750732, 0.004821311314891621])","array('d', [1.3160018185761313, 1.2620066479875616, 1.2070072895332256, 1.1510860191859082, 1.094319352999636, 1.036778298897473, 0.9785286206416209, 0.9196311103792227, 0.8601418670735914, 0.800112583004909, 0.73959088552786, 0.6856081815818328, 0.6442394178993079, 0.6138209800228189, 0.5920509836294567, 0.5750009637917942])",-102.53508409620295,-194.76567153442548,-45.040273447423104,0.7246962970306938,0.010735119298915128,1.036778298897473,14.999999851398318,-1.0,"[-196.7208154762173, -106.74091290228218, 45.04131613065962]","[-200.51993501706662, -95.45252974143547, 54.159380416912995]","[-186.07066637173443, -98.96657772966728, 52.192122845718096]",10000000000.0,0.017503023147583008
22,-196.58998107910156,-106.94905090332031,45.0052375793457,0.6987369656562805,-0.057789549231529166,1.2912376681950433,22.126488359100968,"array('d', [-109.02024841308594, -107.58198465245806, -106.16850245282271, -104.78509923836134, -103.43666033980566, -102.12807201033912, -100.86422639563385, -99.64996853948301, -98.49006339155254, -97.38915796289574, -96.35174703944455, -95.37876535353935, -94.45855202885016, -93.57854265085923, -92.72832215758613, -91.90053343428964])","array('d', [-197.4578857421875, -197.03504346772166, -196.5339143555177, -195.95484369113294, -195.29847474636213, -194.56587039449917, -193.7585281909448, -192.8783682508687, -191.927727297837, -190.9093465206101, -189.82635814597748, -188.6850619198311, -187.50070760614489, -186.28612741491716, -185.05048123110006, -183.79964559769346])","array('d', [-44.943023681640625, -44.98650949751538, -45.0055494171321, -45.0223274031165, -45.03916938572057, -45.05537380883977, -45.071276089564336, -45.08684754002763, -45.10218070707669, -45.117322578233825, -45.132333441225185, -45.14726981886755, -45.162181913548935, -45.177098686203664, -45.192014449278936, -45.203005123159926])","array('d', [0.6880035996437069, 0.6972719106230493, 0.7056582257814421, 0.7132464778144336, 0.7201126118397406, 0.7263253449708772, 0.731946852541013, 0.7370333852841335, 0.741635812072501, 0.7458000230029425, 0.7495664192776603, 0.603586096396744, 0.47143053587111095, 0.3519043399890094, 0.2586428867106229, 0.23219787689846108])","array('d', [0.04377794265747075, 0.014698441842973193, 0.010754607228219292, 0.011602365841609247, 0.01086636156948184, 0.010742030511559964, 0.010466012459208456, 0.010299079413328752, 0.010148019572232388, 0.010043233110410688, 0.009972760744989045, 0.009943231319638294, 0.009939944031223292, 0.009949258590271737, 0.00993892541262138, 0.004801161502705364])","array('d', [1.3119146982815604, 1.2576378681742686, 1.2023798163056008, 1.146221227644621, 1.0892370943069511, 1.031496971005885, 0.9730652416387076, 0.9140013934220691, 0.8543602960246647, 0.7941924885588415, 0.7335445304243444, 0.681003249709163, 0.6420418740420113, 0.6135241081907347, 0.5929544110360007, 0.5765880329296048])",-102.12807201033912,-194.56587039449917,-45.05537380883977,0.7263253449708772,0.010742030511559964,1.031496971005885,14.99999985139417,-1.0,"[-196.3605975585381, -105.91992055748682, 45.074831773030105]","[-200.03890697469797, -94.63735799584265, 54.24946102339085]","[-185.62678738335995, -98.28187925310853, 52.24739366930211]",10000000000.0,0.01691293716430664
