,x_pos,y_pos,z_pos,roll,pitch,yaw,vel,x_traj,y_traj,z_traj,roll_traj,pitch_traj,yaw_traj,x_cmd,y_cmd,z_cmd,roll_cmd,pitch_cmd,yaw_cmd,vel_cmd,effector_dmg,effector_x,effector_y,effector_z,cost,time_solution
0,-195.17835998535156,-102.82669067382812,44.90660095214844,0.6309964656829832,0.03704253584146499,1.2004197100785114,23.108981260861892,"array('d', [-105.36134338378906, -103.02130345393341, -100.70745904434291, -98.4234734495868, -96.17238415400999, -93.95704465813911, -91.780560711309, -89.64598555318857, -87.5564124333998, -85.5149252030514, -83.5245964854703, -81.58847058654774, -79.70955244759071, -77.89079540829226, -76.13508840760032, -74.78790558418235])","array('d', [-196.2665557861328, -195.3896964395438, -194.44361719171798, -193.4275676792067, -192.3408243071478, -191.1828287407813, -189.95338850878116, -188.65253258285279, -187.2805582538989, -185.83800367117937, -184.32564639702986, -182.74449199612263, -181.09576589931567, -179.3809039921451, -177.60154517283965, -176.12339126393363])","array('d', [-44.89937973022461, -44.83100542928814, -44.81065200900123, -44.83169076635536, -44.864128970606025, -44.89197420385148, -44.92083087709154, -44.948793288132414, -44.97656931016201, -45.00395747597655, -45.031073278970794, -45.05792193907623, -45.084547015674126, -45.110980870924074, -45.13724606674583, -45.15292187106018])","array('d', [0.63195127248764, 0.6465536630551193, 0.6597664534770755, 0.671721881404973, 0.6825396002229318, 0.6923278763484986, 0.7011846722613849, 0.7091986256319849, 0.7164499330406426, 0.7230111430962682, 0.7289478527209264, 0.7343192541203338, 0.739178214930004, 0.7435682233175428, 0.7474646278484365, 0.6649712337928909])","array('d', [-0.0376163199543953, -0.01742766678661142, 0.0008397821851610605, 0.01574296163979585, 0.010299175187917942, 0.011949936353506283, 0.011149271963370249, 0.011219944162882606, 0.011004917566358317, 0.010907675420340705, 0.010787398686327427, 0.01069350858750092, 0.010608375806015053, 0.010540239959824537, 0.010473420920644362, 0.005287733664035035])","array('d', [1.2267877320435385, 1.197609172325143, 1.167575065700591, 1.1367509963059887, 1.1051985719027488, 1.0729755251286253, 1.040135827505518, 1.0067298163659288, 0.9728043337562109, 0.938402875841909, 0.9035657516131106, 0.8683302522438977, 0.8327308465737332, 0.7967995288436696, 0.7605684911505141, 0.7187507380239117])",-93.95704465813911,-191.1828287407813,-44.89197420385148,0.6923278763484986,0.011949936353506283,1.0729755251286253,25.000000242406628,-1.0,"[-194.83534144733886, -101.8629924746668, 44.84976018556124]","[-197.19250069558365, -89.95510865329749, 53.66146281190906]","[-183.1939410322807, -93.97979683556761, 50.07785954306878]",10000000000.0,0.019915103912353516
1,-194.99093627929688,-102.40812683105469,44.90800857543945,0.630739092826843,0.037058055400848416,1.1959193209793904,23.10683036047907,"array('d', [-104.93709564208984, -102.6009291191184, -100.29127566515416, -98.01179563864036, -95.76552462800414, -93.55532118224221, -91.38429065139637, -89.25548655981392, -87.17200072471249, -85.13691465842282, -83.15329751234322, -81.22418911631034, -79.35258894195724, -77.54144391178976, -75.79363556818655, -74.45301442039101])","array('d', [-196.090087890625, -195.20291866686316, -194.24664318025356, -193.22052566210672, -192.12385432378872, -190.9560851642, -189.7170393190024, -188.40675995015224, -187.02555840676382, -185.5739869297874, -184.05283705859313, -182.4631281956468, -180.80609940527987, -179.08319996080127, -177.29608190263886, -175.8119743746691])","array('d', [-44.90055847167969, -44.83272526515972, -44.812861616458456, -44.83401145922261, -44.86634444877525, -44.89416665644795, -44.922978767379945, -44.95091079260545, -44.97865798154331, -45.00602303597753, -45.03311981259433, -45.059953937120035, -45.08656868819155, -45.11299641497917, -45.13925953057514, -45.154935220126])","array('d', [0.6319994926452636, 0.6465972944608802, 0.6598059328066747, 0.6717576037771279, 0.6825719231515223, 0.6923571233149253, 0.7012111359374397, 0.7092225707703635, 0.7164715990174575, 0.7230307459882955, 0.7289655864258856, 0.7343352883652142, 0.7391926784670191, 0.7435810779688996, 0.7474736747397535, 0.6649789236064491])","array('d', [-0.03738879039883619, -0.017221789514427904, 0.0010260676402708002, 0.015650197887426155, 0.010306095910398085, 0.011925123315050875, 0.011138203475782855, 0.011206738137452177, 0.010995000823106199, 0.010899079909710646, 0.010780739891498628, 0.010688510543174823, 0.010605084488676217, 0.010538600673299047, 0.010473369445870451, 0.005287671164688544])","array('d', [1.2223818759110314, 1.1932005202826543, 1.1631638302023666, 1.1323373771623508, 1.1007827565798949, 1.068557689086887, 1.0357161345792922, 1.0023084191847436, 0.9683813742056417, 0.9339784855681783, 0.8991400525983825, 0.8639033575775401, 0.8283028620554278, 0.7923705599677937, 0.7561387286986367, 0.7143202640899936])",-93.55532118224221,-190.9560851642,-44.89416665644795,0.6923571233149253,0.011925123315050875,1.068557689086887,25.000000242418988,-1.0,"[-194.63578264233868, -101.42936325965569, 44.85104985448838]","[-196.92356208753066, -89.50967511540942, 53.665078431369224]","[-182.95028794580625, -93.58816833468737, 50.04382135398297]",10000000000.0,0.029351472854614258
2,-194.61026000976562,-101.57313537597656,44.9107780456543,0.630047976970672,0.036822665482759455,1.1869022707131245,23.104610861896045,"array('d', [-104.51356506347656, -102.18121689538991, -99.87567670206482, -97.60060473639564, -95.35903715499767, -93.1538358830384, -90.98810616580687, -88.86490136115398, -86.7873117627753, -84.7584164585593, -82.78128116386964, -80.85894134441388, -78.99439119833313, -77.19057150103588, -75.45035673295793, -74.11603745334769])","array('d', [-195.91162109375, -195.01444387430274, -194.0482891772135, -193.0124345873913, -191.90617913501293, -190.72899048730258, -189.48070161178245, -188.16136776032815, -186.77131244744757, -185.31110013976482, -183.78153458367998, -182.18364732172412, -180.51868943544943, -178.78812204794164, -176.99360888775448, -175.50383301234442])","array('d', [-44.901756286621094, -44.834154306657766, -44.814499952016064, -44.8356813638621, -44.86794543934943, -44.89574039229483, -44.924517524766394, -44.95242365308727, -44.98014797807363, -45.00749508016151, -45.03457797791944, -45.06140242649834, -45.08801152427777, -45.11443757642274, -45.140702882500925, -45.15638162934199])","array('d', [0.6318991780281062, 0.6465065260323402, 0.6597238021261583, 0.67168328885167, 0.6825046802066735, 0.6922962793450286, 0.7011560819552283, 0.7091727556730172, 0.7164265239624548, 0.7229899590771087, 0.7289286771160127, 0.7343018793126213, 0.739162402498925, 0.7435534397632713, 0.7474458464086541, 0.6649551995825306])","array('d', [-0.03729156032204623, -0.017133812095487703, 0.0011056728994785965, 0.01559804436004521, 0.010302306156419196, 0.011907341312678758, 0.011127876477487508, 0.011196347383745737, 0.010987058445190663, 0.010892634576748246, 0.010776052164664774, 0.01068543025114064, 0.010603615018526238, 0.010538704114577845, 0.01047499312615631, 0.005289107890312477])","array('d', [1.2180924574520922, 1.1889169180698207, 1.1588856022875054, 1.1280641078980402, 1.096514055996572, 1.0642931921908927, 1.031455500566466, 0.9980513305743182, 0.9641275359074386, 0.9297276239066187, 0.8948919143430321, 0.8596577091316568, 0.8240594894848812, 0.7881292746969408, 0.7518994595549605, 0.7100831811237217])",-93.1538358830384,-190.72899048730258,-44.89574039229483,0.6922962793450286,0.011907341312678758,1.0642931921908927,25.00000024243066,-1.0,"[-194.31455268247873, -100.74409218393001, 44.85344569490396]","[-196.4922882066759, -88.80427898147022, 53.66811124029005]","[-182.55965125092789, -92.96963110184682, 49.98959670686782]",10000000000.0,0.03845667839050293
3,-194.22174072265625,-100.7411117553711,44.913448333740234,0.6295422911643981,0.036528985947370585,1.178130225339208,23.103161994093306,"array('d', [-103.2472915649414, -100.92690926119494, -98.63421059680417, -96.37285404518832, -94.14587637712516, -91.95614851882479, -89.80677446012122, -87.70080621141378, -85.64132878401222, -83.63141339724461, -81.67411497975584, -79.77245553939372, -77.92941322238651, -76.14791038133264, -74.430802138705, -73.11564119896694])","array('d', [-195.36456298828125, -194.43682621563084, -193.44056863773903, -192.37510312646782, -191.23975653489597, -190.0340272000867, -188.75777942436133, -187.41110080202066, -185.99434762575575, -184.50811753323902, -182.95324758807755, -181.3308026370142, -179.6420668494978, -177.88853392211183, -176.07189831743577, -174.56518277889253])","array('d', [-44.905296325683594, -44.83838386528154, -44.819353626781215, -44.8406293372673, -44.872688441220255, -44.900403056043075, -44.92907716132332, -44.95690764227699, -44.98456562927313, -45.011861273043856, -45.03890507988851, -45.06570314558038, -45.09229824082016, -45.11872132085022, -45.145004212432376, -45.16070784677464])","array('d', [0.6311656832695004, 0.645842832558232, 0.6591232675695343, 0.6711399030597988, 0.6820130052068836, 0.6918513951828784, 0.7007535380595157, 0.7088085277559875, 0.7160969773545877, 0.7226918220370001, 0.7286590367994489, 0.7340582512293897, 0.7389431308767516, 0.7433603889880587, 0.7473247620663452, 0.6648550029446115])","array('d', [-0.03700162097811698, -0.016871463895771648, 0.0013430565544619165, 0.015442647524117881, 0.01029130162523567, 0.011854764758428336, 0.011097652906264703, 0.011166050515487072, 0.010964158254588886, 0.010874289630204053, 0.010763033624026834, 0.010677260245337737, 0.010600497772476077, 0.010539379582780964, 0.010488176155234591, 0.005300834011323487])","array('d', [1.204937891164098, 1.1758048547636764, 1.1458128139471824, 1.115027558402074, 1.0835108965781992, 1.0513207563084268, 1.01851129812216, 0.9851330414639167, 0.9512330028612852, 0.9168548444187127, 0.8820390308802223, 0.8468229944748392, 0.8112413127243028, 0.7753259516758884, 0.7391075090723367, 0.6973006187568634])",-91.95614851882479,-190.0340272000867,-44.900403056043075,0.6918513951828784,0.011854764758428336,1.0513207563084268,25.00000024726665,-1.0,"[-194.0488399617938, -100.18325836206759, 44.85555652862702]","[-196.1361847939637, -88.22665894101928, 53.669336752583185]","[-182.23741465487404, -92.46433133892583, 49.94558578497397]",10000000000.0,0.026969194412231445
4,-194.02442932128906,-100.32624816894531,44.914634704589844,0.6297645568847654,0.0361757725477218,1.1740649203446247,23.105368299679718,"array('d', [-102.82669067382812, -100.51052144388085, -98.22233353307927, -95.96578876140988, -93.74392743469842, -91.55962242958444, -89.41597804761338, -87.31604566289195, -85.26290852460609, -83.25963506920012, -81.30927643381675, -79.41484987042372, -77.57932783912062, -75.80562611184976, -74.096592334899, -72.78812210920967])","array('d', [-195.17835998535156, -194.24016126529722, -193.23358823352766, -192.15796831543508, -191.01264036053414, -189.7971136650027, -188.51126459524815, -187.15519265724612, -185.72926629964613, -184.2340953420568, -182.67052904856297, -181.03964440683868, -179.34273761821692, -177.58131424860426, -175.75708044433233, -174.2445508693649])","array('d', [-44.90660095214844, -44.83959118974398, -44.82047287914415, -44.8416929599879, -44.87371715246676, -44.901396547948195, -44.93004249440208, -44.9578489360646, -44.98548783177015, -45.012768820143414, -45.039802408646416, -45.06659453671866, -45.093187901679336, -45.1196133863569, -45.145902679433526, -45.161612591484804])","array('d', [0.6309964656829832, 0.6456897181398197, 0.6589847239009001, 0.6710145435505981, 0.6818995752163194, 0.6917487594603726, 0.7006606693763693, 0.7087244966074331, 0.7160209426086908, 0.7226230223697964, 0.7285967825839709, 0.7340019157261144, 0.7388921346777371, 0.7433141276144329, 0.7472814788382633, 0.6648180662295793])","array('d', [-0.03704253584146499, -0.01690848519812502, 0.0013095582937350555, 0.015431271485755911, 0.010274831200434563, 0.011842979828417604, 0.011086892206736388, 0.011157541036996949, 0.010957365133714762, 0.01086932719490403, 0.0107597921976756, 0.010675722875787132, 0.010600623102953032, 0.01054115062376831, 0.010491500677758078, 0.005303792697996317])","array('d', [1.2004197100785114, 1.1712964728809152, 1.1413134874351782, 1.1105365876003308, 1.0790276249595874, 1.046844569309088, 1.0140416218289288, 0.9806693411650255, 0.9467747814775631, 0.9124016408418398, 0.8775904182590184, 0.8423785785394278, 0.8068007304950928, 0.7708888729615243, 0.734673681887168, 0.6928701940302882])",-91.55962242958444,-189.7971136650027,-44.901396547948195,0.6917487594603726,0.011842979828417604,1.046844569309088,25.00000024727096,-1.0,"[-193.64814418605783, -99.35619803133137, 44.85866703977284]","[-195.6052210840865, -87.37763069484522, 53.67250698502198]","[-181.7560838436893, -91.7190990050432, 49.883964968864625]",10000000000.0,0.03598833084106445
5,-193.62350463867188,-99.49893188476562,44.91665267944336,0.631682217121124,0.03417106717824941,1.166379497447286,23.111930303977555,"array('d', [-102.40812683105469, -100.09619698036094, -97.81254011263675, -95.56082037804174, -93.34408076571593, -91.16519608831655, -89.0272706519188, -86.93335508628611, -84.88653076761183, -82.88986329728748, -80.94640000346399, -79.05915340427356, -77.23109033023675, -75.46512006169488, -73.76408288542274, -72.46223406094956])","array('d', [-194.99093627929688, -194.04234122416585, -193.02553071083065, -191.9398452511911, -190.78463427846413, -189.55941704311326, -188.2640808322091, -186.89873604878537, -185.46376229856685, -183.95978063948053, -182.38765163336336, -180.74846355197948, -179.04352381525797, -177.27434908875838, -175.4426564776542, -173.92442404124466])","array('d', [-44.90800857543945, -44.84096190510045, -44.82181018757263, -44.84299088168326, -44.8749742710797, -44.902620239263754, -44.9312371193497, -44.95901951859506, -44.98663896175565, -45.013905009022906, -45.04092801309576, -45.0677138082462, -45.094305000520485, -45.12073240634446, -45.14702764111011, -45.16274351538383])","array('d', [0.630739092826843, 0.6454568375276177, 0.6587740047888675, 0.6708238769935756, 0.6817270529597449, 0.6915926548393202, 0.7005194200279838, 0.708596688816711, 0.7159052971097282, 0.7225183813906969, 0.7285020977479603, 0.7339162355617899, 0.738814585312243, 0.7432438333214276, 0.747216355368851, 0.6647623731081306])","array('d', [-0.037058055400848416, -0.0169225278772326, 0.0012968519520514352, 0.015412566988944847, 0.010260812303240316, 0.01183023401412397, 0.011076346692676497, 0.011148820976732912, 0.01095049140647398, 0.010864217891683903, 0.010756404737787353, 0.010674015676957523, 0.010600564551317821, 0.010542719037120047, 0.010494659349841298, 0.005306601590357437])","array('d', [1.1959193209793904, 1.1668109834681353, 1.1368417669959316, 1.1060775725327339, 1.0745803171982553, 1.0424080345507698, 1.0096149875416156, 0.9762517943887602, 0.9423655664421778, 0.9080000564396149, 0.8731958154267533, 0.8379903576559979, 0.8024183391713778, 0.7665118067832549, 0.7303015320285537, 0.6885031673992792])",-91.16519608831655,-189.55941704311326,-44.902620239263754,0.6915926548393202,0.01183023401412397,1.0424080345507698,25.000000247275185,-1.0,"[-193.4452000027228, -98.94365996701542, 44.86038288068029]","[-195.34186796742074, -86.9590218283568, 53.67917527630328]","[-181.51598594812182, -91.34852091302916, 49.86115430018384]",10000000000.0,0.023988008499145508
6,-193.21377563476562,-98.67503356933594,44.91825485229492,0.6358227133750912,0.030428128316998582,1.1586833457138874,23.121193307074545,"array('d', [-101.57313537597656, -99.26981918611817, -96.99535899567289, -94.75341584763734, -92.54703168306615, -90.37908707091489, -88.25268471264913, -86.17087382126797, -84.13673167579235, -82.15331809747418, -80.22367269420354, -78.350798494689, -76.53765109875955, -74.78712688587382, -73.10205154279932, -71.81340799480137])","array('d', [-194.61026000976562, -193.64089776030332, -192.60366883661962, -191.4979349613238, -190.3230618529442, -189.07858778790842, -187.76441922148467, -186.38068664957297, -184.92779008057914, -183.4063713338011, -181.81731189693352, -180.16172103888246, -178.4409271233526, -176.65646760503688, -174.8100801823313, -173.28062346151873])","array('d', [-44.9107780456543, -44.84429117087147, -44.82564614686177, -44.84691627234918, -44.87875280662949, -44.906347979088125, -44.934894553113615, -44.96262656915927, -44.99020139509995, -45.0174330481025, -45.04442994838909, -45.0711982743101, -45.09778024558219, -45.12420660834013, -45.15050882264052, -45.1662329076492])","array('d', [0.630047976970672, 0.6448314899831019, 0.6582081668777907, 0.6703118856275359, 0.6812637839600406, 0.6911734716472241, 0.7001401272868383, 0.7082534903463743, 0.7155947578075308, 0.722237392527804, 0.7282478447552273, 0.7336861655205199, 0.7386063599066915, 0.7430551481241824, 0.747042212789147, 0.6646137447291105])","array('d', [-0.036822665482759455, -0.016709538252890142, 0.0014895729431011078, 0.015296538808618492, 0.010257465707922016, 0.011793498443988491, 0.011056551120474632, 0.011128319284335646, 0.010935210060586505, 0.010851932217223236, 0.010747745664802981, 0.010668643728418113, 0.010598504039012855, 0.010543891123257619, 0.010499018041436938, 0.005310461835481144])","array('d', [1.1869022707131245, 1.1578339161210052, 1.1279016500195738, 1.097171553160437, 1.0657057182448364, 1.033562349679837, 1.0007958759532645, 0.9674570749477829, 0.9335932113124272, 0.8992481843230332, 0.8644626845439239, 0.8292743587182613, 0.7937179891904524, 0.7578257494279732, 0.7216286435982828, 0.6798439614322989])",-90.37908707091489,-189.07858778790842,-44.906347979088125,0.6911734716472241,0.011793498443988491,1.033562349679837,25.000000247283424,-1.0,"[-193.03362514640625, -98.12073887654847, 44.865406053156356]","[-194.8160839327571, -86.13706390139959, 53.709295173048744]","[-181.03415385058554, -90.6221785168783, 49.84378743199403]",10000000000.0,0.020175695419311523
7,-193.00582885742188,-98.26539611816406,44.91904067993164,0.638604402542114,0.02793593890964977,1.1548414389279227,23.12506231275339,"array('d', [-100.7411117553711, -98.44635545471569, -96.18103145425859, -93.94879639171953, -91.75269019557442, -89.59559978084658, -87.48062615378477, -85.41081727658737, -83.38924637811022, -81.41896755089556, -79.50301269758502, -77.64437534573824, -75.84599978874503, -74.11076920193757, -72.4414920348618, -71.16590607254513])","array('d', [-194.22174072265625, -193.23223781193317, -192.17519255953673, -191.04998874353925, -189.85600935757182, -188.5928135674238, -187.26032824027476, -185.8587053082401, -184.38836633184857, -182.8499749540595, -181.2444345344543, -179.57287619758745, -177.83665005657264, -176.03731530383692, -174.17663304761624, -172.63626932728195])","array('d', [-44.913448333740234, -44.84765988118318, -44.829647022292484, -44.85104731161119, -44.88272879199792, -44.91028134934011, -44.93875944805658, -44.9664445646651, -44.99397717360974, -45.021176760106705, -45.048149497129664, -45.074902084587, -45.101476119771746, -45.12790353771376, -45.15420579112702, -45.16992542716448])","array('d', [0.6295422911643981, 0.6443739264029248, 0.6577941459822589, 0.669937263549527, 0.680924810895463, 0.6908667540105724, 0.6998625930073202, 0.7080023563177612, 0.7153674973990379, 0.722031697486514, 0.7280615628389542, 0.7335171390125332, 0.7384517753873684, 0.7429073213030104, 0.7468228755575499, 0.664427364973464])","array('d', [-0.036528985947370585, -0.016443806209726852, 0.0017300160297695525, 0.015166406256060673, 0.010261308609934381, 0.011756246798304115, 0.011038695370455024, 0.011108682893122168, 0.010920980619917028, 0.010840460954454593, 0.010739826009222046, 0.010663918735577432, 0.010596829212998381, 0.01054634199876275, 0.010496680373110589, 0.005308345377575067])","array('d', [1.178130225339208, 1.1490911013597147, 1.1191858504080352, 1.0884806843966661, 1.057037824152099, 1.0249155988009284, 0.9921685577592475, 0.9588475957266749, 0.9250000899225961, 0.8906700482739118, 0.8558982677388979, 0.8207225055869292, 0.7851776869265926, 0.7492963375470021, 0.7131126058872862, 0.671345122132142])",-89.59559978084658,-188.5928135674238,-44.91028134934011,0.6908667540105724,0.011756246798304115,1.0249155988009284,25.0000002425332,-1.0,"[-193.03362514640625, -98.12073887654847, 44.865406053156356]","[-194.8160839327571, -86.13706390139959, 53.709295173048744]","[-181.03415385058554, -90.6221785168783, 49.84378743199403]",10000000000.0,0.023654699325561523
8,-192.5828399658203,-97.44890594482422,44.92151641845703,0.6452907919883725,0.021861830726265904,1.1467415253308153,23.134806147051965,"array('d', [-100.32624816894531, -98.03551973348877, -95.77452685850307, -93.54691942524327, -91.35573286066102, -89.2038597230044, -87.09439981366035, -85.03040116661916, -83.01493518168984, -81.05105328786487, -79.14178358049219, -77.29011479852458, -75.49898546963698, -73.77127207376029, -72.10977531196082, -70.84063546892239])","array('d', [-194.02442932128906, -193.02558205859805, -191.9592914179898, -190.82495505085944, -189.62196754630466, -188.34990434253442, -187.00870652559414, -185.59854119316205, -184.11984461822837, -182.5732951106057, -180.95981042426232, -179.2805358189204, -177.5368352158906, -175.7302812637534, -173.8626482503466, -172.316969271276])","array('d', [-44.914634704589844, -44.84968626360311, -44.832433724533885, -44.85403164472935, -44.885588333085536, -44.91313417410967, -44.941570446810765, -44.96923171254626, -44.99673984897322, -45.02392068362295, -45.05087807155302, -45.077619428926425, -45.104186029924826, -45.13060987021821, -45.156912291108604, -45.17263340697286])","array('d', [0.6297645568847654, 0.6445750407604284, 0.6579761217918446, 0.6701019220794328, 0.6810738000921118, 0.691001564984256, 0.6999845749359658, 0.7081127298956148, 0.715467366895655, 0.7221220613023026, 0.7281433217668624, 0.7335910982314249, 0.7385186165872313, 0.7429673365304519, 0.7468710545775041, 0.6644680216580793])","array('d', [-0.0361757725477218, -0.016124205483963764, 0.002019202712820391, 0.015042219445962474, 0.010283215086076599, 0.011729773874794335, 0.011031385607780199, 0.011096984007218542, 0.010913037648052558, 0.010833387063138878, 0.010734589264288651, 0.010660146468419084, 0.010594627593207305, 0.01054565605484318, 0.010497475597508575, 0.00530903290555676])","array('d', [1.1740649203446247, 1.145012951106664, 1.1150958283141243, 1.084379706275583, 1.0529267495509915, 1.020795232507309, 0.9880396514944101, 0.9547108500220702, 0.9208561561647323, 0.8865195309059107, 0.8517417266439794, 0.8165604588598498, 0.7810106152596804, 0.7451247000251434, 0.7089370480986105, 0.6671657963199723])",-89.2038597230044,-188.34990434253442,-44.91313417410967,0.691001564984256,0.011729773874794335,1.020795232507309,25.00000024254294,-1.0,"[-192.2779148805731, -96.6656203198987, 44.88040679107968]","[-193.85501153927507, -84.72990427860867, 53.82755430918863]","[-180.1525729478322, -89.39985891505698, 49.898852190008306]",10000000000.0,0.03966856002807617
9,-192.36766052246094,-97.04212951660156,44.92346954345703,0.6489334106445309,0.01815278641879566,1.1424595276501517,23.141889048926203,"array('d', [-99.49893188476562, -97.21589549163276, -94.96331724926743, -92.74479968714698, -90.56334679383404, -88.4218765831616, -86.32348224467462, -84.27121476052015, -82.26814177039779, -80.31730958511474, -78.42173814678631, -76.58440573562653, -74.80823803947465, -73.09609649008084, -71.45076424472506, -70.19505529984805])","array('d', [-193.62350463867188, -192.6069051097463, -191.52289122725642, -190.37089072490738, -189.1503263307651, -187.86082929328595, -186.50238165595775, -185.07519694760222, -183.5797546154912, -182.01677576302416, -180.38721936150438, -178.69227062686602, -176.9333319638535, -175.11201304495773, -173.2301239377806, -171.67351493149044])","array('d', [-44.91665267944336, -44.85647196383018, -44.843534741314585, -44.86634377403016, -44.89732635661673, -44.92493032468578, -44.95321598144193, -44.98081045449922, -45.00823367375211, -45.035346875597725, -45.062241477842996, -45.08892915664843, -45.115449637812155, -45.14183542172125, -45.168107652284725, -45.183808805496945])","array('d', [0.631682217121124, 0.64631021165235, 0.6595461694785519, 0.6715225600906398, 0.6823592466080969, 0.692164685120569, 0.7010370094604452, 0.7090650116179114, 0.716329025743135, 0.7229017186152807, 0.7288487727450147, 0.7342293741020431, 0.7390959723027757, 0.7434886715523276, 0.7473281155664994, 0.6648564911686337])","array('d', [-0.03417106717824941, -0.014310272913790553, 0.0036605166660908083, 0.014407764313226122, 0.01044505817184305, 0.011618982681350557, 0.011020017591060895, 0.011055418372235436, 0.01088641614145019, 0.010805913353110956, 0.010711754131503163, 0.010639991582429719, 0.010577828548387281, 0.010531956585074442, 0.010486968217073381, 0.005299567819890419])","array('d', [1.166379497447286, 1.137216534644853, 1.107196839989711, 1.07638606811412, 1.0448458956108642, 1.0126341220765498, 0.9798047839034622, 0.9464082810202902, 0.9124915156962391, 0.878098042074208, 0.8432682257139177, 0.8080394165551362, 0.7724461620046364, 0.7365206781717835, 0.7002975298768359, 0.6584904172700905])",-88.4218765831616,-187.86082929328595,-44.92493032468578,0.692164685120569,0.011618982681350557,1.0126341220765498,25.000000242561672,-1.0,"[-191.96579822172862, -96.08209056110884, 44.8887262844641]","[-193.45613688451692, -84.17714068424192, 53.89156245422108]","[-179.78798304736316, -88.92827647414848, 49.94083095362937]",10000000000.0,0.020148754119873047
10,-191.9296112060547,-96.2318344116211,44.93015670776367,0.6568701863288877,0.009969307109713586,1.1336810747769215,23.1525495464755,"array('d', [-99.08654022216797, -96.80742000665381, -94.5592054882401, -92.34545559553746, -90.16914971969062, -88.03322697594317, -85.94077517903085, -83.89484817715748, -81.89851147514304, -79.95480862090798, -78.06675478124224, -76.23732203157141, -74.46942835015194, -72.76592608636727, -71.12958775867826, -69.88137252952096])","array('d', [-193.41976928710938, -192.39419214363193, -191.30111994977025, -190.13999761843954, -188.9102679052443, -187.6116049554216, -186.24402010367658, -184.80776071895215, -183.30333712301797, -181.73150087485934, -180.09323998542067, -178.38976760536954, -176.62251282182194, -174.7931107786302, -172.90339596016776, -171.34077228120114])","array('d', [-44.91755294799805, -44.86139167829185, -44.85209237225759, -44.875936036173506, -44.9064549975051, -44.934122265794514, -44.96229354839002, -44.98984132065381, -45.017200117767246, -45.04426095842307, -45.071104891218965, -45.09774722213824, -45.12422641279707, -45.15057541610126, -45.17681508321008, -45.19249308658085])","array('d', [0.633530497550964, 0.6479826050947856, 0.6610594137775372, 0.6728918002728296, 0.683598186455876, 0.693285724315386, 0.7020513676596627, 0.7099828406790776, 0.7171595111299163, 0.7236531706898538, 0.7295287076388676, 0.7348445792604014, 0.7396525229041463, 0.7439915827439992, 0.7477737214469518, 0.6652357925701405])","array('d', [-0.032481066882610286, -0.012781097295350216, 0.005044171829625837, 0.013883650085358716, 0.010587128848335393, 0.011531386134711554, 0.011014735716020962, 0.011023777067273758, 0.010866323975480305, 0.010784142118997482, 0.010692938164593125, 0.010622504999566476, 0.010562249056581067, 0.010518081521472156, 0.010474763216609624, 0.00528860850994149])","array('d', [1.1625148216870167, 1.1332445956511523, 1.103125794515471, 1.0722235867100278, 1.0405991742129879, 1.0083098950723695, 0.9754093387752746, 0.941947474496331, 0.907970791234144, 0.8735224484521258, 0.8386424365318479, 0.803367750703251, 0.7677326066709744, 0.7317689290895876, 0.6955113345668114, 0.6536692146840455])",-88.03322697594317,-187.6116049554216,-44.934122265794514,0.693285724315386,0.011531386134711554,1.0083098950723695,25.000000242571623,-1.0,"[-191.96579822172862, -96.08209056110884, 44.8887262844641]","[-193.45613688451692, -84.17714068424192, 53.89156245422108]","[-179.78798304736316, -88.92827647414848, 49.94083095362937]",10000000000.0,0.023573875427246094
11,-191.9296112060547,-96.2318344116211,44.93015670776367,0.6568701863288877,0.009969307109713586,1.1336810747769215,23.1525495464755,"array('d', [-98.26539611816406, -95.99416928456621, -93.75487556211816, -91.5509426880559, -89.3852961044086, -87.26093339191253, -85.18092811594795, -83.14834166325451, -81.16623441877144, -79.23764368314433, -77.36557360419343, -75.55298198644934, -73.80276907427948, -72.11776635334375, -70.50072183784289, -69.26860951513304])","array('d', [-193.00582885742188, -191.96236195185958, -190.8510906983798, -189.67149003350477, -188.42305610974984, -187.1055746943653, -185.71912937872656, -184.26405187087656, -182.74092859428578, -181.15058601244183, -179.49408316671978, -177.7727012566609, -175.98793407432115, -174.14147827285723, -172.23522710925826, -170.6598774730906])","array('d', [-44.91904067993164, -44.87369010868125, -44.874174787175804, -44.90081678602928, -44.93011279263771, -44.95796762167825, -44.98584694055773, -45.01328160107212, -45.04047705485288, -45.06740433451747, -45.0941167138382, -45.120639301357805, -45.147007218518034, -45.17325467252023, -45.19940209481954, -45.2150136891647])","array('d', [0.638604402542114, 0.6525736646003776, 0.6652135765781572, 0.6766506425436299, 0.6869993278672674, 0.6963632045241914, 0.7048359869377047, 0.712502468024624, 0.7194393627393948, 0.7257160608453841, 0.73139527158528, 0.7365334562606309, 0.7411804144174274, 0.745372365440739, 0.7489977683357226, 0.6662784281070218])","array('d', [-0.02793593890964977, -0.008668495148022504, 0.00876540717849136, 0.012486531675402025, 0.010976010544915246, 0.0113028611374512, 0.011006008235412755, 0.010943208139509063, 0.010815710730935837, 0.010727992697313364, 0.010643723088840254, 0.010575876785207668, 0.010519784046938818, 0.010479242108173616, 0.010439739074865572, 0.005257179351240044])","array('d', [1.1548414389279227, 1.1252752991259694, 1.094883179847802, 1.0637288909326634, 1.0318723092210127, 0.9993694853427004, 0.966272763503715, 0.9326309138714011, 0.8984892763006656, 0.8638899138971212, 0.8288717757971804, 0.7934708734661355, 0.7577205025719548, 0.7216517758139112, 0.6852994286864239, 0.6433609911344326])",-87.26093339191253,-187.1055746943653,-44.95796762167825,0.6963632045241914,0.0113028611374512,0.9993694853427004,25.000000242591987,-1.0,"[-191.29465118697317, -94.87293700539917, 44.91520299480296]","[-192.59022314896225, -83.04660952771977, 54.05081855600042]","[-179.001249086743, -87.99242621616546, 50.06601225950059]",10000000000.0,0.025871992111206055
12,-191.0217742919922,-94.62601470947266,44.955047607421875,0.6723360419273373,-0.0076852547936141135,1.1138252774861195,23.169360451983607,"array('d', [-97.44890594482422, -95.1862174612873, -92.9566834508615, -90.76352629997167, -88.60962880236029, -86.49807245159616, -84.43191212119893, -82.41421829188543, -80.44804429368742, -78.53641932385705, -76.68233365240576, -74.88872740266237, -73.1584790528796, -71.49439465283659, -69.89919223479941, -68.68532839953215])","array('d', [-192.5828399658203, -191.52046701607563, -190.38982451190844, -189.19040080653787, -187.921771193392, -186.5838698578199, -185.17687073963185, -183.70121167946388, -182.15757392038228, -180.54687710573134, -178.8702682342124, -177.12911249304224, -175.32498323939012, -173.45965250934074, -171.5350855304504, -169.94563507992342])","array('d', [-44.92151641845703, -44.89061457620719, -44.90417454014362, -44.93456188352796, -44.96223191339337, -44.99034233167288, -45.01783471798671, -45.04511935705262, -45.0720956807237, -45.098841667215424, -45.12537348722733, -45.15172936757072, -45.177939963499625, -45.204041157388595, -45.23005263872087, -45.245565052533514])","array('d', [0.6452907919883725, 0.6586237605091283, 0.6706879302300145, 0.6816040430027951, 0.6914813503198713, 0.7004187064206078, 0.7085055568784083, 0.7158228318021951, 0.7224437503358182, 0.7284345370961268, 0.7338550298482689, 0.7387590584024782, 0.7431938530908877, 0.7471916942379591, 0.7506037147831011, 0.6676455280743109])","array('d', [-0.021861830726265904, -0.003172414483122168, 0.01373845823173547, 0.010623980446136713, 0.011497916904622565, 0.010999211036876637, 0.01099520790337799, 0.010835599107606286, 0.010747350628662385, 0.010651446467369525, 0.010575671964998423, 0.010510509929657144, 0.010459207051405421, 0.010422736672411111, 0.010387416033329617, 0.005210254212346163])","array('d', [1.1467415253308153, 1.1167821233896296, 1.086026985513064, 1.0545380755044986, 1.0223734723512958, 0.9895874830336694, 0.9562307682698014, 0.9223504802986138, 0.8879904111487522, 0.853191149776524, 0.817990247587614, 0.7824223975593668, 0.7465196646095626, 0.7103120848269341, 0.6738347968809894, 0.6317697370443643])",-86.49807245159616,-186.5838698578199,-44.99034233167288,0.7004187064206078,0.010999211036876637,0.9895874830336694,25.00000024261439,-1.0,"[-190.8330885483873, -94.07349420882005, 44.93873216799232]","[-191.98556338274216, -82.30339367439132, 54.16567831314885]","[-178.45735239477074, -87.39353799549048, 50.155947866434104]",10000000000.0,0.04074883460998535
13,-190.7880859375,-94.22863006591797,44.96475601196289,0.6760352849960325,-0.011959938332438504,1.1083492497589926,23.170924459541958,"array('d', [-96.63641357421875, -94.38302735784274, -92.16407901294443, -89.98258484148896, -87.8414796639383, -85.7438637468923, -83.69279474927059, -81.69134322338685, -79.74255594060241, -77.84945064644155, -76.01500111166686, -74.2421264063289, -72.53367967123076, -70.89243758014292, -69.32108315573021, -68.12713715895356])","array('d', [-192.14993286132812, -191.06760048077024, -189.91643069847106, -188.6959335791124, -187.40582766660026, -186.04617452757162, -184.61726454569094, -183.11964932530987, -181.55411817014652, -179.92169408849912, -178.22362233235685, -176.46136137077235, -174.63657285740965, -172.75111228537, -170.80702493630884, -169.2025618692641])","array('d', [-44.92641830444336, -44.913868730573846, -44.936555540049085, -44.96711258565098, -44.99439739300601, -45.02232823921629, -45.04958257389334, -45.0766632770585, -45.10343795048978, -45.129996023498485, -45.15634994463695, -45.182539465503986, -45.20859488814309, -45.23455238693694, -45.26043132038297, -45.275847274579455])","array('d', [0.6528192758560178, 0.6654358150287458, 0.6768517326059298, 0.6871812825202339, 0.6965278457416005, 0.7049849646130009, 0.7126372782262012, 0.7195613673707715, 0.725826515019412, 0.731495381626728, 0.7366245699988171, 0.7412649368511315, 0.745460746878314, 0.7492390353721428, 0.7523859209680404, 0.6691628204048304])","array('d', [-0.014147327281534696, 0.0038079570670933017, 0.014168977732614737, 0.010341138232942313, 0.011468338012183926, 0.010886509976726105, 0.010916882780739474, 0.01075087265487037, 0.010670614276391405, 0.010577792076888044, 0.010506917553439304, 0.010446096985202357, 0.010399397780403625, 0.0103675072298565, 0.010336529001370406, 0.005164615085096767])","array('d', [1.138158933320318, 1.1077521400808303, 1.0765843208335546, 1.0447152805714024, 1.012201000149079, 0.9790937562745674, 0.9454422540279191, 0.9112917705439268, 0.876684308055238, 0.8416587546202674, 0.8062510522911464, 0.7704943792572649, 0.7344193919381946, 0.6980549286903203, 0.6614374989694001, 0.6192315384912601])",-85.7438637468923,-186.04617452757162,-45.02232823921629,0.7049849646130009,0.010886509976726105,0.9790937562745674,25.00000024263822,-1.0,"[-190.1960961067721, -93.01232662298308, 44.97753732190046]","[-191.13902323783157, -81.31722526493678, 54.322883364211336]","[-177.70360079504817, -86.61294418218992, 50.2676663622003]",10000000000.0,0.0313715934753418
14,-190.31259155273438,-93.43815612792969,44.98811721801758,0.6826430559158324,-0.020144825801253315,1.0966971973564963,23.17514824273231,"array('d', [-96.2318344116211, -93.9834244760787, -91.7700855578633, -89.59476929665924, -87.46046551908184, -85.37025961489115, -83.32721749034718, -81.33440641036621, -79.39486979271844, -77.51161827717429, -75.68761625030477, -73.92577086723071, -72.22892114542923, -70.59982748371954, -69.04115311867463, -67.8577924716204])","array('d', [-191.9296112060547, -190.83691000752566, -189.67503662667758, -188.4435342673912, -187.14221471312726, -185.77119468026655, -184.33083204752302, -182.82173803465702, -181.2447607170874, -179.60097841543606, -177.8916891629517, -176.11840135257685, -174.28282385740823, -172.38685673428535, -170.43258834521083, -168.82030373442797])","array('d', [-44.93015670776367, -44.92754671636928, -44.95312211446665, -44.98250769931943, -45.01003963270212, -45.0377301553808, -45.06492066403925, -45.09188313786202, -45.11856588418704, -45.14503040053693, -45.17129904654922, -45.19740825298482, -45.22338959506718, -45.24927898173926, -45.27509560417865, -45.290466270695944])","array('d', [0.6568701863288877, 0.6691012307326936, 0.6801683381850021, 0.6901822716127904, 0.6992432531875739, 0.7074419670374854, 0.7148604659893265, 0.7215729905468209, 0.7276467056638529, 0.7331423537770975, 0.7381147959771153, 0.7426132831863044, 0.7466804386501777, 0.7503399188432012, 0.7533249111748912, 0.6699655891471576])","array('d', [-0.009969307109713586, 0.007588385878239617, 0.012785612229372637, 0.010757238150902331, 0.0112603607216483, 0.010898546089882893, 0.010855015679453859, 0.010717672527522794, 0.010630385764276832, 0.010543079043626414, 0.010473386981504762, 0.010415326453502013, 0.010370863353044636, 0.010341506754816524, 0.01031264272295719, 0.005143183787899793])","array('d', [1.1336810747769215, 1.103031490843293, 1.071639855068299, 1.039564773707479, 1.006861064715819, 0.9735798817189827, 0.9397688501511502, 0.9054722139879818, 0.870730991170042, 0.8355831360403098, 0.8000637087243588, 0.7642050588651625, 0.7280370754642783, 0.6915879673757875, 0.6548956976531243, 0.6126152007865597])",-85.37025961489115,-185.77119468026655,-45.0377301553808,0.7074419670374854,0.010898546089882893,0.9735798817189827,25.000000242650664,-1.0,"[-190.11892457124696, -92.88628091574192, 44.98269549177684]","[-191.03556289806477, -81.20039833651123, 54.34217851821805]","[-177.6120713963043, -86.52108715983593, 50.28014130180659]",10000000000.0,0.022936582565307617
15,-189.82630920410156,-92.65376281738281,45.01670837402344,0.6885877251625057,-0.027741739526391054,1.0848160545018053,23.177734178520964,"array('d', [-95.42631530761719, -93.18880053163909, -90.98758382439722, -88.8255466973562, -86.7058104106934, -84.63142983115125, -82.60548592051724, -80.63103710476965, -78.71111791307952, -76.84872250199851, -75.04679422311055, -73.30821414571676, -71.63579089148746, -70.03225073657356, -68.50022292521093, -67.33910742970376])","array('d', [-191.48106384277344, -190.3663703081686, -189.18184539585425, -187.9271259192833, -186.60222513561126, -185.20737084687693, -183.7430574412792, -182.2100159117575, -180.60921254198928, -178.941836743243, -177.20929251039723, -175.4131883643134, -173.55532773772006, -171.63769937229344, -169.6624719004612, -168.03409705728748])","array('d', [-44.94049072265625, -44.95880875998071, -44.99045560272351, -45.0173590057215, -45.0453987428391, -45.07257033212255, -45.09961434571401, -45.12631596208549, -45.15279354775559, -45.17904963085915, -45.205127422407806, -45.23105626721352, -45.25687064485943, -45.28260446141186, -45.308287503809545, -45.323569184949])","array('d', [0.6647753119468687, 0.676254084938674, 0.6866405091256973, 0.6960385350674112, 0.7045422210225262, 0.7122366741814823, 0.719198902112912, 0.7254985825948356, 0.7311987584478994, 0.7363564605556929, 0.7410232501497512, 0.74524561096386, 0.7490646963098876, 0.7525099793379554, 0.755418440733536, 0.6717393407555934])","array('d', [-0.0011723700445145878, 0.0155481672846957, 0.009864826624908698, 0.011628885771346105, 0.010816919858763437, 0.010919075190307572, 0.010719880452651974, 0.010643099457356819, 0.010541067008372311, 0.010465446943281125, 0.010398284873421154, 0.010346034386183154, 0.010306494292744805, 0.01028134227922794, 0.01026571469062647, 0.005101065104953345])","array('d', [1.124105052151952, 1.0929774323272439, 1.0611454079316325, 1.0286651667697124, 0.9955891855358174, 0.9619663616180183, 0.927842156071296, 0.8932587458185158, 0.8582551829058157, 0.8228675587484626, 0.7871291720857058, 0.7510707028941715, 0.7147204161861626, 0.6781046428284346, 0.6412553191418264, 0.5988089093625693])",-84.63142983115125,-185.20737084687693,-45.07257033212255,0.7122366741814823,0.010919075190307572,0.9619663616180183,25.000000247343234,-1.0,"[-189.62792481379518, -92.1038703644657, 45.01833241299781]","[-190.3699657406392, -80.47007362937275, 54.45783180594386]","[-177.02710810599933, -85.95312395611751, 50.34634676327172]",10000000000.0,0.0370023250579834
16,-189.57919311523438,-92.26390838623047,45.03292465209961,0.6913921236991878,-0.031212786212563456,1.0789323012020922,23.17804610710308,"array('d', [-94.62601470947266, -92.40037985638986, -90.21224991904936, -88.0646213920366, -85.96058547304676, -83.90321547195127, -81.89558674781314, -79.94075181700485, -78.04173133998376, -76.20150070823243, -74.4229790917497, -72.7090186311524, -71.06239442298502, -69.48579391341146, -67.98174275498984, -66.8436690581767])","array('d', [-191.0217742919922, -189.88363511397023, -188.67504674263222, -187.39583811035112, -186.0461384660717, -184.62631647588344, -183.13699154797925, -181.5790178725458, -179.95347785854605, -178.26167182338213, -176.50510879179728, -174.68549674824578, -172.80473310659707, -170.86489611148122, -168.86828327075324, -167.22372251580643])","array('d', [-44.955047607421875, -44.98066158617329, -45.00995178641089, -45.037419318220785, -45.06501973806805, -45.09211524856086, -45.11897131989485, -45.145539196319, -45.17187985418108, -45.198016238019754, -45.223984782386864, -45.24981755424278, -45.27554820160485, -45.30121237954384, -45.32683033840276, -45.34206043320814])","array('d', [0.6723360419273373, 0.6830953168422444, 0.6928307120600771, 0.7016396622931829, 0.7096103298167824, 0.7168224864336065, 0.7233483108563789, 0.7292531083951501, 0.7345959566734277, 0.7394302713623789, 0.7438042450679738, 0.7477608864270172, 0.751335594717075, 0.7545229270655525, 0.7549441703993834, 0.6713365582550997])","array('d', [0.0076852547936141135, 0.012722280557393086, 0.010743430508775268, 0.011223036273363131, 0.010863741820788336, 0.010813921856658115, 0.010673687651470152, 0.010582534003593437, 0.010491894068224561, 0.01041881289224539, 0.01035742026199447, 0.0103099567934859, 0.010275499587551825, 0.010256520826070861, 0.01023850833952987, 0.0050766499956599554])","array('d', [1.1138252774861195, 1.082235078274304, 1.0499772756773524, 1.0171056408338586, 0.9836703177395254, 0.9497179624948563, 0.9152918925271549, 0.8804322436900227, 0.8451761331750643, 0.8095578267966355, 0.773608911782556, 0.7373584887575465, 0.7008334846758766, 0.6640603309281636, 0.6271557335710054, 0.5847469646649013])",-83.90321547195127,-184.62631647588344,-45.09211524856086,0.7168224864336065,0.010813921856658115,0.9497179624948563,25.000000242703486,-1.0,"[-189.12596574766894, -91.32794688824619, 45.05831564597921]","[-189.68989314690344, -79.74403431916642, 54.571199303435996]","[-176.43173385553726, -85.38755762514144, 50.40324334161521]",10000000000.0,0.021147489547729492
17,-189.07725524902344,-91.48905181884766,45.06931686401367,0.6965797543525692,-0.0370747298002242,1.0673577348378043,23.176162989435117,"array('d', [-94.22863006591797, -92.00942517673684, -89.82834282928727, -87.68844785727889, -85.59281511088894, -83.54452659835749, -81.54665352818861, -79.60224427743528, -77.71431128853455, -75.88581929488724, -74.11967408564031, -72.4187120564576, -70.78569030107042, -69.22327561901707, -67.733173807362, -66.60329519015117])","array('d', [-190.7880859375, -189.6375350608713, -188.41624581142824, -187.12415094156754, -185.7614378390508, -184.32854681446184, -182.8261602356813, -181.25519447958658, -179.6167904574204, -177.91230434499252, -176.14329801713947, -174.31152946596006, -172.41894328577706, -170.4676625817886, -168.4606070988063, -166.8103857456383])","array('d', [-44.96475601196289, -44.99365435539288, -45.02164919669655, -45.04942158296784, -45.076777215434966, -45.10382701229181, -45.130576038938464, -45.15706650230979, -45.1833278733653, -45.20939425109866, -45.23529832291963, -45.261073602895536, -45.28675336308237, -45.3123735516803, -45.33795427315917, -45.35315858026982])","array('d', [0.6760352849960325, 0.6864425306906761, 0.6958593966659713, 0.7043801296876699, 0.7120900074486842, 0.7190661916485321, 0.725378499205431, 0.7310900981478271, 0.7362581313635517, 0.7409342605875363, 0.7451650759571605, 0.7489920431792176, 0.7524483089626527, 0.7555077317385093, 0.7242415702496686, 0.645084040318351])","array('d', [0.011959938332438504, 0.011172389539879021, 0.011223105318672622, 0.010998999068722334, 0.010887798485629673, 0.010754681709384414, 0.010646748279269596, 0.010547671619806123, 0.010463220258133486, 0.01039145678371961, 0.010333144176611317, 0.010288194981244966, 0.010256503371018183, 0.010240277788352025, 0.010224915694084725, 0.005064438060876214])","array('d', [1.1083492497589926, 1.0765307684065841, 1.0440629818640261, 1.0109984398991125, 0.9773861102243975, 0.9432715212719335, 0.9086969142475153, 0.8737014023041576, 0.8383211347845366, 0.8025894652161242, 0.7665371246818422, 0.7301924171101857, 0.6935815663235558, 0.6567311247742147, 0.6209238910651013, 0.5809014156542326])",-83.54452659835749,-184.32854681446184,-45.10382701229181,0.7190661916485321,0.010754681709384414,0.9432715212719335,25.000000242717434,-1.0,"[-188.8711335236395, -90.94237129217646, 45.07973622961798]","[-189.3468430567655, -79.38333209196199, 54.627631977268265]","[-176.13147211622538, -85.10368428059523, 50.428639033486824]",10000000000.0,0.019710302352905273
18,-188.82257080078125,-91.1040267944336,45.089351654052734,0.6989000439643858,-0.03957824409008031,1.0617410103466849,23.173822965609823,"array('d', [-93.43815612792969, -91.23283989949451, -89.06686763370348, -86.94345235756747, -84.86563828999769, -82.83652119938226, -80.85916154582337, -78.93659680310338, -77.07182074762483, -75.26777476734928, -73.52733610939737, -71.85330810517746, -70.24841039905279, -68.71526118748385, -67.25281689694711, -66.13483509823176])","array('d', [-190.31259155273438, -189.13584661575382, -187.8879101453322, -186.56892459530104, -185.17918788781424, -183.71927619322994, -182.18999082161656, -180.59236577309593, -178.92765260032476, -177.19731316935471, -175.40300938084619, -173.54659390987408, -171.63010076375437, -169.65574269184165, -167.62841452350563, -165.97005442734792])","array('d', [-44.98811721801758, -45.02327907328707, -45.048755651856936, -45.07708149757111, -45.10393779924395, -45.13087190540313, -45.157389008628684, -45.183705803861486, -45.20979117500351, -45.235700558023815, -45.26145937232634, -45.28710385757517, -45.31266651966353, -45.338183888485325, -45.3636752654743, -45.37881651689843])","array('d', [0.6826430559158324, 0.6924214896061599, 0.7012693828926503, 0.709275288070754, 0.7165193302430319, 0.7230740087936923, 0.7290049218246775, 0.734371419435283, 0.7392271877922177, 0.743620752126599, 0.7475958206810684, 0.7511909509944681, 0.7544330181381552, 0.7570266096988274, 0.6140020711900376, 0.5489604940883354])","array('d', [0.020144825801253315, 0.008185264317314317, 0.012130549132847402, 0.010556866598465496, 0.01092248860020851, 0.01063009082786809, 0.010584745788606919, 0.010470976949079155, 0.010398900836691543, 0.010330123828505748, 0.010278159019223514, 0.010238451383058737, 0.01021246833848231, 0.010201957363018654, 0.010191672098965102, 0.005034583940110783])","array('d', [1.0966971973564963, 1.0644676824386643, 1.031622040824588, 0.9982105736282434, 0.964280087671425, 0.9298740442656162, 0.8950327158951276, 0.8597933485874741, 0.8241903280053937, 0.7882553482713988, 0.7520175865242107, 0.7155039091744325, 0.678739363309421, 0.641759647874197, 0.6096541006311297, 0.5774384156722542])",-82.83652119938226,-183.71927619322994,-45.13087190540313,0.7230740087936923,0.01063009082786809,0.9298740442656162,25.000000242745767,-1.0,"[-188.35409202064335, -90.17606146976154, 45.12491621945567]","[-188.65626649747466, -78.6655919985264, 54.738333048934955]","[-175.5263630066134, -84.52883068684682, 50.468899081246526]",10000000000.0,0.02415752410888672
19,-188.306396484375,-90.33915710449219,45.133766174316406,0.702871739864349,-0.04349161311984073,1.0510713616993768,23.170067779762842,"array('d', [-92.65376281738281, -90.46292348530545, -88.31261388725694, -86.2062045350786, -84.14671250340831, -82.13724307093878, -80.18084356189634, -78.28053783677467, -76.43929883361633, -74.66004267435443, -72.94561648638012, -71.2987892947128, -69.72224264324882, -68.21505346530851, -66.76488799668384, -65.6484028418865])","array('d', [-189.82630920410156, -188.6230917317909, -187.34832427413048, -186.00236221458007, -184.58560952246017, -183.0987709043064, -181.54275987243813, -179.9187213165421, -178.2280110179739, -176.47219034717875, -174.6530153070526, -172.7724275479242, -170.83254480010504, -168.8382546157565, -166.8020735522147, -165.1426795970289])","array('d', [-45.01670837402344, -45.05765309844967, -45.08074599315528, -45.10954791550396, -45.13590206393699, -45.16269261212222, -45.18895926360325, -45.21508112735738, -45.24097056584598, -45.266702833899906, -45.29229652795128, -45.317790345752485, -45.34321631458795, -45.368610493412426, -45.39399675265968, -45.40906707888893])","array('d', [0.6885877251625057, 0.6978004493767394, 0.7061364676447688, 0.713679209398743, 0.720504164587566, 0.7266796390281746, 0.7322674375608478, 0.7373234812583133, 0.7418983628110717, 0.7460378372530325, 0.7497832101163274, 0.7531713174146837, 0.7562297048746346, 0.6117961456030109, 0.5429413525151896, 0.4861278699483467])","array('d', [0.027741739526391054, 0.005389082879621991, 0.012959253891915812, 0.01012999883371494, 0.010940195099448588, 0.010499997018456445, 0.010513485571660694, 0.010386503820036683, 0.010326419314308053, 0.010260852241288495, 0.010215221707027966, 0.010180760776922222, 0.010160699587636822, 0.010155086641858945, 0.010154284102553732, 0.005000999722497966])","array('d', [1.0848160545018053, 1.052213108473278, 1.0190244408361229, 0.9852982529035368, 0.9510793392493136, 0.9164092414153927, 0.8813264081094794, 0.8458663596172864, 0.8100618543545451, 0.7739430560663235, 0.737537702346494, 0.7008712886706513, 0.6639674597131708, 0.6319593731164662, 0.6064155142263405, 0.5787091405567688])",-82.13724307093878,-183.0987709043064,-45.16269261212222,0.7266796390281746,0.010499997018456445,0.9164092414153927,25.000000247378196,-1.0,"[-187.82806982820796, -89.41589250964576, 45.17341269380355]","[-187.9647316947216, -77.9495795457405, 54.843210548361796]","[-174.91784624430414, -83.9413846618192, 50.49843765503138]",10000000000.0,0.03065800666809082
20,-187.78134155273438,-89.58070373535156,45.18189239501953,0.7063940763473509,-0.04622594639658938,1.0408635298397881,23.165768092040846,"array('d', [-92.26390838623047, -90.08035750911742, -87.93791513186756, -85.84002991922826, -83.78970704036364, -81.79005495369618, -79.8441137819602, -77.95489975005795, -76.12537476590882, -74.3584417810384, -72.6569324244494, -71.02359812313429, -69.4610998721577, -67.96842047323784, -66.53204216792692, -65.42282448026874])","array('d', [-189.57919311523438, -188.36294329783237, -187.07498604373617, -185.71578292016423, -184.28579006042168, -182.7857741171078, -181.21670274604176, -179.579774221642, -177.87639448279586, -176.1081727396207, -174.27691022264165, -172.38459139953406, -170.4333751539998, -168.42820082535067, -166.38226190789106, -164.71798678771663])","array('d', [-45.03292465209961, -45.076498106812544, -45.09848133133552, -45.1274838666021, -45.15359114301292, -45.18029968474858, -45.20643589094133, -45.232453285073746, -45.258238300457926, -45.283875263478194, -45.30937961551604, -45.334791208561995, -45.36014152116001, -45.385467615165865, -45.41078180445142, -45.4257915170574])","array('d', [0.6913921236991878, 0.7003379742193981, 0.7084325150199356, 0.7157567585864335, 0.7223840076831772, 0.7283805884809433, 0.7338065129919527, 0.7387160756646552, 0.7431583837216609, 0.7471777993441631, 0.7508141491211686, 0.7541014525807777, 0.7570341964892912, 0.6104845833481872, 0.4943480316426623, 0.44294285646519194])","array('d', [0.031212786212563456, 0.004101103949853361, 0.013331778256148421, 0.009927570428326265, 0.010941713104914734, 0.010433996500295544, 0.010474670624056123, 0.010341836170347198, 0.010287448991468919, 0.010223546771164034, 0.010180998478384135, 0.010149157219723377, 0.010131731348517723, 0.010129527994812329, 0.010122293084681442, 0.004972333295306264])","array('d', [1.0789323012020922, 1.0461519685997895, 1.0128004458398074, 0.9789249173333773, 0.9445692051429834, 0.9097739248608927, 0.874576647338395, 0.839012064095443, 0.8031121546784356, 0.7669063557030862, 0.7304217381922677, 0.6936832527673839, 0.6567153178519894, 0.6247222135344304, 0.6005479554221145, 0.5757371832526474])",-81.79005495369618,-182.7857741171078,-45.18029968474858,0.7283805884809433,0.010433996500295544,0.9097739248608927,25.00000024278595,-1.0,"[-187.56213877115616, -89.03845451815732, 45.198983029622674]","[-187.62019083673005, -77.59207215931352, 54.893154518348865]","[-174.61316497338143, -83.64195501012246, 50.50952637699522]",10000000000.0,0.02291417121887207
21,-187.50460815429688,-89.1878890991211,45.20794677734375,0.7081384658813473,-0.04736549407243739,1.0357829491284232,23.161848637940132,"array('d', [-91.48905181884766, -89.32016691915967, -87.19343260437759, -85.11247665791743, -83.08035757433518, -81.10015462157519, -79.17490254669893, -77.30759749879617, -75.50117965859799, -73.75852465012882, -72.08243297850834, -70.47562104779982, -68.93885101657851, -67.46430514324334, -66.03889218965328, -64.93455465345342])","array('d', [-189.07725524902344, -187.83558340718346, -186.5218988686933, -185.1368842844704, -183.6811435041428, -182.15553883724877, -180.56114805748334, -178.89926791340162, -177.17140035020515, -175.37924478262636, -173.524688080607, -171.609795373936, -169.63822496550276, -167.61964093381664, -165.56602775914627, -163.89850194305154])","array('d', [-45.06931686401367, -45.125851849023185, -45.151151492958704, -45.178520158251736, -45.204735688304616, -45.23096452723027, -45.2568446729452, -45.2825467239956, -45.30805564502465, -45.33342125739986, -45.358670943640114, -45.38384025659464, -45.40896297930161, -45.434071944543895, -45.459182546242786, -45.47404554235551])","array('d', [0.6965797543525692, 0.7050319370862005, 0.7126797888976667, 0.7195998518230134, 0.7258613838224185, 0.7315270517317921, 0.7366535578871383, 0.741292205915472, 0.745489408411563, 0.7492871280556151, 0.7527231725832286, 0.755830420542072, 0.6820353124491667, 0.5424473506916727, 0.4547777763748177, 0.4076845870951108])","array('d', [0.0370747298002242, 0.008633121622998247, 0.011558150717518312, 0.0103572533433829, 0.010611316640510403, 0.01037606378750392, 0.010329204105254295, 0.01023438061470789, 0.010174115482525206, 0.010119631327571963, 0.010081103653897465, 0.010055120204576143, 0.010043588568883653, 0.010043916054707249, 0.010044887796734408, 0.0049029183147061145])","array('d', [1.0673577348378043, 1.034247172889145, 1.0005926265250604, 0.966439352782493, 0.9318293339446456, 0.896801436961159, 0.8613915773612378, 0.8256328854779732, 0.7895558731227132, 0.7531885997043506, 0.7165568407239798, 0.6796842999393642, 0.645357131595503, 0.61780118394998, 0.5964542614701285, 0.5739057368313516])",-81.10015462157519,-182.15553883724877,-45.23096452723027,0.7315270517317921,0.01037606378750392,0.896801436961159,25.000000247391704,-1.0,"[-187.02393846254907, -88.28782473993495, 45.25120662291157]","[-186.92903026957904, -76.88029233798053, 54.99077524443004]","[-174.00024031541287, -83.03628028566726, 50.52421026572574]",10000000000.0,0.028937339782714844
22,-186.96734619140625,-88.43804168701172,45.25896072387695,0.7113557457923887,-0.04893632233142867,1.0264696637776234,23.157738948838848,"array('d', [-90.7205810546875, -88.56595847286393, -86.45444133309861, -84.38982471206043, -82.37521965808159, -80.41367783452881, -78.50822665464365, -76.66184179338515, -74.87744147052389, -73.15787437396999, -71.50591066341865, -69.9242325811845, -68.41186835617464, -66.95510075596417, -65.54122066497898, -64.4428979790629])","array('d', [-188.5655517578125, -187.29983926881465, -185.9618969587889, -184.55261516816543, -183.0727354117434, -181.5232050345663, -179.9051999941256, -178.2201044749901, -176.46950573566497, -174.6551832917352, -172.7791000852891, -170.84339315881996, -168.85301817060375, -166.8215384348992, -164.7599528969308, -163.08845378038427])","array('d', [-45.110897064208984, -45.17840623950735, -45.206738022602714, -45.23256511778, -45.258850015082125, -45.28460512489272, -45.31021879507439, -45.33559985626033, -45.360824361714975, -45.38591013401992, -45.4108955309222, -45.4358121694992, -45.46069476776417, -45.48557338162849, -45.510448201871874, -45.52512555341398])","array('d', [0.7009845972061155, 0.7090176039555015, 0.7162861694629029, 0.7228630395619803, 0.728814036983482, 0.7341987195076287, 0.739070974268255, 0.7434795515405259, 0.7474685328104096, 0.7510776842593502, 0.7543422979706537, 0.7572847705401651, 0.6105351224162096, 0.4778170118714397, 0.42170085924149153, 0.3781625853601053])","array('d', [0.04168916121125219, 0.012808432658136268, 0.009905906689271948, 0.010742186578110114, 0.010293601951952348, 0.01031056715689416, 0.010182857755059657, 0.010123332825155219, 0.010057708517997572, 0.010012008335324061, 0.00997722215051172, 0.00995676008296152, 0.009949764137185194, 0.009953395694118088, 0.009946900065449236, 0.004815125612269675])","array('d', [1.0563163916256764, 1.022923262506343, 0.989009588247846, 0.9546189406140829, 0.9197916970181826, 0.8845652025360379, 0.848973935317157, 0.8130496734216826, 0.7768216618205566, 0.7403167809616635, 0.7035597357164467, 0.6665735915542906, 0.634570465966713, 0.6108368471687636, 0.5919099160257499, 0.5711945013845213])",-80.41367783452881,-181.5232050345663,-45.28460512489272,0.7341987195076287,0.01031056715689416,0.8845652025360379,25.00000024283182,-1.0,"[-187.02393846254907, -88.28782473993495, 45.25120662291157]","[-186.92903026957904, -76.88029233798053, 54.99077524443004]","[-174.00024031541287, -83.03628028566726, 50.52421026572574]",10000000000.0,0.01932072639465332
