,x_pos,y_pos,z_pos,roll,pitch,yaw,vel,x_traj,y_traj,z_traj,roll_traj,pitch_traj,yaw_traj,x_cmd,y_cmd,z_cmd,roll_cmd,pitch_cmd,yaw_cmd,vel_cmd,effector_dmg,effector_x,effector_y,effector_z,cost,time_solution
0,-209.23719787597656,-111.3799057006836,50.0305061340332,0.6368539929389951,0.029030568897724148,1.3462592969324927,23.22943454431845,"array('d', [-115.87158966064453, -113.41936601542562, -110.98224900599901, -108.56332885492424, -106.16542284392537, -103.79143201085603, -101.44434005756155, -99.12719922794652, -96.84311440500707, -94.59522775599376, -92.38670387528713, -90.22071557945148, -88.10043037368253, -86.0289976225444, -84.00953640856793, -82.84094944098794])","array('d', [-210.49224853515625, -210.0087063597249, -209.4520603634548, -208.8209424930041, -208.11417467079116, -207.33083539762427, -206.4702588553339, -205.53203082948846, -204.51598351286142, -203.42218980966797, -202.25095714316416, -201.00282085923024, -199.67853727584531, -198.27907644126452, -196.80561468991013, -195.8655066411618])","array('d', [-50.01309585571289, -49.9668309269517, -49.95945656710705, -49.9620107221248, -49.961461128197634, -49.9618763242953, -49.96198372710101, -49.96218268228407, -49.96234796003454, -49.96251915643957, -49.962683715070405, -49.96284515770474, -49.9630004026809, -49.96314800877562, -49.96324395644522, -49.963266158938694])","array('d', [0.6364716887474059, 0.6506439053400015, 0.6634674583680353, 0.6750706900246615, 0.6855697291354, 0.6950696534084584, 0.7036655410770606, 0.7114434224519991, 0.7184811408890515, 0.7248491317318712, 0.7306111268337798, 0.7358247909159691, 0.7405422918255191, 0.7448107730513874, 0.7486715795374429, 0.6774242778411059])","array('d', [-0.028320346027612787, -0.009016320684998257, 0.0029177047516733786, -0.0008121576474170141, 0.00035304458696213244, -1.4752127115749511e-05, 9.878042190166699e-05, 6.101374649122053e-05, 7.104117518684132e-05, 6.600004369643085e-05, 6.565265490832016e-05, 6.353674892097435e-05, 6.070644601448025e-05, 5.7433035837044856e-05, 1.9950384731858805e-05, 9.821897544333238e-06])","array('d', [1.3907579193499429, 1.3613164221053322, 1.3310394110716233, 1.2999912714525081, 1.268232441066209, 1.2358195152789258, 1.202805364858646, 1.169239266470121, 1.135167044508462, 1.1006312223534631, 1.0656711808230233, 1.0303233215499032, 0.994621233259209, 0.9585958606315723, 0.9222757198555546, 0.8657409019523774])",-110.98224900599901,-209.4520603634548,-49.95945656710705,0.6634674583680353,0.0029177047516733786,1.3310394110716233,25.00000024996832,-1.0,[],[],[],10000000000.0,0.08740806579589844
1,-208.82484436035156,-110.05370330810547,50.036067962646484,0.6371412277221679,0.02911468222737315,1.3327946672823767,23.226727722642483,"array('d', [-113.61328125, -111.17259572402014, -108.74861669431495, -106.34449912243979, -103.9630904434857, -101.60731202178134, -99.28016178299478, -96.9847004763577, -94.72403594330528, -92.50130789263469, -90.31967318784699, -88.18229179330166, -86.09231340007443, -84.05286476211762, -82.06703772124953, -80.91987965814968])","array('d', [-209.88816833496094, -209.34961718528743, -208.73831360115048, -208.0529665472928, -207.29246248706573, -206.45594534297996, -205.54281643035603, -204.55273013636867, -203.4855883830676, -202.34153458702883, -201.12094713518425, -199.82443247044037, -198.4528178386395, -197.0071437601894, -195.48865632008145, -194.52251604525915])","array('d', [-50.021602630615234, -49.97292823225506, -49.96477207631214, -49.96752510810856, -49.9668639710531, -49.96726768567015, -49.967332973449416, -49.96750071398423, -49.96763236131446, -49.96777167703414, -49.96790468920884, -49.96803527653729, -49.96816010137343, -49.96827764349538, -49.968342404613495, -49.968346102418046])","array('d', [0.6364589929580687, 0.6506324177136253, 0.6634570639327042, 0.6750612847493431, 0.685561218888619, 0.695061953015847, 0.7036585734680726, 0.7114371178865196, 0.7184754362541796, 0.7248439698959384, 0.7306064560312924, 0.7358205640774825, 0.740538465421971, 0.7448073017142087, 0.7486682366879351, 0.6774212531386884])","array('d', [-0.02933332882821557, -0.009932905507400749, 0.0031890209140420967, -0.0009180788520171558, 0.000367719491978731, -3.79799237572744e-05, 8.810676956472768e-05, 4.677515075757165e-05, 5.8349627116430054e-05, 5.3189036512615246e-05, 5.3220182662831464e-05, 5.128201168934272e-05, 4.8622226832564406e-05, 4.546415292889829e-05, 6.986623126244765e-06, -1.9078406347227584e-06])","array('d', [1.368269504108701, 1.3388287477084717, 1.3085524209227244, 1.2775049123613913, 1.2457466631647849, 1.2133342719263276, 1.180320612535331, 1.1467549646617416, 1.1126831555810945, 1.0781477114224478, 1.043188015618789, 1.0078404722878136, 0.9721386725389751, 0.9361135635451999, 0.8997936709183136, 0.8432592171727622])",-108.74861669431495,-208.73831360115048,-49.96477207631214,0.6634570639327042,0.0031890209140420967,1.3085524209227244,25.000000249968778,-1.0,[],[],[],10000000000.0,0.06524133682250977
2,-208.54002380371094,-109.17243194580078,50.03940200805664,0.6375652551650999,0.02967112138867387,1.3239137093212938,23.22399387880059,"array('d', [-112.26671600341797, -109.83335446583624, -107.4176663698708, -105.02282263190868, -102.65168577074286, -100.30718875939573, -97.99233772598859, -95.71019816479824, -93.46387930876962, -91.25651898116998, -89.09126897743243, -86.97128110799672, -84.89969392650191, -82.87962017152178, -80.9141348970838, -79.77991265857308])","array('d', [-209.5020751953125, -208.9313344749474, -208.2880473361438, -207.57096615822275, -206.77901702048268, -205.91138434010577, -204.96751086823215, -203.94709315189542, -202.8500757983865, -201.67664523066557, -200.42722297065973, -199.10245854007783, -197.70322203250447, -196.23059641989298, -194.6858696906745, -193.70457540463377])","array('d', [-50.02649688720703, -49.97792904505258, -49.96978900206056, -49.97249815161327, -49.97180969705354, -49.972182823536606, -49.97221919596204, -49.97235843303697, -49.972462224371235, -49.97257422947396, -49.97268044499008, -49.97278470970943, -49.97288365239511, -49.972975716774236, -49.97301552370556, -49.97300515881365])","array('d', [0.6366168856620787, 0.6507752849531334, 0.6635863355684088, 0.6751782545727419, 0.6856670575705898, 0.695157719822871, 0.7037452268631772, 0.7115155251205686, 0.7185463820422107, 0.7249081642615236, 0.7306645413843704, 0.7358731215436748, 0.7405860202044485, 0.7448503250285151, 0.7487070209240108, 0.6774563461849269])","array('d', [-0.029288530349731442, -0.009892370164012789, 0.0031624953034636027, -0.0009269535478697853, 0.0003548075321785568, -4.9560678530031254e-05, 7.655476192436185e-05, 3.551944772798409e-05, 4.7316815296076655e-05, 4.2369792224428264e-05, 4.259879956013385e-05, 4.0842277420180794e-05, 3.835339000396398e-05, 3.534824450427737e-05, -2.865222871922463e-06, -1.0821897191279515e-05])","array('d', [1.3550659875061852, 1.3256160165506192, 1.2953311792120914, 1.2642758217227068, 1.2325103438927993, 1.2000913041673043, 1.1670715376063334, 1.1335002864984935, 1.099423342296752, 1.064883196955059, 1.0299192014438359, 0.9945677291746509, 0.9588623423436925, 0.9228339611382202, 0.8865110910226465, 0.829972412142386])",-107.4176663698708,-208.2880473361438,-49.96978900206056,0.6635863355684088,0.0031624953034636027,1.2953311792120914,25.00000024996903,-1.0,[],[],[],10000000000.0,0.028762340545654297
3,-208.39463806152344,-108.73267364501953,50.04088592529297,0.6379667520523069,0.029814267531037372,1.3195651332524159,23.226293766890507,"array('d', [-111.3799057006836, -108.95165741851268, -106.54174035409484, -104.15332847999784, -101.78929369138434, -99.45257679493817, -97.14618950894929, -94.873200533993, -92.63671999942842, -90.43988436749468, -88.28584188412985, -86.17773869153848, -84.11870563032346, -82.11184575721259, -80.16022255122375, -79.03480716842584])","array('d', [-209.23719787597656, -208.64502989711684, -207.98044444764616, -207.24222280984065, -206.42931897970539, -205.5409460059322, -204.5765758432493, -203.53593463483503, -202.41899684511392, -201.22597887783522, -199.95733223212198, -198.61373628111406, -197.19609072908574, -195.70550780974054, -194.14330432563816, -193.1519221378531])","array('d', [-50.0305061340332, -49.98255187234948, -49.97458864126629, -49.977206035736494, -49.976508695105174, -49.9768484008662, -49.97685968012557, -49.97697199583156, -49.97705011929549, -49.977136707387615, -49.97721802236671, -49.97729777958017, -49.97737262263427, -49.97744096896123, -49.977457875799175, -49.977434786902066])","array('d', [0.6368539929389951, 0.6509898285087716, 0.6637804626228487, 0.6753539080111753, 0.6858259953882665, 0.6953015327195178, 0.7038753541628499, 0.7116332691759344, 0.7186529212664988, 0.7250045649157967, 0.7307517682286698, 0.7359520474203909, 0.7406574344444773, 0.7449149389204328, 0.7487653748365883, 0.6775091464138238])","array('d', [-0.029030568897724148, -0.009658956969053875, 0.0030758744842520223, -0.0009153751185750928, 0.00033661685475847204, -5.826483310764629e-05, 6.52281319418694e-05, 2.5290668414237184e-05, 3.7012557664233995e-05, 3.233593080869782e-05, 3.270981471293865e-05, 3.1122436079914405e-05, 2.879090129959407e-05, 2.5933821592623837e-05, -1.1779222635759102e-05, -1.8887389230261917e-05])","array('d', [1.3462592969324927, 1.3167954845853176, 1.2864978636039077, 1.2554307165168022, 1.2236543810089158, 1.1912253551791148, 1.1581964157279019, 1.1246167487637284, 1.090532091905092, 1.055984885749672, 1.0210144324861055, 0.9856570593804899, 0.9499462851582657, 0.9139129893050124, 0.8775856431242702, 0.8210406066878404])",-106.54174035409484,-207.98044444764616,-49.97458864126629,0.6637804626228487,0.0030758744842520223,1.2864978636039077,25.000000249969194,-1.0,[],[],[],10000000000.0,0.029663562774658203
4,-208.09791564941406,-107.85476684570312,50.043766021728516,0.6391410231590268,0.02992202155292036,1.3107188204911093,23.236541670433645,"array('d', [-110.4952163696289, -108.07236602218015, -105.66850258402307, -103.28680931176916, -100.93016777506082, -98.6015261763009, -96.30390130674803, -94.04036456869066, -91.81402649664359, -89.62802171618848, -87.48549446261802, -85.3895847625283, -83.34341530878827, -81.35007905313745, -79.41262748641893, -78.29620417031688])","array('d', [-208.9642791748047, -208.35038757988073, -207.66422720612096, -206.90460907162975, -206.0705146195845, -205.16118491273963, -204.17612050109702, -203.11507654815597, -201.97805683116346, -200.7653072213342, -199.4773087109367, -198.11477006816648, -196.67862017746572, -195.17000012773252, -193.59025515137031, -192.5887576105026])","array('d', [-50.0343017578125, -49.986495725796246, -49.978565282051406, -49.981142100993544, -49.980425852285094, -49.980741142169414, -49.98073021613378, -49.98082028952648, -49.980876734317796, -49.980941994863564, -49.981002355121404, -49.98106148715721, -49.981116016031926, -49.98116433223919, -49.98116162201293, -49.981127487646866])","array('d', [0.6369947195053098, 0.6511171631831785, 0.6638956798112126, 0.6754581608436525, 0.6859203272601276, 0.6953868877336128, 0.7039525865780906, 0.7117031519559983, 0.7187161538133232, 0.7250617800622817, 0.7308035385504282, 0.7359988908883819, 0.7406998192522986, 0.7449532855191551, 0.7487999456500856, 0.677540427038834])","array('d', [-0.028968250378966328, -0.009602568836331812, 0.0030471371942506153, -0.0009195087455807147, 0.00032573656678288736, -6.695380218106819e-05, 5.6159203654909386e-05, 1.6560101686125087e-05, 2.839824708576819e-05, 2.3885471104729225e-05, 2.4394247299977135e-05, 2.293571216731818e-05, 2.0724278316535722e-05, 1.7974557978966597e-05, -1.9517300124662393e-05, -2.5888888446612005e-05])","array('d', [1.3373076329615454, 1.307835603331626, 1.2775303931684538, 1.2464562471547254, 1.2146734660687928, 1.1822385121619514, 1.1492041274691727, 1.1156194647299629, 1.0815302295890707, 1.0469788321442555, 1.0120045456154751, 0.9766436698695039, 0.9409296978316086, 0.9048934848927613, 0.8685634842971626, 0.812014681141754])",-105.66850258402307,-207.66422720612096,-49.978565282051406,0.6638956798112126,0.0030471371942506153,1.2775303931684538,25.000000249969357,-1.0,[],[],[],10000000000.0,0.02810955047607422
5,-207.79513549804688,-106.98457336425781,50.04719161987305,0.6406342983245847,0.02876925840973859,1.3014507154610493,23.256197014283913,"array('d', [-110.05370330810547, -107.63365738783276, -105.23292462945813, -102.85469936884135, -100.50186904338575, -98.17738585330589, -95.88426929139197, -93.62559221852419, -91.40446542635542, -89.22402262800769, -87.08740601320649, -84.9977524675916, -82.95818048724703, -80.97177781194785, -79.04158974538896, -77.92977346524641])","array('d', [-208.82484436035156, -208.20001600402367, -207.50298418163845, -206.73257742752938, -205.88779220388096, -204.967884653008, -203.9723706279724, -202.90102076248175, -201.7538544046992, -200.53113302874908, -199.23335319696866, -197.8612391529979, -196.41573510396816, -194.8979972541833, -193.30938569479716, -192.30277612789337])","array('d', [-50.036067962646484, -49.987913630836985, -49.9798685873678, -49.98247103136682, -49.981735717937795, -49.98204650713151, -49.982026638536276, -49.98210940386196, -49.98215821188699, -49.9822161209958, -49.98226920200739, -49.98232117777283, -49.98236863278694, -49.98240994284933, -49.98240008137236, -49.982361768645866])","array('d', [0.6371412277221679, 0.6512497293118289, 0.6640156306155993, 0.6755666968295146, 0.6860185346900056, 0.6954757494984227, 0.704032992034, 0.7117759058248656, 0.7187819842352545, 0.7251213458793192, 0.7308574358888693, 0.7360476590835677, 0.740743946055961, 0.7449932105566713, 0.7488360008645358, 0.6775730507906305])","array('d', [-0.02911468222737315, -0.009735065863615845, 0.0030851083890664497, -0.0009360701191362141, 0.00032675292961362645, -7.147828512774605e-05, 5.3498546664528425e-05, 1.3382921748139068e-05, 2.5461994896999968e-05, 2.094071563848461e-05, 2.1514520998916905e-05, 2.00898571848499e-05, 1.7910509600190174e-05, 1.5183039666507204e-05, -2.244451859820454e-05, -2.8537464449459745e-05])","array('d', [1.3327946672823767, 1.3033140810116453, 1.273000968360844, 1.2419195345827319, 1.2101300420056738, 1.1776889155357868, 1.1446488610958523, 1.111058996665389, 1.0769649945838644, 1.0424092331800086, 1.0074309555000656, 0.972066432870038, 0.9363491313300684, 0.9003098810961853, 0.8639771143563231, 0.8074243825170049])",-105.23292462945813,-207.50298418163845,-49.9798685873678,0.6640156306155993,0.0030851083890664497,1.273000968360844,25.000000249969435,-1.0,[],[],[],10000000000.0,0.029221773147583008
6,-207.64041137695312,-106.54991149902344,50.048851013183594,0.6415483951568601,0.027588272467255585,1.2965632239964346,23.270756648993633,"array('d', [-109.17243194580078, -106.75806391603291, -104.36364540319012, -101.99240239766822, -99.6472354648421, -97.33110508156638, -95.04703626230629, -92.79810485910416, -90.58742221416894, -88.41812022017345, -86.29333695163679, -84.2162029637174, -82.18982828977929, -80.21729015988456, -78.30162140448112, -77.19901059883114])","array('d', [-208.54002380371094, -207.89370445258322, -207.17529344514267, -206.38365820839348, -205.51782689791966, -204.57708706350317, -203.5609862798829, -202.4693271428071, -201.30216107356296, -200.05978159654103, -198.7427171744756, -197.35172368119467, -195.88777657095244, -194.35206280672307, -192.74597265519117, -191.72928812746653])","array('d', [-50.03940200805664, -49.98992415019922, -49.98145556785736, -49.98417742794838, -49.98338969394939, -49.983702932762284, -49.98366838144966, -49.983742195574166, -49.98378048786366, -49.98382861751506, -49.98387189513857, -49.98391425303429, -49.98395214778559, -49.983983923832334, -49.983963715009146, -49.98391904634602])","array('d', [0.6375652551650999, 0.6516334052431815, 0.6643627949860428, 0.675880824170351, 0.6863027688873079, 0.69573293525787, 0.7042657033511702, 0.7119864717455362, 0.7189725121624507, 0.7252937426571036, 0.7310134268626952, 0.7361888052821125, 0.7408716594175482, 0.7451087650737929, 0.7489404053288237, 0.677667518826874])","array('d', [-0.02967112138867387, -0.010238552882077185, 0.0032387920989833687, -0.0009907448405652778, 0.000338385055737507, -8.08011448185186e-05, 5.096202294943905e-05, 8.79274363567398e-06, 2.162698691993059e-05, 1.6954677245670945e-05, 1.765572633301927e-05, 1.6253973937177636e-05, 1.4097796154662695e-05, 1.1368569957242393e-05, -2.689727787928196e-05, -3.256635666977078e-05])","array('d', [1.3239137093212938, 1.2944083481162982, 1.2640723552188153, 1.2329698215942104, 1.2011608981317023, 1.1687019015091868, 1.1356454330036223, 1.102040509876017, 1.0679327079707395, 1.0333643135798916, 0.9983744823410717, 0.9629994029058795, 0.9272724634319844, 0.8912244211539828, 0.8548836454349562, 0.7983195360505844])",-104.36364540319012,-207.17529344514267,-49.98145556785736,0.6643627949860428,0.0032387920989833687,1.2640723552188153,25.00000024996959,-1.0,[],[],[],10000000000.0,0.019970178604125977
7,-207.32379150390625,-105.68135833740234,50.05266189575195,0.6442270278930662,0.024386618286371217,1.2861882309105734,23.312333122127296,"array('d', [-108.73267364501953, -106.32115353631866, -103.9299077807377, -101.56217420100512, -99.22085993010968, -96.9089300232176, -94.62941266662126, -92.3853855394418, -90.17996051219036, -88.01626874557374, -85.89744636544758, -83.82662080700486, -81.80689785977992, -79.84134943469562, -77.93300201515622, -76.83503416974294])","array('d', [-208.39463806152344, -207.73779892747933, -207.00890032277078, -206.20683024993681, -205.33063471005605, -204.3796189789976, -203.35334842108094, -202.25164343265274, -201.0745731821079, -199.82244882145457, -198.4958162600546, -197.09544857962513, -195.62233815006377, -194.07768850835643, -192.46290611003286, -191.44120928726758])","array('d', [-50.04088592529297, -49.991067587470134, -49.982488058721074, -49.98523668122725, -49.98443174166184, -49.984742060442734, -49.98470018090364, -49.984768242398474, -49.98480042624352, -49.98484269919866, -49.984880163909516, -49.9849168049738, -49.98494904095639, -49.984975203870064, -49.98494921603106, -49.98490114669511])","array('d', [0.6379667520523069, 0.6519966946828395, 0.6646915128943546, 0.6761782604606122, 0.686571900396368, 0.6959764555391723, 0.704486049632474, 0.7121858493209209, 0.7191529164621676, 0.7254569792144568, 0.7311611293719555, 0.7363224519042055, 0.7409925873660257, 0.7452181824224247, 0.749039325891153, 0.6777570248766012])","array('d', [-0.029814267531037372, -0.010368076879358057, 0.0032767622802304095, -0.0010064102684100205, 0.0003399977933623617, -8.465865340658813e-05, 4.892655514889914e-05, 6.234823285841658e-06, 1.9294392868537075e-05, 1.4602245271309427e-05, 1.5356933422082276e-05, 1.3978905965164947e-05, 1.1845469830369033e-05, 9.13015774251e-06, -2.9279676312286416e-05, -3.472197102001858e-05])","array('d', [1.3195651332524159, 1.2900362996570762, 1.259678630335362, 1.2285561078065252, 1.1967287772272155, 1.164252852601489, 1.1311808359435895, 1.0975616489893532, 1.0634407760751041, 1.0288604162233355, 0.9938596421991472, 0.9584745642762034, 0.922738496774414, 0.886682127680168, 0.8503337645733398, 0.7937588734411716])",-103.9299077807377,-207.00890032277078,-49.982488058721074,0.6646915128943546,0.0032767622802304095,1.259678630335362,25.000000249969666,-1.0,[],[],[],10000000000.0,0.03531670570373535
8,-206.99691772460938,-104.81376647949219,50.0579719543457,0.647710561752319,0.020074654370546396,1.2751930216935015,23.366521161291494,"array('d', [-107.85476684570312, -105.4491806185898, -103.06455309963076, -100.70414107020272, -98.37086535308696, -96.0677011880885, -93.797683961785, -91.56389562442563, -89.36944948689282, -87.21747540679279, -85.1111055638328, -83.05346090858933, -81.0476383167085, -79.09669846743141, -77.20365440311816, -76.11539260455879])","array('d', [-208.09791564941406, -207.41968717612377, -206.66942339214566, -205.84605735733433, -204.94867576550584, -203.97662434116867, -202.92950884699115, -201.80718989450259, -200.60977655120695, -199.337619417659, -197.99130327782854, -196.57163939929592, -195.07965754396383, -193.51659775109076, -191.88390200602166, -190.85187324160904])","array('d', [-50.043766021728516, -49.99369138641642, -49.98502265555905, -49.98778028519754, -49.98695199205264, -49.987250133742485, -49.98719277668258, -49.987246817509934, -49.98726484419693, -49.987293319906335, -49.987317157823696, -49.98734037691411, -49.98735935310387, -49.98737239690955, -49.987333285752804, -49.98727768736371])","array('d', [0.6391410231590268, 0.6530592192153255, 0.6656529249359264, 0.6770481821285707, 0.687359038143125, 0.6966886872890061, 0.7051305036258375, 0.7127689754549726, 0.7196805508403168, 0.7259344025472749, 0.7315931198012563, 0.7367133327266139, 0.7413462698471197, 0.7455382014694415, 0.7493286964544973, 0.6780188553284024])","array('d', [-0.02992202155292036, -0.010465576758832066, 0.003300869827763934, -0.0010226391744000767, 0.0003373178094674483, -9.164844616189141e-05, 4.3508118025475465e-05, 4.4295608872025185e-07, 1.3756300273304505e-05, 9.101911495676817e-06, 9.954204264305524e-06, 8.642942350551429e-06, 6.572547621680807e-06, 3.906964076699398e-06, -3.455427919260781e-05, -3.949447966977945e-05])","array('d', [1.3107188204911093, 1.2811212588511112, 1.2507001251421719, 1.219519083408306, 1.1876378683616762, 1.1551123926118902, 1.1219948668629618, 1.0883339325783812, 1.0541748056735016, 1.019559429242057, 0.9845266330687044, 0.9491122976702611, 0.9133495209516107, 0.8772687879146372, 0.8408982232115527, 0.7842917822812314])",-103.06455309963076,-206.66942339214566,-49.98502265555905,0.6656529249359264,0.003300869827763934,1.2507001251421719,25.000000249969816,-1.0,[],[],[],10000000000.0,0.0316164493560791
9,-206.48582458496094,-103.51421356201172,50.07121658325195,0.6524968743324276,0.01206843275576832,1.2573317448284962,23.466524187835326,"array('d', [-106.98457336425781, -104.58535610255998, -102.20787793228759, -99.85537233641186, -97.53076944292685, -95.23705495557618, -92.9772720009937, -90.75450709135049, -88.57187500793734, -86.43250407723367, -84.33952206256443, -82.29604273182511, -80.30515313636661, -78.36990161623946, -76.49328648231133, -75.41544032768003])","array('d', [-207.79513549804688, -207.09452000085918, -206.3218803667589, -205.4761883018626, -204.55657498120175, -203.56243167933283, -202.49340966819895, -201.34941471164473, -200.1306005260937, -198.83736171348255, -197.47032628547842, -196.030347846261, -194.51849749717692, -192.93605552389604, -191.2845029846224, -190.24160130180758])","array('d', [-50.04719161987305, -49.9998589075899, -49.992032126509976, -49.9944762229558, -49.993696109980256, -49.99393027474653, -49.993845023394755, -49.99386069867384, -49.99384445932727, -49.99383812409652, -49.99382802604325, -49.99381770574371, -49.993803725581486, -49.993784387795834, -49.99371529133212, -49.99364373501354])","array('d', [0.6406342983245847, 0.654410390582898, 0.6668755154581345, 0.6781544278799861, 0.6883600107827079, 0.6975944048685789, 0.7059500308534189, 0.7135105144159537, 0.7203515230830796, 0.7265415233506027, 0.7321424653523122, 0.737210400821626, 0.7417960343908226, 0.7459451582079977, 0.749696682520121, 0.6783518192398362])","array('d', [-0.02876925840973859, -0.009422513440273311, 0.0029545627749640946, -0.0009344082698708644, 0.00028989404463017403, -9.612270395529679e-05, 2.588627050654076e-05, -1.2702312945616793e-05, -4.92842466015782e-07, -4.508355331534112e-06, -3.585482563130153e-06, -4.652949514312221e-06, -6.5003616474317115e-06, -8.92934644033266e-06, -4.573385181148352e-05, -4.960989455486465e-05])","array('d', [1.3014507154610493, 1.2717655874395961, 1.2412636046091874, 1.2100080231980916, 1.178058180523117, 1.1454696035352294, 1.1122941303385374, 1.0785800440653488, 1.0443722175935246, 1.0097122670739374, 0.9746387120062717, 0.9391871396118885, 0.9033903716195171, 0.8672786340538715, 0.8308798181157131, 0.774233234157285])",-102.20787793228759,-206.3218803667589,-49.992032126509976,0.6668755154581345,0.0029545627749640946,1.2412636046091874,25.000000249969972,-1.0,[],[],[],10000000000.0,0.04749131202697754
10,-206.13133239746094,-102.6537857055664,50.08641052246094,0.6555699706077573,0.006117303855717224,1.2448508302357533,23.54049927566974,"array('d', [-105.68135833740234, -103.29302387321466, -100.92784908710605, -98.588962768251, -96.27930735804945, -94.00188764333112, -91.759761200098, -89.55602319629769, -87.39379139072378, -85.27619159326201, -83.20634378617609, -81.1873489294246, -79.22227648666374, -77.31415268068555, -75.46594941473334, -74.40611788594235])","array('d', [-207.32379150390625, -206.5863337442127, -205.776759686027, -204.89409772783097, -203.9375652096119, -202.90664260264023, -201.8010697994513, -200.62083990828174, -199.36619244954144, -198.03760605546356, -196.63579079482062, -195.16168017494937, -193.61642288732634, -192.001374355165, -190.31808821248472, -189.25688544761408])","array('d', [-50.05266189575195, -50.01575408259356, -50.01115232431065, -50.01245260813567, -50.01190110738006, -50.01193524002675, -50.01178717558175, -50.01169893132609, -50.011593764570726, -50.01149563118522, -50.011396419496315, -50.01129786893919, -50.011197314116124, -50.01109307829197, -50.01094762975912, -50.01083671599803])","array('d', [0.6442270278930662, 0.6576612270237485, 0.6698169941760206, 0.6808159881290053, 0.690768290303651, 0.6997735064875359, 0.707921763709598, 0.7152946122321031, 0.721965841660485, 0.7280022192573791, 0.7334641575658482, 0.7384063168278958, 0.7428781415629937, 0.7469242756727554, 0.750582088365158, 0.6791529587452222])","array('d', [-0.024386618286371217, -0.005456936319656986, 0.0016568475433490102, -0.0005793165519175336, 0.0001263441137409796, -9.533986636658404e-05, -2.4296827893804702e-05, -4.593756535798304e-05, -3.832286645802653e-05, -4.0153305818667834e-05, -3.923142337505454e-05, -3.96028258516518e-05, -4.082071504661712e-05, -4.25392746006004e-05, -7.330629595975175e-05, -7.455781277583535e-05])","array('d', [1.2861882309105734, 1.2562916492234595, 1.2255944838270985, 1.19415899657384, 1.1620435564757177, 1.1293027515019167, 1.0959875133035075, 1.0621452539812875, 1.0278200132206055, 0.9930526136775292, 0.9578808223295516, 0.9223395155589333, 0.8864608461537524, 0.8502744131287564, 0.8138075410018107, 0.7570642690393922])",-100.92784908710605,-205.776759686027,-50.01115232431065,0.6698169941760206,0.0016568475433490102,1.2255944838270985,25.00000024997023,-1.0,[],[],[],10000000000.0,0.028647661209106445
11,-205.94937133789062,-102.22390747070312,50.09562301635742,0.6571714878082274,0.0031406886409968246,1.2384496490147452,23.57887559954145,"array('d', [-104.81376647949219, -102.433639855571, -100.07775500550608, -97.74915608585032, -95.45080009612543, -93.18570763832753, -90.95694775966109, -88.76762244434634, -86.62085169792684, -84.51975919282263, -82.46745858390828, -80.46704052132472, -78.52156038860579, -76.63402677236459, -74.80739058454114, -73.76123470677184])","array('d', [-206.99691772460938, -206.23295686162368, -205.3967116713308, -204.4872575809136, -203.50388717876206, -202.44615702941786, -201.3138819462466, -200.10712844359128, -198.8262077309009, -197.47166826031489, -196.04428791490898, -194.5450658941424, -192.9752143596672, -191.33614989965167, -189.62948495128478, -188.5547989342078])","array('d', [-50.0579719543457, -50.03132156566095, -50.029890761962804, -50.03006617716697, -50.029741855709716, -50.029579952431796, -50.029371438292124, -50.029181923226155, -50.02899025488136, -50.028802664294915, -50.02861656317491, -50.028431900088414, -50.028246777200536, -50.028059537083614, -50.02783939950927, -50.02768998087534])","array('d', [0.647710561752319, 0.6608132590920702, 0.6726690709925227, 0.6833966541851786, 0.6931033737255919, 0.701886377531751, 0.7098335686592208, 0.7170244850336993, 0.7235310954174686, 0.729418519489987, 0.7347456789485026, 0.7395658848745686, 0.74392736012676, 0.7478736361586737, 0.7514405557224615, 0.679929723498184])","array('d', [-0.020074654370546396, -0.0015553096982605587, 0.0003784082390936656, -0.00022796063445008124, -3.4720165722229864e-05, -9.381660907748768e-05, -7.333635264912601e-05, -7.81946526389515e-05, -7.519014302589602e-05, -7.488737554433841e-05, -7.400818576885538e-05, -7.37269733120986e-05, -7.436076286701339e-05, -7.541376339623455e-05, -0.00010028145281518046, -9.896531036727905e-05])","array('d', [1.2751930216935015, 1.245090358386145, 1.214203038269164, 1.182592340778586, 1.1503156792254832, 1.117426715846685, 1.0839754896590796, 1.050008555996712, 1.0155691359149375, 0.9806972732790878, 0.9454299972372655, 0.9098014878716852, 0.873843243283831, 0.8375842493002119, 0.8010512777472307, 0.7442141236567053])",-100.07775500550608,-205.3967116713308,-50.029890761962804,0.6726690709925227,0.0003784082390936656,1.214203038269164,25.00000024997042,-1.0,[],[],[],10000000000.0,0.02619171142578125
12,-205.76425170898438,-101.79428100585938,50.10599899291992,0.6587768197059629,0.00015496145351785574,1.2320099035885672,23.618824339222577,"array('d', [-104.38031768798828, -102.0046354856936, -99.65375553243213, -97.33067965499943, -95.03837456154442, -92.7798687000216, -90.55823637810231, -88.37658245674821, -86.23802747043173, -84.14569338235016, -82.1026899978687, -80.11210208548928, -78.17697722382451, -76.300314381312, -74.48505313926526, -73.44610131269404])","array('d', [-206.8294219970703, -206.05156302555775, -205.20134957381882, -204.27788047600873, -203.28048769749975, -202.20876683113866, -201.0625709837995, -199.84200418687945, -198.54741427994801, -197.17938538683703, -195.7387300323803, -194.22648096876068, -192.6438827699617, -190.99238325336447, -189.27362487470467, -188.1919732419499])","array('d', [-50.06153106689453, -50.041032663666755, -50.041501402003455, -50.04099985664447, -50.040810364193604, -50.04052893025887, -50.0402824540975, -50.04003039304467, -50.03978507379747, -50.03954204126995, -50.0393020373057, -50.03906392715131, -50.03882627345204, -50.03858742692934, -50.038320655553854, -50.038147089490316])","array('d', [0.6494308710098263, 0.6623698594198323, 0.674077541341529, 0.6846710909744439, 0.694256531923534, 0.7029297983118058, 0.7107776949071649, 0.7178787658622982, 0.7243040807332782, 0.730117945555027, 0.7353785457798634, 0.7401385262001897, 0.744445506277499, 0.7483424673608615, 0.7518644062616339, 0.6803132350372757])","array('d', [-0.017488611862063432, 0.0007846384914061436, -0.0003900516304678094, -1.7401208861295773e-05, -0.00013227640354229828, -9.35173211582492e-05, -0.00010349712331608913, -9.823942613985176e-05, -9.801963650400602e-05, -9.643285457453409e-05, -9.55844680012362e-05, -9.491482493165484e-05, -9.520332032112096e-05, -9.586289351072107e-05, -0.00011719828929076162, -0.00011427190278038196])","array('d', [1.2694075564530232, 1.2392027348146228, 1.2082211771540095, 1.1765236709430626, 1.1441671512767997, 1.1112048175615865, 1.0776862629178505, 1.0436576150676757, 1.0091616868290205, 0.9742381340060605, 0.9389236183725319, 0.9032519735587573, 0.867254372136473, 0.830959495251288, 0.7943938436965068, 0.7375102877907628])",-99.65375553243213,-205.20134957381882,-50.041501402003455,0.674077541341529,-0.0003900516304678094,1.2082211771540095,25.000000249970515,-1.0,[],[],[],10000000000.0,0.022305965423583984
13,-205.575927734375,-101.3649673461914,50.11721420288086,0.6603201627731321,-0.002693874994292833,1.2258161167290549,23.656747658923752,"array('d', [-103.9471206665039, -101.57610235822398, -99.23044303768052, -96.91310835166847, -94.62707663623502, -92.37538380126566, -90.16110875187013, -87.98735860508827, -85.85725383900737, -83.77391416691871, -81.7404450439229, -79.75992489421822, -77.83539306371742, -75.96983850675929, -74.16618910475816, -73.13458262219754])","array('d', [-206.65907287597656, -205.86697127368413, -205.00246911779715, -204.0646888162336, -203.05300138255706, -201.9670403748491, -200.80669606395168, -199.57210892958958, -198.26366242785863, -196.88197540032732, -195.42789411637594, -193.90248403920668, -192.30702136672375, -190.64298440817873, -188.91204495072253, -187.82338600683175])","array('d', [-50.065853118896484, -50.0517186372384, -50.05414933449612, -50.052943534742674, -50.052890499546486, -50.05248196465993, -50.05219299941231, -50.05187296497489, -50.051568926878105, -50.0512653307423, -50.050966374240346, -50.05066979275368, -50.05037462321894, -50.0500792197489, -50.049761040080455, -50.04956068838231])","array('d', [0.6510043144226072, 0.6637935700238146, 0.67536576808509, 0.6858367268403565, 0.695311242965967, 0.7038841404137306, 0.7116412194265483, 0.7186601152239855, 0.7250110749219979, 0.7307576603711368, 0.7359573836266751, 0.7406622800499363, 0.7449194171056555, 0.7487712721169658, 0.7522519563103306, 0.6806639008866788])","array('d', [-0.014813536778092417, 0.003205146435359905, -0.0011873117680058175, 0.00019953646790708783, -0.00023472035613772763, -9.444758078340856e-05, -0.00013603092259008892, -0.00012025972055244157, -0.0001229262716645083, -0.00011999946021562933, -0.00011917941947148918, -0.00011810371303823355, -0.00011803309120594805, -0.00011828547314401371, -0.00013596335863823447, -0.00013125080318179567])","array('d', [1.2634597281601767, 1.23316124388583, 1.2020933006440975, 1.1703162319223108, 1.1378865317417861, 1.1048569728591038, 1.0712767375845156, 1.0371915598929549, 1.0026438768959274, 0.9676729874411445, 0.9323152155365931, 0.8966040764266983, 0.8605704436539415, 0.8242427186308178, 0.7876471575872329, 0.7307211452601918])",-99.23044303768052,-205.00246911779715,-50.05414933449612,0.67536576808509,-0.0011873117680058175,1.2020933006440975,25.000000249970615,-1.0,[],[],[],10000000000.0,0.0364537239074707
14,-204.58706665039062,-99.22425079345703,50.19193649291992,0.6673134565353392,-0.015350596979260419,1.194448218741689,23.85094199978373,"array('d', [-103.51421356201172, -101.14810487778209, -98.80790332970624, -96.49655889008572, -94.21705947338074, -91.97244766758539, -89.76580647881279, -87.60024476702031, -85.47888245895011, -83.40483652534806, -81.38120758506516, -79.41106723691624, -77.4974461178034, -75.64332269559881, -73.85161267969025, -72.82755124526648])","array('d', [-206.48582458496094, -205.67909326970045, -204.79992794335976, -203.84748074598102, -202.82116086550488, -201.7206393889783, -200.54584344994058, -199.29694968994716, -197.97437692468284, -196.5787784768721, -195.1110341451514, -193.57224190742537, -191.96370940683303, -190.28694528168617, -188.54365050420523, -187.44789161830192])","array('d', [-50.07121658325195, -50.06093912351107, -50.063650825670926, -50.06229088731934, -50.06222227135542, -50.06175540098758, -50.06142263089349, -50.06105509517556, -50.06070557155471, -50.06035662894447, -50.06001302175914, -50.05967230518205, -50.059333718001575, -50.05899573787874, -50.05864007254042, -50.05842089395438])","array('d', [0.6524968743324276, 0.6651440942011846, 0.6765877730053562, 0.6869424427172222, 0.6963117361552847, 0.7047894241689239, 0.7124603541139659, 0.7194012990006969, 0.7256817257821787, 0.731364490377802, 0.7365064660559812, 0.741159110052569, 0.7453689661045512, 0.7491780325556113, 0.7526194411589838, 0.6809964111828252])","array('d', [-0.01206843275576832, 0.0035852209998346275, -0.001333797569848059, 0.00021992750527404865, -0.0002667023217862612, -0.0001094177904972971, -0.00015602085106795378, -0.00013830328567340742, -0.00014126618211762783, -0.00013794333590749894, -0.00013695883396582246, -0.00013563648531951752, -0.00013523987362963844, -0.0001351457926305848, -0.00014915281252038927, -0.0001431848053497893])","array('d', [1.2573317448284962, 1.2269442122564858, 1.195794152612039, 1.1639414651351285, 1.1314422221535987, 1.0983487887316832, 1.0647099548294527, 1.0305710785627291, 0.9959742385842931, 0.9609583933343455, 0.9255595448587762, 0.8898109050408645, 0.8537430626204469, 0.8173841527169416, 0.7807602040401997, 0.7237939081188182])",-98.80790332970624,-204.79992794335976,-50.063650825670926,0.6765877730053562,-0.001333797569848059,1.195794152612039,25.000000249970714,-1.0,[],[],[],10000000000.0,0.06642317771911621
15,-204.58706665039062,-99.22425079345703,50.19193649291992,0.6673134565353392,-0.015350596979260419,1.194448218741689,23.85094199978373,"array('d', [-101.3649673461914, -99.02562491755148, -96.71494508524697, -94.43589641630876, -92.19150648247562, -89.9848459673709, -87.8190140670215, -85.69712350920804, -83.62228639229872, -81.59760061771046, -79.62613704905469, -77.71092739347759, -75.85495282282221, -74.06113332616803, -72.33231747397822, -71.34793163561028])","array('d', [-205.575927734375, -204.6944685475687, -203.7404053507654, -202.7130809208407, -201.61210362282455, -200.43734099572922, -199.1889132470561, -197.86718587019772, -196.47276194727633, -195.00647406087097, -193.46937592870376, -191.86273380611195, -190.18801771861553, -188.44689257810532, -186.64120951971805, -185.5096754841438])","array('d', [-50.11721420288086, -50.11898434105841, -50.117526073821175, -50.117101157803546, -50.11636612459219, -50.11574375008907, -50.11509933680049, -50.11447442401739, -50.11385476346609, -50.11324381562953, -50.11263945026008, -50.112041366268144, -50.11144886142372, -50.11086137016497, -50.110283369697164, -50.1099510662449])","array('d', [0.6603201627731321, 0.6722228989554724, 0.6829929410017958, 0.6927380789132116, 0.7015558451194129, 0.709534490608049, 0.7167538681540612, 0.7232862314757273, 0.7291969582792308, 0.7345452043146918, 0.7393844945838517, 0.7437632558599169, 0.7477252856709475, 0.751310061602881, 0.7545401429409554, 0.6827343142247687])","array('d', [0.002693874994292833, -0.0012125956950388404, 2.5330697409472755e-05, -0.00035885453706285407, -0.00023129990035992938, -0.00026602049369148, -0.00024978104409165353, -0.00025014314208915363, -0.0002456600854041546, -0.00024314022021873158, -0.00024039782391396144, -0.00023810757547186215, -0.00023593258327442613, -0.00023409114295846578, -0.00022840410411194466, -0.0002148924848170708])","array('d', [1.2258161167290549, 1.1949586031164516, 1.1633753655819556, 1.1311239680557064, 1.0982582186014545, 1.0648282967800047, 1.0308808927547048, 0.996459356342751, 0.9616038538358096, 0.9263515302788846, 0.890736674946783, 0.8547908879842603, 0.8185432468388371, 0.782020475523343, 0.7452476020880456, 0.6880703568074477])",-96.71494508524697,-203.7404053507654,-50.117526073821175,0.6829929410017958,2.5330697409472755e-05,1.1633753655819556,25.000000249971208,-1.0,"[-204.24847814997185, -98.25321959433147, 50.19360732415293]","[-211.88874893545753, -59.33748481093092, 80.6434324236914]","[-165.27950583960546, -73.93302519060072, 69.94069169726085]",10000000000.0,0.027206897735595703
16,-203.7419891357422,-97.52806854248047,50.275787353515625,0.6716571450233457,-0.023125492036342708,1.1710810522225241,23.99576533959298,"array('d', [-100.5074234008789, -98.1795212907231, -95.88135473803706, -93.61592228307039, -91.38626700230647, -89.19546775545109, -87.04662722879769, -84.94285682315918, -82.88726282460921, -80.88293300501546, -78.93292400773636, -77.04024944429338, -75.20786873692953, -73.43867668927817, -71.73549283615607, -70.76723418788785])","array('d', [-205.18980407714844, -204.27861006639674, -203.2947955132188, -202.23778614624567, -201.10726886546607, -199.90318745342307, -198.62573694668765, -197.27535590916187, -195.8527186431021, -194.35872693134496, -192.79450155087622, -191.16137356163372, -189.46087544516817, -187.69473214156707, -185.86485288472548, -184.71948906506725])","array('d', [-50.143314361572266, -50.14925580523785, -50.14627593590799, -50.14612738900417, -50.14510421712637, -50.144375133758444, -50.143569230661804, -50.142802638799544, -50.14203721364025, -50.14128379524537, -50.14053773226532, -50.13979942520188, -50.13906812489285, -50.13834353272885, -50.1376381570763, -50.137238051773295])","array('d', [0.6631833314895627, 0.6748136013788458, 0.685337105705617, 0.6948591670429594, 0.7034750851989428, 0.7112710910009026, 0.7183252093055574, 0.7247080398584247, 0.7304834637783469, 0.7357092826144092, 0.7404377959262819, 0.7447163212248608, 0.7485876500648299, 0.7520903286177575, 0.7552193624344652, 0.6833488900963695])","array('d', [0.007857636548578767, -0.002924584342362697, 0.00048382804776869823, -0.0005848380952447426, -0.00023946100342843492, -0.00034209357788360844, -0.00030327645116594087, -0.0003098867688666276, -0.00030257533137021975, -0.00030019902912613566, -0.0002967095690351521, -0.0002939815926542799, -0.0002911066177481301, -0.0002886087854769003, -0.00027590368742763617, -0.0002578707786072961])","array('d', [1.213159517445836, 1.1821286239310198, 1.150385677051282, 1.1179873603168768, 1.0849866297486959, 1.0514328440894927, 1.0173719063906788, 0.9828464150642396, 0.947895822172343, 0.9125565966385085, 0.8768623901476521, 0.8408442037575776, 0.8045305539725902, 0.7679476420716055, 0.7311210154665877, 0.6738690116721916])",-95.88135473803706,-203.2947955132188,-50.14627593590799,0.685337105705617,0.00048382804776869823,1.150385677051282,25.00000024997139,-1.0,"[-203.60257103808547, -96.98728597178854, 50.26129339051538]","[-210.34034287198963, -58.06135405683174, 80.9105063537612]","[-164.07354469853487, -73.47078448159539, 69.86818591097509]",10000000000.0,0.0383603572845459
17,-203.52334594726562,-97.10514831542969,50.29895782470703,0.6726289391517635,-0.024581359699368463,1.1656199256565907,24.032301544615642,"array('d', [-99.65149688720703, -97.33531800135034, -95.04992599608222, -92.7983588481411, -90.58367490069986, -88.40895957144697, -86.27731753905847, -84.1918574425075, -82.15567844331304, -80.17185698074721, -78.24343438806449, -76.37340520153711, -74.56470622248584, -72.82020630286041, -71.14260747579463, -70.19007101317416])","array('d', [-204.79110717773438, -203.8506027196909, -202.8374800606482, -201.75125144650275, -200.5916818411629, -199.35879003546088, -198.0528446265984, -196.67435590853398, -195.22406803455115, -193.702950587482, -192.11218998240386, -190.45318064704358, -188.7275160727816, -186.93697977776156, -185.08361566190382, -183.92514055100767])","array('d', [-50.174259185791016, -50.184250147996785, -50.1797508911417, -50.179844812769865, -50.17851065545862, -50.17764910652268, -50.176657133349956, -50.175724209287054, -50.17478862350396, -50.17386845691271, -50.17295653675783, -50.17205392193376, -50.17115978104218, -50.17027403932675, -50.169417086469316, -50.168935282594])","array('d', [0.6659456491470334, 0.6773130499821535, 0.6875987005310141, 0.6969055428503121, 0.7053267227673886, 0.7129465221064493, 0.7198412021915432, 0.7260797670534814, 0.7317246539365209, 0.7368323578806188, 0.7414539961390915, 0.7456358159098994, 0.7494196375115787, 0.7528431008288179, 0.7521439470033054, 0.6805661705226671])","array('d', [0.012899116612970767, -0.004614064865608372, 0.0009222952381947302, -0.0008181242604267592, -0.0002585366778547982, -0.0004278775357530308, -0.0003667212245024486, -0.0003794064213514419, -0.0003692319456530341, -0.00036693957792504933, -0.0003626678164508733, -0.0003594772760542064, -0.0003558952019009813, -0.0003527506368730377, -0.0003331388230288181, -0.000309657939625743])","array('d', [1.2006168226387839, 1.1694179464722037, 1.1375203106479943, 1.104979735680827, 1.071848343280985, 1.0381746893077606, 1.0040039077040892, 0.9693778634053111, 0.9343353119561157, 0.8989120635228739, 0.8631411491021543, 0.8270529870093987, 0.790675548536219, 0.7540345275382235, 0.717295921765886, 0.6603817525461325])",-95.04992599608222,-202.8374800606482,-50.1797508911417,0.6875987005310141,0.0009222952381947302,1.1375203106479943,25.000000249971563,-1.0,"[-203.15841110033472, -96.1466802490545, 50.310472499841694]","[-209.33510253231844, -57.21815764560423, 81.07438985226483]","[-163.28882608478614, -73.11231444842113, 69.7998076052412]",10000000000.0,0.03525137901306152
18,-202.3893585205078,-94.99748229980469,50.425235748291016,0.6764882206916806,-0.028844688087701808,1.1394303003933763,24.203833567448076,"array('d', [-99.22425079345703, -96.91397858014741, -94.6350083159593, -92.39040077168258, -90.1832218787177, -88.01655979231757, -85.89351970304261, -83.81720840764315, -81.79072109203412, -79.8171281581926, -77.899462957709, -76.0407102061279, -74.24379515433017, -72.51157348063059, -70.84662577082318, -69.90160385940082])","array('d', [-204.58706665039062, -203.63220320770682, -202.60472465239965, -201.5041879129007, -200.33039695463754, -199.08340772661467, -197.76352523801572, -196.37129523612916, -194.9074963641403, -193.37313164461455, -191.7694198318352, -190.09778654090624, -188.3598552583115, -186.55743827118553, -184.69269951444616, -183.5280821740075])","array('d', [-50.19193649291992, -50.20388583618445, -50.19863153118653, -50.19882999776083, -50.197330332825196, -50.1963906697752, -50.19529450003844, -50.19426715854405, -50.19323538071005, -50.1922207782749, -50.19121492590268, -50.19021918873802, -50.18923267804832, -50.18825540995197, -50.18731162506218, -50.18678261891505])","array('d', [0.6673134565353392, 0.6785506933998267, 0.6887185667068509, 0.6979188397609468, 0.7062435918101739, 0.7137761395974949, 0.7205918712044359, 0.7267590005169654, 0.7323392498201077, 0.7373884672114371, 0.7419571844952522, 0.7460911188393264, 0.7498316093542926, 0.7532158436566163, 0.747983078519916, 0.6768013030214183])","array('d', [0.015350596979260419, -0.005444011808878292, 0.001130874771605612, -0.0009375952798887699, -0.00027321985597560924, -0.000475142129855877, -0.00040299720016609045, -0.00041861546649834197, -0.00040700057542642057, -0.0004047194407846019, -0.0004000405244155857, -0.00039660650689688805, -0.00039266776403778245, -0.0003892045004639122, -0.0003662070683328961, -0.000339578556919262])","array('d', [1.194448218741689, 1.163165903040757, 1.1311914488034287, 1.0985802441787829, 1.0653839932104092, 1.0316508501422192, 0.997425564495906, 0.9627496348699712, 0.92766146917912, 0.8921965490258108, 0.8563875960236732, 0.8202647381897086, 0.7838556753703378, 0.7471858490554619, 0.7105890878304522, 0.6541292306145271])",-94.6350083159593,-202.60472465239965,-50.19863153118653,0.6887185667068509,0.001130874771605612,1.1311914488034287,25.000000249971645,-1.0,"[-202.00143086969777, -94.05283276135354, 50.44104950380147]","[-206.8594223023551, -55.136445139610984, 81.45579911933942]","[-161.35132896335872, -72.07056948148738, 69.52898590611849]",10000000000.0,0.06893420219421387
19,-202.3893585205078,-94.99748229980469,50.425235748291016,0.6764882206916806,-0.028844688087701808,1.1394303003933763,24.203833567448076,"array('d', [-97.10514831542969, -94.8236653129764, -92.57577634208944, -90.36471769165028, -88.19356634470444, -86.06541686640543, -83.98337059620856, -81.95052081089672, -79.96993972612995, -78.04466583047339, -76.17769206947358, -74.37195473726851, -72.6303231169017, -70.95558983433052, -69.34977053659748, -68.43982588890451])","array('d', [-203.52334594726562, -202.5019704010736, -201.40815236253997, -200.24168130457025, -199.0025220181779, -197.6908907938086, -196.30724958071394, -194.85229736524624, -193.3269618776999, -191.73239079973928, -190.06994284169852, -188.34117864583706, -186.5478516001814, -184.69189860688715, -182.7759997793232, -181.5837569401664])","array('d', [-50.29895782470703, -50.32577568752405, -50.322366980739446, -50.321105043566604, -50.31920087851135, -50.31753427020398, -50.31582355367799, -50.31415529320811, -50.31249921211525, -50.31086227174757, -50.30923978479694, -50.30763112999385, -50.3060357796225, -50.304453441394685, -50.30292334920546, -50.30206898371781])","array('d', [0.6726289391517635, 0.683360341401542, 0.6930705165800745, 0.7018566472030935, 0.7098066676485281, 0.7170001442237501, 0.7235090714710722, 0.7293985926624869, 0.7347276516394945, 0.7395495823414142, 0.7439126412407301, 0.7478604848569014, 0.7514325769316372, 0.7546642783430908, 0.7289105569024875, 0.65954394347833])","array('d', [0.024581359699368463, -0.0026713490505335096, -9.853757949312227e-05, -0.0008976809159712736, -0.0006301148004788672, -0.0007019731901023667, -0.0006671805346716158, -0.0006674238676770419, -0.0006576048904046193, -0.0006520403125531682, -0.0006460492688168626, -0.0006409595565124564, -0.0006354133372293724, -0.0006305386384977107, -0.0005941423456191159, -0.000545817633239828])","array('d', [1.1656199256565907, 1.1340116988755784, 1.101737310398496, 1.0688504355931934, 1.0354011261294347, 1.0014359494754665, 0.9669981382661655, 0.9321277473561348, 0.8968618162410135, 0.861234534575208, 0.8252774086959263, 0.7890194274266045, 0.7524872265659396, 0.7157052619381797, 0.6797586378240162, 0.6253421378280883])",-92.57577634208944,-201.40815236253997,-50.322366980739446,0.6930705165800745,-9.853757949312227e-05,1.101737310398496,25.000000249971993,-1.0,"[-201.76245128292268, -93.63545594230483, 50.468496780861436]","[-206.3656374557517, -54.729220342775626, 81.53480503485586]","[-160.96475887242332, -71.85100839389091, 69.46813201390437]",10000000000.0,0.034754276275634766
20,-201.19479370117188,-92.90880584716797,50.56314468383789,0.680476903915405,-0.030991690233349765,1.1157868365433552,24.36122428812948,"array('d', [-96.26067352294922, -93.9903270391527, -91.75439276202381, -89.55617698654257, -87.39875757166341, -85.2852297264868, -83.21869116145018, -81.20222838662669, -79.2389035337736, -77.33174194736173, -75.48372049907519, -73.6977566508031, -71.97669825304368, -70.32331405618032, -68.73941398023395, -67.84246529622446])","array('d', [-203.07766723632812, -202.03192662340908, -200.91387074029242, -199.72337628042212, -198.46046206289967, -197.12539914954203, -195.71870275010593, -194.2411240182773, -192.69364143570064, -191.07745197321424, -189.3939620492725, -187.64477835493204, -185.8316985913915, -183.95670217801512, -182.02264117914237, -180.820584767542])","array('d', [-50.34759521484375, -50.37978179952812, -50.37785997673145, -50.37573359382974, -50.3737141013742, -50.37169957095075, -50.369719005140716, -50.367759907545796, -50.36582301744058, -50.36390497112747, -50.36200393261483, -50.36011796284358, -50.358246682702315, -50.356389478853764, -50.35458948171651, -50.353583493933016])","array('d', [0.6742118597030637, 0.6847926272757867, 0.6943665025495924, 0.7030293039072609, 0.7108677314077981, 0.7179602344998122, 0.7243777971479769, 0.730184648210179, 0.7354389041148129, 0.7401931500705025, 0.7444949648579627, 0.7483873908263319, 0.7519093297968763, 0.7550955439485814, 0.7220914270061632, 0.6533737944543625])","array('d', [0.026838248595595443, -0.0006292313719343074, -0.0009036491709390898, -0.0007991997634094119, -0.0008161122270289648, -0.0007958502796902441, -0.0007887214414704093, -0.0007787235637439278, -0.0007709188580355075, -0.0007636397576482438, -0.0007572969939692654, -0.0007515744155072696, -0.0007455503172439008, -0.0007403004636731137, -0.000700363589711993, -0.0006419281180764601])","array('d', [1.1549521843579156, 1.1232463898409393, 1.0908822461850676, 1.0579129084596754, 1.0243879270824785, 0.9903533888333379, 0.9558520674465844, 0.9209235815638348, 0.8856045577272132, 0.8499287961578441, 0.8139274372623541, 0.7776291272013692, 0.7410601821514063, 0.7042447642911258, 0.6685300056534266, 0.6148290312780091])",-91.75439276202381,-200.91387074029242,-50.37785997673145,0.6943665025495924,-0.0009036491709390898,1.0908822461850676,25.000000249972107,-1.0,"[-201.03362517327355, -92.39011430128362, 50.552576073678644]","[-204.92458260714798, -53.522351874942885, 81.76407226045754]","[-159.82902741556003, -71.15280298717752, 69.29177914565508]",10000000000.0,0.05575132369995117
21,-200.70040893554688,-92.07642364501953,50.61982727050781,0.6822422742843623,-0.031088622286915717,1.1063709417965746,24.42526230223785,"array('d', [-94.99748229980469, -92.74377914442542, -90.52570673176871, -88.34664016123779, -86.20965974600006, -84.11786028620452, -82.07433282592167, -80.08215263533388, -78.14436584369153, -76.2639773934237, -74.44393955105255, -72.68714121931252, -70.99639796652642, -69.3744427634211, -67.82278629373809, -66.94495645645685])","array('d', [-202.3893585205078, -201.30837354302628, -200.15529061319077, -198.93010128273355, -197.63290411452337, -196.264049787304, -194.82413076562707, -193.31397376591835, -191.73463070095914, -190.08736977591076, -188.37366628097877, -186.5951933073214, -184.75381237894152, -182.85156408030517, -180.8915376545883, -179.67544102163563])","array('d', [-50.425235748291016, -50.46219515352586, -50.461469044001625, -50.45836855150143, -50.456069625804105, -50.45356203361781, -50.45116224744479, -50.448765746184975, -50.44640183597537, -50.44405735885083, -50.4417329190992, -50.43942514169338, -50.43713358000332, -50.434857085309126, -50.432642549721976, -50.431402297433344])","array('d', [0.6764882206916806, 0.6868523640616807, 0.696230229633257, 0.7047156740615, 0.7123936223601989, 0.7193409178493211, 0.7256270912049002, 0.7313150562854022, 0.7364617396292551, 0.7411186496880824, 0.7453323905606714, 0.7491451207761691, 0.7525949292387691, 0.7557155982675543, 0.7123665450680211, 0.6445744305632138])","array('d', [0.028844688087701808, 0.0011862703084938935, -0.0017186974717801136, -0.0007773999489815388, -0.0010570753136864472, -0.000950772101882545, -0.0009687570868431995, -0.0009487774949062753, -0.0009424563844550451, -0.0009332786739592409, -0.0009263883217392112, -0.0009199413947949793, -0.0009134170361149911, -0.0009078714666362132, -0.0008644810640068503, -0.0007904239455468738])","array('d', [1.1394303003933763, 1.1075837786423999, 1.0750902055939766, 1.0420019796334365, 1.0083679227788973, 0.9742334238460716, 0.9396405907512132, 0.9046284096963721, 0.8692329089177591, 0.8334873247706646, 0.7974222681462365, 0.7610658896582541, 0.7244440436948295, 0.6875804730268662, 0.6521929330945407, 0.5994992341195104])",-90.52570673176871,-200.15529061319077,-50.461469044001625,0.696230229633257,-0.0017186974717801136,1.0750902055939766,25.000000249972263,-1.0,"[-200.5359039968861, -91.56206758066885, 50.609624777782955]","[-203.96103436508798, -52.723003231710045, 81.91131103361043]","[-159.06975881511732, -70.67804729024738, 69.16808646709707]",10000000000.0,0.02367377281188965
22,-199.94129943847656,-90.83136749267578,50.705928802490234,0.6848483681678771,-0.030488215386867582,1.0927021066334588,24.515670054746952,"array('d', [-94.1607437133789, -91.917702249234, -89.71107875196661, -87.5442823438658, -85.42039487466334, -83.34251042296906, -81.31371520650917, -79.33707670842745, -77.41563019606681, -75.55236691872457, -73.75022275228314, -72.01206767892866, -70.34069597146353, -68.7388170762107, -67.20775270637465, -66.3421425053844])","array('d', [-201.91888427734375, -200.81602530862259, -199.64118456994316, -198.39442635493978, -197.07590299166216, -195.6860184703195, -194.2254167688349, -192.6949748216948, -191.09579318163523, -189.42918708935608, -187.69667716973842, -185.89998008980447, -184.0409991344268, -182.12181479781756, -180.14565974083334, -178.92083043930293])","array('d', [-50.479583740234375, -50.51874410660855, -50.5185014720429, -50.51484100572924, -50.51231783617126, -50.50948375132512, -50.50679384397966, -50.504099029109064, -50.50144231494935, -50.49880569406297, -50.49619084183633, -50.49359357600484, -50.49101330853187, -50.48844850585531, -50.48594796492482, -50.484545628711984])","array('d', [0.6781615614891049, 0.688366465565376, 0.6976002454523804, 0.7059553157496834, 0.7135152966448542, 0.7203558508013499, 0.7265454405906245, 0.7321460132222848, 0.7372136205528171, 0.7417989795115969, 0.7459479776817644, 0.7497021236324888, 0.753098905474148, 0.7561712320705786, 0.7064207499581331, 0.6391944947257964])","array('d', [0.02976996637880802, 0.002023496799705727, -0.0021480154135267216, -0.0008027997536204046, -0.0012089606564862614, -0.0010607796399009503, -0.0010906483605212709, -0.0010656214310027306, -0.001059846611117492, -0.001049621050777856, -0.0010423818555308413, -0.0010355452121084934, -0.0010287819383140659, -0.0010231544236374106, -0.0009780313861908313, -0.0008931658705031028])","array('d', [1.129747496047292, 1.0977972104455453, 1.065208226222963, 1.0320323790702335, 0.9983179497955392, 0.9641098090435781, 0.9294495708153103, 0.8943757525102752, 0.8589239391770895, 0.823126949769773, 0.787015003446924, 0.7506158844376334, 0.7139551060121683, 0.6770561071518167, 0.6418640693097335, 0.5897788022881295])",-89.71107875196661,-199.64118456994316,-50.5185014720429,0.6976002454523804,-0.0021480154135267216,1.065208226222963,25.000000249972352,-1.0,"[-199.512712143279, -89.91164462172914, 50.722818319429244]","[-202.00812213807842, -51.155158023539435, 82.21420881782097]","[-157.533350984128, -69.69234365905285, 68.858779977149]",10000000000.0,0.04828286170959473
23,-199.42503356933594,-90.00627899169922,50.7635498046875,0.6869987845420833,-0.03030885942280294,1.0839939276364183,24.574081968718158,"array('d', [-92.90880584716797, -90.68150555285897, -88.49175508132876, -86.34300863590846, -84.2383489234915, -82.1808677530489, -80.17364303323143, -78.21972980201883, -76.32214652041412, -74.48386364070171, -72.7077924361248, -70.9967747218461, -69.35357325901728, -67.78086281518665, -66.27969369068495, -65.43182298704103])","array('d', [-201.19479370117188, -200.06058820778202, -198.85459593490728, -197.5769849902073, -196.22798410023802, -194.808073078028, -193.31796894921314, -191.75861985392106, -190.13119525065238, -188.4370769714485, -186.67784977660742, -184.85529193449804, -182.9713657188073, -181.0282079742564, -179.02924691123772, -177.79206506267641])","array('d', [-50.56314468383789, -50.60521111874006, -50.6055640639645, -50.60109454288536, -50.59821513937824, -50.5948871715325, -50.59175268488151, -50.58860236421169, -50.58549766512579, -50.58241395951627, -50.579354305182754, -50.576313359980446, -50.57329027798044, -50.5702829262867, -50.567342753959025, -50.565691024562554])","array('d', [0.680476903915405, 0.6904614742178884, 0.6994958878436484, 0.7076705640710339, 0.7150673176456717, 0.721760177598131, 0.7278161281238158, 0.7332957789118214, 0.7382539715424555, 0.7427403277040678, 0.7467997433691458, 0.7504728265343062, 0.7537962201967432, 0.7568004393140066, 0.6980131834253583, 0.6315870702480578])","array('d', [0.030991690233349765, 0.0031289583531188274, -0.0027485530399535114, -0.0008585945028233292, -0.0014353080899839445, -0.001230483827553807, -0.0012763411341968041, -0.0012444480832114677, -0.0012393960767241266, -0.001227763073635736, -0.001220088998959372, -0.0012127895092220846, -0.0012057933671436034, -0.0012001821539215293, -0.0011527475422446806, -0.0010512514988297898])","array('d', [1.1157868365433552, 1.0836925317674155, 1.0509711530506596, 1.0176737483166571, 0.9838478413349762, 0.9495375785469834, 0.91478388420734, 0.8796246215397158, 0.8440947576048626, 0.8082265297171572, 0.7720496115117335, 0.7355912773395272, 0.6988765665708626, 0.6619285415288976, 0.6270111609596222, 0.5757768988675974])",-88.49175508132876,-198.85459593490728,-50.6055640639645,0.6994958878436484,-0.0027485530399535114,1.0509711530506596,25.000000249972466,-1.0,"[-199.2514882818154, -89.50017638291263, 50.751654040962364]","[-201.5248739284519, -50.7706579574159, 82.29299390202054]","[-157.1518369363466, -69.44392814848376, 68.78956587545522]",10000000000.0,0.036846160888671875
