,x_pos,y_pos,z_pos,roll,pitch,yaw,vel,x_traj,y_traj,z_traj,roll_traj,pitch_traj,yaw_traj,x_cmd,y_cmd,z_cmd,roll_cmd,pitch_cmd,yaw_cmd,vel_cmd,effector_dmg,effector_x,effector_y,effector_z,cost,time_solution
0,-120.70429992675781,-43.86930465698242,44.91472625732422,0.6332243084907531,0.035748854279518065,0.2400775710728507,23.07730233144186,"array('d', [-44.42234420776367, -44.05790933086272, -43.7456776467865, -43.471661341949854, -43.22408711118837, -42.99280011641389, -42.76889529364377, -42.544399796903456, -42.31210278552892, -42.06542475058588, -41.79833349343828, -41.50528606130656, -41.18119191485192, -40.821390875558045, -40.421643484899384, -39.979632789516515])","array('d', [-123.40496826171875, -121.9505389152978, -120.48350544700753, -119.00887997991236, -117.52965450731624, -116.04774791985378, -114.56471792170392, -113.08177265194328, -111.60003310361482, -110.12062266047332, -108.64476576487559, -107.17384803667002, -105.70946382862387, -104.2534479673893, -102.80789561423683, -101.37464606551531])","array('d', [-44.90989303588867, -44.87223112004975, -44.86306271988759, -44.87912416799587, -44.902651763864164, -44.923757863190566, -44.94581777363214, -44.967560346549924, -44.98934916039184, -45.0109848296808, -45.03247503178213, -45.05376630266238, -45.07483745354133, -45.09567094667718, -45.11623390148732, -45.1324303327643])","array('d', [0.6334359645843503, 0.4984161611929623, 0.376245180143544, 0.265700295699809, 0.16567514009527876, 0.07516863097150679, -0.006725047084898834, -0.0808255066811692, -0.147874356848246, -0.20854261560635215, -0.26343739723775883, -0.31310788943216683, -0.35805040675728617, -0.3987103245920604, -0.43543168932276555, -0.3904225660135004])","array('d', [-0.03525972366332997, -0.015295330498829772, 0.002769197710787091, 0.01838616961525426, 0.01307390128699987, 0.015035770091305526, 0.014389289591178026, 0.014598335924638833, 0.014456799041335929, 0.014392827811126191, 0.014263906240816113, 0.014127681006985119, 0.013970729322523098, 0.013810822237996522, 0.013610648624571958, 0.008077346203948147])","array('d', [0.2673183242466787, 0.22578788621407167, 0.19524635626489759, 0.1735450783673026, 0.15926079868957366, 0.1513914992380976, 0.14919598706688778, 0.15210254119646044, 0.15965371857130042, 0.17147143872368528, 0.18723409904416594, 0.20666116693524927, 0.229502588786052, 0.2555312910445933, 0.2845355548759246, 0.31316485009502565])",-42.99280011641389,-116.04774791985378,-44.923757863190566,0.07516863097150679,0.015035770091305526,0.1513914992380976,14.999999851382345,-1.0,"[1.5, 0.0, 0.0]","[36.14101615137755, 19.999999999999996, 0.0]","[36.14101615137755, -19.999999999999996, 0.0]",10000000000.0,0.01802539825439453
1,-120.70429992675781,-43.86930465698242,44.91472625732422,0.6332243084907531,0.035748854279518065,0.2400775710728507,23.07730233144186,"array('d', [-44.32511901855469, -43.967502961606534, -43.662137424586746, -43.39501342740054, -43.154345159424594, -42.92996978685019, -42.71297589363206, -42.49538566331722, -42.269983601874436, -42.030185446999184, -41.76995372348549, -41.48373941156912, -41.166444906972764, -40.813401827239254, -40.4203612698326, -39.98499792792522])","array('d', [-122.9561996459961, -121.50007827932274, -120.0316001480087, -118.55571131473411, -117.0753479449673, -115.59238025551528, -114.10832455540076, -112.62435157025821, -111.14154870242362, -109.66100869609544, -108.18392797723827, -106.71166645889141, -105.24579492428376, -103.78812665200778, -102.34073725078619, -100.90545521002112])","array('d', [-44.91074752807617, -44.87309931645124, -44.863943320127454, -44.880061476554026, -44.90367533092036, -44.924860379442784, -44.94700347619696, -44.968827960562585, -44.9906980344501, -45.01241292396588, -45.033979777875196, -45.05534447309381, -45.07648542071464, -45.09738473571921, -45.11801084665978, -45.134266391064344])","array('d', [0.6333371996879577, 0.49832679500866567, 0.3761643182639107, 0.26562712882882716, 0.1656089359461017, 0.07510872693199018, -0.0067792505959474985, -0.08087455224242292, -0.1479187355323699, -0.2085827720651083, -0.2634737346376395, -0.31314077510168586, -0.35808018267025515, -0.398737354749871, -0.43545717615905505, -0.39044531650326353])","array('d', [-0.03525011986494058, -0.015286640623350398, 0.002777060631895358, 0.018452941811745747, 0.013122458872570525, 0.01509235470988653, 0.01444366889353339, 0.01465317572408174, 0.014510339127883172, 0.014444949388084159, 0.014314030916366825, 0.014175503749297215, 0.014016020352061127, 0.013853348318878977, 0.013652352372929, 0.008114539949546107])","array('d', [0.2626281539585924, 0.22110637201045122, 0.19057163345111272, 0.16887595189257043, 0.15459644895857808, 0.14673133311149297, 0.1445395556170784, 0.1474494912219848, 0.15500376251420125, 0.16682433525502183, 0.18258964017043416, 0.20201916931605035, 0.22486288810184016, 0.2508937402235517, 0.2799000580914984, 0.30853123226778295])",-42.92996978685019,-115.59238025551528,-44.924860379442784,0.07510872693199018,0.01509235470988653,0.14673133311149297,14.999999851381608,-1.0,"[1.5, 0.0, 0.0]","[36.14101615137755, 19.999999999999996, 0.0]","[36.14101615137755, -19.999999999999996, 0.0]",10000000000.0,0.015534639358520508
2,-119.78126525878906,-43.69765853881836,44.91594696044922,0.633073329925537,0.03633950650691971,0.2311529676106313,23.074711749286095,"array('d', [-44.13671112060547, -43.79248453458441, -43.50060039565967, -43.247008650212024, -43.0198994082928, -42.80909460647099, -42.60567075826006, -42.40164067436615, -42.189780078564695, -41.963495706662535, -41.716740029840906, -41.44395239984692, -41.140021601178944, -40.80026338089803, -40.420410494362514, -39.99812132564943])","array('d', [-122.0569839477539, -120.59763841382328, -119.1264210743572, -117.64814841575394, -116.16564707218203, -114.68069179390783, -113.19471766696697, -111.70882199353132, -110.22402623107322, -108.74136295019652, -107.26197352944385, -105.7871673453254, -104.31846881584829, -102.8576488013772, -101.40674434497488, -99.96756262327386])","array('d', [-44.912452697753906, -44.874836354552286, -44.865709202688976, -44.881940652988554, -44.905724472025874, -44.927065736834855, -44.9493732284079, -44.97135966556028, -44.99339034688596, -45.01526175851311, -45.036979948565964, -45.05848943673316, -45.07976767123152, -45.100795988954616, -45.12154204809709, -45.13790653109269])","array('d', [0.6331657767295833, 0.49817168508300125, 0.37602396897714435, 0.26550013551172735, 0.16549402759067022, 0.07500475346014253, -0.006873329866210148, -0.08095967906603732, -0.14799576229094952, -0.2086524706283137, -0.2635368050321064, -0.31319785566235564, -0.35813186978264516, -0.3987842959236529, -0.4355017204810301, -0.3904850783486353])","array('d', [-0.03522778674960125, -0.015266432786133545, 0.002795345431419903, 0.018583850212951617, 0.013218776135294286, 0.015204089669964092, 0.014551220883206702, 0.014761569769055249, 0.014616154290162095, 0.01454790018990399, 0.014412949907618917, 0.014269739864185362, 0.014104940394531888, 0.013936544194747737, 0.013729208405578633, 0.008183082902361374])","array('d', [0.25343509117630497, 0.2119283308262393, 0.18140537856389302, 0.15971940970076468, 0.14544819725439093, 0.13759034259880046, 0.13540504722539312, 0.1383208519841898, 0.1458804933720045, 0.15770601737516513, 0.17347591258018544, 0.192909713863022, 0.21575741978019553, 0.2417920046874856, 0.2708019010888158, 0.2994363592839539])",-42.80909460647099,-114.68069179390783,-44.927065736834855,0.07500475346014253,0.015204089669964092,0.13759034259880046,14.999999851380156,-1.0,"[1.5, 0.0, 0.0]","[36.14101615137755, 19.999999999999996, 0.0]","[36.14101615137755, -19.999999999999996, 0.0]",10000000000.0,0.019771099090576172
3,-119.32855987548828,-43.61659622192383,44.91638946533203,0.6328594684600828,0.03662803769111616,0.22669823566940822,23.073838559424605,"array('d', [-44.04553985595703, -43.707962914072795, -43.422778291368324, -43.175915261365205, -42.95555179650073, -42.75150187691687, -42.55483590571254, -42.35756191513838, -42.152451205277764, -41.93290599409999, -41.69287372617808, -41.426787945794565, -41.1295306415841, -40.79640963368378, -40.42314851203326, -40.00739743236796])","array('d', [-121.60658264160156, -120.14568797202034, -118.67315806396816, -117.19374742382567, -115.71023004389882, -114.22433260103668, -112.73745029863343, -111.250643811743, -109.76490181561188, -108.2812268631566, -106.8007328544609, -105.3247038969206, -103.85464119537038, -102.39229434177913, -100.93968101532752, -99.49859763213725])","array('d', [-44.91329574584961, -44.87554836744771, -44.86630261408156, -44.882552857992216, -44.90643858431577, -44.92785584473552, -44.95025017109838, -44.97231990030118, -44.9944340224752, -45.01638652579136, -45.03818327765381, -45.05976797126473, -45.08111761729471, -45.1022131437817, -45.123021998549284, -45.13944374863513])","array('d', [0.6331391334533689, 0.49814757724536246, 0.3760021552970824, 0.26548039766669973, 0.16547616802916407, 0.07498859341940148, -0.0068879521605542775, -0.08097291004469938, -0.14800773456794172, -0.20866330448618892, -0.26354661007655855, -0.3132067334195222, -0.3581399210749264, -0.3987916632576908, -0.43550936485710523, -0.3904919019754527])","array('d', [-0.03531961515545836, -0.015349522570379184, 0.0027201626961761115, 0.01868121919861362, 0.013258267206866054, 0.015265569676169927, 0.014605651071860244, 0.01481817140317748, 0.014670850948050833, 0.01460135798999639, 0.014464287577747656, 0.014318725701084202, 0.014151224616724625, 0.013979928864385222, 0.013769609049455182, 0.008219115939097486])","array('d', [0.2488802234318591, 0.2073757975191503, 0.17685467698550134, 0.15517021763279845, 0.14090029369025014, 0.13304356758445338, 0.13085927969031155, 0.13377599667195217, 0.14133647273372899, 0.15316276634462225, 0.16893337512332582, 0.18836784071644197, 0.2112161672312802, 0.2372513357492555, 0.2662618199408471, 0.2948968417272914])",-42.75150187691687,-114.22433260103668,-44.92785584473552,0.07498859341940148,0.015265569676169927,0.13304356758445338,14.999999851379474,-1.0,"[1.5, 0.0, 0.0]","[36.14101615137755, 19.999999999999996, 0.0]","[36.14101615137755, -19.999999999999996, 0.0]",10000000000.0,0.02965569496154785
4,-118.8705825805664,-43.53676223754883,44.91604995727539,0.632718563079834,0.03679392859339707,0.22226341167953997,23.075414495167948,"array('d', [-43.9564094543457, -43.62540926921138, -43.34685754306974, -43.10666216587804, -42.89298847250265, -42.695641943827724, -42.50568657863502, -42.31512538138544, -42.11672505435076, -41.903883161425384, -41.67054201568076, -41.41112926875614, -41.120520041897336, -40.79401416489199, -40.42732600297592, -40.018097358304416])","array('d', [-121.15567016601562, -119.6932775070888, -118.21947989079439, -116.73897250725959, -115.25447871773048, -113.76767721988675, -112.27992408211705, -110.79224359539488, -109.30559192151009, -107.82094174676476, -106.33937960053923, -104.8621643760171, -103.39077408229494, -101.92693702709121, -100.47265148104387, -99.02970302166521])","array('d', [-44.91402053833008, -44.87603765346457, -44.86657873991445, -44.882819941991556, -44.90681901180862, -44.92831094007705, -44.950795321607984, -44.97295002138162, -44.995149831553384, -45.0171854838891, -45.03906291090407, -45.060724875925054, -45.08214796940514, -45.103312689502175, -45.12418616300545, -45.14066677787461])","array('d', [0.6331865191459655, 0.4981904535948139, 0.37604095142145805, 0.2655155018457061, 0.16550793158782143, 0.07501733423918018, -0.006861946471347941, -0.08094937929766219, -0.14798644345087253, -0.20864404036312187, -0.26352918130186365, -0.3131909688907711, -0.358125674751102, -0.3987788531945346, -0.4354987281620562, -0.3904824072743117])","array('d', [-0.03548465669155109, -0.015498858338540278, 0.0025850381262233096, 0.01880005781310628, 0.013291993780727858, 0.015330883648969413, 0.014660597073394023, 0.014876475786767132, 0.014726848184320981, 0.014656256365278507, 0.0145170038761755, 0.014369087928458658, 0.014198847969488313, 0.014024621701499575, 0.013811135663587626, 0.008256155421817603])","array('d', [0.2443837682392936, 0.20287519042256288, 0.172350812089923, 0.15066366802512446, 0.13639145244543843, 0.12853271919353115, 0.12634663949276742, 0.1292617341071169, 0.1368207257740592, 0.14864565082618844, 0.16441499098410395, 0.18384827632794382, 0.2066955027280528, 0.23272964733448098, 0.2617392157164204, 0.2903734532989535])",-42.695641943827724,-113.76767721988675,-44.92831094007705,0.07501733423918018,0.015330883648969413,0.12853271919353115,14.999999851378663,-1.0,"[1.5, 0.0, 0.0]","[36.14101615137755, 19.999999999999996, 0.0]","[36.14101615137755, -19.999999999999996, 0.0]",10000000000.0,0.021502017974853516
5,-118.41246795654297,-43.45903396606445,44.915611267089844,0.6322812438011169,0.03683589398860913,0.2180512706425529,23.074570841693937,"array('d', [-43.86930465698242, -43.54460953120054, -43.27241412507824, -43.03860642431181, -42.83134062437274, -42.64041446403758, -42.45688571673978, -42.2727528649756, -42.08077835234451, -41.87435545723073, -41.64742172050519, -41.394399287152154, -41.11015682658203, -40.78998663382821, -40.42959434985258, -40.02661385057215])","array('d', [-120.70429992675781, -119.24050435744148, -117.76552185494572, -116.28399048586948, -114.79858894506381, -113.3109508422529, -111.8223924857858, -110.33390401410368, -108.84641018953275, -107.36085518443423, -105.8782992853265, -104.39997724811612, -102.92734486010812, -101.46211003847327, -100.00625245228511, -98.56154726826624])","array('d', [-44.91472625732422, -44.87636637698153, -44.866566238212286, -44.882610702713855, -44.9066449586296, -44.92824026740189, -44.95080591682282, -44.97304991894806, -44.9953351731408, -45.017455360992, -45.039414330128736, -45.06115468128007, -45.08265233179392, -45.10388745195526, -45.12482683152466, -45.141367582669304])","array('d', [0.6332243084907531, 0.49822464680903383, 0.37607189071972125, 0.2655434968743517, 0.16553326252174358, 0.07504025458116706, -0.00684120736389118, -0.08093061394093332, -0.1479694642147982, -0.2086286777391112, -0.26351528262117135, -0.3131783981753566, -0.35811431718771874, -0.39876865185275007, -0.43549038656656713, -0.3904749612583237])","array('d', [-0.035748854279518065, -0.015737914217813974, 0.0023687314765473973, 0.018751240359782637, 0.013385358150878518, 0.015376175900825684, 0.014723382382541192, 0.014932879772876493, 0.014784363547375563, 0.01471150504813398, 0.014570518559356883, 0.014420140106575479, 0.01424725939988356, 0.014070134751894928, 0.013853557473025503, 0.00829399673004568])","array('d', [0.2400775710728507, 0.19856568200562139, 0.16803870553971056, 0.1463494204117541, 0.1320753772635053, 0.12421504333400975, 0.12202753469419911, 0.12494133550078013, 0.13249914339628566, 0.1443229770618994, 0.16009130554728368, 0.17952364973177895, 0.20236999899786257, 0.22840332775511543, 0.25741217199513267, 0.2860457945876348])",-42.64041446403758,-113.3109508422529,-44.92824026740189,0.07504025458116706,0.015376175900825684,0.12421504333400975,14.999999851377833,-1.0,"[1.5, 0.0, 0.0]","[36.14101615137755, 19.999999999999996, 0.0]","[36.14101615137755, -19.999999999999996, 0.0]",10000000000.0,0.02233576774597168
6,-117.49588012695312,-43.310123443603516,44.91438674926758,0.6274327039718628,0.03609517961740483,0.20967014233139553,23.06844059666703,"array('d', [-43.69765853881836, -43.38603443178079, -43.1269867828509, -42.90636771281488, -42.71231296609338, -42.534607649352026, -42.36429842544886, -42.19337648255837, -42.014596990057036, -41.821345767224344, -41.607551719553435, -41.36762675239084, -41.096427275042814, -40.789231047150366, -40.44172669506126, -40.05153267629804])","array('d', [-119.78126525878906, -118.31465377892036, -116.83731079979898, -115.35375092675652, -113.8665639962058, -112.37729269981907, -110.88716632257133, -109.39710600803731, -107.90797137556947, -106.42064827079655, -104.93614317690182, -103.45564153552309, -101.98055377266834, -100.51254624360035, -99.05356073204048, -97.60535125333723])","array('d', [-44.91594696044922, -44.8767442606804, -44.86618126514794, -44.88153615206466, -44.90548893113555, -44.92735919824931, -44.95007844968832, -44.97251900542032, -44.994983442858356, -45.0172840054376, -45.03941585496145, -45.06132277019638, -45.082978735835695, -45.10436343218866, -45.1254426926489, -45.14211094063815])","array('d', [0.633073329925537, 0.4980880357375077, 0.3759482798909828, 0.2654316491440009, 0.1654320584657584, 0.07494868128294792, -0.006924066471747507, -0.08100558829685689, -0.14803730454164965, -0.2086900638453644, -0.2635708310235519, -0.3132286709883297, -0.35815983924604305, -0.39880999048634047, -0.43552953598707145, -0.39050990738363556])","array('d', [-0.03633950650691971, -0.01627235848916656, 0.001885146445346984, 0.01831454695547064, 0.013700843821793797, 0.015431675804035849, 0.014871168847281771, 0.015047743071136595, 0.01490828668975888, 0.014828228028485615, 0.01468437547562858, 0.014528484114249398, 0.014350115619042925, 0.014166836259429718, 0.013943494955445198, 0.008374227694596871])","array('d', [0.2311529676106313, 0.18965430696264854, 0.15913771026074014, 0.13745697900595377, 0.12319023736480135, 0.115336298534122, 0.11315449891544178, 0.11607346892793027, 0.12363600651869253, 0.13546420101361592, 0.15123657241326582, 0.17067267930099672, 0.19352254022976448, 0.2195591564790725, 0.24857114909101366, 0.27720765803638486])",-42.534607649352026,-112.37729269981907,-44.92735919824931,0.07494868128294792,0.015431675804035849,0.115336298534122,14.999999851376264,-1.0,"[1.5, 0.0, 0.0]","[36.14101615137755, 19.999999999999996, 0.0]","[36.14101615137755, -19.999999999999996, 0.0]",10000000000.0,0.021478652954101562
7,-116.57905578613281,-43.17029571533203,44.913047790527344,0.6130390763282775,0.03333223611116397,0.20159597794083145,23.050989041359212,"array('d', [-43.61659622192383, -43.3114963954954, -43.0589939742015, -42.844926568903446, -42.65742297090892, -42.48626376017305, -42.32249147955711, -42.158094766006045, -41.98582608819995, -41.7990683423521, -41.59174684434324, -41.35826905491301, -41.09348589817335, -40.792668495608254, -40.45149759297793, -40.06758454218714])","array('d', [-119.32855987548828, -117.86058829672677, -116.38211527383825, -114.8975924492086, -113.40956452923831, -111.91952870785694, -110.4286709173339, -108.93787807423355, -107.44797758554623, -105.95982655164993, -104.47440500853237, -102.99287421446813, -101.51662239429105, -100.04729559596973, -98.5868171187629, -97.13693069895842])","array('d', [-44.91638946533203, -44.87677505628715, -44.86583940938206, -44.880857155637784, -44.90477223842715, -44.926780549976506, -44.94957794256955, -44.972117750612945, -44.994672782660146, -45.01706442472252, -45.03928354674505, -45.06127450515816, -45.08301033451204, -45.10447047854351, -45.12562037341016, -45.14235307640549])","array('d', [0.6328594684600828, 0.49789452586186067, 0.3757731848949395, 0.26527321661738884, 0.16528870275766136, 0.07481896762752063, -0.007041436324707055, -0.08111178909754517, -0.14813339935082925, -0.2087770148103871, -0.2636495093959841, -0.3132998671305304, -0.35822427597175527, -0.39886836539820053, -0.4355831733621086, -0.39055778588621104])","array('d', [-0.03662803769111616, -0.01653343231825184, 0.0016489171390834864, 0.01810085195202537, 0.013858078432064035, 0.015460659119872754, 0.014945627059151355, 0.015105907951645126, 0.014970854770344494, 0.014887173176314982, 0.014741831225238276, 0.01458314456716567, 0.014401997611368976, 0.014215613231816785, 0.01398896174465465, 0.00841478824550778])","array('d', [0.22669823566940822, 0.1852183089300283, 0.15471641300861927, 0.1330477971793109, 0.11879139754928798, 0.11094651712704555, 0.10877280427763962, 0.11169909651609654, 0.11926833380621996, 0.1311027054712127, 0.1468808035602314, 0.16632223975581725, 0.18917707290840277, 0.21521833738690166, 0.24423471019538787, 0.2728751737905187])",-42.48626376017305,-111.91952870785694,-44.926780549976506,0.07481896762752063,0.015460659119872754,0.11094651712704555,14.99999985137552,-1.0,"[1.5, 0.0, 0.0]","[36.14101615137755, 19.999999999999996, 0.0]","[36.14101615137755, -19.999999999999996, 0.0]",10000000000.0,0.024912357330322266
8,-116.12068939208984,-43.10389709472656,44.91266632080078,0.6014975905418394,0.03127778321504577,0.1976125995304922,23.036125138164934,"array('d', [-43.53676223754883, -43.23816736831363, -42.992198764232256, -42.78467796229183, -42.6037254482031, -42.43911671814054, -42.28188999014918, -42.12403101504056, -41.95828936097675, -41.77804481832209, -41.577218964935376, -41.35021467943376, -41.09187726996093, -40.79747108780887, -40.46266886084725, -40.08507464254611])","array('d', [-118.8705825805664, -117.40128042245007, -115.92170795686566, -114.43625389912522, -112.947415097465, -111.45664325185432, -109.96508227486405, -108.4735845068686, -106.98294524595435, -105.4939927145488, -104.0076803961184, -102.52514520910574, -101.04775300669438, -99.57712934030178, -98.11517882406345, -96.66363475089238])","array('d', [-44.91604995727539, -44.876198837496034, -44.86504893513253, -44.87987283505293, -44.903794723469204, -44.92592906360162, -44.94881248381051, -44.97145251555247, -44.99410154954842, -45.01658681247515, -45.03889600664813, -45.06097364792922, -45.0827919433364, -45.104330039550725, -45.1255529181685, -45.14235218870551])","array('d', [0.632718563079834, 0.49776702938800765, 0.3756578213004461, 0.26516883130305163, 0.1651942509944794, 0.0747335040963618, -0.007118767003709079, -0.08118176094759699, -0.14819671283692476, -0.20883430398249414, -0.2637013486120949, -0.31334677805621663, -0.3582667380838838, -0.3989068549621237, -0.4356187972148085, -0.39058958486037365])","array('d', [-0.03679392859339707, -0.016683536624458012, 0.001513097182605833, 0.017977978778772986, 0.013985843036439044, 0.01550238579300768, 0.015018104158514895, 0.01516726313966805, 0.015034806430992729, 0.014948113539853713, 0.014801029359233225, 0.014639582116375107, 0.014455574119342467, 0.014266036252903106, 0.01403591793410616, 0.008456678989574234])","array('d', [0.22226341167953997, 0.18079582534327826, 0.1503036138263716, 0.1286429796630051, 0.11439339362500983, 0.10655448128823404, 0.10438609647498814, 0.10731721309937531, 0.11489086466658925, 0.12672930637101779, 0.14251117773535377, 0.1619561254651729, 0.18481423511520936, 0.21085856363196914, 0.23987783496889556, 0.2685209251831683])",-42.43911671814054,-111.45664325185432,-44.92592906360162,0.0747335040963618,0.01550238579300768,0.10655448128823404,14.999999851374913,-1.0,"[1.5, 0.0, 0.0]","[36.14101615137755, 19.999999999999996, 0.0]","[36.14101615137755, -19.999999999999996, 0.0]",10000000000.0,0.024077415466308594
9,-116.12068939208984,-43.10389709472656,44.91266632080078,0.6014975905418394,0.03127778321504577,0.1976125995304922,23.036125138164934,"array('d', [-43.45903396606445, -43.16660147759071, -42.92678752425014, -42.725404905852315, -42.55057043546158, -42.39205816058728, -42.24090492926963, -42.08909574439464, -41.929379115545984, -41.755133318668285, -41.56027767015958, -41.33921188850877, -41.08677709086611, -40.79823232316123, -40.469243829602476, -40.0974099033629])","array('d', [-118.41246795654297, -116.94192833958462, -115.46134615181272, -113.97504695016866, -112.48547796729159, -110.9940471153194, -109.50185974447909, -108.00973549259116, -106.51844001252425, -105.02877491026679, -103.54166941756044, -102.0582383390383, -100.57982732095323, -99.10804349227452, -97.64477475126742, -96.19174518365963])","array('d', [-44.915611267089844, -44.875700266792336, -44.86449616429838, -44.879271028789915, -44.903239665936255, -44.92547949914495, -44.94844928317074, -44.97118233929331, -44.99392067860778, -45.016493952067904, -45.0388879747863, -45.061047054728704, -45.082942772464754, -45.10455396967454, -45.12584527016133, -45.142706950911005])","array('d', [0.6322812438011169, 0.49737132650348637, 0.3752997744881959, 0.26484485711335554, 0.1649011069836456, 0.0744682563713004, -0.007358773157614488, -0.08139892765565872, -0.1483932137238961, -0.20901210604846043, -0.26386223226384214, -0.3134923560683748, -0.35839847655394075, -0.39902611904513147, -0.43572743212332044, -0.3906865555396943])","array('d', [-0.03683589398860913, -0.01672150848764734, 0.0014787388323586265, 0.017946898042895815, 0.014077219281438425, 0.015552372690760714, 0.01508303318898228, 0.015226476158797927, 0.01509466994907066, 0.015005649468330697, 0.014856642789956936, 0.014692608532782045, 0.014505834579156855, 0.014313303799600443, 0.014079942803239306, 0.008495952394829477])","array('d', [0.2180512706425529, 0.17662197093531548, 0.14615980925617006, 0.12452394356038271, 0.1102955025435114, 0.10247511214567781, 0.1003232634235364, 0.10326935336450567, 0.11085670561852928, 0.12270777967742218, 0.1385013622284767, 0.15795720831657656, 0.18082548526455183, 0.20687931477700439, 0.23590749812058764, 0.2645585986780617])",-42.39205816058728,-110.9940471153194,-44.92547949914495,0.0744682563713004,0.015552372690760714,0.10247511214567781,14.999999851374177,-1.0,"[1.5, 0.0, 0.0]","[36.14101615137755, 19.999999999999996, 0.0]","[36.14101615137755, -19.999999999999996, 0.0]",10000000000.0,0.018646955490112305
10,-115.20442962646484,-42.978328704833984,44.91345977783203,0.5701925754547118,0.025754136964678705,0.18940086761978675,22.99615391604727,"array('d', [-43.310123443603516, -43.029694381184, -42.80141385707553, -42.611161935421315, -42.447104257843904, -42.29905435329336, -42.15807935814045, -42.01618761963636, -41.86614621250547, -41.70134792862557, -41.51572324755982, -41.30368010657689, -41.060065229290394, -40.78014089889115, -40.4595744162241, -40.09596747950907])","array('d', [-117.49588012695312, -116.02297365806331, -114.54056105232733, -113.0528040977067, -111.56201548772306, -110.06951079762077, -108.57633017106693, -107.08323241322292, -105.59093487696164, -104.10019737947158, -102.6119137654822, -101.1271683300436, -99.6472804885364, -98.17383479539335, -96.70869982931731, -95.25359116005586])","array('d', [-44.91438674926758, -44.87553268537367, -44.86528524986933, -44.88092567498675, -44.905257865253915, -44.92757816802575, -44.950726922920744, -44.97360139549327, -44.99648918263584, -45.01920228705461, -45.04173128677941, -45.06401774188104, -45.08603339626259, -45.10775652663522, -45.129151511983295, -45.146107218398086])","array('d', [0.6274327039718628, 0.49298418584357784, 0.371330125096442, 0.2612529694710918, 0.16165103232597547, 0.07152746689383199, -0.010019709861719647, -0.0838066431968108, -0.15057180552985364, -0.21098337873229678, -0.2656459163958005, -0.31510630743549917, -0.35985886235712794, -0.4003476276275815, -0.4369242780782701, -0.39175486676761445])","array('d', [-0.03609517961740483, -0.016051282368255194, 0.002085184367119445, 0.018495567964002372, 0.014023407438634596, 0.015709963349003337, 0.015165354307200722, 0.015332339382269503, 0.015188297664846025, 0.015098497289092853, 0.01494387812323233, 0.014775301171158203, 0.014583164072993022, 0.014385322689555242, 0.01414627918890299, 0.008555111494580344])","array('d', [0.20967014233139553, 0.16866396343946838, 0.13853425278486747, 0.1171726179125301, 0.10317841970361172, 0.09556329783182912, 0.09359476524807675, 0.09670688405162965, 0.10444617890925866, 0.11643736411012498, 0.13236085090835975, 0.15193758985893957, 0.1749186476234775, 0.20107784099617512, 0.23020455853801972, 0.2589439570292507])",-42.29905435329336,-110.06951079762077,-44.92757816802575,0.07152746689383199,0.015709963349003337,0.09556329783182912,14.999999851372566,-1.0,"[1.5, 0.0, 0.0]","[36.14101615137755, 19.999999999999996, 0.0]","[36.14101615137755, -19.999999999999996, 0.0]",10000000000.0,0.02356100082397461
11,-114.28578186035156,-42.86227035522461,44.917903900146484,0.5289357900619507,0.018697250634431704,0.18118245998886615,22.93878584617958,"array('d', [-43.239051818847656, -42.96426475809904, -42.741011798163484, -42.5552766110226, -42.39529569087389, -42.25093753465632, -42.11331181000246, -41.97445914619086, -41.82717306160492, -41.664868179333176, -41.481493607890755, -41.27147350558953, -41.029669057046135, -40.75135561987538, -40.43221173839438, -40.06985029977229])","array('d', [-117.03746795654297, -115.56345373218508, -114.08026449210087, -112.59195000264775, -111.10072537605151, -109.60785779167708, -108.11436611972027, -106.62098318842561, -105.1284120743338, -103.6374018360225, -102.14884013770327, -100.66380799684083, -99.18362406705391, -97.70987400692017, -96.24442947843929, -94.78901115414891])","array('d', [-44.913673400878906, -44.876441027396574, -44.86766141224818, -44.884602133338994, -44.909348633267115, -44.93159197078055, -44.95483240417135, -44.97773540557856, -45.000669309536036, -45.02341768181047, -45.04598097414593, -45.06829731131435, -45.090340176820376, -45.11208548080743, -45.133515084480756, -45.15051809910388])","array('d', [0.6216616630554197, 0.4877623314557618, 0.36660519509889067, 0.2569776749352836, 0.15778258407796936, 0.06802714691088438, -0.013186936702592878, -0.0866724813935572, -0.15316495000300565, -0.21332981122927713, -0.2677691907785863, -0.31702786621382495, -0.3615985793993849, -0.40192601709118, -0.43839445458853843, -0.39306708285901243])","array('d', [-0.03495870530605301, -0.015022957341608429, 0.003015653753709359, 0.01930102997141645, 0.013787813993571095, 0.015836879409943688, 0.015162850054796949, 0.015372180135469425, 0.015210251574814272, 0.015123521383896454, 0.014964653580906321, 0.014794400884253324, 0.014600381285548511, 0.014397753465890466, 0.014179661793361886, 0.008584871797241362])","array('d', [0.20557399193314116, 0.16506822275046365, 0.1353325372811105, 0.11429642047331517, 0.10058058231943842, 0.09320958905812152, 0.09145920960249118, 0.09476899866781263, 0.10268925424540416, 0.11484735196036773, 0.1309256246070034, 0.15064644498822427, 0.17376197483488928, 0.20004699799998668, 0.22929318022620696, 0.25814116042099594])",-42.25093753465632,-109.60785779167708,-44.93159197078055,0.06802714691088438,0.015836879409943688,0.09320958905812152,14.999999850497597,-1.0,"[1.5, 0.0, 0.0]","[36.14101615137755, 19.999999999999996, 0.0]","[36.14101615137755, -19.999999999999996, 0.0]",10000000000.0,0.029299497604370117
12,-113.82559967041016,-42.807743072509766,44.92214584350586,0.5053417086601255,0.014748311601579085,0.1771014491703844,22.903272221237852,"array('d', [-43.17029571533203, -42.900792511333485, -42.6818898115967, -42.499730721005925, -42.34266403289643, -42.20064384932954, -42.0648426595833, -41.927351307371254, -41.78100390671693, -41.6192492879636, -41.43606621730526, -41.22590542711104, -40.983652627868, -40.70460652194277, -40.38446919001843, -40.0208818234771])","array('d', [-116.57905578613281, -115.10400535597532, -113.62015435847995, -112.13140089317231, -110.63986254199696, -109.14677197928022, -107.6531132964626, -106.15960508246607, -104.66694219046656, -103.17587281933639, -101.68728820835076, -100.20227665666584, -98.72216671934117, -97.24855591077606, -95.7833285509036, -94.32821621090618])","array('d', [-44.913047790527344, -44.878136380434995, -44.87145745001075, -44.8890574694602, -44.913631855687036, -44.93598520617681, -44.95923037153088, -44.982168666935046, -45.005120993381766, -45.02788782034018, -45.05046410990999, -45.07279047607864, -45.09483975701655, -45.116590721458635, -45.138009060003334, -45.15498511308795])","array('d', [0.6130390763282775, 0.47996029179112165, 0.359545617361473, 0.2505899049508768, 0.1520026916749342, 0.0627972864389123, -0.017919104568265017, -0.09095431186428893, -0.1570392844189433, -0.2168353966976572, -0.270941042942435, -0.31989753962894074, -0.364194158203742, -0.40427040492712024, -0.44047421367538747, -0.3949232499484737])","array('d', [-0.03333223611116397, -0.013551267547671376, 0.004347290802818762, 0.01887774872208425, 0.013971445778345911, 0.015803565862475458, 0.015201276753674844, 0.01538130636662497, 0.01522558792985755, 0.015132893588053038, 0.01497263613954587, 0.014799834278185351, 0.014603540554985634, 0.014402121876026802, 0.014160661095751932, 0.008567887065065729])","array('d', [0.20159597794083145, 0.16183150327910548, 0.132681201818603, 0.11212968155799247, 0.09882885341738583, 0.09182223404167089, 0.09039772388084102, 0.09400296286310304, 0.10219381034891929, 0.11460156663489937, 0.1309113949404279, 0.15084774738494866, 0.17416432737532397, 0.20063698587236214, 0.23005673309256558, 0.25905853802887613])",-42.20064384932954,-109.14677197928022,-44.93598520617681,0.0627972864389123,0.015803565862475458,0.09182223404167089,14.999999851370587,-1.0,"[1.5, 0.0, 0.0]","[36.14101615137755, 19.999999999999996, 0.0]","[36.14101615137755, -19.999999999999996, 0.0]",10000000000.0,0.018320560455322266
13,-113.82559967041016,-42.807743072509766,44.92214584350586,0.5053417086601255,0.014748311601579085,0.1771014491703844,22.903272221237852,"array('d', [-43.10389709472656, -42.83950373221448, -42.62445877648844, -42.44511961309165, -42.289986221796084, -42.149127296908894, -42.01379980233422, -41.87616213468423, -41.72910330730162, -41.566118722218825, -41.38122792505902, -41.168918628452474, -40.924111123477594, -40.64213735442974, -40.318732082693046, -39.95157270459215])","array('d', [-116.12068939208984, -114.64464262039857, -113.16021480878794, -111.67112333840352, -110.17937720357403, -108.6861778540593, -107.19247573739841, -105.69898142816912, -104.20638874911803, -102.71545376881909, -101.22708077179536, -99.74237538232613, -98.26268638674627, -96.78963354921352, -95.32512461076908, -93.87091002885732])","array('d', [-44.91266632080078, -44.88068672579989, -44.876661270145945, -44.89507141338415, -44.91939585198927, -44.94186239112166, -44.965084320306744, -44.9880386137064, -45.01098533872376, -45.03374708221199, -45.05631203124339, -45.07862418429364, -45.10065623594156, -45.12238802696835, -45.14378583134879, -45.16074199815404])","array('d', [0.6014975905418394, 0.4695171226471626, 0.3500962463028821, 0.24203975966758592, 0.1442661995938713, 0.05579701828593769, -0.02425320970603519, -0.09668564773162903, -0.1622252120585077, -0.22152781853666773, -0.2751869222365139, -0.3237393704191925, -0.36767039025265064, -0.4074158260297727, -0.44332027103616267, -0.3974630704304848])","array('d', [-0.03127778321504577, -0.011692321586271134, 0.0060293342287907085, 0.01831337146778186, 0.014189453563575512, 0.015741169645657024, 0.015231148350203297, 0.015373398154138908, 0.015225889732911462, 0.015125934177302855, 0.01496449286984177, 0.01478906837690591, 0.014591355268103923, 0.014388759559423614, 0.014146652519774679, 0.008555354238324382])","array('d', [0.1976125995304922, 0.15882874786377937, 0.13045590646712418, 0.11054980985703089, 0.09780286403757298, 0.09128328718654719, 0.09029484477530503, 0.09429577722126568, 0.10284925073250954, 0.11559173218793828, 0.13221211997912555, 0.15243762387380722, 0.17602402801216668, 0.20274879136373444, 0.23240419473044593, 0.2616169298555041])",-42.149127296908894,-108.6861778540593,-44.94186239112166,0.05579701828593769,0.015741169645657024,0.09128328718654719,14.999999851369349,-1.0,"[1.5, 0.0, 0.0]","[36.14101615137755, 19.999999999999996, 0.0]","[36.14101615137755, -19.999999999999996, 0.0]",10000000000.0,0.017386913299560547
14,-112.4505844116211,-42.65769577026367,44.94587707519531,0.4262255132198333,0.0022388293873518077,0.16533501545456455,22.762649815194713,"array('d', [-42.978328704833984, -42.72403777730065, -42.51573675372195, -42.34034571356683, -42.18676635150253, -42.04537215513346, -41.907645966184816, -41.76592774904698, -41.61325517010627, -41.44325084841677, -41.250046897568126, -41.0282343023494, -40.77283109508299, -40.47926428239092, -40.14336309776379, -39.762908902275335])","array('d', [-115.20442962646484, -113.72644557121504, -112.24104590216857, -110.75150084558703, -109.25957888053051, -107.76643265366866, -106.2729476955278, -104.77983530575455, -103.28780625836964, -101.79765570359211, -100.31033939188083, -98.82702459219887, -97.34912831886581, -95.87834281037284, -94.41665026196547, -92.96585818071752])","array('d', [-44.91345977783203, -44.8893633085053, -44.89247208744433, -44.913017793591074, -44.93659941693311, -44.959306727520634, -44.98239902373886, -45.00533022515995, -45.02819625685601, -45.05088022261646, -45.073352485050044, -45.095566627970605, -45.11749529656911, -45.139121472695, -45.160413364154586, -45.177269818259866])","array('d', [0.5701925754547118, 0.4411911710626622, 0.32446586309238246, 0.21884842780827055, 0.1232818128650633, 0.03680955827707536, -0.04143377552368408, -0.11223126790251725, -0.17629147203327808, -0.23425549774418236, -0.28670340280160767, -0.33415991113777344, -0.3770992760011319, -0.4159473828691903, -0.45103924951661867, -0.40434992540571185])","array('d', [-0.025754136964678705, -0.006694319541509933, 0.01055171118109678, 0.016740227550746445, 0.014736661289887982, 0.015527714087570966, 0.015267570639864572, 0.015307883445641494, 0.01518341641360407, 0.01506499992782152, 0.01490185940638932, 0.014721096331001892, 0.014521499864811166, 0.014317798825511855, 0.014076370407631487, 0.008492552603011296])","array('d', [0.18940086761978675, 0.15321361198855704, 0.12691628350910514, 0.10874329101317359, 0.09748999148615677, 0.09228796134860992, 0.09248193440358571, 0.09755766893850809, 0.10709737937734592, 0.12075104962519842, 0.1382173821432313, 0.1592308486199352, 0.1835527318424968, 0.21096475614171614, 0.24126256530444706, 0.27104989610954017])",-42.04537215513346,-107.76643265366866,-44.959306727520634,0.03680955827707536,0.015527714087570966,0.09228796134860992,14.999999851366459,-1.0,"[1.5, 0.0, 0.0]","[36.14101615137755, 19.999999999999996, 0.0]","[36.14101615137755, -19.999999999999996, 0.0]",10000000000.0,0.025364160537719727
15,-111.99451446533203,-42.611785888671875,44.958248138427734,0.3978427350521086,-0.0019625902641565852,0.16152210632828273,22.70566445254837,"array('d', [-42.919185638427734, -42.66977390074, -42.46429413768856, -42.29000052567295, -42.136037038775804, -41.99296161477443, -41.85239465249957, -41.706787477973776, -41.54926967796193, -41.373543248683696, -41.173811217038505, -40.94473026194089, -40.68138117089756, -40.3792524945143, -40.03423505191372, -39.64417771914723])","array('d', [-114.74669647216797, -113.26780312317923, -111.78202111351668, -110.29236099609392, -108.8004696439918, -107.30748488034851, -105.81426303358562, -104.32152470486162, -102.82999900820155, -101.34051228672293, -99.85405851445667, -98.37184891138264, -96.8953479940965, -95.42629762205209, -93.96673032542166, -92.51849105979149])","array('d', [-44.91511535644531, -44.895800649152804, -44.90323659323741, -44.925061288366074, -44.94816484253468, -44.970993200534515, -44.993980503435054, -45.016871597778156, -45.03966272769474, -45.06227408554561, -45.084665400812455, -45.106796260274066, -45.128639403473414, -45.15017981556641, -45.171386618308986, -45.18816314416636])","array('d', [0.5506874918937682, 0.4235422400189357, 0.3084964484533088, 0.20439870259594276, 0.11020715963742171, 0.02497912175163755, -0.052138398108110336, -0.12191721179007216, -0.18505567717165405, -0.2421856789242522, -0.29387892733058946, -0.3406525924599477, -0.38297408939089816, -0.4212630975423431, -0.455848848755442, -0.40863985236126915])","array('d', [-0.02240383438765994, -0.0036628403293807576, 0.013294703564768308, 0.015764719670267952, 0.015053109371443761, 0.015380416694918958, 0.01527232384525483, 0.01525068143167486, 0.015140499511059995, 0.01501127554055837, 0.01484765025344458, 0.014664292031048003, 0.014464265335952839, 0.014260667745526298, 0.01402002536830877, 0.008442219460253825])","array('d', [0.18527300755051157, 0.15065999471195224, 0.1256328304561115, 0.10852759377411596, 0.09819904810818345, 0.09381571128876989, 0.09474639352552935, 0.1004931250612459, 0.11064944035373911, 0.12487339058087009, 0.1428695526152858, 0.1643767667773818, 0.18915963824396587, 0.2170024813897899, 0.24770300015939883, 0.27785024636261607])",-41.99296161477443,-107.30748488034851,-44.970993200534515,0.02497912175163755,0.015380416694918958,0.09381571128876989,14.999999851364711,-1.0,"[1.5, 0.0, 0.0]","[36.14101615137755, 19.999999999999996, 0.0]","[36.14101615137755, -19.999999999999996, 0.0]",10000000000.0,0.0180051326751709
16,-111.53975677490234,-42.56768035888672,44.972957611083984,0.368760198354721,-0.005942915566265732,0.15787942806747962,22.645268838361275,"array('d', [-42.86227035522461, -42.61757778666741, -42.41455500704956, -42.24081310903556, -42.085758496221665, -41.94014975738779, -41.79575760632103, -41.64515584757529, -41.48157580671295, -41.29880794272955, -41.091134848403605, -40.85328739161328, -40.580417638615856, -40.268084379591905, -39.912248990363665, -39.51083758065516])","array('d', [-114.28578186035156, -112.80603249606482, -111.31993939854836, -109.83023339257352, -108.33844543266851, -106.84570698461384, -105.3528482985532, -103.86060527462314, -102.36973169763061, -100.88109234185146, -99.39572703473114, -97.9148988640654, -96.44012783815025, -94.97321334540403, -93.51624592135147, -92.0711129766792])","array('d', [-44.917903900146484, -44.90387969416939, -44.91610289106837, -44.939333726064966, -44.96189336443467, -44.9848421562001, -45.007699323546646, -45.030532345212954, -45.053227154521124, -45.075745135652255, -45.09803433857424, -45.12006106864581, -45.14179823210454, -45.16323307035353, -45.18433595784673, -45.201015337784725])","array('d', [0.5289357900619507, 0.40386048451592704, 0.2906876580132221, 0.18828464118344673, 0.0956265526054912, 0.011786041755289892, -0.06407599159462112, -0.13271879396490863, -0.19482935361865772, -0.2510292674754075, -0.3018809367726382, -0.34789310735442563, -0.38952556718233433, -0.427191065112335, -0.4612120995162486, -0.41342249668909414])","array('d', [-0.018697250634431704, -0.00030898467175909913, 0.016329385568760523, 0.01467391978009221, 0.015394708886932762, 0.015207989136345176, 0.015268405979128218, 0.015178302148751628, 0.015084168823735127, 0.014943284368203923, 0.014779479524152962, 0.014593649761307987, 0.014393586974220553, 0.01419055706660262, 0.013951541463753199, 0.00838104523863404])","array('d', [0.18118245998886615, 0.14828859155738613, 0.12465861235451108, 0.10873406825850188, 0.09943201979078267, 0.09596003887441809, 0.09771254744782372, 0.10420896992264807, 0.11505498968965383, 0.12991734574879554, 0.14850696174239283, 0.1705674136516165, 0.19586692145124504, 0.2241926289876311, 0.25534448898047796, 0.2858948284051373])",-41.94014975738779,-106.84570698461384,-44.9848421562001,0.011786041755289892,0.015207989136345176,0.09596003887441809,14.999999851362766,-1.0,"[1.5, 0.0, 0.0]","[36.14101615137755, 19.999999999999996, 0.0]","[36.14101615137755, -19.999999999999996, 0.0]",10000000000.0,0.019735097885131836
17,-111.53975677490234,-42.56768035888672,44.972957611083984,0.368760198354721,-0.005942915566265732,0.15787942806747962,22.645268838361275,"array('d', [-42.807743072509766, -42.56768229872332, -42.36687511388553, -42.19330241716668, -42.03664657127409, -41.88787691392819, -41.73892377344027, -41.58249165689035, -41.411921309774414, -41.22109898050282, -41.004394014753174, -40.756618665823716, -40.473003602736675, -40.14918538897591, -39.78120375655801, -39.367070497133255])","array('d', [-113.82559967041016, -112.3450408149297, -110.85868646753322, -109.36897968646274, -107.87735051401629, -106.38492476078372, -104.89251239306314, -103.40086884322001, -101.91077821137084, -100.42314955492081, -98.93907481975018, -97.45987535307523, -95.98713307313375, -94.52271119060437, -93.06876429244969, -91.62722602853252])","array('d', [-44.92214584350586, -44.91375825541749, -44.93066853155307, -44.95513688441962, -44.97719615113085, -45.00023252448332, -45.022952275578945, -45.04570997748943, -45.06829405125873, -45.09070289695532, -45.11287463576254, -45.13478194127542, -45.156398240106974, -45.17771310449488, -45.19869828582594, -45.21526777209364])","array('d', [0.5053417086601255, 0.38251167488892246, 0.2713704544874879, 0.1708057110460188, 0.07981096116951432, -0.002524498439942303, -0.07702470496958369, -0.1444352753212084, -0.20543086512639117, -0.26062191216035635, -0.3105607200906175, -0.3557468968535836, -0.3966319566774288, -0.43362112730260194, -0.4670295514555056, -0.41860880298476116])","array('d', [-0.014748311601579085, 0.0032641629058907124, 0.019020730385030545, 0.013694085297870745, 0.015686104912175477, 0.015041029065362541, 0.015249650927955685, 0.01509765181484565, 0.015016931197644554, 0.014865173157252437, 0.01470096149773572, 0.014512954288837749, 0.014313109148887011, 0.014111037514151277, 0.013874069857327991, 0.008311844705076328])","array('d', [0.1771014491703844, 0.1460319411957408, 0.12389608298308435, 0.10924117269477497, 0.10104746136771423, 0.09856247944092533, 0.10120702858201149, 0.10851854329955327, 0.12011534054432184, 0.13567322792682768, 0.15490977799220032, 0.1775735465728758, 0.20343657088813574, 0.232288996997975, 0.2639331733468271, 0.2949228613854713])",-41.88787691392819,-106.38492476078372,-45.00023252448332,-0.002524498439942303,0.015041029065362541,0.09856247944092533,14.999999851360574,-1.0,"[1.5, 0.0, 0.0]","[36.14101615137755, 19.999999999999996, 0.0]","[36.14101615137755, -19.999999999999996, 0.0]",10000000000.0,0.018023967742919922
18,-110.6345443725586,-42.484092712402344,45.00959777832031,0.3094491362571714,-0.013229333795607175,0.15102835098770648,22.514623285090778,"array('d', [-42.705570220947266, -42.474250855940554, -42.277011434650106, -42.102601391931266, -41.94128133813845, -41.7844469159251, -41.62436907824181, -41.454030040840316, -41.2670074338779, -41.05739671428884, -40.819759007651875, -40.54908812854712, -40.240791521354105, -39.89068168841294, -39.494976361715274, -39.051881599209246])","array('d', [-112.90787506103516, -111.42588935785054, -109.93907901062578, -108.44944285492157, -106.9583133819932, -105.46670862141663, -103.97544755787261, -102.48532663874484, -100.9972108413805, -99.51211267478065, -98.03124565754045, -96.55606428467208, -95.0882908581652, -93.62993207152218, -92.18328553572816, -90.75038575395136])","array('d', [-44.93593215942383, -44.939359126851336, -44.95975852284703, -44.98291788969125, -45.005303457129216, -45.02804640034261, -45.050648819503635, -45.073192518422445, -45.095567664825765, -45.1177437140281, -45.13967546771265, -45.1613361371793, -45.18270494502576, -45.20377489187002, -45.224521695375614, -45.2408696294121])","array('d', [0.45372250676155085, 0.33580468529811175, 0.229108218804288, 0.13256525538236769, 0.045209562894219874, -0.0338331411059017, -0.10535393883795056, -0.1700686282751466, -0.22862488366002726, -0.2816087286990068, -0.32955037538310467, -0.3729294390636667, -0.41217932978452865, -0.4476887996951418, -0.4797563389964469, -0.42994962802645625])","array('d', [-0.006471409462392205, 0.010753412387352989, 0.01635324029903701, 0.014557109965771888, 0.015279373473355933, 0.015049547098242732, 0.015087519183083806, 0.014973775507081913, 0.014862712571098452, 0.014708994862725361, 0.01453725070225774, 0.014347806311699362, 0.014148230767738775, 0.013949274600865869, 0.013717872078711972, 0.008172342668592847])","array('d', [0.16919906536606366, 0.1419893492450019, 0.12305269556537746, 0.11114011634819755, 0.10535579673096933, 0.10502670954790128, 0.10962665753565667, 0.11872956523792115, 0.13197952604180788, 0.149070966468423, 0.16973519376976684, 0.1937311180762642, 0.2208387722903308, 0.2508546433134502, 0.28358615908881885, 0.3155448924001954])",-41.7844469159251,-105.46670862141663,-45.02804640034261,-0.0338331411059017,0.015049547098242732,0.10502670954790128,14.999999851355298,-1.0,"[1.5, 0.0, 0.0]","[36.14101615137755, 19.999999999999996, 0.0]","[36.14101615137755, -19.999999999999996, 0.0]",10000000000.0,0.020427465438842773
19,-110.18425750732422,-42.4442138671875,45.03152847290039,0.2796974480152129,-0.01645185612142095,0.14773602882889303,22.445035488190065,"array('d', [-42.65769577026367, -42.4305835941979, -42.234858401898904, -42.05965139329314, -41.8955131669964, -41.73405548246823, -41.567724216282606, -41.389645981523515, -41.193523138724935, -40.97356260934692, -40.72442880055469, -40.4412141876269, -40.11942293275159, -39.754964157340055, -39.34415263232091, -38.88529797761986])","array('d', [-112.4505844116211, -110.96796684766034, -109.48097595923598, -107.99142051909314, -106.500599996216, -105.00948605200672, -103.51890899953867, -102.02969235813961, -100.5427481932939, -99.05914742727656, -97.58017102120203, -96.10734655623293, -94.64247278550877, -93.1876340168151, -91.74520532304516, -90.31727539898303])","array('d', [-44.94587707519531, -44.95534565747621, -44.97751893204117, -44.99999042359153, -45.02252552073655, -45.04510039487546, -45.067624661746365, -45.090040848593794, -45.112291290323064, -45.13433081961196, -45.156122896284636, -45.177641070901174, -45.19886799211561, -45.21979641099308, -45.24042055280973, -45.25667016089366])","array('d', [0.4262255132198333, 0.31092437423842706, 0.2065955799991344, 0.11219497485260253, 0.026777767721862585, -0.050510923560938545, -0.12044462795693948, -0.1837232624237363, -0.24098013565510223, -0.29278828315945055, -0.33966619273208937, -0.38208296005594344, -0.4204628333491248, -0.4551884344506706, -0.48658647710711217, -0.4360328979621459])","array('d', [-0.0022388293873518077, 0.014583210867197915, 0.014975685256376468, 0.014987231996848226, 0.015059489492029898, 0.015041774893263643, 0.014992531473817617, 0.014898400837211051, 0.014772050969518433, 0.01461762201637515, 0.014442425370138205, 0.014252624820468818, 0.014054192048203679, 0.013854601656676775, 0.013648557924259173, 0.008110424858070182])","array('d', [0.16533501545456455, 0.14011582246222995, 0.12284881399770398, 0.1123799436264915, 0.10787223266266922, 0.10869090001325767, 0.11433554419004276, 0.12439800580318922, 0.1385351285932476, 0.1564506125320792, 0.17788265492450409, 0.20259540647095584, 0.2303730084224595, 0.26101537433232413, 0.29433441937504495, 0.32681780263297083])",-41.73405548246823,-105.00948605200672,-45.04510039487546,-0.050510923560938545,0.015041774893263643,0.10869090001325767,14.999999850490555,-1.0,"[1.5, 0.0, 0.0]","[36.14101615137755, 19.999999999999996, 0.0]","[36.14101615137755, -19.999999999999996, 0.0]",10000000000.0,0.020753860473632812
20,-109.2850112915039,-42.365928649902344,45.086544036865234,0.22118544578552235,-0.021884694695472846,0.1413739482548575,22.301422589919365,"array('d', [-42.611785888671875, -42.38879585435941, -42.19445405611079, -42.01826730881884, -41.8510734251202, -41.684699941124485, -41.51176897475368, -41.325553922592114, -41.11988506108351, -40.88908456112276, -40.627924400408055, -40.331600437178565, -39.99571867068617, -39.6162904067879, -39.18973429600765, -38.71447296802479])","array('d', [-111.99451446533203, -110.51131463769858, -109.02416734903532, -107.5347154847235, -106.0442359656096, -104.55365997212779, -103.06383361488957, -101.57561172218347, -100.08995747553092, -98.60800413845976, -97.13110389406279, -95.66086100065685, -94.19915398766457, -92.74814778640682, -91.31029699704875, -89.88774440623604])","array('d', [-44.958248138427734, -44.97371369631819, -44.9976400030174, -45.01941475917316, -45.04208507693658, -45.06447927520884, -45.08691190967395, -45.10918741040566, -45.13130000997071, -45.15319016455613, -45.17483000740928, -45.196193554287674, -45.21726654106267, -45.238043580065145, -45.258521105343995, -45.27463473934309])","array('d', [0.3978427350521086, 0.28524257219925003, 0.18335772244820658, 0.09116848992340934, 0.007752215668844233, -0.06772595650925649, -0.13602143531671476, -0.19781774181642212, -0.25373334905909617, -0.30432786864168243, -0.35010764169847886, -0.39153077244365936, -0.4290115604718381, -0.4629236054323473, -0.49358512929957593, -0.442263824517159])","array('d', [0.0019625902641565852, 0.018384793750903343, 0.013598182629267704, 0.01540569667692705, 0.014832113757511148, 0.015024713976946926, 0.014888847197183626, 0.014814158472129734, 0.014672735142223357, 0.01451775933649056, 0.014339342074689749, 0.014149517137899947, 0.013952017831661192, 0.013754875689055868, 0.013552712094650424, 0.0080247906742889])","array('d', [0.16152210632828273, 0.1383154699981189, 0.1227499309700148, 0.11376080900212777, 0.11056718598110245, 0.11257106415358281, 0.11929703350797065, 0.13035439577120128, 0.14541248500311021, 0.16418412844505204, 0.18641433594224355, 0.21187246071548457, 0.24034672151046368, 0.27164032276426786, 0.30556790301827585, 0.33859229447377315])",-41.684699941124485,-104.55365997212779,-45.06447927520884,-0.06772595650925649,0.015024713976946926,0.11257106415358281,14.99999985048935,-1.0,"[1.5, 0.0, 0.0]","[36.14101615137755, 19.999999999999996, 0.0]","[36.14101615137755, -19.999999999999996, 0.0]",10000000000.0,0.03616952896118164
21,-108.39310455322266,-42.290157318115234,45.14936828613281,0.16519364714622484,-0.025887187570333637,0.13542850414780166,22.152962047783415,"array('d', [-42.56768035888672, -42.34855221820725, -42.15530703960485, -41.97782264946366, -41.80721139572121, -41.635517102821424, -41.45553760703487, -41.26069497224319, -41.044949890182224, -40.80274317047006, -40.52895831318541, -40.218899047279976, -39.86827814396594, -39.473214523925726, -39.030237486129906, -38.53789203170665])","array('d', [-111.53975677490234, -110.05599496146627, -108.56869581280252, -107.07939703711241, -105.58930265412016, -104.09932932290889, -102.61033731524337, -101.12322005170967, -99.63899546264436, -98.15886364712095, -96.68425182523364, -95.21684457342619, -93.75860342120569, -92.31177675868814, -90.87890044572482, -89.4621706321839])","array('d', [-44.972957611083984, -44.99086905287997, -45.014466127251595, -45.036287370219014, -45.05884464963223, -45.081157013201356, -45.103475376865546, -45.12563003484789, -45.1476099388124, -45.16936119268191, -45.19085765802869, -45.21207632759696, -45.23300474382177, -45.25364222888212, -45.27396964026023, -45.2899276919837])","array('d', [0.368760198354721, 0.2589276025745633, 0.15954695147928383, 0.06962361217992018, -0.011742396153626152, -0.08536540929026999, -0.15198226742428714, -0.2122596882428854, -0.26680093611924066, -0.3161518505091711, -0.36080628152885014, -0.4012109371137759, -0.437769426095907, -0.4708433740889212, -0.5007043549830412, -0.4485996274574631])","array('d', [0.005942915566265732, 0.017742865955162414, 0.013787206947037016, 0.015283846093572372, 0.014801703871523813, 0.014946791392108834, 0.014814334865517993, 0.014727728275861877, 0.014582285798547522, 0.01442305902740007, 0.014242881940065129, 0.014052792424034807, 0.013855951825636073, 0.013664752683944714, 0.013442991173929324, 0.007926858946363928])","array('d', [0.15787942806747962, 0.13669496389541527, 0.122852228142151, 0.11536991582701914, 0.11352004414284743, 0.11673967095294903, 0.12457737870840871, 0.13665933344936151, 0.1526669962840504, 0.17232210028422829, 0.1953763352456747, 0.22160417807635524, 0.25079786238444457, 0.2827637147531491, 0.31731719894480814, 0.3508955493254416])",-41.635517102821424,-104.09932932290889,-45.081157013201356,-0.08536540929026999,0.014946791392108834,0.11673967095294903,14.999999851345397,-1.0,"[1.5, 0.0, 0.0]","[36.14101615137755, 19.999999999999996, 0.0]","[36.14101615137755, -19.999999999999996, 0.0]",10000000000.0,0.021243810653686523
22,-107.94994354248047,-42.252750396728516,45.18330764770508,0.1384264677762984,-0.02724843472242368,0.13248534599808237,22.078004983961044,"array('d', [-42.484092712402344, -42.272075930129226, -42.080413457537986, -41.89968525191834, -41.72152758915524, -41.5384059288877, -41.34346495606771, -41.13042481835536, -40.89351124318436, -40.627409262286, -40.32723442461507, -39.98851683150115, -39.607194656073816, -39.17961462506103, -38.70253861021627, -38.174763489917446])","array('d', [-110.6345443725586, -109.14977587363369, -107.66224545480134, -106.17333846606397, -104.68412227980788, -103.19550907005949, -101.70840044117602, -100.22378037890914, -98.742787154528, -97.26676442478178, -95.79729809228176, -94.33624084890461, -92.88572649896483, -91.44817532153237, -90.0262905701144, -88.6223765846937])","array('d', [-45.00959777832031, -45.030888390841056, -45.05317989277501, -45.07528043450705, -45.097506134486366, -45.119651616396936, -45.141703312647685, -45.16359151130816, -45.18527808323325, -45.20672640173011, -45.227911885147456, -45.248818108119806, -45.269436982914804, -45.28977169045619, -45.30980915825722, -45.32550112069838])","array('d', [0.3094491362571714, 0.205260729429235, 0.11098715215734614, 0.025684884772579426, -0.051499804394395485, -0.12133940313020884, -0.18453288598504877, -0.24171270833474884, -0.29345113256957744, -0.34026594592669984, -0.38262561437315395, -0.42095387212750207, -0.4556335173530083, -0.4870071892027505, -0.5153263793718799, -0.4616036489798369])","array('d', [0.013229333795607175, 0.015127443132788389, 0.014604379941650506, 0.01485981449506756, 0.014776919759215676, 0.014751880220016906, 0.01465308897418756, 0.014534195393818918, 0.014384734882968006, 0.014216799504871253, 0.014034492446789133, 0.013844543039167394, 0.013651378392799016, 0.013465496410328964, 0.013255426060681424, 0.007759284566951722])","array('d', [0.15102835098770648, 0.1338596607441258, 0.12347606473429817, 0.1190439291020116, 0.11993065787518299, 0.12563732908502284, 0.13575681411706292, 0.14994669216844195, 0.1679111992479932, 0.18938893153495484, 0.2141443433340655, 0.24196181527932306, 0.2726414845390642, 0.30599617885362645, 0.34184671767519925, 0.37657464943328606])",-41.5384059288877,-103.19550907005949,-45.119651616396936,-0.12133940313020884,0.014751880220016906,0.12563732908502284,14.999999851337904,-1.0,"[1.5, 0.0, 0.0]","[36.14101615137755, 19.999999999999996, 0.0]","[36.14101615137755, -19.999999999999996, 0.0]",10000000000.0,0.026884794235229492
