,current_time,x_pos,y_pos,z_pos,roll,pitch,yaw,vel,x_traj,y_traj,z_traj,roll_traj,pitch_traj,yaw_traj,x_cmd,y_cmd,z_cmd,roll_cmd,pitch_cmd,yaw_cmd,vel_cmd,effector_dmg,effector_x,effector_y,effector_z,cost,time_solution
0,4.041756868362427,-339.7885437011719,378.6253967285156,50.178550720214844,0.6579039096832274,0.03982893750071515,-0.6788443764063974,23.155716143538232,"array('d', [380.7671813964844, 379.23639963586834, 377.6603912394446, 376.0506840992095, 374.41530421968815, 372.76005302674014, 371.0892082608094, 369.40594944627975, 367.7126426864235, 366.011046174055, 364.302466336585, 362.5878798854511, 360.86802984395496, 359.14349995922424, 357.4147699753775, 356.028393975105])","array('d', [-342.252197265625, -340.27744670149417, -338.33761678810436, -336.4252143165423, -334.5345116972883, -332.66108128494886, -330.8014951005948, -328.95311275081036, -327.1139173555628, -325.2823813723891, -323.4573539524914, -321.63796601795354, -319.8235513799557, -318.0135831949717, -316.20762550353714, -314.7661195681017])","array('d', [-50.192447662353516, -50.111124738637876, -50.05622696653725, -50.01851882216684, -49.99215009282218, -49.973362136917714, -49.959705898086135, -49.94956313166352, -49.94184966434097, -49.93582941887899, -49.9309967611124, -49.927001568387546, -49.923601363980694, -49.920630783079794, -49.9179821752346, -49.916071047580594])","array('d', [0.6599441170692445, 0.5224017583061049, 0.41324537970288383, 0.32735676108020406, 0.2600611391538868, 0.2077521221692153, 0.167500464841894, 0.13685709361786383, 0.11374749242897313, 0.09641230753458427, 0.08337241699878417, 0.07340745164621033, 0.06554210126506221, 0.05903730205484326, 0.053384834668909996, 0.04830460033780471])","array('d', [-0.03908744454383836, -0.026197850530446674, -0.01786306585677036, -0.01239583540404824, -0.00876020034219231, -0.006311164295125054, -0.004641731730784774, -0.0034916890399259376, -0.0026924279795514606, -0.0021331037037137404, -0.0017395895053445452, -0.0014612099400500933, -0.0012622730659354547, -0.0011166219448641103, -0.0010041411150013887, -0.0009085848383380145])","array('d', [-0.6455966671321057, -0.6719322496800564, -0.6917375464485924, -0.7069493798181845, -0.7187986464285158, -0.7281324520999825, -0.7355699346326541, -0.7415781763008654, -0.7465134741948943, -0.7506464214107115, -0.7541790777384855, -0.7572581590670594, -0.7599861713692012, -0.7624314567806192, -0.7646376551621189, -0.7671316665820044])",372.76005302674014,-332.66108128494886,-49.973362136917714,0.2077521221692153,-0.006311164295125054,-0.7281324520999825,25.000000245983426,-1.0,"[-339.19358916676015, 378.208903340153, 50.12217895778928]","[-319.42556589585, 376.36488146583804, 47.70870857516538]","[-331.8493317304996, 363.6696009750884, 38.51741401199399]",10000000000.0,0.019539833068847656
1,4.066063404083252,-339.1024169921875,378.00341796875,50.17536544799805,0.6580883860588073,0.03990665450692173,-0.6883041103694104,23.155404394617975,"array('d', [380.1621398925781, 378.6124967694112, 377.01806501754817, 375.3903606962734, 373.73740135659193, 372.06496954758535, 370.3773197352953, 368.6776062167772, 366.9681690985347, 365.25074053317076, 363.52660141222424, 361.79670386922294, 360.0617676795797, 358.3223549531299, 356.5789255824617, 355.18093843255014])","array('d', [-341.53961181640625, -339.57963109409854, -337.65491820228846, -335.75781168142373, -333.88245938937683, -332.0243505287386, -330.1800022294818, -328.34673971334524, -326.5225269073086, -324.7058282316193, -322.89549272278947, -321.09065648356255, -319.29066169369065, -317.49499143488237, -315.70322004667673, -314.2729719122793])","array('d', [-50.188289642333984, -50.10686957316606, -50.05186671028031, -50.014061236941664, -49.98760893266718, -49.96875225586024, -49.95504099871551, -49.944854897848636, -49.93710758211662, -49.9310609140352, -49.9262074637817, -49.9221956141092, -49.91878169331785, -49.91579942859596, -49.9131405371278, -49.911222013053276])","array('d', [0.6590459346771239, 0.5215890241563503, 0.41134181902295713, 0.32473403001682805, 0.25699521661015146, 0.20445264453971362, 0.16412637740553002, 0.13352636954499686, 0.11054412740983567, 0.09339200980118444, 0.08056762974505079, 0.07083199047827728, 0.06319553415111397, 0.05690913774239967, 0.05145856531624615, 0.04656163959366583])","array('d', [-0.03912241384387, -0.026240510489724204, -0.017904519247587576, -0.012432336840958484, -0.00879066338636482, -0.006335777153950582, -0.004661219686859089, -0.003506939617675865, -0.0027043124138486784, -0.002142400591845855, -0.0017469587936235222, -0.0014671894111573814, -0.0012672828874014047, -0.0011209702215062014, -0.0010080274454692861, -0.0009121011433176327])","array('d', [-0.6552101810786386, -0.6814969553644697, -0.7012353952473563, -0.7163450043462567, -0.7280724422988385, -0.7372742994475184, -0.7445761875662279, -0.7504498677105064, -0.7552550258822919, -0.7592646055693765, -0.7626821451326758, -0.7656551116594776, -0.7682861773922541, -0.7706434106559086, -0.7727698842378924, -0.775173757910888])",372.06496954758535,-332.0243505287386,-49.96875225586024,0.20445264453971362,-0.006335777153950582,-0.7372742994475184,25.00000024853619,-1.0,"[-338.56694700836493, 377.6330642400892, 50.118565190198716]","[-318.8255320452726, 375.65515343208244, 47.59578813097124]","[-331.38541871710515, 363.03990927809735, 38.47960133351762]",10000000000.0,0.022143125534057617
2,4.0869996547698975,-339.1024169921875,378.00341796875,50.17536544799805,0.6580883860588073,0.03990665450692173,-0.6883041103694104,23.155404394617975,"array('d', [379.55108642578125, 377.98299249241035, 376.3705343795047, 374.7252170580144, 373.0550496163066, 371.3657959535402, 369.66168770033374, 367.94585453047034, 366.2206112732033, 364.4876648303523, 362.74827137757694, 361.00335928848864, 359.253625880905, 357.49961237112564, 355.7417594858679, 354.3323768981365])","array('d', [-340.83349609375, -338.8882580961218, -336.9786285149757, -335.09678045149246, -333.23673882057983, -331.3939106860935, -329.5647589387614, -327.74657484094666, -325.93730340514134, -324.1354011941615, -322.3397172416531, -320.5493928951975, -318.76377873402487, -316.98236777336496, -315.20474464595134, -313.78572439497435])","array('d', [-50.18413543701172, -50.10241092893142, -50.04716263346117, -50.00916335824827, -49.98256014438143, -49.96358701713268, -49.94978635876522, -49.93953171845444, -49.931731709828604, -49.92564420396901, -49.92075863492872, -49.916720952452614, -49.9132856330623, -49.910285044445104, -49.90760997757978, -49.90567980994328])","array('d', [0.6582414507865906, 0.5208611013374889, 0.4095321676952648, 0.3222095706339266, 0.2540283076969989, 0.20125026768696117, 0.16084560326235445, 0.1302839148057864, 0.10742321813540116, 0.09044796660295193, 0.07783280529408373, 0.06832033586468161, 0.060906916787343855, 0.05483347345205019, 0.04957980822262211, 0.04486166972087467])","array('d', [-0.03925691545009602, -0.026350108663047538, -0.01799169028865954, -0.0125005419703392, -0.008843450105885083, -0.0063763571490073655, -0.0046923199174887026, -0.0035307923128108315, -0.0027227053213823575, -0.002156745532802937, -0.0017583580711306604, -0.00147649139081307, -0.0012751241705089246, -0.001127804858042145, -0.0010141450944600578, -0.0009176368279230646])","array('d', [-0.664685412249293, -0.690928518716784, -0.7106045879725027, -0.7256164762794146, -0.7372265033488521, -0.7463006624258394, -0.7534709844083549, -0.7592138757499096, -0.7638923939429367, -0.7677818272124487, -0.7710871956308263, -0.7739567272800147, -0.7764932754264395, -0.7787646527590115, -0.780813385051342, -0.7831293599181335])",371.3657959535402,-331.3939106860935,-49.96358701713268,0.20125026768696117,-0.0063763571490073655,-0.7463006624258394,25.00000024594565,-1.0,"[-338.22145883714126, 377.3111010052414, 50.11692335405011]","[-318.4952840030568, 375.25793814861055, 47.535732020715294]","[-331.13004968752415, 362.6897258496709, 38.4581367605494]",10000000000.0,0.015552759170532227
3,4.104629278182983,-338.7615966796875,377.6900329589844,50.17369842529297,0.6581488847732542,0.03992514312267291,-0.6929325302455089,23.154000445289025,"array('d', [379.2432861328125, 377.66626965643997, 376.0450771156601, 374.39121318822987, 372.71268560955866, 371.0152508902959, 369.3031307132751, 367.57944365958394, 365.8464929887595, 364.1059739435916, 362.35913122735553, 360.60688214782084, 358.84991354045513, 357.0887568553074, 355.3238438522947, 353.90888036753546])","array('d', [-340.4828796386719, -338.544887793995, -336.64267737962865, -334.7683408128651, -332.9158423476128, -331.08054823457877, -329.2588942161487, -327.4481543899545, -325.6462640374159, -323.8516754696256, -322.06323737212904, -320.2800933620405, -318.50159787137585, -316.72724854937604, -314.95663486189926, -313.54317952972093])","array('d', [-50.18204116821289, -50.09985549292568, -50.044276427552404, -50.006037983045644, -49.97926053178027, -49.960159518014535, -49.94626423230733, -49.935938906390646, -49.928085459021524, -49.921956907901766, -49.91703914356781, -49.91297552140364, -49.909518630779345, -49.90649950073497, -49.903808031632735, -49.90186605094507])","array('d', [0.6580252647399903, 0.5206654860906701, 0.40878749573849743, 0.32109899262750824, 0.2526875400676751, 0.19978243808650442, 0.15932906147176173, 0.12877702356256931, 0.10596777001385704, 0.08907195044843291, 0.07655284451519527, 0.06714394014987854, 0.059834610109607986, 0.053860830307541276, 0.04869942007286854, 0.044065061508449556])","array('d', [-0.0394728332757948, -0.026504358724318167, -0.01810284226022359, -0.012581256113084176, -0.008902495523552656, -0.006419882884804857, -0.004724683448528965, -0.0035551119429210933, -0.0027412335113881164, -0.0021711228941088873, -0.0017697861937465012, -0.0014858495765966056, -0.0012830469339383981, -0.0011347318583301048, -0.0010203519053616134, -0.0009232529831764021])","array('d', [-0.6692918976161143, -0.6955232770153809, -0.715176263699853, -0.7301463639482473, -0.7417040334016066, -0.7507201125182873, -0.7578299198959111, -0.7635122323616813, -0.7681318271447657, -0.7719651931397338, -0.7752181176725579, -0.7780392354492791, -0.7805315165798725, -0.7827626723097162, -0.7847749808045673, -0.7870497713408783])",371.0152508902959,-331.08054823457877,-49.960159518014535,0.19978243808650442,-0.006419882884804857,-0.7507201125182873,25.000000245936132,-1.0,"[-337.88733150409513, 376.9968342614163, 50.11523160869122]","[-318.1763068019899, 374.8714851034906, 47.4773544034559]","[-330.8829671666613, 362.3485275375472, 38.43764665494605]",10000000000.0,0.01611018180847168
4,4.120031356811523,-338.7615966796875,377.6900329589844,50.17369842529297,0.6581488847732542,0.03992514312267291,-0.6929325302455089,23.154000445289025,"array('d', [378.6253967285156, 377.0299627978379, 375.3907180733207, 373.7191708629277, 372.0233286692839, 370.3089345516009, 368.58019108864977, 366.8401951896999, 365.0912273290049, 363.3349596858246, 361.5726142066825, 359.8050862093989, 358.033041673674, 356.2569926026851, 354.477352891862, 353.050742094803])","array('d', [-339.7885437011719, -337.8657186818228, -335.9790592758245, -334.12048389549136, -332.2838268224925, -330.464366975711, -328.6584818857696, -326.8634086160151, -325.07706114875214, -323.2978820895238, -321.52471868537623, -319.75671867190147, -317.99324397803485, -316.23380143909725, -314.4779901694153, -313.07629153585714])","array('d', [-50.178550720214844, -50.095597475880204, -50.03945657817977, -50.00080456897483, -49.97372099663193, -49.95439201423953, -49.940325742717654, -49.92987101712362, -49.92191848966585, -49.91571288607458, -49.910733967972924, -49.90662055949121, -49.90312192846228, -49.90006673238846, -49.89734328228678, -49.895378256107236])","array('d', [0.6579039096832274, 0.52055567745988, 0.40750144999913257, 0.319023675145368, 0.250109197856746, 0.1969185379515703, 0.1563449770684329, 0.12579619801155528, 0.10307891747495353, 0.08633485970448992, 0.07400348054670823, 0.06479914949057237, 0.05769656568456126, 0.05192128434987802, 0.04694381178773885, 0.042476521296796466])","array('d', [-0.03982893750071515, -0.02676426107467516, -0.01829367377473225, -0.012722149687791097, -0.009007118467869536, -0.006498081175787718, -0.004783597690941347, -0.003599953119872845, -0.0027758277468762443, -0.0021982946474074054, -0.0017916264906268162, -0.0015039015836803165, -0.001298431776966676, -0.0011482313130269275, -0.0010324604702022456, -0.0009342092528694744])","array('d', [-0.6788443764063974, -0.7050691742745492, -0.7246879369250295, -0.7395823848897425, -0.7510407476185753, -0.7599443806560847, -0.7669356948421274, -0.7724985643664305, -0.7770014637003847, -0.7807234714292948, -0.783872044803414, -0.7865967254221927, -0.7890007778721071, -0.7911517463286927, -0.7930914319246055, -0.795284105070629])",370.3089345516009,-330.464366975711,-49.95439201423953,0.1969185379515703,-0.006498081175787718,-0.7599443806560847,25.000000245916667,-1.0,"[-337.60845230108436, 376.7326023301717, 50.11382661968069]","[-317.9102170943124, 374.5473956978436, 47.42972496126355]","[-330.6759588118149, 362.0620209840244, 38.42132573290238]",10000000000.0,0.014214754104614258
5,4.1375579833984375,-338.0845642089844,377.05841064453125,50.16976547241211,0.657892942428589,0.039287768304347846,-0.7022957046839853,23.154678084942923,"array('d', [378.3152160644531, 376.7106774652721, 375.062500391765, 373.3821955575156, 371.67777094775073, 369.95496354201094, 368.2179670195227, 366.46986809137553, 364.7129364527924, 362.94883333584676, 361.17876986066926, 359.4036308664622, 357.6240723833162, 355.84059712952904, 354.0536104663468, 352.6211689192565])","array('d', [-339.4447326660156, -337.52950080576665, -335.6506412735802, -333.79998072090495, -331.97128592899253, -330.1597907197761, -328.3618425907435, -326.5746594222525, -324.7961440338409, -323.02473376437274, -321.259274797703, -319.4989166363681, -317.7430247044348, -315.991110206567, -314.2427768800899, -312.8470027926476])","array('d', [-50.17698669433594, -50.09398394379472, -50.037786454140345, -49.99908041164766, -49.97194931051537, -49.95258033025972, -49.93848123278011, -49.927999922981094, -49.92002596481362, -49.91380303409648, -49.908809964695884, -49.90468480340312, -49.901176194416614, -49.89811231940259, -49.89538115388759, -49.89341054166535])","array('d', [0.6580029726028439, 0.5206453117792745, 0.40698715240931777, 0.31810162418017796, 0.24892424391147625, 0.19558069326399707, 0.1549379714936107, 0.12438265283626034, 0.10170398814463154, 0.08502915764812546, 0.0727856346549442, 0.06367816569431223, 0.056674054896223784, 0.05099359409771186, 0.046104085326515394, 0.041716705306028196])","array('d', [-0.039845921099185826, -0.026786811285697838, -0.01831640565421219, -0.012742686319350896, -0.00902465715495062, -0.006512592260713715, -0.004795393097984011, -0.0036094633859136615, -0.0027834929157416395, -0.0022045153187696316, -0.0017967452621661841, -0.0015081987784953293, -0.0013021269972477495, -0.0011514865880431124, -0.0010353830769355373, -0.0009368535444941073])","array('d', [-0.6835865219447275, -0.7098166921916508, -0.7294250630379168, -0.7442872049016203, -0.7557006420754906, -0.7645521914924059, -0.7714879278646922, -0.7769943507678978, -0.7814418383489973, -0.7851108065010133, -0.7882095818436501, -0.7908881882257545, -0.7932500621072163, -0.7953626855115183, -0.7972676398158207, -0.7994210136579852])",369.95496354201094,-330.1597907197761,-49.95258033025972,0.19558069326399707,-0.006512592260713715,-0.7645521914924059,25.000000248514926,-1.0,"[-337.6084523010843, 376.7326023301717, 50.11382661968069]","[-317.9102170943123, 374.5473956978436, 47.42972496126355]","[-330.67595881181484, 362.0620209840244, 38.42132573290238]",10000000000.0,0.015933752059936523
6,4.153843402862549,-337.7484130859375,376.7401123046875,50.16778564453125,0.6566324830055237,0.038897648453712325,-0.706825896105494,23.156751873804307,"array('d', [378.00341796875, 376.38986039889755, 374.73283683032037, 373.04385993270654, 371.33093770823916, 369.5998007602697, 367.8546336987566, 366.09851296055257, 364.3336974533114, 362.5618375002331, 360.7841334639099, 359.0014597915399, 357.2144626581438, 355.42363559235685, 353.6293755124617, 352.1911788363832])","array('d', [-339.1024169921875, -337.1947834952212, -335.3237248342779, -333.48097720284625, -331.6602406311492, -329.8567043215925, -328.06668606384005, -326.2873847898497, -324.51669233323156, -322.7530409039398, -320.99527573256, -319.2425481778892, -317.49422723287773, -315.74982853349, -314.0089604933579, -312.61911769143404])","array('d', [-50.17536544799805, -50.092222111268825, -50.03590643581405, -49.99710409004473, -49.9698960268684, -49.95046625237014, -49.9363194109973, -49.92580063921763, -49.91779716959273, -49.911550775275344, -49.906538769885294, -49.90239800759589, -49.89887621795112, -49.89580090657306, -49.89305958335574, -49.89108164928809])","array('d', [0.6580883860588073, 0.5207225970078381, 0.4064666195634234, 0.31717765204797, 0.247740329148067, 0.19424583544173388, 0.15353514716261957, 0.12297392924501152, 0.10033412179528392, 0.08372848305106351, 0.0715726001794, 0.06256167228987251, 0.05565566609205321, 0.05006965140208574, 0.04526775207176405, 0.040959959614643104])","array('d', [-0.03990665450692173, -0.026838757013068336, -0.0183591859884983, -0.012777097696741718, -0.009051938082696503, -0.006534045441287134, -0.004812212946580762, -0.003622673606453517, -0.002793938109501586, -0.002212875840642662, -0.001803559359789917, -0.0015138843217866115, -0.0013069995531949815, -0.0011557729097265768, -0.0010392302478133839, -0.0009403346089718465])","array('d', [-0.6883041103694104, -0.7145389133440866, -0.7341364392304599, -0.7489661101376558, -0.7603346310468628, -0.7691342098922552, -0.7760145407060346, -0.7814647195791063, -0.7858570093825837, -0.7894731509181587, -0.7925223323064567, -0.7951550550407757, -0.7974749252515715, -0.7995493623475005, -0.8014197286515864, -0.8035339914903827])",369.5998007602697,-329.8567043215925,-49.95046625237014,0.19424583544173388,-0.006534045441287134,-0.7691342098922552,25.00000024851116,-1.0,"[-336.9404059384845, 376.090200595586, 50.110848979235456]","[-317.2740705694769, 373.7499115334058, 47.325476426207416]","[-330.18353788874657, 361.3589481461196, 38.391850070262024]",10000000000.0,0.014437675476074219
7,4.177765846252441,-337.4137878417969,376.4201354980469,50.16582107543945,0.6534749269485473,0.03844882920384391,-0.7113653858515879,23.160042543922973,"array('d', [377.6900329589844, 376.0676612487699, 374.40199668252865, 372.7045521364219, 370.98333457087335, 369.24406771182504, 367.4909268986911, 365.7269782663948, 363.9544700123866, 362.1750416922808, 360.3898830893058, 358.5998584547651, 356.8056043089912, 355.00760518592784, 353.2062497443444, 351.7624285481989])","array('d', [-338.7615966796875, -336.861455937091, -334.9980872791635, -333.16313769621127, -331.35024162352624, -329.55454453750536, -327.7723351869646, -326.0007940389259, -324.2378022804478, -322.4817872215444, -320.7315932862418, -318.98637377729756, -317.24550130415645, -315.5084959565878, -313.77497083343656, -312.3909514373637])","array('d', [-50.17369842529297, -50.09050242152947, -50.03412799180009, -49.99527015094271, -49.96801359129441, -49.94854320210531, -49.93436316796432, -49.92381762283761, -49.91579265800394, -49.90952895702565, -49.904502875566756, -49.90035046729344, -49.89681882050847, -49.89373495218104, -49.8909860284219, -49.88900260126782])","array('d', [0.6581488847732542, 0.5207773442137082, 0.40593864621653614, 0.31625676446561174, 0.24656664142183002, 0.1929257978577458, 0.1521498108639765, 0.12158392454727143, 0.09898316100219073, 0.08244617579279861, 0.07037692888153735, 0.06146127834744986, 0.0546520121506494, 0.04915909208287388, 0.04444353508021452, 0.04021417717159459])","array('d', [-0.03992514312267291, -0.026862340302977482, -0.018382620688155302, -0.012798105012180316, -0.009069783046448966, -0.006548745693567085, -0.00482411403916119, -0.00363223049146157, -0.0028016089447627504, -0.0022190749300385992, -0.0018086398098290041, -0.0015181345221940703, -0.0013106451587248334, -0.0011589801809350527, -0.0010421088947391863, -0.0009429395293020732])","array('d', [-0.6929325302455089, -0.719170615071706, -0.738756562861285, -0.7535536841658724, -0.7648776006911385, -0.7736257554170717, -0.7804513611630639, -0.7858460422047037, -0.7901838987135432, -0.7937479638214868, -0.7967482657729726, -0.7993357710285046, -0.8016142494461461, -0.8036510568884297, -0.8054873390861819, -0.8075630451039805])",369.24406771182504,-329.55454453750536,-49.94854320210531,0.1929257978577458,-0.006548745693567085,-0.7736257554170717,25.00000024588544,-1.0,"[-336.56829394921743, 375.7269904979146, 50.109294915802955]","[-316.91993399490264, 373.2971015185274, 47.27423042737735]","[-329.90703092637426, 360.945314709304, 38.39905854667247]",10000000000.0,0.022893190383911133
8,4.1972222328186035,-337.08074951171875,376.09844970703125,50.16390609741211,0.6476476192474364,0.03761455789208396,-0.7159461220118662,23.16385584921549,"array('d', [377.05841064453125, 375.41830413235664, 373.7353067073676, 372.02091200938867, 370.2831139289103, 368.5276160276884, 366.75857107148556, 364.97902188315715, 363.19119331925015, 361.3967019757163, 359.5967153796617, 357.7920765165071, 355.9834018793147, 354.1711574059774, 352.35571470978533, 350.9007510320755])","array('d', [-338.0845642089844, -336.1996522416068, -334.351898019604, -332.53276306286864, -330.7357487290644, -328.9559131492224, -327.18948785732596, -325.4336175329238, -323.6861632900456, -321.945543850507, -320.21060318786994, -318.48049958615377, -316.75461390215276, -315.0324760653471, -313.31370939522657, -311.9414076180069])","array('d', [-50.16976547241211, -50.087866726685164, -50.0323214515734, -49.994001608494735, -49.967100014691475, -49.947868243094014, -49.93385203125057, -49.92342169694839, -49.915480027296425, -49.909278483084826, -49.9043004599398, -49.90018665433051, -49.896687225323944, -49.89363119561264, -49.890906981855146, -49.888941367489565])","array('d', [0.657892942428589, 0.5205457549663284, 0.40458553911978734, 0.3141530145716849, 0.24398647615035432, 0.19007775666508714, 0.14919266718179158, 0.11863628737771202, 0.09613026821638791, 0.07974539703989171, 0.06786263888124533, 0.05914938016667045, 0.05254422783044323, 0.04724707729381368, 0.04271285728688983, 0.038648195003835886])","array('d', [-0.039287768304347846, -0.02645744035392521, -0.018121623608061695, -0.012627148686181696, -0.008955799080630732, -0.006471221479133443, -0.0047701846695577185, -0.0035937329395538224, -0.002773300038887465, -0.0021975451764233564, -0.0017916471471675064, -0.0015041940940353753, -0.0012987767729853892, -0.0011485536048677128, -0.0010327496525273656, -0.0009344709360075071])","array('d', [-0.7022957046839853, -0.7285199078437248, -0.7480670535783207, -0.7627866082852909, -0.7740108956807806, -0.7826472247209578, -0.7893554970439208, -0.7946321776946325, -0.7988548984862217, -0.8023091752576169, -0.805206638684698, -0.8076991224772169, -0.8098906715562569, -0.8118484698783014, -0.8136131910532913, -0.8156079752853165])",368.5276160276884,-328.9559131492224,-49.947868243094014,0.19007775666508714,-0.006471221479133443,-0.7826472247209578,25.00000024586385,-1.0,"[-336.2251086197654, 375.38851497416636, 50.10805151103519]","[-316.5938370912322, 372.86755269648756, 47.23439054155342]","[-329.65287859560186, 360.5343196209263, 38.43934665928475]",10000000000.0,0.014151334762573242
9,4.212305784225464,-337.08074951171875,376.09844970703125,50.16390609741211,0.6476476192474364,0.03761455789208396,-0.7159461220118662,23.16385584921549,"array('d', [376.7401123046875, 375.0915331750441, 373.4003583860354, 371.67804440236176, 369.93256162989735, 368.1695929752358, 366.3932727769568, 364.6066270808767, 362.8118652246565, 361.01058932310065, 359.2039533625933, 357.3927877055586, 355.5776971523116, 353.7591368971436, 351.93746876439513, 350.47759899554734])","array('d', [-337.7484130859375, -335.8708712934533, -334.03058243711973, -332.2189359125972, -330.42938126425304, -328.65694344250227, -326.8978332903001, -325.1491837812311, -323.4088509379357, -321.67525319998714, -319.94723761074033, -318.22396768616835, -316.50483072289836, -314.78936356359685, -313.077196388033, -311.7101174713216])","array('d', [-50.16778564453125, -50.08668504394378, -50.031656871952215, -49.993677525694736, -49.96700409211321, -49.94792813416899, -49.93402057060493, -49.92366777681559, -49.915782915333395, -49.9096242413827, -49.90467965703568, -49.900592877554985, -49.897116089736315, -49.89407966035995, -49.891372855696325, -49.88941979466736])","array('d', [0.6566324830055237, 0.5194052434900567, 0.4030601751698836, 0.3123875599622093, 0.24208973766291841, 0.18813303462862252, 0.14726321857685598, 0.1167687489324495, 0.0943572234211365, 0.07808758237765699, 0.06633098711138521, 0.05774697024142209, 0.051268161957150976, 0.04609029256097417, 0.041665880102823946, 0.03770085078608899])","array('d', [-0.038897648453712325, -0.026206370817540073, -0.01795745589297257, -0.012517968807858174, -0.008881852213888639, -0.006420132348711338, -0.004734103426127706, -0.0035676150176869644, -0.002753859796564045, -0.0021826138857297065, -0.0017797762922897818, -0.0014944092186384983, -0.0012904247772243759, -0.001141208523799766, -0.0010261549328599647, -0.0009285037863509713])","array('d', [-0.706825896105494, -0.7329818021718929, -0.7524636414912687, -0.7671095044281293, -0.7782560388269222, -0.7868133481483429, -0.7934434067467224, -0.7986442755884888, -0.8027947817214374, -0.8061812689679198, -0.8090158612801762, -0.8114505935044234, -0.8135894718658119, -0.8154994605395196, -0.8172208943783797, -0.8191667321375334])",368.1695929752358,-328.65694344250227,-49.94792813416899,0.18813303462862252,-0.006420132348711338,-0.7868133481483429,25.0000002458534,-1.0,"[-336.2251086197654, 375.38851497416636, 50.10805151103519]","[-316.5938370912322, 372.86755269648756, 47.23439054155342]","[-329.65287859560186, 360.5343196209263, 38.43934665928475]",10000000000.0,0.013565778732299805
10,4.229562997817993,-336.4210205078125,375.4515075683594,50.16037368774414,0.6273562312126157,0.03477013856172549,-0.7254149158808846,23.174997895108643,"array('d', [376.4201354980469, 374.7631968367311, 373.064121184438, 371.33428381870436, 369.5816045270705, 367.8117282382849, 366.0287588373506, 364.2356966936164, 362.4347287083145, 360.62743693081575, 358.8149571661008, 356.9981032098247, 355.17746475903743, 353.35348327440454, 351.52650814215554, 350.06248650286756])","array('d', [-337.4137878417969, -335.543577721246, -333.71056197770173, -331.90608869301025, -330.1235772070747, -328.35803467541206, -326.6056629893645, -324.8635927757929, -323.1296826374304, -321.4023571340384, -319.6804717924331, -317.96319999109255, -316.24993947475565, -314.54023751440707, -312.83373427433764, -311.471105442595])","array('d', [-50.16582107543945, -50.08564137555972, -50.03121436787977, -49.99363417050936, -49.96723054837047, -49.948340492926754, -49.934563692153084, -49.92430499011279, -49.91648957280358, -49.91038363394798, -49.90548038654778, -49.90142713488476, -49.89797849717412, -49.894966464856445, -49.89228133885983, -49.89034391088295])","array('d', [0.6534749269485473, 0.5165481683257287, 0.4000802753933252, 0.309372074984511, 0.23910801331347242, 0.18523929917170612, 0.14449829868913183, 0.11416147049194172, 0.09192579820401992, 0.07584107015233461, 0.06427082642795189, 0.05586853863692211, 0.04956232678051762, 0.04454492750816242, 0.04026733832199424, 0.03643539773753352])","array('d', [-0.03844882920384391, -0.0259154364025969, -0.01776568499638611, -0.012389329708477044, -0.008793950044735512, -0.006358863808909055, -0.004690465969712688, -0.0035357815089590867, -0.0027300045945844965, -0.002164190273555516, -0.0017650682985574087, -0.001482252364566705, -0.0012800320934930464, -0.0011320627455615295, -0.0010179422024298693, -0.0009210725998918135])","array('d', [-0.7113653858515879, -0.7373506858775768, -0.7566897875053373, -0.771201674530282, -0.7822211074971094, -0.7906577273645089, -0.797173668945951, -0.8022673614011079, -0.8063179798054048, -0.8096120780497462, -0.8123618048948745, -0.8147190324215765, -0.8167874413635096, -0.8186335476045432, -0.8202971623960094, -0.8221776234874286])",367.8117282382849,-328.35803467541206,-49.948340492926754,0.18523929917170612,-0.006358863808909055,-0.7906577273645089,25.000000245843207,-1.0,"[-335.94984110540395, 375.11464878513084, 50.1074975644188]","[-316.3325628364415, 372.51096252470285, 47.212120011257056]","[-329.44990846178035, 360.17922905359086, 38.502149096101135]",10000000000.0,0.01566910743713379
11,4.249114751815796,-336.0942687988281,375.1261291503906,50.15937042236328,0.612892985343933,0.032762825489044065,-0.7301933010432381,23.18040582458631,"array('d', [376.09844970703125, 374.43322880118995, 372.7265635499305, 370.989684096472, 369.23042075678376, 367.45435590092694, 365.66554599903384, 363.866953223633, 362.0607323016235, 360.24843733538415, 358.43117937522, 356.609750042898, 354.7847190669015, 352.9565098974417, 351.1254556863092, 349.65829313701187])","array('d', [-337.08074951171875, -335.2178333433128, -333.3918463523528, -331.5941332347728, -329.8181110621848, -328.0587896679123, -326.3123779284382, -324.5760170035947, -322.8475787333199, -321.1255027519947, -319.408660679186, -317.69624228847084, -315.98766144245025, -314.2824808214135, -312.58035500570224, -311.22111311930826])","array('d', [-50.16390609741211, -50.08545043435402, -50.03216902457141, -49.99536296549888, -49.969491521605214, -49.95097385860071, -49.93746256599276, -49.92739704771297, -49.91972540423099, -49.91372924544689, -49.90891229448037, -49.904929090302325, -49.901539238003956, -49.89857811299898, -49.89593819810062, -49.89403336713103])","array('d', [0.6476476192474364, 0.5112754020977249, 0.3950478149594095, 0.3045881869989033, 0.23458791906289977, 0.18099734485744623, 0.14054449930187096, 0.11050012809165331, 0.0885552728136305, 0.07275422975096943, 0.06145588521031282, 0.05331009301808718, 0.0472424680927683, 0.04244436183816875, 0.038366480527619505, 0.03471543032309101])","array('d', [-0.03761455789208396, -0.025365020639743503, -0.017396380651211615, -0.012137296267394359, -0.008618932143890638, -0.0062351041067492405, -0.004601239813136778, -0.0034700671317364124, -0.002680430104195622, -0.0021257546285321275, -0.0017343381228217196, -0.0014568555094907805, -0.0012583387923087472, -0.0011129865099244087, -0.0010008169922140788, -0.0009055770675417253])","array('d', [-0.7159461220118662, -0.7416183617677224, -0.7607064312626515, -0.7749996350289218, -0.7858223530153123, -0.7940793108127934, -0.8004301897239703, -0.8053721077638462, -0.8092834268677277, -0.8124500611552551, -0.8150835368774497, -0.8173350577276824, -0.8193075780271204, -0.8210668438935612, -0.8226518813408153, -0.8244434951858387])",367.45435590092694,-328.0587896679123,-49.95097385860071,0.18099734485744623,-0.0062351041067492405,-0.7940793108127934,25.000000245833338,-1.0,"[-335.84388654154765, 375.0075093039457, 50.107597031426785]","[-316.23220908715075, 372.36455941731253, 47.20985250827678]","[-329.3730762305882, 360.0233578786147, 38.54888516624334]",10000000000.0,0.018358230590820312
12,4.272404670715332,-336.0942687988281,375.1261291503906,50.15937042236328,0.612892985343933,0.032762825489044065,-0.7301933010432381,23.18040582458631,"array('d', [375.4515075683594, 373.7696331963291, 372.0484302808202, 370.29864760354224, 368.5278189669207, 366.7413262440147, 364.9430783980839, 363.13592184076685, 361.32191596859866, 359.5025336400449, 357.67881504965015, 355.8514891137085, 354.0210695894931, 352.1879297401419, 350.3523576273612, 348.881937292996])","array('d', [-336.4210205078125, -334.57287361885716, -332.76046566734067, -330.97525226594485, -329.21073275943473, -327.4619863702242, -325.7252861935146, -323.9978354289343, -322.2775666004981, -320.5629784791257, -318.8529996863764, -317.1468742222407, -315.4440668766102, -313.7441876196124, -312.0469345403797, -310.69126327164])","array('d', [-50.16037368774414, -50.087817457216694, -50.03849049617419, -50.004379189636445, -49.9803747308839, -49.96317259908056, -49.950604802872455, -49.94122900536752, -49.9340724282167, -49.92847039280025, -49.923963563440054, -49.92023212055748, -49.91705347912887, -49.91427517999399, -49.91179759023956, -49.910009803510626])","array('d', [0.6273562312126157, 0.4929149915661181, 0.3783039598221057, 0.2892371339111856, 0.2204948267080906, 0.16806866343326998, 0.12870536553434841, 0.09968315605244021, 0.07869521853632919, 0.0637858672594439, 0.053313637174188605, 0.04592856585407572, 0.04055739389341412, 0.03639367025684629, 0.0328913624762617, 0.0297613381934531])","array('d', [-0.03477013856172549, -0.023471786899484152, -0.016115155266142277, -0.011255826811167708, -0.008002318608835582, -0.005796298903630708, -0.004283222406496419, -0.003234921203468655, -0.002502565559634012, -0.0019876562427513242, -0.0016238777329742092, -0.001365586473260139, -0.0011804163402545005, -0.0010444909121356558, -0.0009393354009980184, -0.0008499462119824726])","array('d', [-0.7254149158808846, -0.7500146305294846, -0.7682568809355611, -0.7818405644665695, -0.7920441209511139, -0.7997491482308083, -0.8056025768920524, -0.8100938371420522, -0.8135961364728098, -0.8163915018602038, -0.8186882048840751, -0.8206345223926123, -0.8223306782070632, -0.8238398409085095, -0.8251986110097937, -0.826734393718547])",366.7413262440147,-327.4619863702242,-49.96317259908056,0.16806866343326998,-0.005796298903630708,-0.7997491482308083,25.00000024581361,-1.0,"[-335.2444773712662, 374.4005627469903, 50.10856350546106]","[-315.6652863439688, 371.53075061874796, 47.20693343510598]","[-328.9385453510549, 359.1354618455134, 38.829737510518]",10000000000.0,0.02194666862487793
13,4.293302059173584,-335.76904296875,374.79888916015625,50.15898895263672,0.5956111550331116,0.030329097062349153,-0.735035343966212,23.185120564533115,"array('d', [375.1261291503906, 373.43607935871466, 371.7080986958727, 369.9526109816891, 368.1769487699412, 366.38635915810215, 364.58465289089895, 362.7745999870901, 360.9581974470596, 359.13686533922737, 357.3115981029876, 355.48308436397036, 353.6518020475838, 351.8180923630396, 349.9822146051042, 348.5117652788367])","array('d', [-336.0942687988281, -334.2534280823117, -332.4474025552243, -330.66776083357234, -328.9080863941058, -327.16352520238286, -325.43040777861626, -323.705989062036, -321.98824924067105, -320.27573132258703, -318.5674049635972, -316.8625520722195, -315.16067228534035, -313.46140746189667, -311.7644847728311, -310.408848533856])","array('d', [-50.15937042236328, -50.09098444786746, -50.044463548553445, -50.01227103360016, -49.98959986619344, -49.97333937634119, -49.961447986091855, -49.95256704173862, -49.945779995178306, -49.940460502358945, -49.93617570199541, -49.93262422275066, -49.92959633884051, -49.926948400841965, -49.92458649577588, -49.922882094190456])","array('d', [0.612892985343933, 0.47982810437380985, 0.3665902402123593, 0.2786680005516418, 0.210921352583852, 0.15938313976077786, 0.12082269196426935, 0.0925312640803639, 0.07221009508570926, 0.057909050294020395, 0.04799104276480605, 0.04110999954789459, 0.036196377089263, 0.03244737898601956, 0.029320576603507925, 0.026530357231443834])","array('d', [-0.032762825489044065, -0.02213040802682222, -0.015204079087568469, -0.010627021478581073, -0.007561310181664738, -0.005481864938318663, -0.00405508537595816, -0.0030661821461072164, -0.002374992251036948, -0.0018887172514867536, -0.0015448609095605617, -0.0013004014911598, -0.0011248350072815023, -0.0009956704898955505, -0.0008955244617281677, -0.0008103044312619511])","array('d', [-0.7301933010432381, -0.7540444884628643, -0.7716975497108794, -0.7847933224969291, -0.7945760980759901, -0.8019098805349224, -0.8074316049608138, -0.8116244797900499, -0.8148574515269416, -0.8174093405614957, -0.8194858062388453, -0.821232876445906, -0.8227487758037457, -0.8240948684612817, -0.8253061178059004, -0.8266750809640888])",366.38635915810215,-327.16352520238286,-49.97333937634119,0.15938313976077786,-0.005481864938318663,-0.8019098805349224,25.00000024580453,-1.0,"[-334.82931823907535, 373.9724924315527, 50.11172816625402]","[-315.2736578105033, 370.91393312015265, 47.244436736868096]","[-328.6405972251622, 358.4411051565332, 39.1355839650643]",10000000000.0,0.015535354614257812
14,4.312037229537964,-335.44537353515625,374.4698486328125,50.15946578979492,0.5758287906646729,0.02752823941409575,-0.7400349815699716,23.19017888078014,"array('d', [374.79888916015625, 373.10069076628326, 371.36616634692297, 369.60536839737125, 367.8253980187202, 366.0313471952825, 364.2269136309533, 362.4147794539548, 360.5968699202255, 358.77454444502143, 356.94874493980774, 355.12011380912907, 353.2890878933797, 351.4559716559837, 349.6209914093099, 348.1515039738659])","array('d', [-335.76904296875, -333.9355267294549, -332.13569552160214, -330.3612641860332, -328.60592588694095, -326.8649129222121, -325.13462905863764, -323.4123941605554, -321.6962472650675, -319.9847851987427, -318.2770269102409, -316.57229937547646, -314.87014332710385, -313.17023801535925, -311.47234458693777, -310.1156613038153])","array('d', [-50.15898895263672, -50.095663018507764, -50.052552465866086, -50.022695204893225, -50.0016484972458, -49.986536164186035, -49.97546984888649, -49.96719252418428, -49.9608560572464, -49.95588082957396, -49.951866304404874, -49.94853367117068, -49.94568895242935, -49.943199300227164, -49.94097781891586, -49.93937462214799])","array('d', [0.5956111550331116, 0.464190857058093, 0.3526773238227288, 0.2661826673196234, 0.19966609717463332, 0.1492133657564384, 0.11162404205098506, 0.08420781090768995, 0.06467806757959087, 0.051093523698823286, 0.0418242155377644, 0.035530280634956425, 0.031147844099845317, 0.027879367961429816, 0.025187283384650136, 0.022790398528699192])","array('d', [-0.030329097062349153, -0.020501222681635217, -0.014095842435048129, -0.00986119428682487, -0.007023711114082654, -0.0050983495885648595, -0.0037767785600031443, -0.002860380807542641, -0.002219489550142874, -0.0017682232307975445, -0.0014487280822941468, -0.0012211753077603783, -0.0010573333664586112, -0.0009364060150179495, -0.0008423483200381987, -0.0007621886704595417])","array('d', [-0.735035343966212, -0.7580085535827337, -0.774968181548954, -0.7874906415794598, -0.7967802018162806, -0.8036799954395478, -0.8088149439975156, -0.8126606762328216, -0.8155808914981668, -0.8178504445990736, -0.819671776134615, -0.8211881705245524, -0.8224954463654304, -0.8236528269619706, -0.8246933579451639, -0.8258692578017035])",366.0313471952825,-326.8649129222121,-49.986536164186035,0.1492133657564384,-0.0050983495885648595,-0.8036799954395478,25.000000245795977,-1.0,"[-334.82931823907535, 373.9724924315527, 50.11172816625402]","[-315.2736578105033, 370.91393312015265, 47.244436736868096]","[-328.6405972251622, 358.4411051565332, 39.1355839650643]",10000000000.0,0.016578197479248047
15,4.334698677062988,-334.8027648925781,373.8063659667969,50.16428756713867,0.5301681756973265,0.021184351295232696,-0.7499074180934092,23.198476010655472,"array('d', [374.4698486328125, 372.76334019776283, 371.0222815074592, 369.25632130132374, 367.47230683931497, 365.6751590961551, 363.8684506394568, 362.0547659830334, 360.2359504967196, 358.4132959308916, 356.58768551665804, 354.7597099729813, 352.9297601627091, 351.09809939915397, 349.2649170325911, 347.79714484361864])","array('d', [-335.44537353515625, -333.61938753173223, -331.8257814118476, -330.05644139289393, -328.3051901512511, -326.56736203665736, -324.8394471457934, -323.11884146638437, -321.4036526054068, -319.6925396976081, -317.98457841819254, -316.27914733374433, -314.57583401732205, -312.87436019727215, -311.1745255318843, -309.81598613734155])","array('d', [-50.15946578979492, -50.10196612411919, -50.062786085123754, -50.03562216362633, -50.016449789768636, -50.002662347148004, -49.99254786393487, -49.98496645910666, -49.97914896219716, -49.97456974798791, -49.970865674393096, -49.96778405813398, -49.96514917710546, -49.96284071338627, -49.9607799130222, -49.95929251303216])","array('d', [0.5758287906646729, 0.4462910326080233, 0.3367889046784939, 0.25195850313159895, 0.1868718651329653, 0.13767594086147686, 0.10120598894474242, 0.07479399698996779, 0.05616848427140127, 0.043399430456391774, 0.03486605430765589, 0.02923648565531318, 0.025454053882651907, 0.022727772862774633, 0.02052597644273568, 0.018572673208815595])","array('d', [-0.02752823941409575, -0.01862423870074919, -0.012817979689639282, -0.008977662492696072, -0.00640333594509852, -0.004655827292267189, -0.0034558005965032563, -0.002623221751968321, -0.002040500939861576, -0.0016297250262154498, -0.0013383948822244796, -0.0011303690153611078, -0.0009800439011952683, -0.0008685866481041683, -0.0007815064838705191, -0.0007071366955805242])","array('d', [-0.7400349815699716, -0.762023906107857, -0.7782015104883196, -0.7900758976531725, -0.7988075279192418, -0.8052164466123158, -0.8099141490821514, -0.8133677018854123, -0.8159348171997117, -0.8178857922181593, -0.8194193574533666, -0.8206756390060868, -0.8217476972864093, -0.8226923153982703, -0.823540365643986, -0.8244985846112448])",365.6751590961551,-326.56736203665736,-50.002662347148004,0.13767594086147686,-0.004655827292267189,-0.8052164466123158,25.000000245787216,-1.0,"[-334.22996340521064, 373.34341409554315, 50.12058114701787]","[-314.7107925440126, 369.97280871622814, 47.356347389122355]","[-328.2175417515892, 357.350102187642, 39.72516099794978]",10000000000.0,0.019246339797973633
16,4.358106374740601,-334.4837951660156,373.4720458984375,50.16896438598633,0.504765450954437,0.017793923616409187,-0.7547065456721441,23.20158511379163,"array('d', [373.8063659667969, 372.0837848909828, 370.3305385879335, 368.5554256577825, 366.764750103535, 364.96306257438266, 363.15366202549006, 361.33891783407717, 359.52049818774736, 357.699544034198, 355.87680735984924, 354.0527629836632, 352.2276984664644, 350.401784517257, 348.5751271846043, 347.1132049607415])","array('d', [-334.8027648925781, -332.9915443146109, -331.2096659235899, -329.4494191207348, -327.7049344271817, -325.97178988698676, -324.2466815832122, -322.5271863604784, -320.81157371500944, -319.09864883812753, -317.3876194244347, -315.67798331192193, -313.9694357485722, -312.26179567322185, -310.5549505967759, -309.1901167588204])","array('d', [-50.16428756713867, -50.11999198757135, -50.089728496626826, -50.06867794037423, -50.05376020701632, -50.04297871304935, -50.03502139657327, -50.02901443601235, -50.02436828844342, -50.02068034379008, -50.01767278350105, -50.0151526231345, -50.01298590576415, -50.011081006182714, -50.009377812593, -50.00814808016944])","array('d', [0.5301681756973265, 0.40497559362362295, 0.30019781752764924, 0.21928319723532766, 0.15755530506011586, 0.11130076500894659, 0.07743840021154018, 0.0533540270969938, 0.03681388899371575, 0.025916878356442356, 0.019066165350568234, 0.014950776652407901, 0.012532703193156755, 0.01103762448170351, 0.009948502136292421, 0.009001777801617728])","array('d', [-0.021184351295232696, -0.014367749954345059, -0.009917886598198495, -0.006971908156414098, -0.00499532453971861, -0.0036523022230371925, -0.002728964974810612, -0.002087312179545984, -0.0016371181429353458, -0.0013185529351467374, -0.0010912871044761472, -0.0009275725966157953, -0.0008077995535669079, -0.0007176245434860477, -0.0006461232058143345, -0.0005846366159946969])","array('d', [-0.7499074180934092, -0.7697015908820475, -0.7841166026748232, -0.794522156310341, -0.8019860195189275, -0.8072785332141365, -0.8109818047909891, -0.8135438252968518, -0.8153087353655449, -0.8165363589127483, -0.8174168351639746, -0.8180829655122835, -0.8186214340031971, -0.8190834159170755, -0.8194948223610092, -0.8199592051609005])",364.96306257438266,-325.97178988698676,-50.04297871304935,0.11130076500894659,-0.0036523022230371925,-0.8072785332141365,25.000000248465813,-1.0,"[-333.63865693609125, 372.71207654572936, 50.13457174413939]","[-314.1573325563484, 369.0108506263515, 47.530934460460415]","[-327.8009114129011, 356.2172602955883, 40.44737586088428]",10000000000.0,0.020524024963378906
17,4.376103401184082,-334.16632080078125,373.13616943359375,50.175418853759766,0.47807350754737865,0.014268845319747836,-0.7592677315089367,23.205031738753938,"array('d', [373.4720458984375, 371.74181105671846, 369.9829642570318, 368.2038765341968, 366.41057341244664, 364.6074127659829, 362.79754927969344, 360.9832376797593, 359.1660509212732, 357.3470483662895, 355.5269106518953, 353.7060493666626, 351.8846955663203, 350.06296920267886, 348.2409305870141, 346.7830526483185])","array('d', [-334.4837951660156, -332.67971653758934, -330.90328632569083, -329.14701799612226, -327.4052148359389, -325.67359270701354, -323.94896455273687, -322.22900980072893, -320.5120895390297, -318.79709126789464, -317.0832967396805, -315.3702703890232, -313.65776733018214, -311.94566035801864, -310.2338855236238, -308.86473194483756])","array('d', [-50.16896438598633, -50.13172852809828, -50.10623520056949, -50.08845560066495, -50.07581343767368, -50.0666381111075, -50.05983159217231, -50.05466265610025, -50.05063815742833, -50.04742158274929, -50.04478101222325, -50.04255561229909, -50.04063394204425, -50.03893985538715, -50.03742329401203, -50.036328007326595])","array('d', [0.504765450954437, 0.38199025573852297, 0.27985390024936474, 0.20113781479546655, 0.14129758983920052, 0.09669460498759797, 0.06429329563060511, 0.041509534516175575, 0.02613116012902083, 0.016273993058064228, 0.010355443076357182, 0.00707703979808461, 0.005411921861398244, 0.004595643767296309, 0.00411971155382286, 0.0037276695030284608])","array('d', [-0.017793923616409187, -0.012091039995309527, -0.008366126147642665, -0.005898836474285743, -0.004242567943543487, -0.0031164952404430673, -0.0023416526354378634, -0.0018024934269681495, -0.0014234304144659922, -0.001154319329834274, -0.0009613564709270184, -0.000821300106477986, -0.0007177634322848995, -0.0006388228700763673, -0.0005754829295276019, -0.0005207186450254004])","array('d', [-0.7547065456721441, -0.7733218150076114, -0.7867787409299635, -0.7963800322619713, -0.8031469708590608, -0.8078245281947067, -0.8109795562596774, -0.8130499588748566, -0.8143725627041217, -0.8152014555581207, -0.8157220200099898, -0.8160629811849927, -0.816307472836703, -0.8165035557470562, -0.8166743963265675, -0.8168666941607893])",364.6074127659829,-325.67359270701354,-50.0666381111075,0.09669460498759797,-0.0031164952404430673,-0.8078245281947067,25.000000248463007,-1.0,"[-333.33733936011885, 372.38582398265083, 50.14428571486782]","[-313.8755904043613, 368.51282834245615, 47.646240007899536]","[-327.58660985112004, 355.62453437352605, 40.87129910033113]",10000000000.0,0.016158342361450195
18,4.393904685974121,-333.85028076171875,372.7987976074219,50.18380355834961,0.45036214590072626,0.010832678526639796,-0.7636553486201423,23.206996916949375,"array('d', [373.13616943359375, 371.39877667479004, 369.6348570396828, 367.8523636156797, 366.057045867487, 364.25306832468505, 362.44343954061253, 360.6302971542414, 358.8151162260843, 356.99887183343907, 355.1821706343939, 353.3653584846635, 351.5486075865117, 349.73198494793996, 347.9155031150781, 346.46243786555453])","array('d', [-334.16632080078125, -332.36898923845234, -330.5975269970961, -328.8446814722329, -327.1049377638552, -325.3741577187272, -323.6492784628963, -321.9280885044555, -320.2090462089259, -318.491126290943, -316.77368874529793, -315.0563681505355, -313.33898249395907, -311.6214609916101, -309.9037904491415, -308.5295296569998])","array('d', [-50.175418853759766, -50.14552480395094, -50.12499369608952, -50.11061655560456, -50.100340398578794, -50.09283361488828, -50.08722097906031, -50.08291984055424, -50.07953757336032, -50.07680663856762, -50.07454304791122, -50.07261956626235, -50.070948297422454, -50.06946928810449, -50.06814299317754, -50.067184746490085])","array('d', [0.47807350754737865, 0.35783838623795866, 0.25848183997068663, 0.18208713368792856, 0.12424233241570642, 0.08138481163307178, 0.050525989706279854, 0.029113177312576843, 0.014957183890637115, 0.006192112344699621, 0.0012509142081407727, -0.0011511670754262506, -0.002028765741382195, -0.002135540566712367, -0.0019707273680016155, -0.0017831880247458909])","array('d', [-0.014268845319747836, -0.00972282170316144, -0.006751817404360131, -0.00478280715072447, -0.003460205766620674, -0.002560243517379362, -0.0019402123004070419, -0.0015079118277889676, -0.001202989449206933, -0.0009853888142466124, -0.000828107704496054, -0.0007126045743464541, -0.0006258576950299205, -0.0005584739123728704, -0.0005034794844689912, -0.00045556743451901645])","array('d', [-0.7592677315089367, -0.7766733270906828, -0.7891389909375415, -0.7979037927583864, -0.803943774409644, -0.8079789072200538, -0.810560819786161, -0.8121172071262116, -0.8129773865688941, -0.8133894847577834, -0.8135339006298982, -0.8135350714667242, -0.8134723938894786, -0.813390655134668, -0.8133101439887318, -0.8132181557438714])",364.25306832468505,-325.3741577187272,-50.09283361488828,0.08138481163307178,-0.002560243517379362,-0.8079789072200538,25.00000024575547,-1.0,"[-333.02330709017514, 372.04314055780185, 50.15639822969881]","[-313.58161977188627, 367.99391971531327, 47.784773304327686]","[-327.3594993192205, 355.0047686340023, 41.346451367205646]",10000000000.0,0.016666889190673828
19,4.409907341003418,-333.85028076171875,372.7987976074219,50.18380355834961,0.45036214590072626,0.010832678526639796,-0.7636553486201423,23.206996916949375,"array('d', [372.7987976074219, 371.0546149626609, 369.2860014439288, 367.50050834730854, 365.70361556693587, 363.8992962255186, 362.09041252009814, 360.27898369021074, 358.4663850474542, 356.65350529008055, 354.84087493767794, 353.0287719887161, 351.2173077568837, 349.4064943859, 347.5962948589008, 346.14863920536953])","array('d', [-333.85028076171875, -332.0594249958824, -330.2925952898183, -328.5427788919965, -326.80464850647826, -325.07421770614724, -323.3485532825182, -321.6255579060153, -319.9037918015431, -318.18232093175527, -316.46058701980127, -314.7382977649774, -313.01533655772334, -311.29169119072816, -309.5674010753486, -308.1874424595835])","array('d', [-50.18380355834961, -50.16106670571204, -50.14537266755545, -50.13431056690006, -50.12633743760769, -50.120452379223686, -50.115997712876485, -50.11253596524456, -50.10977279825701, -50.107508160710125, -50.105604994535945, -50.10396898436643, -50.10253531852661, -50.10125992601185, -50.100113566896766, -50.09928488797007])","array('d', [0.45036214590072626, 0.3327641075476906, 0.23627989611829436, 0.16229450935802675, 0.10652578834434143, 0.0654863357620449, 0.03623454446128084, 0.01624953981229495, 0.003365712797736938, -0.004263797621814309, -0.00818967484190589, -0.009682133383326021, -0.009742802598196225, -0.009113872441048443, -0.008284769718233012, -0.0074963703195941155])","array('d', [-0.010832678526639796, -0.007414091915759134, -0.0051785174162366325, -0.0036959253035317163, -0.002699216238049745, -0.0020201628250914355, -0.0015513921643221685, -0.0012234770879059626, -0.0009909361808720415, -0.0008235661540514925, -0.00070101137606716, -0.0006093263296368454, -0.0005387831938765631, -0.0004824702637660113, -0.0004354022389450758, -0.000393968589938072])","array('d', [-0.7636553486201423, -0.7798338492205694, -0.7912852896561456, -0.799189094987569, -0.8044781622619573, -0.8078483345975024, -0.8098363653745548, -0.8108598283717862, -0.8112404800180082, -0.8112203623618301, -0.8109747367691877, -0.8106235939747526, -0.8102424448910176, -0.8098726718224648, -0.80953157322144, -0.8091448549653959])",363.8992962255186,-325.07421770614724,-50.120452379223686,0.0654863357620449,-0.0020201628250914355,-0.8078483345975024,25.000000245748932,-1.0,"[-333.02330709017514, 372.04314055780185, 50.15639822969881]","[-313.58161977188627, 367.99391971531327, 47.784773304327686]","[-327.3594993192205, 355.0047686340023, 41.346451367205646]",10000000000.0,0.014254570007324219
20,4.445081472396851,-333.2231140136719,372.1217041015625,50.208412170410156,0.3930938243865965,0.004269482567906254,-0.7721189697596688,23.209309153154315,"array('d', [372.1217041015625, 370.3646090682604, 368.58723403594803, 366.7963909424857, 364.99705168503243, 363.19282058917884, 361.3862724426432, 359.5791902670561, 357.7727478463252, 355.96765768773787, 354.16429391753104, 352.36279445021734, 350.5631444498345, 348.7652420925304, 346.9689471968406, 345.5332220714235])","array('d', [-333.2231140136719, -331.44479085087363, -329.68670995885503, -327.9423367296116, -326.20672225141516, -324.4761905323043, -322.74807643314625, -321.0205202075867, -319.2922947911519, -317.5626569034836, -315.83121903274787, -314.0978414250476, -312.36254363755836, -310.62543514741577, -308.886664414045, -307.4942966226582])","array('d', [-50.208412170410156, -50.199344465514315, -50.19288235648526, -50.18813795531488, -50.18454326548642, -50.18173052366938, -50.179459063567705, -50.17757000597918, -50.175957820015896, -50.1745522314943, -50.173306531846414, -50.172189862938595, -50.17118196626224, -50.170269443589504, -50.16944292820192, -50.16884442470333])","array('d', [0.3930938243865965, 0.28094558520883617, 0.1903012223643233, 0.12125486042172996, 0.06976566429986857, 0.03248759046471678, 0.006568130477809575, -0.010452435203248157, -0.02069352471945466, -0.02596390993270623, -0.02778089857946701, -0.02738462264043401, -0.025749563077219546, -0.02359385514701437, -0.021386332719829086, -0.019351155831569846])","array('d', [-0.004269482567906254, -0.003005778764332235, -0.0021777278513585856, -0.00162698289651889, -0.001254975765206687, -0.0009994803199137674, -0.0008206708932692081, -0.0006927099508345182, -0.0005986086933048992, -0.0005270558168101682, -0.00047044825977107633, -0.0004236672871313164, -0.00038332308923508067, -0.00034729606011606125, -0.0003144639590948796, -0.00028453909926338586])","array('d', [-0.7721189697596688, -0.7858432383070185, -0.7952395760440152, -0.8013816015086412, -0.8051246969399192, -0.8071206566961364, -0.8078785837476596, -0.8077968008744902, -0.8071823096459403, -0.8062649966151046, -0.8052096741651684, -0.8041271818650676, -0.8030849791149699, -0.8021173703989756, -0.8012354328265895, -0.8002370397956096])",363.19282058917884,-324.4761905323043,-50.18173052366938,0.03248759046471678,-0.0009994803199137674,-0.8071206566961364,25.000000245736715,-1.0,"[-332.6630744354945, 371.64625839459165, 50.17328787712706]","[-313.2444106838524, 367.40101271104817, 47.96118770149856]","[-327.0959664508141, 354.2957258629142, 41.929118449336926]",10000000000.0,0.015143394470214844
21,4.4650866985321045,-332.9117431640625,371.78216552734375,50.224693298339844,0.36423939466476446,0.0011481809196993158,-0.775954409441676,23.209950590927175,"array('d', [371.78216552734375, 370.01934410856467, 368.2382511836254, 366.4453675086555, 364.64543161215596, 362.8418744577502, 361.0371330569183, 359.23287536229253, 357.4301757546439, 355.62965902956944, 353.83162094428053, 352.03612889546474, 350.2431043415549, 348.45238777319446, 346.6637866990581, 345.23462950560963])","array('d', [-332.9117431640625, -331.13907005726264, -329.3847423288939, -327.64245934649756, -325.90745975581063, -324.1762235594561, -322.4462215523726, -320.71571506307276, -318.9835856168083, -317.24918726652817, -315.51221946411505, -313.77261992986854, -312.0304771670323, -310.28596208348404, -308.5392780440122, -307.14016935239346])","array('d', [-50.224693298339844, -50.22212512849118, -50.220048947441356, -50.218300691545124, -50.21677659953279, -50.21541084330757, -50.214161879461315, -50.21300400378578, -50.211922032397595, -50.21090785680916, -50.209958098579285, -50.20907237270273, -50.20825184326543, -50.20749787032056, -50.206810633692534, -50.206312283536775])","array('d', [0.36423939466476446, 0.25483702023222476, 0.16710135887202934, 0.1005329636626166, 0.05120069909427, 0.015823506230116174, -0.008409662527174169, -0.023929560530344295, -0.03283321378201031, -0.036910486178346906, -0.03766179779221146, -0.03631186617108539, -0.03382116780414726, -0.030895405063210316, -0.027992791631522136, -0.02532892759682856])","array('d', [-0.0011481809196993158, -0.0009103232447858696, -0.0007532421959744213, -0.0006471327388777535, -0.0005733714204165778, -0.0005201219112908759, -0.00047972312960749606, -0.00044712129828952836, -0.0004189261814356799, -0.00039284931755408797, -0.00036738212061756506, -0.0003416282147668543, -0.00031523562114344736, -0.00028839056639864166, -0.00026184162536573843, -0.00023692443842092468])","array('d', [-0.775954409441676, -0.7884785009349029, -0.7968576135959881, -0.8021199814417654, -0.8050870921187093, -0.8063911454461015, -0.8065286812113699, -0.8058890365534395, -0.8047721278908792, -0.8034018635482074, -0.80193783062553, -0.8004862473727691, -0.7991104884680077, -0.7978412636670005, -0.7966864932881338, -0.7953795574320484])",362.8418744577502,-324.1762235594561,-50.21541084330757,0.015823506230116174,-0.0005201219112908759,-0.8063911454461015,25.000000245731634,-1.0,"[-332.0972816296671, 371.017979965173, 50.20548817749101]","[-312.71504651770556, 366.48078498150284, 48.27085029282035]","[-326.6772864589083, 353.2072181123835, 42.89792944887527]",10000000000.0,0.01597738265991211
