,current_time,x_pos,y_pos,z_pos,roll,pitch,yaw,vel,x_traj,y_traj,z_traj,roll_traj,pitch_traj,yaw_traj,x_cmd,y_cmd,z_cmd,roll_cmd,pitch_cmd,yaw_cmd,vel_cmd,effector_dmg,effector_x,effector_y,effector_z,cost,time_solution
0,4.041014909744263,-200.6089630126953,-227.77444458007812,49.962371826171875,0.6304371356964108,0.041112024337053334,2.1055385629322863,23.12162730337453,"array('d', [-230.6387481689453, -229.3556467159635, -227.16746151144235, -224.94334117699054, -222.68464148080923, -220.39292174012252, -218.070074699278, -215.71879751168154, -213.34258486451677, -210.9451725199596, -208.5300937297584, -206.10046464083345, -203.658921866612, -201.20764179474057, -198.7483955702713, -196.77519431379696])","array('d', [-199.0378875732422, -199.81254428311456, -201.01919793539167, -202.15915785300626, -203.22955029689058, -204.22766555141177, -205.15127621580336, -206.0000892863227, -206.77651279525412, -207.48489860357122, -208.13059638315718, -208.71926981819598, -209.25646711489944, -209.7473821211958, -210.1967429076728, -210.52276980405014])","array('d', [-49.97035217285156, -49.91463185980747, -49.84155275632528, -49.784340689278075, -49.7394933389962, -49.704229120255434, -49.676352992045594, -49.654142182693704, -49.636251751137586, -49.62163788327256, -49.6094961186885, -49.59921238455996, -49.590325203447165, -49.58249744640989, -49.57549588929641, -49.570440604722144])","array('d', [0.629649519920349, 0.6444709510673201, 0.6578819377232157, 0.6700167012911729, 0.68099669025101, 0.6909317950446261, 0.6875724376768314, 0.6650351778323874, 0.6296828289261488, 0.5868409003744303, 0.540618995441811, 0.4939928919081584, 0.44898474106629066, 0.4068455815661904, 0.36820242545534637, 0.3331633621273223])","array('d', [-0.041589111089706476, -0.032867468440187675, -0.025723444663709752, -0.020143351330270728, -0.01580879047447518, -0.012459407512048324, -0.009884910914370857, -0.007916804966370775, -0.006420622940626159, -0.005289409344898693, -0.004438239912526558, -0.0037994273209617253, -0.0033183577450605233, -0.0029500029867380218, -0.0026561520191381582, -0.0024033862671138818])","array('d', [2.138040200867925, 2.089631332461908, 2.059720354513937, 2.029009903249976, 1.9975621723286388, 1.965435464421654, 1.933100377956125, 1.9016176023853384, 1.8719636836812832, 1.8446540913663252, 1.8198631818981401, 1.7975508317303308, 1.777558983624896, 1.759675063448052, 1.743671147034277, 1.7257425810652955])",-220.39292174012252,-204.22766555141177,-49.704229120255434,0.6909317950446261,-0.012459407512048324,1.965435464421654,25.000000236119032,-1.0,"[-200.9445896253735, -227.31822867674364, 49.90367038902207]","[-218.45409213718952, -219.95930396283225, 56.169733654238364]","[-201.3594539859588, -211.17814796206133, 61.707300427525325]",10000000000.0,0.020951509475708008
1,4.077572822570801,-201.041259765625,-226.94564819335938,49.95973205566406,0.6304208040237426,0.04107213392853745,2.0960334102299547,23.12452704530822,"array('d', [-229.8258056640625, -227.68801355979804, -225.51244876621354, -223.3002422262709, -221.05272056186666, -218.77141743200923, -216.4581997201515, -214.11574100122425, -211.74755165402155, -209.3574160174874, -206.94893192335888, -204.52528444331648, -202.08917679223384, -199.6428464233209, -197.18811885563426, -195.2197172586039])","array('d', [-199.49588012695312, -200.78847038225433, -202.017753688999, -203.1806716478003, -204.27434101522502, -205.29603910708002, -206.24350681717377, -207.11635905122805, -207.91691853732382, -208.64947912728414, -209.3193546650531, -209.93218831746205, -210.49351734940407, -211.00853025837253, -211.4819528370121, -211.82691342733804])","array('d', [-49.9683837890625, -49.8757839085258, -49.80306098829103, -49.74599187142619, -49.70117188809441, -49.66587972840087, -49.63795570753498, -49.61569623540474, -49.597765386694235, -49.58312226557647, -49.57096193153809, -49.56066817344699, -49.55177681685218, -49.54394817022321, -49.53694703024122, -49.531896184506216])","array('d', [0.6300383806228637, 0.6448228068026192, 0.6582003099888984, 0.6703047764595774, 0.6812573514757413, 0.6911676511610623, 0.6883524484929717, 0.6661479807174868, 0.6309606904014881, 0.5881641874217586, 0.5419105374003974, 0.4952086009108332, 0.45010425134274457, 0.4078642643585629, 0.3691248788009891, 0.33399803250636695])","array('d', [-0.041576605290174505, -0.03266908959446231, -0.025634918719773876, -0.02011645764207926, -0.015813263400814823, -0.012477069461401272, -0.009905516369054982, -0.007935168683662725, -0.006434665866682079, -0.005298846265200187, -0.0044437246641852585, -0.0038020102171840977, -0.003319145207198673, -0.002949941365447537, -0.0026558833859367773, -0.0024031432039783376])","array('d', [2.1290788809445242, 2.100011081206185, 2.0700793279060696, 2.0393497042765882, 2.0078843054441835, 1.9757413381896616, 1.9433724883497896, 1.9118285051721524, 1.8821007764407862, 1.854715335419283, 1.829852574452001, 1.807475080280978, 1.787425497240221, 1.7694909024084142, 1.7534425668496947, 1.735451179254007])",-218.77141743200923,-205.29603910708002,-49.66587972840087,0.6911676511610623,-0.012477069461401272,1.9757413381896616,25.000000235361927,-1.0,"[-201.5837476648129, -226.06727235792962, 49.89936394040912]","[-218.9529428998827, -218.49973661861316, 56.30588091300797]","[-201.71107303686097, -209.91497240686851, 61.69287887619412]",10000000000.0,0.034982919692993164
2,4.109238862991333,-201.2543487548828,-226.53013610839844,49.95857238769531,0.6304868459701538,0.04104160517454148,2.09140540758637,23.12644357353385,"array('d', [-229.0096435546875, -226.86002064938572, -224.673176592905, -222.45027787013478, -220.1926835171844, -217.90195735897407, -215.57999472957923, -213.22948906166846, -210.8539392884709, -208.45709251203928, -206.04249576540056, -203.61327864593898, -201.172089646086, -198.72111512305727, -196.2621343746425, -194.28911690846263])","array('d', [-199.94619750976562, -201.2190553363917, -202.4281951739537, -203.57057171038025, -204.64331729069295, -205.64372690672187, -206.56956995844277, -207.42052507799445, -208.1989801549425, -208.9092816599969, -209.5567832596622, -210.14715736692833, -210.68596257245093, -211.17840304520803, -211.62921629681895, -211.95634691684836])","array('d', [-49.9664192199707, -49.8743732486498, -49.80225358258904, -49.74578072015519, -49.70151893519091, -49.66673236335213, -49.63925706234302, -49.617391226221116, -49.59980391207134, -49.58546055212563, -49.57356272831827, -49.563500285906606, -49.55481430264059, -49.54716939445004, -49.540333692774595, -49.53539854656508])","array('d', [0.6305639147758482, 0.6452983298113014, 0.6586305810384953, 0.6706941018389334, 0.6816096276746886, 0.6914864038359156, 0.6883502389736134, 0.665933123101869, 0.6306220685901911, 0.5877675050010748, 0.5415000106854879, 0.49481105878307424, 0.4497336371583321, 0.4075257006397096, 0.3688181304360075, 0.33372047508267694])","array('d', [-0.0413723252713681, -0.0324305123238141, -0.025390781960502245, -0.019883284096299414, -0.015599483250200963, -0.012285961023920516, -0.009737245700508448, -0.007788163422781343, -0.006306521844713514, -0.005186906964037613, -0.004345425786129129, -0.00371506559984371, -0.003241632795371033, -0.002880330507759365, -0.0025930303568575744, -0.00234627142652047])","array('d', [2.119884685673986, 2.090786486335433, 2.0608266388732672, 2.030071089877182, 1.9985818010193095, 1.96641684922142, 1.934037729324401, 1.902500830318074, 1.8727902221769024, 1.845426245147004, 1.8205856822109194, 1.7982291959697259, 1.7781986131448657, 1.7602808314892482, 1.7442472666125897, 1.726286092031759])",-217.90195735897407,-205.64372690672187,-49.66673236335213,0.6914864038359156,-0.012285961023920516,1.96641684922142,25.000000235797113,-1.0,"[-201.99983338824998, -225.2299573288368, 49.89702726123496]","[-219.27580699368622, -217.52899754283953, 56.39594673748045]","[-201.94008993286437, -209.07377139034116, 61.685754361320626]",10000000000.0,0.024934768676757812
3,4.139568328857422,-201.6742706298828,-225.69676208496094,49.955684661865234,0.6308529973030088,0.04054616764187816,2.082483128705297,23.129668886026128,"array('d', [-228.60032653808594, -226.44469699024768, -224.25214916849802, -222.02386413328387, -219.76121426104763, -217.46577586893522, -215.13945621373745, -212.78495660000237, -210.40576786266985, -208.00561608993658, -205.58802081611512, -203.156082197832, -200.7124200393228, -198.25919413611126, -195.7981599059552, -193.8236565048807])","array('d', [-200.16844177246094, -201.43112975556127, -202.62991991493416, -203.76177284930213, -204.82382789401072, -205.81338797263152, -206.7282361380935, -207.56808336662772, -208.33534952419612, -209.0344056817956, -209.67062325376293, -210.24968707806525, -210.7771643831208, -211.2582653945184, -211.6977319539413, -212.01578209756983])","array('d', [-49.96547317504883, -49.87383059987514, -49.80211216245756, -49.746015439945424, -49.70209367134759, -49.667607446992825, -49.64039372799155, -49.618754023448, -49.60136179209673, -49.58718711878177, -49.57543599332736, -49.56550216125511, -49.55692997780635, -49.54938668447293, -49.542642402350154, -49.537773343383265])","array('d', [0.6305854320526123, 0.6453177994498789, 0.6586481978970212, 0.6707100422320031, 0.6816240511366496, 0.6914994547205567, 0.688200872993109, 0.6656814966905135, 0.6303164196676325, 0.5874426397203406, 0.5411787053006809, 0.4945066059238767, 0.4494524563891622, 0.4072696040409032, 0.3685861957470072, 0.3335106118785782])","array('d', [-0.04121352359652529, -0.03226646577980585, -0.02523359732044288, -0.019739260305395155, -0.015471188830463537, -0.012173686911093395, -0.009639991009609439, -0.007704282831160085, -0.0062341405150662015, -0.005124175794235564, -0.004290664008086858, -0.0036668294203667452, -0.003198739448606547, -0.0028418578480986787, -0.00255830460035165, -0.0023148502534035627])","array('d', [2.1151574412968497, 2.0860579968100654, 2.0560969986582687, 2.025340387829597, 1.9938501205251944, 1.9616842683434395, 1.9293097283110565, 1.8977858124739957, 1.8680924182130303, 1.840746831581668, 1.8159240272253658, 1.793583801234223, 1.7735676983346746, 1.7556626506128525, 1.7396402537664812, 1.7216913744400346])",-217.46577586893522,-205.81338797263152,-49.667607446992825,0.6914994547205567,-0.012173686911093395,1.9616842683434395,25.000000236019524,-1.0,"[-201.99983338824998, -225.2299573288368, 49.89702726123496]","[-219.27580699368622, -217.52899754283953, 56.39594673748045]","[-201.94008993286437, -209.07377139034116, 61.685754361320626]",10000000000.0,0.020909786224365234
4,4.15994119644165,-201.8810272216797,-225.27882385253906,49.95430374145508,0.6315296888351437,0.039879530668258625,2.0783298770573477,23.133435232806892,"array('d', [-227.77444458007812, -225.6067643327742, -223.40279109061998, -221.16373531906916, -218.89099558973092, -216.58617229611627, -214.25119538249174, -211.88878036632858, -209.5023997677142, -207.09573537889406, -204.6722496675497, -202.23498216505394, -199.78649388584657, -197.3288903753384, -194.8638783965952, -192.88651236595297])","array('d', [-200.6089630126953, -201.85087351693264, -203.02855226040518, -204.13896944354423, -205.17927678798125, -206.1467918708188, -207.03932449125173, -207.85665118150897, -208.60125562350999, -209.27755680430565, -209.89095981525557, -210.44717240606107, -210.95177724265545, -211.40999501683854, -211.82657479496672, -212.12631743618073])","array('d', [-49.962371826171875, -49.8710569507667, -49.79976791682052, -49.744132922827966, -49.700664606165766, -49.66660191277554, -49.639772206183274, -49.61847470784932, -49.60138472540847, -49.58747624647525, -49.57595990289274, -49.5662340443473, -49.5578471713036, -49.55047001299685, -49.543875453513515, -49.53911467592914])","array('d', [0.6304371356964108, 0.645183615345037, 0.658526783086026, 0.6706001815559964, 0.6815246450719031, 0.6914095083283435, 0.6877805422439257, 0.6650574308265903, 0.6295892987434426, 0.5866844589219551, 0.5404360827651953, 0.4938063401346746, 0.4488070966302356, 0.406682220038518, 0.3680542801886058, 0.3330293147345352])","array('d', [-0.041112024337053334, -0.032106605443099845, -0.025050187223165828, -0.01955323848187396, -0.015294241909516245, -0.012011530219881945, -0.009494639329067911, -0.007575581599940799, -0.006120780893476225, -0.005024350744653028, -0.004202467527477739, -0.0035884814946456987, -0.003128699599975089, -0.0027788714177070734, -0.002501410854478966, -0.0022633706586741697])","array('d', [2.1055385629322863, 2.0764476992197007, 2.046494630932161, 2.0157453376586547, 1.9842618132976242, 1.9521021661288678, 1.9197446202964095, 1.8882544781458024, 1.8586027843867967, 1.8313004853236121, 1.8065188978607318, 1.7842161423385416, 1.7642332936074159, 1.746357451046123, 1.730360659637694, 1.7124399400206503])",-216.58617229611627,-206.1467918708188,-49.66660191277554,0.6914095083283435,-0.012011530219881945,1.9521021661288678,25.00000023643481,-1.0,"[-202.40814002696135, -224.38995729721705, 49.89488207342354]","[-219.5941658243204, -216.55991551975663, 56.47750792149759]","[-202.1701019877351, -208.23491369098375, 61.682922791565865]",10000000000.0,0.015957355499267578
5,4.183494567871094,-202.0856170654297,-224.85997009277344,49.952938079833984,0.632654249668121,0.03892841562628745,2.074499026932988,23.139709414163434,"array('d', [-227.36041259765625, -225.18682925147974, -222.97726037711098, -220.73293190087622, -218.45525609661695, -216.14584589055866, -213.80664291116673, -211.44036982649087, -209.05049013628712, -206.64066375234125, -204.2143249246445, -201.7744831821064, -199.32367042307146, -196.86396530699275, -194.39705046953478, -192.41832104239643])","array('d', [-200.8261260986328, -202.057682041235, -203.22483760337485, -204.3245678921567, -205.35403099674727, -206.3105520354649, -207.1919543953509, -207.99804751933306, -208.7313471260468, -209.39629629781143, -209.9983170881655, -210.54312880050554, -211.03632189016028, -211.4831223303862, -211.88828283263388, -212.17889087738826])","array('d', [-49.96099090576172, -49.869761157912016, -49.798623256812185, -49.74316775700991, -49.69988458207103, -49.665999887348676, -49.63933463571967, -49.61818560577665, -49.6012279814103, -49.587436861870785, -49.57602453352649, -49.56639112557388, -49.55808680840628, -49.550783753277756, -49.54425601008768, -49.53954356023591])","array('d', [0.630410313606262, 0.645159345711727, 0.658504823011185, 0.6705803112558006, 0.6815066656764821, 0.6913932398670247, 0.687598024441489, 0.6647714225049612, 0.6292498239581059, 0.5863274138113197, 0.5400848193215904, 0.4934743790699837, 0.44850086593632776, 0.4064034122287321, 0.3678017900772084, 0.3328008522133783])","array('d', [-0.04109621047973627, -0.03205487277135088, -0.024981251838377978, -0.0194786375069963, -0.015220689589095508, -0.011942593362808094, -0.009431901215858352, -0.007519430795606101, -0.006070937543416914, -0.004980209998521412, -0.004163312039320208, -0.0035536045768745283, -0.0030974705935017145, -0.0027507655259596544, -0.0024760182641288056, -0.002240394490726314])","array('d', [2.1007667938855032, 2.0716774819710686, 2.041725847778997, 2.0109778778771426, 1.979495572979455, 1.9473370479982661, 1.9149861396465924, 1.8835111434968173, 1.853878740414343, 1.8265967258719151, 1.8018345775583242, 1.7795495541566113, 1.759582469012408, 1.7417204809757059, 1.7257358396039764, 1.707828483121096])",-216.14584589055866,-206.3105520354649,-49.665999887348676,0.6913932398670247,-0.011942593362808094,1.9473370479982661,25.000000236631468,-1.0,"[-202.49749491164613, -224.20311552866656, 49.89471316333092]","[-219.66490237074296, -216.34601715642086, 56.493662041917595]","[-202.22262454133764, -208.05115701272325, 61.68617967003707]",10000000000.0,0.015861988067626953
6,4.233583688735962,-202.68508911132812,-223.60032653808594,49.94990921020508,0.6385883092880247,0.03388625383377075,2.0637461403992514,23.158569129787594,"array('d', [-226.94564819335938, -224.76625620508275, -222.55118238674166, -220.3016683351696, -218.01914025338237, -215.70522382881845, -213.36187254426585, -210.99181622375406, -208.598509473604, -206.18559057870814, -203.75646587198196, -201.3141151773151, -198.861041546876, -196.39929698827922, -193.9305402080441, -191.95049514961454])","array('d', [-201.041259765625, -202.26251466978627, -203.4191986216074, -204.5082919556413, -205.52695939920937, -206.47253385055993, -207.3428524679671, -208.13775764436917, -208.85979718576138, -209.5134383608596, -210.10412028852556, -210.63757392136813, -211.1193975839173, -211.55482259451534, -211.9486053600344, -212.23011174647567])","array('d', [-49.95973205566406, -49.86860492258613, -49.79763027933073, -49.742362492273884, -49.69926987688655, -49.6655666222606, -49.63906789559328, -49.61806847060444, -49.60124372072977, -49.5875700786412, -49.57626164086098, -49.566720424175394, -49.55849834255548, -49.55126905734617, -49.54480781244027, -49.540143457516464])","array('d', [0.6304208040237426, 0.6451688378345432, 0.6585134118393584, 0.6705880827486436, 0.6815136976119741, 0.6913996025947603, 0.687437861248748, 0.6645068301794866, 0.6289304119411371, 0.5859888817187737, 0.5397504775619333, 0.4931578003126574, 0.4482085780456635, 0.40613722628010823, 0.3675607213163453, 0.33258272415848456])","array('d', [-0.04107213392853745, -0.031997362168085845, -0.02490836021065638, -0.019401394591442227, -0.015145428904138029, -0.011872600722701972, -0.00936855540920565, -0.007462973437480022, -0.00602098436023071, -0.004936082607612635, -0.004124241753565867, -0.0035188493212071686, -0.00306637598387348, -0.0027227918866125542, -0.00245074799883132, -0.0022175290070732363])","array('d', [2.0960334102299547, 2.066943491399353, 2.036991296323932, 2.0062428088427917, 1.9747600270046815, 1.9426010631294512, 1.9102553087291907, 1.8787940422169889, 1.8491796434792551, 1.8219167814972541, 1.797173092041088, 1.7749049560739012, 1.7549529054511235, 1.7371041394194353, 1.72113109579303, 1.7032364958199637])",-215.70522382881845,-206.47253385055993,-49.6655666222606,0.6913996025947603,-0.011872600722701972,1.9426010631294512,25.00000023682074,-1.0,"[-203.0066197734141, -223.12470160729745, 49.895184259773934]","[-220.07410429174462, -215.12313525510575, 56.579188159235805]","[-202.5347253317524, -207.00866584078443, 61.729486385729714]",10000000000.0,0.023273229598999023
7,4.254016876220703,-202.87942504882812,-223.1801300048828,49.94938659667969,0.6414974927902216,0.03157895803451541,2.060217873254094,23.164459328511892,"array('d', [-225.69676208496094, -223.50096585506728, -221.27034980490012, -219.00620024803618, -216.70998467323702, -214.3833675673916, -212.02833867093852, -209.64764947095168, -207.24473038406262, -204.82315912723715, -202.38626322064542, -199.93693821823894, -197.47760504354906, -195.0102396077861, -192.536432137961, -190.55280271457167])","array('d', [-201.6742706298828, -202.86587761747234, -203.99237535150198, -205.05076522570425, -206.0382356552565, -206.95214566808488, -207.7903750772504, -208.5528631459557, -209.24225269690638, -209.86308380318079, -210.42084785879229, -210.9213121623542, -211.37010006588463, -211.7724602298772, -212.13316130000416, -212.3881959132364])","array('d', [-49.955684661865234, -49.86586184655015, -49.79613659580892, -49.74201141616955, -49.699933559823926, -49.667114868630655, -49.64137872009881, -49.621033328275814, -49.604769370990766, -49.591578402691404, -49.580688308258416, -49.57151300567045, -49.56361423504455, -49.55667342325462, -49.55047163109397, -49.545994833372994])","array('d', [0.6308529973030088, 0.6455599025200272, 0.6588672618303235, 0.670908259487153, 0.681803405524097, 0.691661741082487, 0.687212666042481, 0.663967577021924, 0.6282169438714771, 0.5852030005518291, 0.5389596121476872, 0.49240203726558485, 0.4475080054519538, 0.4054983979173655, 0.3669820697944132, 0.3320591385620411])","array('d', [-0.04054616764187816, -0.03147905840086223, -0.024426148602695888, -0.018968476947999142, -0.014765535710487391, -0.011543925434755225, -0.009086359175883973, -0.007221249903592064, -0.0058134928508263035, -0.004756956281271292, -0.003968303264277159, -0.0033817403584617883, -0.0029445793629681092, -0.0026135985953066715, -0.0023522008293275494, -0.0021283598326778054])","array('d', [2.082483128705297, 2.0533681977409732, 2.0233928881455197, 1.9926230711939497, 1.9611206350060584, 1.9289435849456242, 1.8965968624580356, 1.865160336191341, 1.8355845443049965, 1.808365300855415, 1.783664838205133, 1.7614368042576058, 1.7415206961396479, 1.7237036272508715, 1.7077584100200842, 1.6898944232868667])",-214.3833675673916,-206.95214566808488,-49.667114868630655,0.691661741082487,-0.011543925434755225,1.9289435849456242,25.000000237330916,-1.0,"[-203.39452143499693, -222.2796739944765, 49.899089556607564]","[-220.3906905865668, -214.1713130225535, 56.635907538431084]","[-202.78199000510756, -206.21607875356366, 61.79806905837664]",10000000000.0,0.01740717887878418
8,4.2836339473724365,-203.07150268554688,-222.75875854492188,49.94904327392578,0.6447007656097408,0.028939448297023735,2.0566499690201616,23.170259267078652,"array('d', [-225.27882385253906, -223.0780264292493, -220.84265589267042, -218.5740134634332, -216.27358216570775, -213.94304214481667, -211.58439816534033, -209.20041149859748, -206.79450822828693, -204.37025020298213, -201.9309427783881, -199.47945696052332, -197.0181892029822, -194.54909237793726, -192.0737357288534, -190.08901318110617])","array('d', [-201.8810272216797, -203.06348622821326, -204.18059678673615, -205.2293736632983, -206.2070179894636, -207.11090140849439, -207.93892062347624, -208.6910473637471, -209.36995786310518, -209.98021991605597, -210.52734641598929, -211.01712078075505, -211.45517831508025, -211.84677658290843, -212.19669096407503, -212.44307893240313])","array('d', [-49.95430374145508, -49.865999041774614, -49.79752375407349, -49.74442141616865, -49.70317752332031, -49.67103809691442, -49.64585615714928, -49.62596504455705, -49.61007633550087, -49.59719867013038, -49.58657367211896, -49.57762611547963, -49.56992613551024, -49.56316145033442, -49.55711759404611, -49.55275489272407])","array('d', [0.6315296888351437, 0.6461721983940588, 0.6594212900979333, 0.671409565039111, 0.682257005584594, 0.6920721754007901, 0.6874618797772228, 0.664101424250252, 0.6282746003161684, 0.5852146816985332, 0.5389466640195806, 0.49237826831759857, 0.4474814024811453, 0.40547280863224666, 0.36695872416262976, 0.3320380145589435])","array('d', [-0.039879530668258625, -0.030928484867075178, -0.023974710456997384, -0.018600065798275663, -0.014465540807393549, -0.01129953444338964, -0.008886615070684036, -0.007056967152717788, -0.005677105398618659, -0.004642334853895546, -0.0038705639506665685, -0.003297063798053979, -0.0028700532917367845, -0.0025470891125974225, -0.002292251793772477, -0.0020741156972743425])","array('d', [2.0783298770573477, 2.0491757535271393, 2.0191642267583974, 1.9883609912885816, 1.9568277626583384, 1.9246223783404421, 1.8922539950579416, 1.8608051654143731, 1.8312234982509639, 1.804002248224822, 1.779301824960046, 1.7570747449776194, 1.73715988062552, 1.719344046822859, 1.7033999477928334, 1.6855371985123286])",-213.94304214481667,-207.11090140849439,-49.67103809691442,0.6920721754007901,-0.01129953444338964,1.9246223783404421,25.000000237479487,-1.0,"[-203.77165447563573, -221.43289895938182, 49.905640160363234]","[-220.69537486886412, -213.21778863721937, 56.69531249756228]","[-203.0172470616634, -205.44556840897022, 61.898810355337545]",10000000000.0,0.027240991592407227
9,4.308772563934326,-203.26132202148438,-222.33621215820312,49.948974609375,0.6482105255126953,0.026097986847162212,2.0529935816910605,23.17836098911276,"array('d', [-224.85997009277344, -222.65455425796952, -220.41477280455845, -218.14194329131954, -215.83756666099183, -213.50334155686133, -211.14129060342225, -208.75418737650878, -206.3454570709216, -203.91864953009915, -201.4770515677219, -199.02351274678824, -196.56040759174448, -194.08966796840124, -191.61284374803088, -189.62708820036346])","array('d', [-202.0856170654297, -203.25959884854814, -204.36794412440895, -205.40768534073533, -206.37603978751778, -207.2703946463045, -208.08866549973183, -208.83085639134325, -209.49967827879055, -210.0997295749328, -210.63654816876297, -211.11593706887365, -211.5435466830563, -211.924646215996, -212.26402011595908, -212.50194499420246])","array('d', [-49.952938079833984, -49.86677671335645, -49.8000289028392, -49.74831474777958, -49.708185209596444, -49.67694127558782, -49.6524814424784, -49.63317621763453, -49.617767214865786, -49.60528708009085, -49.59499639742687, -49.58633471200086, -49.57888345184664, -49.57233871416467, -49.56649192977233, -49.56227157240785])","array('d', [0.632654249668121, 0.647189743206685, 0.6603420028021563, 0.672242660420222, 0.6830108215252219, 0.6927542563122379, 0.6879851295034957, 0.6645011382804137, 0.6285832969779469, 0.5854591735891904, 0.5391471700913163, 0.4925488699433014, 0.4476311226902812, 0.40560688028951714, 0.367079858959065, 0.33214762186530605])","array('d', [-0.03892841562628745, -0.03016081316094823, -0.023357379312964846, -0.018104570506801428, -0.01406780179973176, -0.010979524482281074, -0.008627888526920304, -0.006846169373415516, -0.005503509940750447, -0.004497423206173673, -0.00374765393346172, -0.003190994483153601, -0.0027769298750807843, -0.0024640850983018024, -0.002217460835268492, -0.0020064420334286247])","array('d', [2.074499026932988, 2.045279688131174, 2.015207902318822, 1.984349068981655, 1.9527646156073064, 1.9205120995069114, 1.8881040371710187, 1.8566254956568549, 1.827022042319562, 1.7997847212444527, 1.7750721112272951, 1.7528354166855977, 1.732912651196784, 1.7150901038117268, 1.6991401731958187, 1.68127102091487])",-213.50334155686133,-207.2703946463045,-49.67694127558782,0.6927542563122379,-0.010979524482281074,1.9205120995069114,25.000000237613502,-1.0,"[-203.9566756696557, -221.00769751176267, 49.90983207281972]","[-220.84269229833302, -212.73752573421055, 56.726480896531655]","[-203.1291636791269, -205.06500786121126, 61.957482076523014]",10000000000.0,0.019636154174804688
10,4.330865859985352,-203.26132202148438,-222.33621215820312,49.948974609375,0.6482105255126953,0.026097986847162212,2.0529935816910605,23.17836098911276,"array('d', [-224.44015502929688, -222.2302462628473, -219.98615269880366, -217.70921037311993, -215.40094136236868, -213.0630665322584, -210.69763009294564, -208.30742112271628, -205.895867275092, -203.4665094947767, -201.02261854894883, -198.5670243871637, -196.10208086236744, -193.6296996533112, -191.1514117629081, -189.16462892939])","array('d', [-202.2880096435547, -203.45372568078494, -204.5534531916286, -205.58424759914493, -206.54334668284915, -207.42815693445743, -208.2366158885736, -208.9687617575233, -209.62734359983298, -210.2169950550183, -210.743283823972, -211.21203695948674, -211.62892384484823, -211.99922859684563, -212.32774746861753, -212.5569431134315])","array('d', [-49.95159149169922, -49.86837561879708, -49.80397293908187, -49.75412312149817, -49.71547596052551, -49.68541318577331, -49.66189861865982, -49.64335517703727, -49.628566187715705, -49.6165972151018, -49.60673457671205, -49.59843769792365, -49.59130310055879, -49.58503801260147, -49.579441646812946, -49.575402142260664])","array('d', [0.634277284145355, 0.6486583256654811, 0.6616708312826672, 0.6734450342602653, 0.6840987744639296, 0.6937386769153674, 0.6888028479580781, 0.6651796287661024, 0.6291508153975615, 0.5859410114617163, 0.5395637709630977, 0.49291547869461216, 0.447958327675116, 0.40590156864042415, 0.36734632694106606, 0.33238873208795483])","array('d', [-0.03761368989944455, -0.029113312385801945, -0.022524538852810274, -0.017442775120737043, -0.013541289207379032, -0.010559265088572307, -0.008290517101525239, -0.0065730251064456124, -0.005279809483466997, -0.004311557836958788, -0.0035906004428342903, -0.003055835729244962, -0.0026584786026068157, -0.0023585995618047462, -0.0021224364511824, -0.0019204604073816643])","array('d', [2.070781485238347, 2.041467840254607, 2.011308927008316, 1.980369716167414, 1.9487112167022551, 1.916390579022924, 1.8839230810564813, 1.852396306447011, 1.8227544939269527, 1.79548666326065, 1.7707494335980674, 1.748492438541048, 1.728552553551719, 1.7107152907478806, 1.694752535257027, 1.67686929272857])",-213.0630665322584,-207.42815693445743,-49.68541318577331,0.6937386769153674,-0.010559265088572307,1.916390579022924,25.000000237742533,-1.0,"[-203.9566756696557, -221.00769751176267, 49.90983207281972]","[-220.84269229833302, -212.73752573421055, 56.726480896531655]","[-203.1291636791269, -205.06500786121126, 61.957482076523014]",10000000000.0,0.01654505729675293
11,4.351513147354126,-203.63401794433594,-221.4875946044922,49.95085144042969,0.6558049321174619,0.019663508981466345,2.045332924523626,23.193214139006493,"array('d', [-223.60032653808594, -221.381891716563, -219.1295731496179, -216.8447462728204, -214.52898093625382, -212.1840494757761, -209.81204654771332, -207.41579864273046, -204.99874554155156, -202.56441745421816, -200.11605901160826, -197.65646555104766, -195.1879529815561, -192.712395034042, -190.23128666935662, -188.24253596703005])","array('d', [-202.68508911132812, -203.83506746022826, -204.9182175541962, -205.93165323881334, -206.87266319863892, -207.7387009946483, -208.5277546888339, -209.2399341613648, -209.87807125090433, -210.44687943481418, -210.9519959973532, -211.39930535416264, -211.79452293360927, -212.14296952806592, -212.4494707373916, -212.66093121616714])","array('d', [-49.94990921020508, -49.875001518277834, -49.81714050951735, -49.77243878179317, -49.73784717181562, -49.71098840183838, -49.69001788180637, -49.6735099318661, -49.66036681679947, -49.64974692608586, -49.64100846812166, -49.63366597744725, -49.627357542242265, -49.621820859157985, -49.61687629938054, -49.6133074572449])","array('d', [0.6385883092880247, 0.65255910287821, 0.6652004007840709, 0.6766387211040886, 0.6869885420830881, 0.6963534470093745, 0.6910729338847974, 0.6671411104956628, 0.63084944872349, 0.5874229745734879, 0.5408696874098243, 0.4940778942275013, 0.44900155769623806, 0.40684286611703263, 0.36819770344627994, 0.33315908947644296])","array('d', [-0.03388625383377075, -0.026177614327764477, -0.020214865288327374, -0.01562502173051054, -0.012107837075490907, -0.009424364226541446, -0.0073862510877797955, -0.0058459021116294895, -0.004687955718320333, -0.0038224214253525994, -0.0031790912639495864, -0.0027028543013181763, -0.0023497890291479056, -0.002083995004917072, -0.0018751394945814488, -0.0016966968476444077])","array('d', [2.0637461403992514, 2.034180942537832, 2.003789693050816, 1.9726362061274267, 1.9407803628323907, 1.908278217886186, 1.875649112709276, 1.8439855817178568, 1.814230865514685, 1.786870415392344, 1.7620566961029696, 1.7397356606414083, 1.7197413108615063, 1.701857061233514, 1.6858533155658522, 1.6679250338747753])",-212.1840494757761,-207.7387009946483,-49.71098840183838,0.6963534470093745,-0.009424364226541446,1.908278217886186,25.000000237982466,-1.0,"[-204.31927489119462, -220.15359570706588, 49.921358077662305]","[-221.125266528695, -211.7658710678913, 56.791927228587966]","[-203.33861456301094, -204.30976234380324, 62.08734548838623]",10000000000.0,0.014718294143676758
12,4.37216591835022,-203.8167724609375,-221.06149291992188,49.952579498291016,0.6595833301544186,0.01625351049005985,2.0411498109486437,23.200615245422508,"array('d', [-223.1801300048828, -220.95742106670772, -218.7009451127206, -216.4121039447583, -214.09249849934017, -211.74393410411577, -209.36853745123898, -206.9691593402394, -204.5492505223995, -202.1123396649576, -199.6616608741801, -197.19999360891453, -194.72963540223577, -192.2524410461334, -189.76988716530775, -187.78013522201218])","array('d', [-202.87942504882812, -204.02144481080705, -205.09611476794612, -206.1005847590521, -207.03217503439708, -207.8883684346535, -208.66718350769736, -209.36877042902316, -209.99600921119523, -210.55366148630893, -211.0474074765209, -211.48316756236173, -211.86668638354283, -212.20330821167374, -212.49787756778667, -212.69971073750713])","array('d', [-49.94938659667969, -49.87960952562258, -49.82576684257917, -49.784211959177924, -49.752088151230225, -49.727170831472364, -49.70773585155285, -49.69245205557614, -49.680295515969675, -49.67048192446851, -49.66241367132371, -49.655639032258826, -49.64982146317992, -49.64471720066365, -49.64015944802883, -49.63686989325442])","array('d', [0.6414974927902216, 0.6551914412055923, 0.6675822392156247, 0.6787938978362131, 0.6889386268098723, 0.6981179567988199, 0.692644832630204, 0.6685296438065143, 0.6320735474799446, 0.5885052616321781, 0.5418320256128671, 0.49493902567945647, 0.449776349727113, 0.40754254236906157, 0.368830615003058, 0.3337317715871632])","array('d', [-0.03157895803451541, -0.02437032444168141, -0.018800130189810103, -0.014516787477230404, -0.011237679515591806, -0.008738207540585982, -0.006841574811818182, -0.005409430094710809, -0.004333784210019914, -0.0035305095120933003, -0.002934054303596761, -0.0024930208896683966, -0.002166485806126234, -0.0019210218440192054, -0.0017283956458393188, -0.0015639175105455812])","array('d', [2.060217873254094, 2.030482041146784, 1.999933249346416, 1.9686345168857435, 1.936644950023664, 1.9040198515941462, 1.8712799673764404, 1.8395204714771742, 1.8096849655676157, 1.7822572212149432, 1.7573873168217176, 1.7350189128636477, 1.714984126524473, 1.6970649387854326, 1.6810307034994108, 1.6630689206219915])",-211.74393410411577,-207.8883684346535,-49.727170831472364,0.6981179567988199,-0.008738207540585982,1.9040198515941462,25.00000023810304,-1.0,"[-204.4964847875171, -219.7245573163573, 49.92820030599105]","[-221.2580307057255, -211.27178912995265, 56.82756900310358]","[-203.43222265819784, -203.93140249095313, 62.1529132588955]",10000000000.0,0.01418614387512207
13,4.4019176959991455,-204.17489624023438,-220.2057647705078,49.95805358886719,0.6671876311302182,0.009233904071152271,2.0323988656189775,23.215069843830026,"array('d', [-222.75875854492188, -220.5317414082247, -218.27106539054836, -215.97816112368528, -213.65466343030826, -211.30241350765667, -208.92357280443483, -206.52101862511398, -204.09821441643493, -201.65868845386365, -199.2056649085013, -196.74190751288475, -194.26969528093164, -191.79086374455002, -189.30687077695623, -187.3161287284665])","array('d', [-203.07150268554688, -204.20544303516604, -205.27146928797063, -206.2667704039109, -207.18870098312303, -208.03477574477537, -208.80304616183457, -209.4937050734517, -210.10968388900739, -210.65579601710948, -211.13776804838372, -211.5615593056131, -211.9329461137573, -212.25729824328133, -212.53948078221575, -212.73131490578177])","array('d', [-49.94904327392578, -49.88512752468224, -49.8358610315393, -49.79787924659297, -49.76854968069758, -49.7458248316909, -49.72811963449277, -49.71421165858529, -49.70316157181229, -49.694250536428896, -49.68693128364509, -49.680790442847645, -49.675520246087466, -49.67089792076274, -49.66677116777851, -49.66379279296124])","array('d', [0.6447007656097408, 0.6580898825756781, 0.6702048576591376, 0.6811669413525, 0.6910858455731798, 0.7000608408595389, 0.6943850238589515, 0.6700737143843649, 0.6334395372942009, 0.5897160986337279, 0.5429105032880568, 0.495905041347417, 0.4506459208875172, 0.4083279323590273, 0.36954107693222554, 0.33437462418295594])","array('d', [-0.028939448297023735, -0.022309418919586297, -0.01719174297891923, -0.01326045512257639, -0.010253899860387572, -0.00796442650670002, -0.00622880493342709, -0.004919476090261478, -0.003937011845471257, -0.003204058765755745, -0.002660420806433196, -0.0022589540234926792, -0.0019621576378433285, -0.0017394204026858248, -0.001564894891881074, -0.0014159758972393278])","array('d', [2.0566499690201616, 2.0267254228603537, 1.996002450198404, 1.9645431803548703, 1.9324058533625244, 1.89964493223346, 1.866782394718166, 1.8349161643855592, 1.804990480636029, 1.777487421828862, 1.7525545212968672, 1.7301329483080723, 1.7100527497129747, 1.69209431887488, 1.6760258386489695, 1.6580264318848108])",-211.30241350765667,-208.03477574477537,-49.7458248316909,0.7000608408595389,-0.00796442650670002,1.89964493223346,25.00000023822412,-1.0,"[-204.8429430015367, -218.8628121712136, 49.94420292959179]","[-221.50989987954785, -210.27448308760682, 56.9050327636124]","[-203.60386522229143, -203.17461586734595, 62.28702201553378]",10000000000.0,0.02697443962097168
14,4.4245219230651855,-204.17489624023438,-220.2057647705078,49.95805358886719,0.6671876311302182,0.009233904071152271,2.0323988656189775,23.215069843830026,"array('d', [-222.33621215820312, -220.10480896569277, -217.83984521133314, -215.5427848220453, -213.21530063507834, -210.859273497627, -208.4769029648158, -206.0710954398984, -203.64532888288932, -201.20313219102536, -198.74771992481504, -196.28183992408614, -193.80775221302633, -191.32727243014048, -188.84183899577445, -186.85011377226562])","array('d', [-203.26132202148438, -204.38694606703956, -205.44404739774902, -206.4298564407844, -207.34176459902858, -208.17732100144326, -208.93461263390554, -209.6138778423968, -210.21810318787678, -210.7521579265364, -211.22181879018697, -211.63308726771828, -211.99177401655464, -212.303276447188, -212.57248194691988, -212.7538369639644])","array('d', [-49.948974609375, -49.89136246012713, -49.84700607274604, -49.81284964111148, -49.786505277037904, -49.7661180173287, -49.750253560915404, -49.737807005719176, -49.727930232396055, -49.719974834729484, -49.713447591338316, -49.707976237790106, -49.70328380061377, -49.69916993819502, -49.6954978183104, -49.69284767280854])","array('d', [0.6482105255126953, 0.6612656449521609, 0.6730784065488284, 0.6837670361464626, 0.6934385088471325, 0.7021896188194693, 0.6962983936604421, 0.6717762679703899, 0.6349490450182453, 0.5910562880986985, 0.5441054553737208, 0.4969760431414283, 0.4516102782039052, 0.40919901705384787, 0.37032906880860295, 0.33508762878235265])","array('d', [-0.026097986847162212, -0.020096007109679997, -0.015468197432750826, -0.011917052411164553, -0.009204092787384922, -0.007140326249756788, -0.0055773979949642755, -0.004399536849758189, -0.0035166311704062244, -0.002858673797485136, -0.00237125791758576, -0.002011824462850919, -0.0017465527188236594, -0.0015478533767540495, -0.0013924362312098522, -0.0012599288340264555])","array('d', [2.0529935816910605, 2.0228612551550658, 1.9919465699892638, 1.9603106631235718, 1.928010809324533, 1.8951005367526028, 1.8621029482162432, 1.8301188728633067, 1.8000934186859252, 1.7725069105901938, 1.747504141776219, 1.7250235674763825, 1.704892964166485, 1.6868909757038661, 1.6707844891851567, 1.6527433303558])",-210.859273497627,-208.17732100144326,-49.7661180173287,0.7021896188194693,-0.007140326249756788,1.8951005367526028,25.000000238347443,-1.0,"[-204.8429430015367, -218.8628121712136, 49.94420292959179]","[-221.50989987954785, -210.27448308760682, 56.9050327636124]","[-203.60386522229143, -203.17461586734595, 62.28702201553378]",10000000000.0,0.02146434783935547
15,4.442640066146851,-204.52186584472656,-219.34744262695312,49.96717834472656,0.6743458509445186,0.00210492825135591,2.0231844643738603,23.225735518287323,"array('d', [-221.4875946044922, -219.24712270477622, -216.9732818221127, -214.66761315219568, -212.3318749836925, -209.96803577697708, -207.57837846596897, -205.16587291247114, -202.73402887431703, -200.28637700465507, -197.82611154326543, -195.3559464852, -192.87810135291863, -190.3943493377113, -187.9060873453123, -185.91246060084643])","array('d', [-203.63401794433594, -204.7421279999072, -205.7804061725221, -206.74617042360023, -207.6368909713612, -208.4501913732634, -209.18423582871716, -209.8393616061441, -210.41867499589216, -210.92716624136062, -211.37072043460273, -211.75542996865383, -212.0871793503764, -212.3714253263247, -212.6131030749035, -212.77222835709992])","array('d', [-49.95085144042969, -49.90749078523896, -49.874193059752024, -49.84862014153626, -49.82894982181364, -49.81377024880892, -49.80199249303104, -49.79277972401302, -49.785491039903484, -49.779637462854126, -49.774847721119215, -49.77084204042161, -49.767412563956334, -49.76440917471922, -49.76172957165873, -49.759795926638056])","array('d', [0.6558049321174619, 0.6681373488390427, 0.6792961819153641, 0.6893931124657505, 0.6985291936805016, 0.706795861366759, 0.700439389406794, 0.6754612892235944, 0.6382162937813611, 0.5939570528092777, 0.5466918534936595, 0.49929415615574774, 0.4536975669913675, 0.41108442418845165, 0.3720346270400185, 0.33663088182847334])","array('d', [-0.019663508981466345, -0.01510286513220507, -0.011594640575630614, -0.008908860936345077, -0.006861710373178761, -0.005307943683675499, -0.004133881934351825, -0.003251077074381697, -0.002590891730405688, -0.0021001605632084003, -0.0017376820171547556, -0.0014713075474375669, -0.0012755402517043975, -0.0011296061662763957, -0.0010159723123878664, -0.0009192901632350071])","array('d', [2.045332924523626, 2.014747327733982, 1.9834146689800047, 1.951393872323848, 1.9187400638542027, 1.885504694608814, 1.8522132747570264, 1.8199729486883267, 1.7897307038045627, 1.7619629982437621, 1.736808614960238, 1.7142000724382884, 1.693960190316797, 1.6758637980354039, 1.6596749603354348, 1.641543352316414])",-209.96803577697708,-208.4501913732634,-49.81377024880892,0.706795861366759,-0.005307943683675499,1.885504694608814,25.000000238601345,-1.0,"[-205.1775364171008, -217.998336948583, 49.96402095468112]","[-221.74260590210153, -209.26613195965177, 56.98876785320941]","[-203.75453019049988, -202.41374878635546, 62.41776196261974]",10000000000.0,0.015611648559570312
16,4.4639997482299805,-204.69100952148438,-218.91751098632812,49.973426818847656,0.6776359081268308,-0.0013024795334787064,2.0184599618103842,23.23141243085524,"array('d', [-221.06149291992188, -218.81617214460957, -216.53760110914882, -214.22736382243022, -211.88726417493473, -209.5193164306237, -207.1258466067486, -204.70985686939153, -202.2748716965228, -199.8244201939562, -197.36168350134352, -194.88935570172288, -192.40963326667813, -189.9242656504109, -187.43462679413048, -185.44009264946922])","array('d', [-203.8167724609375, -204.91529425233296, -205.94332031858406, -206.89821168653845, -207.7774781961558, -208.57878139146226, -209.3003257826373, -209.94250210760939, -210.5084801197801, -211.003312896824, -211.43294101461626, -211.80350291149574, -212.120920180172, -212.39067915803375, -212.61773872465153, -212.765069480667])","array('d', [-49.952579498291016, -49.91676169486834, -49.88929867023434, -49.86824059321286, -49.85207013343443, -49.8396133622218, -49.82996611834298, -49.82243448618866, -49.816487675109926, -49.811721170138895, -49.807828132755404, -49.80457754053345, -49.80179789110373, -49.7993654310262, -49.79719594101983, -49.79563052099052])","array('d', [0.6595833301544186, 0.6715561850730919, 0.6823896731466256, 0.692192219338137, 0.7010619305457299, 0.7090875766584772, 0.7024797966654668, 0.6772623302664053, 0.6398029208952983, 0.5953590882733635, 0.547938038101179, 0.5004090466907604, 0.45470057863340235, 0.41199016651189174, 0.37285393801712075, 0.3373722251246697])","array('d', [-0.01625351049005985, -0.012464930658049324, -0.009554490483208205, -0.007329294390027099, -0.0056354222312535555, -0.004351455687094461, -0.003382522534547315, -0.0026549300702417987, -0.0021115873312200838, -0.0017083458165542, -0.0014110449017351826, -0.0011930659122544897, -0.001033318967713213, -0.0009146293625666587, -0.000822499749293715, -0.0007442289331090945])","array('d', [2.0411498109486437, 2.0103367961215404, 1.9787945569548226, 1.9465808816773746, 1.9137497955686615, 1.8803516876226531, 1.8469139480073045, 1.814547240288821, 1.784198938783793, 1.7563431512332577, 1.7311154049173587, 1.7084451284397986, 1.6881526219767973, 1.6700108100730253, 1.6537823684700874, 1.6356072723462032])",-209.5193164306237,-208.57878139146226,-49.8396133622218,0.7090875766584772,-0.004351455687094461,1.8803516876226531,25.00000023873614,-1.0,"[-205.1775364171008, -217.998336948583, 49.96402095468112]","[-221.74260590210153, -209.26613195965177, 56.98876785320941]","[-203.75453019049988, -202.41374878635546, 62.41776196261974]",10000000000.0,0.01651477813720703
17,4.482596158981323,-204.857666015625,-218.48638916015625,49.980587005615234,0.6808649301528927,-0.0046173795126377756,2.0137314359333853,23.23479622599627,"array('d', [-220.63421630859375, -218.383981525125, -216.10061905309095, -213.7857592930158, -211.4412541184733, -209.06916519145634, -206.67186267280746, -204.25238154045547, -201.81426068897983, -199.36102681475128, -196.8958468537703, -194.42139383385248, -191.9398400969031, -189.4529103879899, -186.96195482772978, -184.96656672869526])","array('d', [-203.9970703125, -205.08571370432597, -206.1031928643193, -207.0469110204965, -207.9144175539232, -208.7034123704667, -209.41214115375163, -210.04104993059045, -210.5933736301721, -211.0742293686679, -211.48961394454804, -211.84571223857418, -212.1484831054061, -212.40344251854367, -212.61557303267074, -212.75086202638536])","array('d', [-49.9549560546875, -49.926799684614394, -49.905249237147736, -49.888755782065104, -49.876115828735784, -49.866399661208135, -49.85889225000191, -49.853045589331124, -49.84844103544999, -49.844759908350845, -49.84176072105412, -49.83926181284831, -49.837128434569536, -49.83526344651646, -49.83360085064352, -49.83240131144221])","array('d', [0.6633758544921872, 0.6749878033138413, 0.6854947300168562, 0.6950017912343351, 0.7036041365568225, 0.7113878599885377, 0.7045209079713117, 0.6790587746986944, 0.6413818259869536, 0.5967519080499522, 0.5491746157130503, 0.5015146068568886, 0.4556948828779219, 0.41288795232022235, 0.3736660399500534, 0.3381070454073628])","array('d', [-0.012786456383764645, -0.009789125619012906, -0.007489806751184679, -0.005734339306410902, -0.004399927739807106, -0.0033898757861687, -0.002628759233428972, -0.002058093427708328, -0.0016326490123421819, -0.0013175108470566525, -0.0010857065060217374, -0.000916247291640279, -0.0007925195480333762, -0.0007009977837631966, -0.000630259061759273, -0.0005702823501837052])","array('d', [2.0368524650719504, 2.0058098864658356, 1.974056177675901, 1.9416479625025904, 1.9086381392186689, 1.8750760110048459, 1.8414910989386235, 1.8089977381396862, 1.7785434889848164, 1.7505999329786532, 1.7252992212382656, 1.7025676225829443, 1.6822228829428716, 1.6640360082850574, 1.6477682829935445, 1.6295500563899405])",-209.06916519145634,-208.7034123704667,-49.866399661208135,0.7113878599885377,-0.0033898757861687,1.8750760110048459,25.000000238871735,-1.0,"[-205.50054891950555, -217.13115722362159, 49.987513050273364]","[-221.95880084866022, -208.25386367006962, 57.081144179712]","[-203.8890416948647, -201.64580069597508, 62.54166685196809]",10000000000.0,0.016461849212646484
18,4.513286113739014,-205.0218048095703,-218.05410766601562,49.988670349121094,0.6839217543601985,-0.007702418137341794,2.0089262584832053,23.238450479375857,"array('d', [-220.2057647705078, -217.95050951455767, -215.66225565099649, -213.34268388488672, -210.99369669684873, -208.61740492793416, -206.21622408910176, -203.79322253991506, -201.35195317373245, -198.89593917501657, -196.42833187712125, -193.95178180453027, -191.46843580087875, -188.97999266632993, -186.4877776104711, -184.49158814718382])","array('d', [-204.17489624023438, -205.25327442580257, -206.25981316850024, -207.19195712410263, -208.04729526531978, -208.82356638687392, -209.51905843826782, -210.1342750289172, -210.6725184059333, -211.13897122459696, -211.53968743195506, -211.8808988590625, -212.16860186048325, -212.40834212348548, -212.60512586727978, -212.728040546198])","array('d', [-49.95805358886719, -49.93773945079558, -49.9222265139831, -49.91038310068028, -49.90133136713219, -49.89439425394486, -49.889051852668615, -49.88490628709578, -49.881654017510826, -49.879064263068955, -49.876962325276196, -49.875216901617875, -49.8737306796668, -49.87243358783937, -49.87127812700408, -49.87044462062613])","array('d', [0.6671876311302182, 0.6784368417578162, 0.6886155493401995, 0.6978256255891544, 0.706159247775178, 0.7136998204319419, 0.70656348630032, 0.6808498213874798, 0.6429512813184324, 0.598133325315278, 0.5503992533570727, 0.5026085474375155, 0.45667833411678116, 0.4137758183407472, 0.37446915366503686, 0.3388337328133978])","array('d', [-0.009233904071152271, -0.007053954217327365, -0.005384328884187567, -0.004111668264690642, -0.0031458464408630495, -0.0024160261572438893, -0.0018670560441896268, -0.0014562509720747992, -0.0011506632268751267, -0.0009249067490597609, -0.0007594045745965485, -0.0006389439752483595, -0.000551492508701257, -0.0004872526381532634, -0.00043793870697483487, -0.00039626368134328696])","array('d', [2.0323988656189775, 2.0011242327795693, 1.9691568512606772, 1.9365521491272766, 1.9033618689774792, 1.8696342021573644, 1.835901126059476, 1.8032808408398706, 1.7727208342434928, 1.7446899416061912, 1.7193167899500577, 1.6965244038813307, 1.6761279340005617, 1.6578964523629083, 1.6415898503243345, 1.6233289460740983])",-208.61740492793416,-208.82356638687392,-49.89439425394486,0.7136998204319419,-0.0024160261572438893,1.8696342021573644,25.000000239009267,-1.0,"[-205.58292873248269, -216.9036214529498, 49.99415929692154]","[-222.0124603888997, -207.98898112243853, 57.10750431374821]","[-203.92139883453868, -201.44334446720381, 62.572678841059115]",10000000000.0,0.015566349029541016
19,4.532959699630737,-205.34255981445312,-217.1862030029297,50.00754928588867,0.6895338892936703,-0.013308200985193197,1.9991837898877,23.246084433457632,"array('d', [-219.34744262695312, -217.08204242714837, -214.78393684789225, -212.45491301972157, -210.09697644268698, -207.7123357290442, -205.30349520178785, -202.87358717327376, -200.42618787836957, -197.96480808186683, -195.49256283320082, -193.01205332502468, -190.5253719001875, -188.03416269263212, -185.539698903699, -183.54212995736125])","array('d', [-204.52186584472656, -205.57894534986193, -206.56289310386308, -207.47122957306604, -208.30161863193342, -209.05187413343972, -209.72036766638794, -210.30772061020446, -210.81737025155763, -211.25462797872476, -211.62565828649718, -211.93678273912778, -212.19406865848558, -212.4031175052853, -212.56897962018695, -212.66698310424854])","array('d', [-49.96717834472656, -49.96257497032422, -49.959110641110456, -49.95651154970396, -49.95456624614793, -49.95311235878614, -49.9520257363438, -49.95121175361334, -49.95059848292137, -49.950131397940716, -49.94976930976463, -49.94948130980114, -49.94924454104964, -49.94904264038178, -49.94886470680949, -49.94873666879041])","array('d', [0.6743458509445186, 0.6849138674794505, 0.6944762051020217, 0.7031285666974167, 0.7109575477501194, 0.7180415021674649, 0.7103552270395619, 0.6841416273626437, 0.645812625777406, 0.6006367230797461, 0.5526095611604203, 0.5045782893569761, 0.45844713362406864, 0.41537210482286413, 0.3759129894020074, 0.3401401695319651])","array('d', [-0.00210492825135591, -0.001586423057960103, -0.0011916271734918407, -0.0008926341138476599, -0.0006673667840130491, -0.0004985592076142956, -0.00037283607785677174, -0.0002799004629085838, -0.00021185128648490016, -0.0001626376773426867, -0.00012761707473965433, -0.00010319037969110269, -8.650299789257621e-05, -7.52059901976068e-05, -6.727319809332307e-05, -6.087162930201843e-05])","array('d', [2.0231844643738603, 1.9914704000109371, 1.9590986494759886, 1.926122323577429, 1.8925909301121302, 1.8585505150408959, 1.824539228084452, 1.791683359983384, 1.7609289926600118, 1.7327388487157547, 1.7072343611011482, 1.6843321774926143, 1.6638424713081383, 1.6455306775965561, 1.6291541121920359, 1.6108164212773732])",-207.7123357290442,-209.05187413343972,-49.95311235878614,0.7180415021674649,-0.0004985592076142956,1.8585505150408959,25.000000239282066,-1.0,"[-205.65815609339253, -216.69582803357025, 50.000223862086635]","[-222.06130534330688, -207.7472482523533, 57.13181657229026]","[-203.9509102440351, -201.25870739690544, 62.60104201246517]",10000000000.0,0.015309572219848633
20,4.569966793060303,-205.65342712402344,-216.3141326904297,50.029884338378906,0.6946269273757933,-0.018025679513811992,1.9894077042725424,23.24898637144084,"array('d', [-218.91751098632812, -216.64703281070496, -214.34401372701944, -212.01029619953215, -209.64793732680212, -207.2591935270969, -204.84661185934937, -202.41335460603082, -199.96300697689335, -197.49907070375747, -195.02464021434068, -192.54229004865388, -190.05408378355295, -187.56163709106096, -185.06619633475987, -183.06805674605545])","array('d', [-204.69100952148438, -205.73714057056677, -206.70953254301136, -207.60573974233466, -208.4234608142315, -209.16054523260794, -209.81540538357245, -210.38872214071813, -210.88399960780703, -211.30661141412546, -211.66277459218455, -211.95885276893785, -212.20094615341824, -212.39468180430418, -212.54513015079786, -212.63072716666466])","array('d', [-49.973426818847656, -49.97631924396935, -49.97858006168942, -49.980355764049264, -49.981759834890376, -49.98287971105521, -49.983782481270865, -49.98451944976094, -49.985129713690576, -49.985642939278556, -49.986081514266075, -49.9864622083731, -49.986797439950806, -49.98709623131412, -49.987364925661716, -49.98755916941525])","array('d', [0.6776359081268308, 0.6878908345952965, 0.6971698765848278, 0.7055659016677694, 0.7131629398308971, 0.7200370236094356, 0.7120731516752267, 0.6856142941164777, 0.6470794369701829, 0.6017363427086311, 0.5535752421608706, 0.5054361496270392, 0.45921631679096564, 0.4160659205684507, 0.3765404994619905, 0.3407079641658284])","array('d', [0.0013024795334787064, 0.0010162361757400308, 0.0007960906984621907, 0.0006272872744120787, 0.0004981241459012762, 0.0003994233339522885, 0.0003240502213056476, 0.00026648487848815347, 0.00022246067704492702, 0.00018868326711309963, 0.00016261164833769801, 0.0001422827624976934, 0.00012617127065993618, 0.00011308020496368676, 0.00010205912859092578, 9.234660968319624e-05])","array('d', [2.0184599618103842, 1.9865423009118737, 1.9539833131631652, 1.9208350116132893, 1.8871458476199667, 1.852960855117618, 1.818821906362873, 1.7858594747519065, 1.7550182752776256, 1.7267576900490846, 1.7011955315627418, 1.6782453652810079, 1.6577150251677808, 1.639368275778956, 1.6229612745350435, 1.6045901865038363])",-207.2591935270969,-209.16054523260794,-49.98287971105521,0.7200370236094356,0.0003994233339522885,1.852960855117618,25.000000239415826,-1.0,"[-206.1155428472445, -215.38332654713142, 50.04193270018402]","[-222.34773581627917, -206.22717448576412, 57.30008610481399]","[-204.11667473896904, -200.08321097424118, 62.766357627933054]",10000000000.0,0.03458666801452637
21,4.5905921459198,-205.80520629882812,-215.8766632080078,50.042232513427734,0.6968980431556698,-0.02013428695499892,1.98466490308312,23.250788081591825,"array('d', [-218.48638916015625, -216.21090296111072, -213.90304018048826, -211.56470127567403, -209.1979962280287, -206.80522972369894, -204.38899152802958, -201.9524735036732, -199.49926914266084, -197.0328703805044, -194.55635034837877, -192.07225639996705, -189.58262294876695, -187.08903691787563, -184.59271762792116, -182.59408632236824])","array('d', [-204.857666015625, -205.89280921257472, -206.85361614656077, -207.73767330588657, -208.54271327276513, -209.26662074572926, -209.9078488715429, -210.46713849194848, -210.94806063173786, -211.35605080614366, -211.69737798255298, -211.97844716405268, -212.2053907723982, -212.3838608464664, -212.51894735731835, -212.59218287930716])","array('d', [-49.980587005615234, -49.99076294415619, -49.99857169127819, -50.004575349576015, -50.009207674813425, -50.01280156257509, -50.01561145374112, -50.01783121458285, -50.01960812293971, -50.02105368731759, -50.02225196873304, -50.023265904405484, -50.02414201602262, -50.02491382970656, -50.02560430050939, -50.02610286621135])","array('d', [0.6808649301528927, 0.6908125748129359, 0.6998135766991077, 0.7079580206699173, 0.7153274188079468, 0.7219955253392336, 0.7137527380318683, 0.6870491296620133, 0.6483101506405576, 0.6028022799634831, 0.5545099374863068, 0.5062657479084693, 0.45995984470317974, 0.4167365008056512, 0.3771469827075281, 0.3412567329494771])","array('d', [0.0046173795126377756, 0.0035413445249483353, 0.0027193755281928545, 0.002093988461272422, 0.001619784515004407, 0.0012613067949080886, 0.000991113951376247, 0.000788081920154731, 0.000635982199262972, 0.0005223647231368473, 0.00043767325978622023, 0.0003745286709826131, 0.00032715098566691485, 0.0002909046286904034, 0.0002619549576186275, 0.00023702635172880512])","array('d', [2.0137314359333853, 1.9816129443080839, 1.9488693346342523, 1.9155515217594596, 1.8817069016479893, 1.847379498589388, 1.8131150810570897, 1.7800483549768455, 1.749122487093817, 1.720793422780825, 1.6951753251336061, 1.672178686403971, 1.6516090259637988, 1.6332284662822416, 1.6167920327317469, 1.5983886521029727])",-206.80522972369894,-209.26662074572926,-50.01280156257509,0.7219955253392336,0.0012613067949080886,1.847379498589388,25.00000023954614,-1.0,"[-206.2630662537729, -214.94387390861775, 50.05692139342438]","[-222.43763111257363, -205.72208053913937, 57.360480709202776]","[-204.1675140217476, -199.68681045914008, 62.81743375545224]",10000000000.0,0.018824338912963867
