,current_time,x_pos,y_pos,z_pos,roll,pitch,yaw,vel,x_traj,y_traj,z_traj,roll_traj,pitch_traj,yaw_traj,x_cmd,y_cmd,z_cmd,roll_cmd,pitch_cmd,yaw_cmd,vel_cmd,effector_dmg,effector_x,effector_y,effector_z,cost,time_solution
0,24.24960994720459,-193.66552734375,-137.17291259765625,49.977901458740234,0.6297774910926816,0.03999752551317215,0.9012098471310473,23.051197822358162,"array('d', [-138.93902587890625, -136.96689479437063, -135.0348007495012, -133.140494838109, -131.28140552888823, -129.45488122941316, -127.65831434637113, -125.88920638621384, -124.14520152300209, -122.42410220470465, -120.72387401163802, -119.04264387530041, -117.37869415690398, -115.73045420604744, -114.09649051694348, -112.8008437157114])","array('d', [-195.16903686523438, -193.63497401405203, -192.0495296482868, -190.41859054899095, -188.74738367600514, -187.04053597842088, -185.30212994042273, -183.53575915318345, -181.7445825733145, -179.93137566798836, -178.0985773312691, -176.24833213500966, -174.38252792095798, -172.50282897349447, -170.61070510532, -169.08691035475067])","array('d', [-49.98049545288086, -49.89764662576702, -49.842725135413765, -49.8058287057276, -49.780700815980836, -49.76334520831072, -49.751178911061864, -49.74251097972702, -49.73621928227188, -49.73154861133142, -49.72798382458665, -49.725169900924676, -49.72286169922282, -49.72089274194927, -49.71915624516165, -49.71790627067634])","array('d', [0.6295847892761228, 0.5866683118320066, 0.5427180027335776, 0.4992313038341521, 0.4572116290552639, 0.4172980488306448, 0.3798656185201104, 0.3451004008884054, 0.313054754626191, 0.2836879497705049, 0.2568961177571705, 0.23253451941301378, 0.2104342857100479, 0.1904151665494851, 0.17229537724497077, 0.1558993184014681])","array('d', [-0.040089361369609784, -0.026430218023641854, -0.017657005299469546, -0.011956348358346226, -0.008208829646160178, -0.005717334594982805, -0.00404366284719769, -0.0029096146025923263, -0.00213664344942672, -0.0016087025884212083, -0.0012491262112617476, -0.0010060678741918463, -0.0008432105185342552, -0.0007337809514455419, -0.000656702400400332, -0.0005942092745099963])","array('d', [0.9235558072712757, 0.8962541120956362, 0.8714098306856373, 0.8489058733933845, 0.828579360558254, 0.8102502949203011, 0.793737588334484, 0.7788674916260372, 0.7654776710452694, 0.7534188722450825, 0.7425552837059639, 0.7327642162093889, 0.7239354297895554, 0.715970279720602, 0.7087807656747352, 0.7006661450802458])",-129.45488122941316,-187.04053597842088,-49.76334520831072,0.4172980488306448,-0.005717334594982805,0.8102502949203011,25.00000024625232,-1.0,"[-192.73527923486742, -135.9977356661137, 49.91792116622172]","[-189.82821219028784, -119.9379777550539, 61.477901141830294]","[-174.1591864363871, -129.60052663047273, 53.660178893391354]",10000000000.0,0.012918710708618164
1,24.26777410507202,-193.04783630371094,-136.470703125,49.97597122192383,0.6300328373908993,0.039780773222446386,0.8925587693837023,23.05492775291184,"array('d', [-138.22813415527344, -136.2701291548694, -134.35248023058352, -132.47278065745132, -130.62834680888457, -128.81645001187678, -127.03443178862635, -125.2797620672186, -123.55006746864358, -121.84314288155029, -120.156953237719, -118.48962937198414, -116.83946030770166, -115.20488348067306, -113.58447394784766, -112.29944522073536])","array('d', [-194.57217407226562, -193.0201229191059, -191.41723582379046, -189.76948234330857, -188.0821133767539, -186.35974455079946, -184.60642687479518, -182.82571184323166, -181.02071165057293, -179.19415403093117, -177.34843143901884, -175.4856446533705, -173.6076411267068, -171.71604851649806, -169.81230384438678, -168.27926933880443])","array('d', [-49.97937774658203, -49.89650082917658, -49.84157940281494, -49.80469423674603, -49.77958114442748, -49.762240616422716, -49.75008845926831, -49.74143339388453, -49.73515330700683, -49.73049312308232, -49.72693784357233, -49.72413256673241, -49.72183223935474, -49.71987044627632, -49.71814045183438, -49.71689505741866])","array('d', [0.6295618414878844, 0.5849362487883614, 0.539816809255698, 0.49558388509377016, 0.45314150821914034, 0.4130473248517311, 0.3756109005780139, 0.3409661533335205, 0.3091242140622672, 0.2800120174319693, 0.2535006595481134, 0.22942645583019275, 0.20760678348421585, 0.1878521768810527, 0.16997570972969678, 0.15380039624620873])","array('d', [-0.040108751505613285, -0.026433581232703434, -0.01765370230614848, -0.011950678974046223, -0.00820266868693826, -0.005711427296139462, -0.004038249691498432, -0.002904726181256412, -0.0021322353661511026, -0.0016047140454771504, -0.0012455028664360409, -0.001002768354984277, -0.0008402056602302575, -0.0007310498845394684, -0.0006542273191981384, -0.0005919697282257412])","array('d', [0.9143839637425284, 0.8871336736874232, 0.8624168125713222, 0.8400834744642446, 0.8199487619739245, 0.8018182635545201, 0.7855016632029067, 0.7708194849921767, 0.7576060364329326, 0.7457103187384392, 0.7349958847249752, 0.7253401704130705, 0.7166335721154851, 0.7087784022389192, 0.7016877836435389, 0.6936852022686718])",-128.81645001187678,-186.35974455079946,-49.762240616422716,0.4130473248517311,-0.005711427296139462,0.8018182635545201,25.000000246257724,-1.0,"[-192.10744844990518, -135.3036076212148, 49.916315799211944]","[-189.0294215310582, -119.26409995623101, 61.46014290081821]","[-173.46814814725548, -129.0384229614284, 53.56651379472121]",10000000000.0,0.018308162689208984
2,24.28796935081482,-192.7369842529297,-136.1221160888672,49.975074768066406,0.6301373243331906,0.039703894406557,0.8881177465107779,23.057693298125315,"array('d', [-137.87493896484375, -135.92391952207305, -134.01341325306944, -132.14093470432172, -130.3037448124524, -128.49907698653087, -126.72424781372514, -124.97671180761506, -123.25408707309923, -121.55416489120617, -119.87490997674992, -118.21445517779804, -116.57109287898872, -114.94326456861057, -113.32954958102665, -112.04986116663147])","array('d', [-194.27145385742188, -192.71062524353124, -191.09922842058805, -189.44327190534682, -187.74801749816677, -186.0180749361852, -184.2574797538072, -182.46976292478018, -180.6580139142177, -178.82493728011073, -176.97290293654615, -175.1039904051757, -173.22002753049688, -171.32262418361526, -169.4132014581875, -167.87576367489945])","array('d', [-49.97887420654297, -49.896091801610716, -49.84124184233364, -49.80440995999741, -49.7793364978257, -49.76202562101957, -49.74989592655074, -49.74125818036497, -49.73499173841193, -49.73034256883686, -49.72679640939329, -49.723998874565886, -49.721705269674516, -49.71974942398994, -49.718024762418885, -49.716783249086575])","array('d', [0.6295640468597409, 0.5841007611127736, 0.5384083448999768, 0.49380939405178614, 0.45115920320257047, 0.4109756149551726, 0.37353622288081534, 0.33894949076753783, 0.3072064117448712, 0.27821810937344693, 0.25184342253366576, 0.2279093784041642, 0.20622660177383054, 0.18660109571819283, 0.16884340026199823, 0.15277584017827509])","array('d', [-0.04006573185324667, -0.026400777580569478, -0.017629179907390338, -0.011932464379692276, -0.008189100015753103, -0.005701218375770617, -0.004030448087459072, -0.0028986436644771164, -0.0021273814133829934, -0.0016007417947123792, -0.0012421684168905031, -0.0009999013920399464, -0.0008376887916312298, -0.0007288043109012674, -0.0006522029057491091, -0.000590137963023088])","array('d', [0.9098858992245532, 0.8826599927150164, 0.8580047086762066, 0.8357540706983578, 0.8157124496109449, 0.7976784191329233, 0.7814571687256476, 0.7668664251409056, 0.7537388468481698, 0.7419225706016197, 0.7312808256146509, 0.721691097152609, 0.7130440824851856, 0.7052425540175226, 0.6982001778324974, 0.6902516653415649])",-128.49907698653087,-186.0180749361852,-49.76202562101957,0.4109756149551726,-0.005701218375770617,0.7976784191329233,25.000000246260257,-1.0,"[-191.79141970126307, -134.95920480947143, 49.91553457252045]","[-188.62572259508357, -118.93020133468579, 61.450239139055164]","[-173.12023886980694, -128.76149108953604, 53.51766602553404]",10000000000.0,0.01854681968688965
3,24.30278730392456,-192.42478942871094,-135.775146484375,49.97421646118164,0.6301547884941099,0.03971042484045024,0.8836126486447192,23.06019100474363,"array('d', [-137.523193359375, -135.57899062292236, -133.67545869938593, -131.8100347830873, -129.97992534058397, -128.18232647116434, -126.41453015468204, -124.67397561224459, -122.95827241066024, -121.26520810489632, -119.59274701344782, -117.93902378336878, -116.30233393018158, -114.68112276128848, -113.07397366094015, -111.79943901595188])","array('d', [-193.96923828125, -192.39992157582236, -190.78028907088262, -189.11638786842366, -187.41349109123107, -185.67620347467718, -183.908546201004, -182.1140309313575, -180.29572560420903, -178.45631274689373, -176.59814079391296, -174.7232689745713, -172.83350639019926, -170.9304458936112, -169.01549332742837, -167.4736640448019])","array('d', [-49.97838592529297, -49.895698451536674, -49.84091977302235, -49.80414077329054, -49.77910649866626, -49.761824858734606, -49.7497172631134, -49.741096524550244, -49.734843462276736, -49.73020508021594, -49.726667844886585, -49.72387788070735, -49.72159084662093, -49.71964081269941, -49.71792136184557, -49.71668355833152])","array('d', [0.6296461224555966, 0.583361863362297, 0.5371060572432292, 0.49214511934413935, 0.4492870452623517, 0.40901107430764033, 0.3715637827186542, 0.3370289169673743, 0.30537788911900626, 0.2765064244886712, 0.2502614041515595, 0.22646077698090486, 0.20490855389615092, 0.1854062871124631, 0.16776201478602526, 0.15179736204770233])","array('d', [-0.040022365748882266, -0.026367979431363157, -0.017604798865546584, -0.01191442875201482, -0.00817570654342361, -0.005691166036492428, -0.004022781339381575, -0.002892675889452532, -0.002122625199418531, -0.0015968535035340628, -0.0012389069527804428, -0.0009970986809426027, -0.0008352291337872503, -0.0007266101282659976, -0.0006502249072738542, -0.0005883481958298518])","array('d', [0.905523018040929, 0.8783163461924117, 0.8537170065428006, 0.8315433162119744, 0.8115891658058403, 0.7936462686238572, 0.7775154028135468, 0.7630115333689732, 0.7499656750563409, 0.7382250871888101, 0.7276526518559979, 0.7181258744919831, 0.7095357218869492, 0.7017853947506149, 0.6947890719065868, 0.6868927011697393])",-128.18232647116434,-185.67620347467718,-49.761824858734606,0.40901107430764033,-0.005691166036492428,0.7936462686238572,25.000000246262644,-1.0,"[-191.79141970126307, -134.95920480947143, 49.91553457252045]","[-188.62572259508357, -118.93020133468579, 61.450239139055164]","[-173.12023886980694, -128.76149108953604, 53.51766602553404]",10000000000.0,0.013526439666748047
4,24.318970203399658,-192.42478942871094,-135.775146484375,49.97421646118164,0.6301547884941099,0.03971042484045024,0.8836126486447192,23.06019100474363,"array('d', [-137.17291259765625, -135.2354884349841, -133.33889323131805, -131.48048732707306, -129.6574230205609, -127.86685926710474, -126.10606350994262, -124.3724596840227, -122.66364878279482, -120.97741457457207, -119.31172090673407, -117.66470414365331, -116.034662847866, -114.42004606268831, -112.81944114142857, -111.55005997994678])","array('d', [-193.66552734375, -192.08784656291573, -190.46009466875793, -188.78835742401853, -187.07791956696025, -185.33338129590757, -183.5587500030581, -181.75751863468736, -179.93273419405358, -178.08705773788975, -176.22281673662357, -174.34205059271235, -172.4465500790404, -170.5378913960667, -168.61746545610941, -167.07130650157154])","array('d', [-49.977901458740234, -49.89527046356965, -49.84053728141131, -49.80379366148611, -49.77878653889417, -49.761525745991214, -49.74943431398006, -49.74082631484638, -49.734583503970065, -49.72995356372498, -49.72642344422894, -49.72363961010842, -49.72135795633716, -49.71941271370913, -49.71769757157058, -49.71646284372338])","array('d', [0.6297774910926816, 0.5826762760270879, 0.5358587933811476, 0.49053570091135146, 0.4474681835855006, 0.40709732320710607, 0.3696390427914663, 0.335152649848074, 0.3035901783644117, 0.27483209745503095, 0.24871342534489263, 0.22504309208380255, 0.2036185278052432, 0.18423684732287324, 0.16670358564588314, 0.15083965567065097])","array('d', [-0.03999752551317215, -0.026347538013840797, -0.017588760750611165, -0.011902098024443253, -0.008166266307367503, -0.005683892102966582, -0.004017097700607043, -0.0028881486321926477, -0.0021189373105777124, -0.0015937777170047871, -0.001236282537194027, -0.000994813389277511, -0.0008332058015535958, -0.0007247969192934209, -0.0006485881988542697, -0.0005868672406769397])","array('d', [0.9012098471310473, 0.8740194158755595, 0.8494729895280627, 0.827373277511004, 0.8075037745187521, 0.789649386230214, 0.7736065040091988, 0.7591873355328904, 0.7462212438009881, 0.7345545957358833, 0.7240499082036219, 0.7145846878716288, 0.7060501526278792, 0.6983499143128271, 0.6913986489382834, 0.6835532025090125])",-127.86685926710474,-185.33338129590757,-49.761525745991214,0.40709732320710607,-0.005683892102966582,0.789649386230214,25.000000246264943,-1.0,"[-191.47399570784688, -134.61650715316208, 49.91466647770603]","[-188.21943770223984, -118.59730603318486, 61.43825305766715]","[-172.77091328606738, -128.48610927701094, 53.466135160406814]",10000000000.0,0.014621257781982422
5,24.339759826660156,-192.1112060546875,-135.42982482910156,49.97337341308594,0.630142509937286,0.03954800218343717,0.8792162696507313,23.063053282814966,"array('d', [-136.470703125, -134.5469741149917, -132.66439200421482, -130.82015955527064, -129.01131928798665, -127.23495543439597, -125.48828635239032, -123.76870557460136, -122.07379719805016, -120.40133770271642, -118.74929029037155, -117.11579505452079, -115.49915693464611, -113.89783271049282, -112.31041791538523, -111.05157458110011])","array('d', [-193.04783630371094, -191.4534608530845, -189.80951064232556, -188.12214443073466, -186.3966677938096, -184.63767060065817, -182.84913207367939, -181.03450751956507, -179.19680206956315, -177.3386339439615, -175.46228883673967, -173.5697666616535, -171.66282169480027, -169.74299697816497, -167.8116536922946, -166.25704112737503])","array('d', [-49.97597122192383, -49.89379865138832, -49.839386326459845, -49.80286894291607, -49.77802316703206, -49.7608791899419, -49.74887391494631, -49.740330859303796, -49.73413822363092, -49.72954810564521, -49.726050492850725, -49.7232939439218, -49.721035792510236, -49.71911124257847, -49.7174146161211, -49.716193328319264])","array('d', [0.6300328373908993, 0.5812966212682618, 0.5333560325224691, 0.4873091121147041, 0.44382307671537974, 0.40326266630091406, 0.36578257120541885, 0.3313932995118481, 0.3000081793373609, 0.2714771852113974, 0.24561160197172346, 0.2222022987696376, 0.20103351473662756, 0.18189346188613043, 0.1645826480334893, 0.1489205517838805])","array('d', [-0.039780773222446386, -0.026196251335949706, -0.017482546309151782, -0.011826787713869228, -0.008112139250461153, -0.005644321403481233, -0.003987574356503528, -0.0028656005103399134, -0.002101263824743107, -0.001579536090325008, -0.001224478119352414, -0.000984760422821302, -0.0008244354756323666, -0.0007169968967922483, -0.0006415627516227168, -0.0005805103525727708])","array('d', [0.8925587693837023, 0.8654012486828697, 0.8409609085884956, 0.8190092079457433, 0.7993089319978371, 0.7816314550894213, 0.765764449966567, 0.751514636038014, 0.7387080790992834, 0.7271893561802981, 0.7168202435541055, 0.7074782392562269, 0.6990550535586522, 0.6914551129868978, 0.6845940827008947, 0.6768497027222354])",-127.23495543439597,-184.63767060065817,-49.7608791899419,0.40326266630091406,-0.005644321403481233,0.7816314550894213,25.000000246269334,-1.0,"[-191.47399570784688, -134.61650715316208, 49.91466647770603]","[-188.21943770223984, -118.59730603318486, 61.43825305766715]","[-172.77091328606738, -128.48610927701094, 53.466135160406814]",10000000000.0,0.019720792770385742
6,24.357353925704956,-192.1112060546875,-135.42982482910156,49.97337341308594,0.630142509937286,0.03954800218343717,0.8792162696507313,23.063053282814966,"array('d', [-136.1221160888672, -134.20547407757564, -132.33013695429736, -130.49322716649218, -128.6917313675295, -126.92269585684313, -125.1833141698755, -123.47096456566975, -121.7832227668671, -120.11786178349453, -118.47284473357925, -116.8463138511529, -115.23657755518677, -113.64209678319753, -112.06147143502334, -110.80806369052772])","array('d', [-192.7369842529297, -191.13408765385546, -189.48187319404, -187.78653594128212, -186.05339127381316, -184.2870231830709, -182.4913961103924, -180.66994589643855, -178.82565614536065, -176.96112312061848, -175.0786111380239, -173.1800999224828, -171.26732510011186, -169.3418127727561, -167.40490893252817, -165.84600763853612])","array('d', [-49.975074768066406, -49.893066201752184, -49.83877081076137, -49.80233710224719, -49.77755175954989, -49.76045204994974, -49.74847980216634, -49.73996193647254, -49.73378899830135, -49.729214701167926, -49.72573014712024, -49.72298466331478, -49.720736110538176, -49.718820048822934, -49.71713103241126, -49.71591528972995])","array('d', [0.6301373243331906, 0.5805658230669883, 0.5320525478467013, 0.4856372744063869, 0.4419389236057169, 0.4012831448664397, 0.363793333064367, 0.329455072252676, 0.298161920678177, 0.2697482698532337, 0.244013268757844, 0.2207385450302346, 0.19970158421627332, 0.1806860385482037, 0.16348984137734962, 0.1479317393411989])","array('d', [-0.039703894406557, -0.026141484445127757, -0.017443481200033962, -0.01179872194130364, -0.008091728318965112, -0.0056292287688759724, -0.00397618316244577, -0.0028567964667659926, -0.0020942794620705764, -0.00157384222166905, -0.0012197095446168792, -0.000980665653048591, -0.0008208429558401875, -0.0007137923689422525, -0.0006386739742247563, -0.0005778964784560848])","array('d', [0.8881177465107779, 0.8609785292717662, 0.8365936682607586, 0.8147186426368049, 0.7951057086787569, 0.7775193811918775, 0.761742917235249, 0.7475802555430789, 0.7348557894477477, 0.7234131867792347, 0.7131138472177116, 0.7038352648672266, 0.6954694019807653, 0.6879211022407402, 0.6811065377356609, 0.6734141325934211])",-126.92269585684313,-184.2870231830709,-49.76045204994974,0.4012831448664397,-0.0056292287688759724,0.7775193811918775,25.000000246271476,-1.0,"[-191.15532156521354, -134.27536929639174, 49.91406687231012]","[-187.81408843703952, -118.26604116376437, 61.426563296850645]","[-172.42134800090852, -128.21254146909408, 53.41840036506824]",10000000000.0,0.016156435012817383
7,24.376002073287964,-191.47972106933594,-134.74417114257812,49.972511291503906,0.6294811964035029,0.03886398673057546,0.870639220872197,23.070062523171075,"array('d', [-135.775146484375, -133.8657327363304, -131.99777292405378, -130.1683102908067, -128.37427627983226, -126.61267976638456, -124.88068992507553, -123.17567018700167, -121.49518833677135, -119.83701433999286, -118.19911164162708, -116.5796250076434, -114.9768667047889, -113.38930217065761, -111.81553598631939, -110.56756564048304])","array('d', [-192.42478942871094, -190.81328937819106, -189.15273831191715, -187.44936672811502, -185.70849862265973, -183.9347109838413, -182.13195250376887, -180.30363875019867, -178.45273113148053, -176.58180339707692, -174.6930980160311, -172.78857412633624, -170.86994836290924, -168.93872959273367, -166.99624836336884, -165.43298333160263])","array('d', [-49.97421646118164, -49.892199527236656, -49.837906647150675, -49.801479597368335, -49.77670210118788, -49.75961021448439, -49.747645334914004, -49.73913427881583, -49.73296760888387, -49.72839908787497, -49.72491986394091, -49.72217929665829, -49.71993526597064, -49.71802334310402, -49.716338093061346, -49.71512507753063])","array('d', [0.6301547884941099, 0.5797481510128566, 0.5306648209960898, 0.48388518327060565, 0.4399792226543708, 0.39923312512087794, 0.36173876195230636, 0.3274566444915787, 0.29626045827441655, 0.26796893793986654, 0.24236904346350535, 0.2192331245124036, 0.19833189128377052, 0.17944442808579691, 0.16236609860363704, 0.14691493473923414])","array('d', [-0.03971042484045024, -0.026141756640527983, -0.017441241779064632, -0.01179564774139498, -0.008088527112923839, -0.005626169147413709, -0.003973344459665127, -0.0028541836921398786, -0.0020918741687126507, -0.001571623495329714, -0.0012176613314246484, -0.0009787779677070951, -0.0008191103810298846, -0.00071221133588506, -0.0006372394670752466, -0.0005765984825944422])","array('d', [0.8836126486447192, 0.8564967654867808, 0.8321719606531341, 0.8103777060932463, 0.790855772273555, 0.7733638707621937, 0.7576808934237773, 0.743608039138803, 0.7309680611138569, 0.7196037441413413, 0.7093761333665131, 0.7001627384004735, 0.691855791209721, 0.6843605691208372, 0.6775937665294454, 0.6699551130998381])",-126.61267976638456,-183.9347109838413,-49.75961021448439,0.39923312512087794,-0.005626169147413709,0.7733638707621937,25.00000024627356,-1.0,"[-190.51394412716158, -133.59792588639294, 49.91422998543316]","[-187.00374761756606, -117.6022368639458, 61.39536464892298]","[-171.72047753509702, -127.66916757384602, 53.32823618407413]",10000000000.0,0.01612377166748047
8,24.401105403900146,-190.84210205078125,-134.06524658203125,49.971595764160156,0.6253386735916134,0.037015032023191306,0.8624116937306261,23.081918715007717,"array('d', [-135.42982482910156, -133.5274920069933, -131.6667599078744, -129.84459175656332, -128.05786424253645, -126.30354955125259, -124.57879317606425, -122.88094425600433, -121.2075630269432, -119.55641667639449, -117.92546914803432, -116.31286784291282, -114.71692893142287, -113.13612237648421, -111.56905744730747, -110.32648648565372])","array('d', [-192.1112060546875, -190.49133562987882, -188.82268143405093, -187.11150488984595, -185.36313649520815, -183.58214540028027, -181.7724644089434, -179.9374890527732, -178.080158975507, -176.20302593313448, -174.30831109589403, -172.39795355376555, -170.47365145923186, -168.53689691172906, -166.58900543528608, -165.02161766626963])","array('d', [-49.97337341308594, -49.891696763346424, -49.83763700289899, -49.801371263377455, -49.77670681040254, -49.75969535956747, -49.74778874844401, -49.73932078674699, -49.73318675314165, -49.72864361542329, -49.725184716645096, -49.722460927403915, -49.720231166438325, -49.718331707941935, -49.71665757126718, -49.71545265749989])","array('d', [0.630142509937286, 0.5789262545179557, 0.5292912803461381, 0.4821598255529568, 0.43805417880765946, 0.39722216065894356, 0.359725036090502, 0.3254989859834028, 0.294398412203796, 0.26622685316365313, 0.24075943449941511, 0.21775949492733623, 0.19699116284321366, 0.17822908522539377, 0.16126613126438252, 0.1459196430419448])","array('d', [-0.03954800218343717, -0.02603093911299609, -0.017364942282075895, -0.011742498704608098, -0.008050976799095376, -0.00559919282896645, -0.003953585081977469, -0.0028393845981014728, -0.0020805068717740516, -0.0015626442876347606, -0.0012103525329562506, -0.0009726447146079436, -0.0008138138930841632, -0.000707526127477556, -0.0006330261078318354, -0.0005727860771530968])","array('d', [0.8792162696507313, 0.8521246842529329, 0.8278595788514261, 0.8061449028989081, 0.7867122993728239, 0.7693129232834895, 0.7537214634525197, 0.7397364812301954, 0.7271791510086113, 0.715891408164975, 0.7057339583943666, 0.6965843296131717, 0.6883350183467996, 0.6808917255701399, 0.6741716555089378, 0.6665850647600785])",-126.30354955125259,-183.58214540028027,-49.75969535956747,0.39722216065894356,-0.00559919282896645,0.7693129232834895,25.00000024627552,-1.0,"[-190.19120227077295, -133.26155969019132, 49.91489763694117]","[-186.60028952215896, -117.26050471592512, 61.36354757229829]","[-171.36949033929312, -127.39785035074591, 53.285368338622305]",10000000000.0,0.0168612003326416
9,24.41473960876465,-190.84210205078125,-134.06524658203125,49.971595764160156,0.6253386735916134,0.037015032023191306,0.8624116937306261,23.081918715007717,"array('d', [-134.74417114257812, -132.85571034479705, -131.0090904184154, -129.20111940676173, -127.4285710750709, -125.68835051311169, -123.97756125504247, -122.2935283168937, -120.63380046340149, -118.99614226421663, -117.37852105161811, -115.77909146223641, -114.19617911311603, -112.62826441037659, -111.0739672059446, -109.84162026360961])","array('d', [-191.47972106933594, -189.8436276517424, -188.1593376521097, -186.43315286448941, -184.67040341930175, -182.87563439262317, -181.0527415490232, -179.20507709781776, -177.33553520966288, -175.44662255825943, -173.54051716680007, -171.61911782240955, -169.68408571088878, -167.73687950721848, -165.77878485103892, -164.2035737860873])","array('d', [-49.972511291503906, -49.892255513349454, -49.83915000653192, -49.80353274280959, -49.77931476810183, -49.762615174883756, -49.75092989713272, -49.74262188235474, -49.73660587222297, -49.732151986261684, -49.7287625542637, -49.72609463889907, -49.72391142813487, -49.722052091739855, -49.720413511100816, -49.7192343259474])","array('d', [0.6294811964035029, 0.5767736522655258, 0.5261396037432905, 0.47838755876663247, 0.433947658300641, 0.3929942159367134, 0.3555301970105319, 0.3214456350567965, 0.2905584795006837, 0.2626436265944411, 0.23745396070513478, 0.21473594169238902, 0.1942414245817558, 0.1757368430811535, 0.15901052698484558, 0.14387868770474804])","array('d', [-0.03886398673057546, -0.025573849989468087, -0.01705597518588581, -0.01153100353177257, -0.007904192200140383, -0.005495762253566385, -0.0038794580903555214, -0.002785220299091918, -0.002040023876267135, -0.001531568823970015, -0.0011857465954882287, -0.000952477478614258, -0.0007966901816609294, -0.0006925168755888026, -0.0006195647039518288, -0.000560605694130563])","array('d', [0.870639220872197, 0.8436293099182328, 0.819508046832178, 0.7979706496896, 0.7787302802517342, 0.7615262798066859, 0.7461258633776032, 0.7323229798625388, 0.719936114493762, 0.7088058331721302, 0.698792392106223, 0.6897735131905991, 0.6816423276025099, 0.6743054524515943, 0.6676811556396861, 0.6602016587155111])",-125.68835051311169,-182.87563439262317,-49.762615174883756,0.3929942159367134,-0.005495762253566385,0.7615262798066859,25.000000246279065,-1.0,"[-189.86685869639317, -132.9269060995609, 49.91608589394724]","[-186.19465498256847, -116.90805914765185, 61.313956844940066]","[-171.01678188296378, -127.12884240463325, 53.241301904580894]",10000000000.0,0.014600992202758789
10,24.43411159515381,-190.52088928222656,-133.7283172607422,49.97121047973633,0.6210653185844419,0.03555990010499941,0.8582676808026174,23.088587738132077,"array('d', [-134.40386962890625, -132.52201293087072, -130.68202534163947, -128.88064749421704, -127.11461277807577, -125.38080278681153, -123.67630862382796, -121.9984503329323, -120.34477677114747, -118.71305598978053, -117.10126097548356, -115.50755328951124, -113.93026607238247, -112.36788736296255, -110.81904441771954, -109.59099372982347])","array('d', [-191.1616973876953, -189.51793532401126, -187.8263690248436, -186.09328983684694, -184.32400744244924, -182.5230411460092, -180.6942587247611, -178.84098412679882, -176.9660841513557, -175.07203965901968, -173.1610047772228, -171.23485647992996, -169.2952362635069, -167.34358519499992, -165.38117328512286, -163.80261032810574])","array('d', [-49.9720573425293, -49.89335043610179, -49.84127661737, -49.80635553108345, -49.78261385530821, -49.76624493622803, -49.754792887208886, -49.7466522808762, -49.74075888024467, -49.73639696223578, -49.7330785117492, -49.73046723898032, -49.728330915411156, -49.72651182001431, -49.724908830753094, -49.72375527981994])","array('d', [0.6280087232589721, 0.5747447775141435, 0.5237695595001939, 0.47583773425870607, 0.43133714429697567, 0.39040915700122586, 0.3530311146831865, 0.3190731112231744, 0.2883375899080489, 0.26058744813582885, 0.2355664017890838, 0.21301408146383802, 0.1926774975300663, 0.17431996920308532, 0.15772826150030794, 0.14271844580943305])","array('d', [-0.038115698844194384, -0.025078172968813765, -0.016723391030503413, -0.011304813369502661, -0.00774815479032463, -0.005386474505428151, -0.0038016358899094225, -0.002728758663769829, -0.0019981542045543585, -0.0014996972300049165, -0.0011607187614332485, -0.0009321134100632091, -0.0007794916726045767, -0.0006774864103819337, -0.0006060960077313177, -0.0005484187127254285])","array('d', [0.8665403286602837, 0.8396316470212211, 0.8156292357247453, 0.7942173437953896, 0.7751024427702614, 0.7580198498569499, 0.7427344271148963, 0.7290388355011579, 0.7167509664988665, 0.7057112552575927, 0.695780141062539, 0.6868357413238391, 0.6787717213254599, 0.6714953126362789, 0.6649254283152668, 0.6575071681606679])",-125.38080278681153,-182.5230411460092,-49.76624493622803,0.39040915700122586,-0.005386474505428151,0.7580198498569499,25.000000246280546,-1.0,"[-189.54088524893376, -132.59396804019968, 49.917881870299276]","[-185.78710153731345, -116.54050669964816, 61.24022645231018]","[-170.66244526341353, -126.86076005754389, 53.19428690336865]",10000000000.0,0.015661239624023438
11,24.457388401031494,-189.8682403564453,-133.0548095703125,49.97005844116211,0.6073461174964903,0.031688421964645275,0.85018511215714,23.11007477698808,"array('d', [-134.06524658203125, -132.19000278554407, -130.35656492981946, -128.56161476561414, -126.80185486887694, -125.07415225510852, -123.3755934136715, -121.70350011011179, -120.05542698509272, -118.42915041331646, -116.82265317541561, -115.23410732469725, -113.66185663025287, -112.10439949663851, -110.5603730170596, -109.3358284447986])","array('d', [-190.84210205078125, -189.19068999097652, -187.491979273762, -185.7522223156554, -183.9766885784207, -182.16985743632185, -180.3355582984783, -178.47707909786502, -176.59725338013268, -174.69853166774524, -172.78304066330776, -170.85263273527062, -168.90892744608257, -166.953346419753, -164.98714251094086, -163.40532153675696])","array('d', [-49.971595764160156, -49.89516509160961, -49.84460421346295, -49.81070216121046, -49.787656489888825, -49.771769973897676, -49.76065757460317, -49.75276029175001, -49.74704471084578, -49.742815850076944, -49.73959983318833, -49.73707010366195, -49.73500114471421, -49.73323978861521, -49.7316878361394, -49.730570802120624])","array('d', [0.6253386735916134, 0.5716741998239193, 0.5204944185396879, 0.4725006589016862, 0.4280400739558074, 0.38722310091947765, 0.3500035381016142, 0.31623351928543936, 0.2857017902770969, 0.2581608599799084, 0.23334668060075986, 0.21099325370186714, 0.190843744060881, 0.1726591574769542, 0.15622529909613286, 0.14135850906880468])","array('d', [-0.037015032023191306, -0.02435071202972557, -0.016236225548447628, -0.010974062178702552, -0.00752035967564637, -0.005227195868943779, -0.0036884234237325505, -0.0026467901086839117, -0.0019375108396154994, -0.0014536511318924503, -0.0011246514447234247, -0.0009028328812788483, -0.0007548038697655385, -0.0006559305172532002, -0.000586785016220385, -0.000530945196864658])","array('d', [0.8624116937306261, 0.8356683917820071, 0.8118368215032057, 0.7905930406941076, 0.7716389527042775, 0.754707449791949, 0.7395622444450233, 0.72599561889992, 0.7138255617670742, 0.7028929052031635, 0.6930586763211222, 0.6842016992671963, 0.6762164132927369, 0.6690108501601628, 0.6625047136421125, 0.6551597589656625])",-125.07415225510852,-182.16985743632185,-49.771769973897676,0.38722310091947765,-0.005227195868943779,0.754707449791949,25.000000248651368,-1.0,"[-189.54088524893376, -132.59396804019968, 49.917881870299276]","[-185.78710153731345, -116.54050669964816, 61.24022645231018]","[-170.66244526341353, -126.86076005754389, 53.19428690336865]",10000000000.0,0.019148826599121094
12,24.48000931739807,-189.53955078125,-132.72080993652344,49.97016525268555,0.5979213714599606,0.029279053211212,0.8460968295719961,23.120323811761057,"array('d', [-133.7283172607422, -131.85965476643307, -130.03260858254203, -128.24381588762267, -126.4899624890157, -124.76791330436052, -123.07476090204145, -121.40783781245432, -119.76471208779071, -118.14317487864909, -116.54122425221698, -114.95704747067647, -113.38900302614951, -111.8356032859157, -110.2954983785865, -109.07413422542477])","array('d', [-190.52088928222656, -188.8618939135366, -187.15624999047319, -185.41013533261753, -183.62875407958666, -181.81652754336113, -179.97723339909024, -178.11411355025078, -176.2299606802957, -174.3271891176361, -172.4078935739982, -170.47389820171966, -168.52679772943992, -166.56799196902872, -164.59871464981984, -163.01475264766225])","array('d', [-49.97121047973633, -49.89778759805611, -49.84922337864255, -49.81666466033744, -49.79453551919248, -49.77928356660778, -49.768617422376934, -49.761039403950264, -49.75555677770631, -49.75150192528097, -49.74841961958836, -49.745996142150354, -49.744014829852226, -49.74232852197846, -49.740842874339016, -49.73977372722135])","array('d', [0.6210653185844419, 0.567213920064662, 0.516015426642423, 0.46811920762754156, 0.423834305050796, 0.3832431917839211, 0.34627908190579054, 0.31277892280973446, 0.28252027527696416, 0.2552474852753981, 0.23069067620646175, 0.20857986924717806, 0.18865575228095272, 0.17067811162339197, 0.15443261466296263, 0.13973642096437466])","array('d', [-0.03555990010499941, -0.023390231447879908, -0.015593747548433087, -0.010538325632429119, -0.007220573188218382, -0.0050178133528282765, -0.003539785071353793, -0.0025393287520565065, -0.0018581393959309078, -0.0013934951552076913, -0.0010776194454364947, -0.0008647144720290388, -0.0007227045265528541, -0.0006279230058856128, -0.0005616998957928209, -0.0005082474590674543])","array('d', [0.8582676808026174, 0.8317746931353897, 0.8081826294443505, 0.7871631418110374, 0.7684164175907903, 0.7516750584296404, 0.7367032281434319, 0.7232940382480568, 0.7112664920102115, 0.7004625192958572, 0.6907442720781288, 0.6819916936037826, 0.6741003141769004, 0.6669792105039482, 0.6605490681649991, 0.6532887243706793])",-124.76791330436052,-181.81652754336113,-49.77928356660778,0.3832431917839211,-0.0050178133528282765,0.7516750584296404,25.000000246283005,-1.0,"[-188.87897115952478, -131.92827157229593, 49.92253376284619]","[-184.96612773677364, -115.75187466485183, 61.01369418193067]","[-169.94562109655283, -126.31697176291695, 53.0913773756209]",10000000000.0,0.014282464981079102
13,24.498681783676147,-189.20925903320312,-132.388671875,49.97093963623047,0.5870872139930723,0.026571566238999318,0.8419673601773119,23.13091725948493,"array('d', [-133.0548095703125, -131.19879403114902, -129.38359530218446, -127.60581716379895, -125.86216187741206, -124.14953278889271, -122.46507029443467, -120.80615814099734, -119.17041593336982, -117.5556850701003, -115.96001164229786, -114.38162819205813, -112.81893547014718, -111.27048496671252, -109.73496280251729, -108.51695651686106])","array('d', [-189.8682403564453, -188.19476526224778, -186.47636979109964, -184.7189750332549, -182.9275786977742, -181.1064313494995, -179.25916713178503, -177.38890608507828, -175.49833672431225, -173.5897838907787, -171.66526512725952, -169.72653784072514, -167.7751388933904, -165.81241783078514, -163.8395646403571, -162.25299941581187])","array('d', [-49.97005844116211, -49.904635247825325, -49.86137637819965, -49.832384464621896, -49.81268754273753, -49.799118831130194, -49.78963601964072, -49.7829043496159, -49.77803910857277, -49.774445303601325, -49.77171718920068, -49.76957510358224, -49.767825868356326, -49.766338255904486, -49.7650281465703, -49.764085399543916])","array('d', [0.6073461174964903, 0.5538583563975339, 0.5032530846688839, 0.45608529498724004, 0.41259963513000153, 0.3728346973891463, 0.3366938822158096, 0.303994064243172, 0.2744995720071605, 0.24794640262787318, 0.22405987908516195, 0.2025678477073387, 0.18321079974645377, 0.16574984235898618, 0.1499731490844274, 0.1357013292791306])","array('d', [-0.031688421964645275, -0.020837383430344896, -0.013887448020845218, -0.009381785677826193, -0.006425241524153184, -0.004462524726939627, -0.0031457102212210223, -0.0022544996004499403, -0.001647816396539419, -0.0012341296813287686, -0.0009530512067266513, -0.0007637749875408802, -0.0006377162057523882, -0.0005537741348119885, -0.0004952890166922852, -0.000448156408132724])","array('d', [0.85018511215714, 0.8244587308118183, 0.8015590335231197, 0.7811615442932068, 0.7629723971849726, 0.7467305529401131, 0.7322062476119419, 0.71919813308811, 0.7075301777576677, 0.6970487382574423, 0.6876199159682473, 0.6791271868034615, 0.6714692479488603, 0.6645580161923935, 0.658316718103602, 0.6512690058986292])",-124.14953278889271,-181.1064313494995,-49.799118831130194,0.3728346973891463,-0.004462524726939627,0.7467305529401131,25.000000246284614,-1.0,"[-188.54561123739964, -131.59824328254282, 49.9262529475617]","[-184.5523636665994, -115.33538486094062, 60.86121567256541]","[-169.5848082801911, -126.04663007694604, 53.0355200691445]",10000000000.0,0.015715837478637695
14,24.515776872634888,-189.20925903320312,-132.388671875,49.97093963623047,0.5870872139930723,0.026571566238999318,0.8419673601773119,23.13091725948493,"array('d', [-132.72080993652344, -130.8711165544, -129.06163734596274, -127.28898532190148, -125.54989393498529, -123.84130538430786, -122.16040057227933, -120.50460283717192, -118.87156936967666, -117.25917671550522, -115.66550354445248, -114.08881242533441, -112.52753167398822, -110.98023801322402, -109.44564061422639, -108.2281307198736])","array('d', [-189.53955078125, -187.85889734943885, -186.13439649707348, -184.37179339388481, -182.57594814162255, -180.75100048284924, -178.90049362539932, -177.0274720266015, -175.13456077529685, -173.2240310832195, -171.29785486080098, -169.35775047796193, -167.40522124461705, -165.44158774685425, -163.46801488061908, -161.88095689097864])","array('d', [-49.97016525268555, -49.90971904152853, -49.8697576445738, -49.84298042197286, -49.824792013079026, -49.812265873580536, -49.803514769942346, -49.79730534197108, -49.792820091408025, -49.78950921410829, -49.78699775799671, -49.78502726270952, -49.78341917628992, -49.782052197613204, -49.780848574961624, -49.77998245775978])","array('d', [0.5979213714599606, 0.5449526410439438, 0.49493632159762213, 0.44838369686565027, 0.4055117440250887, 0.3663418527301869, 0.33076707653608145, 0.29859846564444953, 0.26959753052238344, 0.2434994596824644, 0.22003011085124338, 0.1989187547297014, 0.1799078807261977, 0.16276094290638993, 0.14726864629518674, 0.13325419373667582])","array('d', [-0.029279053211212, -0.01925013448959857, -0.012827541268082776, -0.008664116017348575, -0.005932315743594421, -0.0041188906096263425, -0.0029023020827540187, -0.002078980143501891, -0.0015185709845178656, -0.0011365052370974627, -0.0008769892197687864, -0.0007023209734286673, -0.0005860872480097022, -0.0005087852856700097, -0.000455009936663384, -0.00041171052900059493])","array('d', [0.8460968295719961, 0.8208817195016379, 0.7984327728919315, 0.7784327992152507, 0.7605948918760999, 0.7446641752393847, 0.7304161751957192, 0.7176540321231574, 0.7062055179256088, 0.6959202243194444, 0.686667020534752, 0.6783317656245599, 0.6708152205059854, 0.6640310973880552, 0.6579041900253658, 0.6509855765461521])",-123.84130538430786,-180.75100048284924,-49.812265873580536,0.3663418527301869,-0.0041188906096263425,0.7446641752393847,25.000000246285172,-1.0,"[-188.21061685088563, -131.27013463501152, 49.93108697690758]","[-184.13620512843963, -114.9084344375179, 60.6871985309652]","[-169.22237526192663, -125.77847731705826, 52.9787715507273]",10000000000.0,0.014050483703613281
15,24.532856225967407,-188.87738037109375,-132.058349609375,49.972557067871094,0.5751085877418516,0.023629369214177028,0.8379131118443346,23.14096563845563,"array('d', [-132.388671875, -130.54533729605657, -128.74150473101145, -126.97381074006728, -125.23903220279719, -123.5341605181669, -121.85642582985665, -120.20329845773027, -118.57247945656724, -116.96188588207757, -115.36963359513425, -113.79401919103437, -112.23350205234603, -110.68668723200281, -109.15230971977776, -107.9347125320444])","array('d', [-189.20925903320312, -187.52143552272972, -185.79094310269156, -184.02332873779656, -182.22329845755488, -180.3948687460744, -178.54148232477152, -176.6661006333452, -174.77127947875059, -172.85923177876847, -170.93188005315517, -168.99090056893624, -167.03776054893598, -165.073749493839, -163.10000539918508, -161.51290695145687])","array('d', [-49.97093963623047, -49.916085322081756, -49.879826692309, -49.855534869068514, -49.83903816091516, -49.8276801616254, -49.8197479645198, -49.81412217547946, -49.810060836832044, -49.80706493384253, -49.80479413020322, -49.80301380518669, -49.80156185871955, -49.800328157778985, -49.799242113595405, -49.79846060951317])","array('d', [0.5870872139930723, 0.5348192719177012, 0.4855493550157662, 0.43974733293263835, 0.39760506435415904, 0.3591292634769947, 0.32420501432714643, 0.2926397193062924, 0.2641940297131437, 0.23860406423169886, 0.21559773694671466, 0.19490705135541025, 0.17627759337058746, 0.15947605376123256, 0.1442963500160465, 0.13056474860231423])","array('d', [-0.026571566238999318, -0.017467434293053252, -0.01163777790298197, -0.007859034908743831, -0.0053797894141136724, -0.003734095667298239, -0.0026300899402189317, -0.001883007966512937, -0.0013745465329719655, -0.0010279582041791164, -0.0007926110031484763, -0.0006342902232482704, -0.000529023069328487, -0.00045910409838775123, -0.00041054138182192314, -0.000371473779097788])","array('d', [0.8419673601773119, 0.8173297138121761, 0.7953862956808639, 0.7758297123568973, 0.7583818882434352, 0.7427955231864145, 0.7288525116027036, 0.7163613159148499, 0.7051541614573645, 0.6950843848821469, 0.686024024637754, 0.6778616393659002, 0.6705003035000808, 0.6638557225551657, 0.6578544159553631, 0.6510775215270925])",-123.5341605181669,-180.3948687460744,-49.8276801616254,0.3591292634769947,-0.003734095667298239,0.7427955231864145,25.000000246285616,-1.0,"[-187.874137477862, -130.94378796907648, 49.93711631230513]","[-183.7200973237871, -114.47392343119387, 60.49588103655814]","[-168.85927545314013, -125.51074783775928, 52.92326719802508]",10000000000.0,0.014616727828979492
16,24.551095962524414,-188.87738037109375,-132.058349609375,49.972557067871094,0.5751085877418516,0.023629369214177028,0.8379131118443346,23.14096563845563,"array('d', [-132.058349609375, -130.22123270961455, -128.42281415093336, -126.65976829649681, -124.92892668414511, -123.22733897282964, -121.55229196322456, -119.90130908686761, -118.27214036995079, -116.66274766572604, -115.07128765605174, -113.49609406692404, -111.93566003401315, -110.38862129611945, -108.85374075522482, -107.63558639209158])","array('d', [-188.87738037109375, -187.18259817990318, -185.4463959669129, -183.674107369609, -181.8702730434079, -180.03877766758563, -178.18295695227775, -176.3056842954392, -174.4094423211529, -172.4963825966853, -170.56837583035616, -168.62705424362673, -166.67384738798344, -164.71001236252008, -162.73665914724313, -161.15013841479657])","array('d', [-49.972557067871094, -49.923778483747604, -49.89154076541189, -49.86994625467009, -49.85528414222754, -49.84519177105401, -49.83814575165089, -49.83315057084472, -49.829546381784034, -49.826889381499946, -49.82487687113549, -49.82330015856597, -49.82201504367244, -49.82092354780528, -49.81996287601621, -49.81927166103612])","array('d', [0.5751085877418516, 0.5237079098961888, 0.4753246205674852, 0.43039084176732373, 0.38907666522796325, 0.3513771156860067, 0.31717193818899486, 0.2862671909766397, 0.25842467345169085, 0.23338317202702916, 0.21087414612403113, 0.19063358812988854, 0.17241121458239703, 0.15597777200346533, 0.14113099791372513, 0.1277006193195524])","array('d', [-0.023629369214177028, -0.015531175479241134, -0.010346237903699842, -0.006985654755713091, -0.0047808846734010485, -0.0033174478808502958, -0.002335751919954504, -0.001671476849453764, -0.0012194166583788905, -0.0009113235628859312, -0.0007021739220566692, -0.0005615422223423321, -0.0004681083898222075, -0.00040612237211524565, -0.00036313222819661764, -0.0003285760204906315])","array('d', [0.8379131118443346, 0.8139026217021368, 0.7925054561995734, 0.7734260769227784, 0.7563967461482674, 0.7411788650391249, 0.7275615519888825, 0.7153592497467846, 0.7044091477914314, 0.6945687254343206, 0.685713500029874, 0.6777349702167184, 0.6705387098488018, 0.6640425613821838, 0.6581748819227058, 0.6515480813657831])",-123.22733897282964,-180.03877766758563,-49.84519177105401,0.3513771156860067,-0.0033174478808502958,0.7411788650391249,25.000000246285936,-1.0,"[-187.874137477862, -130.94378796907648, 49.93711631230513]","[-183.7200973237871, -114.47392343119387, 60.49588103655814]","[-168.85927545314013, -125.51074783775928, 52.92326719802508]",10000000000.0,0.012851953506469727
17,24.60100746154785,-187.87232971191406,-131.07827758789062,49.984683990478516,0.5338764786720276,0.014045666903257276,0.82568617264298,23.16772588547984,"array('d', [-131.40318298339844, -129.57880069827706, -127.79129570573639, -126.03745022623895, -124.31422883936503, -122.61881657529882, -120.94862919706259, -119.30130966156794, -117.6747173978174, -116.06691381263393, -114.4761459430176, -112.90082945044577, -111.33953178316578, -109.79095613334175, -108.25392670118178, -107.03355545808718])","array('d', [-188.20887756347656, -186.5000567921797, -184.75247318472108, -182.97101222152668, -181.15986454796194, -179.32263467595305, -177.4624303098547, -175.58193703347123, -173.68348127260336, -171.76908363055705, -169.84050421431343, -167.89928122026745, -165.94676376965646, -163.98413975620366, -162.01245928400033, -160.42764565664794])","array('d', [-49.9793586730957, -49.943657945901606, -49.920067559871626, -49.90426783442237, -49.89354182396908, -49.88616005071242, -49.88100753700479, -49.87735571597856, -49.87472169350795, -49.872780681222615, -49.87131114777748, -49.870160352498374, -49.86922274891612, -49.86842661826481, -49.867725996976375, -49.86722190585901])","array('d', [0.5483581423759458, 0.4990300078099601, 0.45271367818655034, 0.40977135448855406, 0.37033447635541633, 0.33437902916378853, 0.3017779776660124, 0.2723382084997017, 0.24582698824316687, 0.22199128301919327, 0.20057216929006733, 0.1813158278818585, 0.16398212919393246, 0.14835150027020433, 0.13423055614583784, 0.12145684084166601])","array('d', [-0.01729484833776938, -0.011365656784038359, -0.007570258144265842, -0.005110640755901189, -0.00349711166271495, -0.002426181005353502, -0.0017078166750256368, -0.0012217497492724714, -0.0008909863973240383, -0.0006655837400036201, -0.0005125952260768466, -0.0004097565737152874, -0.00034146553111037286, -0.000296194206024138, -0.0002648260969207967, -0.00023962534152262215])","array('d', [0.8296317617085318, 0.8069869227184674, 0.7867781948035663, 0.7687365136567754, 0.7526169253294145, 0.7381999020935264, 0.7252903615877176, 0.7137158161693644, 0.7033242997763783, 0.6939823356875803, 0.6855730269596504, 0.6779942709160711, 0.6711570680870061, 0.6649838881900447, 0.6594070579092065, 0.6531079124857957])",-122.61881657529882,-179.32263467595305,-49.88616005071242,0.33437902916378853,-0.002426181005353502,0.7381999020935264,25.000000246286397,-1.0,"[-186.85535086634962, -129.97586651430862, 49.96361618285175]","[-182.46169781862736, -113.1483098428764, 59.839300937134766]","[-167.76288350420063, -124.7171548346373, 52.760693495934746]",10000000000.0,0.033930063247680664
18,24.619154691696167,-187.5343475341797,-130.75509643554688,49.99144744873047,0.5189704895019529,0.010802295990288065,0.8217296759274342,23.1737204422904,"array('d', [-131.07827758789062, -129.25995284978424, -127.4775041407106, -125.72778605040817, -124.0078421035424, -122.3149341574616, -120.64654956075718, -119.00039673142359, -117.37439445593938, -115.76665777003487, -114.17548210984909, -112.59932683046146, -111.0367988747162, -109.4866371989885, -107.94769845700189, -106.7255418761289])","array('d', [-187.87232971191406, -186.15693145387772, -184.40413251116382, -182.6185906165361, -180.8043171646218, -178.96477266291973, -177.1029474773848, -175.22143054976232, -173.3224680019338, -171.4080131878669, -169.47976949292337, -167.53922694587467, -165.58769349614224, -163.62632162249224, -161.65613078239454, -160.07270534957095])","array('d', [-49.984683990478516, -49.95568958797119, -49.936529574410834, -49.923695507100554, -49.9149810496336, -49.9089819018565, -49.90479278979929, -49.901822207354805, -49.89967812525837, -49.898096886598886, -49.89689867172475, -49.8959595125412, -49.89519375502268, -49.894543202094894, -49.893970553017105, -49.893558515010284])","array('d', [0.5338764786720276, 0.4857632681992745, 0.4406268385463097, 0.3988003207297551, 0.36040052262834904, 0.32539773925677484, 0.2936647305316478, 0.26501148364216653, 0.23921028137995864, 0.21601412141474394, 0.1951705309616115, 0.17643215506041268, 0.1595650562830009, 0.14435537307879318, 0.13061479198856757, 0.11818516184115006])","array('d', [-0.014045666903257276, -0.009230720360273609, -0.006148858100430255, -0.004151758067246034, -0.002841677214943013, -0.0019721511439438127, -0.0013888703696823034, -0.0009941803526609281, -0.0007255665363599384, -0.0005424787338687196, -0.0004181669608518769, -0.0003345552061579299, -0.00027897794963761374, -0.0002420799215193673, -0.00021646660879102504, -0.0001958678843184631])","array('d', [0.82568617264298, 0.8037613032312179, 0.7841777772145169, 0.7666810896891926, 0.7510386410062212, 0.7370411739469616, 0.7245020839507933, 0.7132558798949702, 0.7031563881797727, 0.6940749498017782, 0.6858986946142491, 0.6785289018463856, 0.6718794257403697, 0.6658751564325727, 0.6604504869804967, 0.6543227815845613])",-122.3149341574616,-178.96477266291973,-49.9089819018565,0.32539773925677484,-0.0019721511439438127,0.7370411739469616,25.000000246286493,-1.0,"[-186.85535086634962, -129.97586651430862, 49.96361618285175]","[-182.46169781862736, -113.1483098428764, 59.839300937134766]","[-167.76288350420063, -124.7171548346373, 52.760693495934746]",10000000000.0,0.015186786651611328
19,24.63872241973877,-187.1949920654297,-130.43362426757812,49.999759674072266,0.5037684440612791,0.00760802673175919,0.8178430954602101,23.181062070665508,"array('d', [-130.75509643554688, -128.9428773265176, -127.16550105188242, -125.41990141079674, -123.70320471597893, -122.01275222191177, -120.34610483707864, -118.70103809084195, -117.07553156642918, -115.46775520781038, -113.87605399679717, -112.29893201382775, -110.73503662772518, -109.18314340262275, -107.64214221242747, -106.41804720971217])","array('d', [-187.5343475341797, -185.81239438562824, -184.05440527195748, -182.2648150673384, -180.44745795442432, -178.60565107573368, -176.74226739937606, -174.85979881974725, -172.96041058815112, -171.0459881797372, -169.11817761866408, -167.17842014379835, -165.2279819409467, -163.26797951786, -161.29940116617195, -159.71743545003065])","array('d', [-49.99144744873047, -49.969146084842606, -49.954404841442894, -49.94452625114019, -49.93781424468948, -49.93318942015303, -49.92995601080307, -49.92765944582096, -49.92599848914658, -49.92477058250737, -49.9238376120543, -49.923104393568515, -49.92250518516194, -49.92199533068436, -49.92154620143429, -49.92122297950556])","array('d', [0.5189704895019529, 0.47212391159195627, 0.42821113115904125, 0.3875379931342457, 0.35020783113199316, 0.316186058826955, 0.2853458440998098, 0.2575007725566977, 0.23242856836801926, 0.2098886342496254, 0.18963527963925203, 0.17142790681102568, 0.15503902549561982, 0.14026070130325194, 0.12690986681416747, 0.11483280660879992])","array('d', [-0.010802295990288065, -0.00710079031370394, -0.004731794964437755, -0.003196706872770806, -0.0021897037316152843, -0.0015213082089507786, -0.001072900324911791, -0.0007694146534925184, -0.0005627975576060755, -0.0004218785931912839, -0.0003260956297165502, -0.00026155581347407544, -0.0002185286880206873, -0.00018983358033200054, -0.0001698039409190666, -0.00015364569188412833])","array('d', [0.8217296759274342, 0.8005338680918758, 0.7815846317859536, 0.7646417802716086, 0.7494848978987211, 0.7359148975649845, 0.7237536063246985, 0.7128425208239275, 0.703041274855787, 0.6942260556126238, 0.6862880547650384, 0.6791319704374734, 0.6726745467757829, 0.6668431282837971, 0.6615742056172157, 0.6556221350120085])",-122.01275222191177,-178.60565107573368,-49.93318942015303,0.316186058826955,-0.0015213082089507786,0.7359148975649845,25.00000024628657,-1.0,"[-186.16932680361413, -129.33914697747187, 49.988347744066395]","[-181.62247977083592, -112.26572415680252, 59.359815891969546]","[-167.02944923608575, -124.18909518481586, 52.660809761193036]",10000000000.0,0.016927242279052734
20,24.666445016860962,-186.50790405273438,-129.79165649414062,50.02345275878906,0.47309613227844205,0.0015249880962071966,0.8103996674206594,23.19587457308959,"array('d', [-130.43362426757812, -128.62742532828187, -126.85501249686278, -125.11340544877639, -123.39981680246285, -121.71166936849346, -120.04659913271475, -118.40244990891357, -116.77726303573975, -115.16926417249725, -113.57684853754222, -111.99856553504284, -110.43310348384512, -108.87927502030216, -107.33600365521217, -106.10982988487996])","array('d', [-187.1949920654297, -185.46664713674687, -183.70361903750793, -181.91012652577453, -180.08983017921136, -178.24590576801234, -176.38110997924733, -174.4978382803019, -172.5981753810908, -170.68393903186836, -168.75671794160525, -166.81790453721752, -164.8687231746109, -162.91025429445966, -160.94345490592028, -159.3631215698015])","array('d', [-49.999759674072266, -49.984048530298786, -49.97365507891891, -49.966681786708, -49.96193574703669, -49.958657878314135, -49.95635895654791, -49.9547194141451, -49.95352754113648, -49.952641042940854, -49.9519629603755, -49.95142653013318, -49.950985684800585, -49.95060915411275, -49.950276878551506, -49.950037655216285])","array('d', [0.5037684440612791, 0.45823708901225485, 0.41558661255477863, 0.3760980703192985, 0.33986300147241155, 0.3068431287186019, 0.2769129180227223, 0.2498902514370776, 0.2255588619916921, 0.20368502924649823, 0.1840302405575505, 0.1663609858099115, 0.15045649263331606, 0.13611496759163755, 0.12315874704285593, 0.11143865277286819])","array('d', [-0.00760802673175919, -0.005004408017007883, -0.003338174025920074, -0.0022584786629958457, -0.0015501713731089005, -0.0010799682786306571, -0.0007644331375610765, -0.0005507652737202358, -0.00040516211138026556, -0.00030569575010595124, -0.00023790125046045576, -0.0001920085237363458, -0.00016118198694540224, -0.00014038941893595284, -0.0001256764584463613, -0.00011371747487058114])","array('d', [0.8178430954602101, 0.7973787246465266, 0.7790667230836927, 0.7626809576462308, 0.7480129923631563, 0.7348737716937549, 0.7230934694820841, 0.7125205240480953, 0.7030203561677139, 0.6944739945520613, 0.6867766967075485, 0.6798365877086839, 0.6735733108675219, 0.6679166740698876, 0.6628052739008451, 0.6570307311860321])",-121.71166936849346,-178.24590576801234,-49.958657878314135,0.3068431287186019,-0.0010799682786306571,0.7348737716937549,25.000000246286618,-1.0,"[-186.16932680361413, -129.33914697747187, 49.988347744066395]","[-181.62247977083592, -112.26572415680252, 59.359815891969546]","[-167.02944923608575, -124.18909518481586, 52.660809761193036]",10000000000.0,0.02253866195678711
21,24.690621852874756,-186.16278076171875,-129.47308349609375,50.037757873535156,0.457868695259094,-0.0014589618658647839,0.8068608800556994,23.201706731994058,"array('d', [-129.79165649414062, -127.99705007566835, -126.23409234848904, -124.49998916298661, -122.79213179342047, -121.1081088165775, -119.44570760678353, -117.8029091508218, -116.1778785971315, -114.56895316880248, -112.97462859083373, -111.3935448862355, -109.82447220848852, -108.26629725529254, -106.7180107246373, -105.48732740593343])","array('d', [-186.50790405273438, -184.76744762615, -182.99492864848014, -181.19416159906498, -179.36847703280225, -177.52077920103588, -175.6535999111873, -173.76914722434336, -171.86934873758247, -169.95588970606678, -168.0302464427309, -166.09371545874401, -164.14743876351952, -162.19242567334263, -160.22957140435167, -158.6528458305664])","array('d', [-50.02345275878906, -50.020284893656736, -50.01815315201297, -50.016688177567914, -50.01565793711736, -50.01491494685132, -50.01436434037724, -50.013944364072856, -50.01361434869856, -50.0133472205335, -50.01312479497362, -50.012934791332505, -50.01276892090512, -50.01262164756838, -50.01248936909803, -50.01239375234883])","array('d', [0.47309613227844205, 0.43027928814958866, 0.39021283385150796, 0.3531358251169728, 0.31912110772459357, 0.288126308533501, 0.26003079513479715, 0.2346627327751136, 0.21181915942042048, 0.19128111554930152, 0.17282524306560507, 0.15623283866605578, 0.14129705402640297, 0.12782873587252394, 0.11566126343862809, 0.10465464845241097])","array('d', [-0.0015249880962071966, -0.001017766162008339, -0.0006930443566675269, -0.00048244841667979685, -0.0003440526761449447, -0.000251877210097447, -0.00018964610715044506, -0.0001470455959696631, -0.00011746024413116322, -9.659043598476497e-05, -8.160007899618602e-05, -7.058655913651528e-05, -6.224886908862617e-05, -5.567938740195065e-05, -5.023421358239485e-05, -4.5454447722142145e-05])","array('d', [0.8103996674206594, 0.7913765434418042, 0.7743230011675636, 0.7590395684229647, 0.745340631135582, 0.7330563552507772, 0.7220330055714974, 0.7121324795666748, 0.7032314749516879, 0.6952204942576345, 0.6880027766255957, 0.6814931901914937, 0.6756170915873188, 0.6703091478303977, 0.6655121122904362, 0.6600918483392295])",-121.1081088165775,-177.52077920103588,-50.01491494685132,0.288126308533501,-0.000251877210097447,0.7330563552507772,25.000000246286632,-1.0,"[-185.12512888155098, -128.3899058623209, 50.03994631555758]","[-180.36454125990375, -110.96867452295588, 58.63282151056336]","[-165.92217280959878, -123.38827199018593, 52.5359704956862]",10000000000.0,0.02247333526611328
