,current_time,x_pos,y_pos,z_pos,roll,pitch,yaw,vel,x_traj,y_traj,z_traj,roll_traj,pitch_traj,yaw_traj,x_cmd,y_cmd,z_cmd,roll_cmd,pitch_cmd,yaw_cmd,vel_cmd,effector_dmg,effector_x,effector_y,effector_z,cost,time_solution
0,21.321935892105103,-328.8070068359375,187.04624938964844,50.009334564208984,0.6313995718955991,0.0316005982458591,-1.2231265743586677,23.112576913187585,"array('d', [187.48582458496094, 185.12903572931114, 182.7546463286863, 180.36821092306798, 177.97383148834697, 175.57464124682346, 173.172881636531, 170.7700712814052, 168.3672068085542, 165.9649084549742, 163.56352482710744, 161.16321419412148, 158.76400952100096, 156.36586991105045, 153.96871920455354, 152.0518233792679])","array('d', [-328.93634033203125, -328.1055423469617, -327.32523755950723, -326.58179007723754, -325.8638173578711, -325.1617472749512, -324.46829578490474, -323.7783480558885, -323.08849182906994, -322.39660134356564, -321.7014978639196, -321.00266686470223, -320.30002607055013, -319.59374257136824, -318.8840978913535, -318.3136485960373])","array('d', [-50.0075569152832, -49.93703005199823, -49.880370045450746, -49.83438365883587, -49.79672298186822, -49.765621509343745, -49.739723687133015, -49.71797287013187, -49.699536157802235, -49.683752592566776, -49.67009654898013, -49.65815135097355, -49.64759000968451, -49.638161059272065, -49.62967810990684, -49.62354536453513])","array('d', [0.6314780116081237, 0.49664453180859275, 0.37464214313613214, 0.26424980705459566, 0.16436268575760177, 0.08809645179120974, 0.03466357140093325, -0.000970576698990161, -0.023039882437651354, -0.03513033571428127, -0.040247798628807036, -0.0408523553577377, -0.038880430410773416, -0.035761828356393036, -0.03243307297153067, -0.02934666066365571])","array('d', [-0.03141852840781214, -0.02511568604407522, -0.020296635619107124, -0.01655695516166381, -0.01362170249577851, -0.01129887219325188, -0.009450591910388812, -0.007974900127119768, -0.006794298937951641, -0.005848416693781851, -0.005089138937739339, -0.004477263202677503, -0.003980128180495319, -0.003569893560492434, -0.0032222778758348, -0.0029156381715213986])","array('d', [-1.218856736025538, -1.2436721542139537, -1.2619163516419316, -1.2748705839763705, -1.28338435045355, -1.2883411768118744, -1.290735781601391, -1.2913853045342967, -1.2909069531302422, -1.2897613569799804, -1.2882800567687855, -1.2866878008072011, -1.285123260204575, -1.28365911972492, -1.282321706522753, -1.2808073279087657])",175.57464124682346,-325.1617472749512,-49.765621509343745,0.08809645179120974,-0.01129887219325188,-1.2883411768118744,25.00000023312605,-1.0,"[-328.4195167814918, 186.07846069474445, 49.9604368757841]","[-313.0693265261644, 176.02224774368418, 42.00781213874414]","[-331.8341783957177, 170.10924907526976, 38.41381978190043]",10000000000.0,0.01620340347290039
1,21.346457719802856,-328.8070068359375,187.04624938964844,50.009334564208984,0.6313995718955991,0.0316005982458591,-1.2231265743586677,23.112576913187585,"array('d', [187.04624938964844, 184.68594890921977, 182.3082642486549, 179.91869094423768, 177.52128218257278, 175.11913068199476, 172.7144482601137, 170.3087329641065, 167.90296765251748, 165.49776393332374, 163.09346555364527, 160.69022855569781, 158.28808538379099, 155.8869956025369, 153.48688396529636, 151.5676110123204])","array('d', [-328.8070068359375, -327.9862787710491, -327.21610893488344, -326.4828396260409, -325.7750721790042, -325.0832210963101, -324.399988886903, -323.7202509410431, -323.04058895786005, -322.3588738767797, -321.67392564743693, -320.9852297962352, -320.2927049603239, -319.59651960292365, -318.89695678755743, -318.3345597811773])","array('d', [-50.009334564208984, -49.93833945075225, -49.88119853146212, -49.83473988012272, -49.796628349906186, -49.76510453345499, -49.7388162009842, -49.71670754653082, -49.69794492601389, -49.68186569210964, -49.66794202696418, -49.655754861198275, -49.64497480956426, -49.63534812964891, -49.626686345557985, -49.620424163132995])","array('d', [0.6313995718955991, 0.49657355661491476, 0.3745779221186786, 0.26419169746757226, 0.1643101058463924, 0.08798573508254968, 0.034516423141799916, -0.0011374991335801716, -0.02321409069385612, -0.03530288998576475, -0.04041275531587331, -0.04100622576553327, -0.03902164356216082, -0.035890203886705614, -0.0325493087185171, -0.029451835126366115])","array('d', [-0.0316005982458591, -0.025308192687209064, -0.020488962236394577, -0.016742616404443102, -0.013796939380582485, -0.01146174337457539, -0.009600364549662154, -0.008111626159998213, -0.006918515387814286, -0.005960935146988271, -0.005190900447351433, -0.004569241367654462, -0.004063267341627633, -0.0036450719546790326, -0.0032902876920864114, -0.002977176003570571])","array('d', [-1.2231265743586677, -1.2479378775078773, -1.2661788437827384, -1.279130412032687, -1.2876419036500364, -1.2925954578534053, -1.2949849721323623, -1.2956283242743794, -1.2951432762069957, -1.2939908712049997, -1.2925029420353014, -1.290904423982027, -1.289334088743009, -1.287864655736204, -1.28652244162989, -1.2850026319592986])",175.11913068199476,-325.0832210963101,-49.76510453345499,0.08798573508254968,-0.01146174337457539,-1.2925954578534053,25.000000232729885,-1.0,"[-328.30027598134365, 185.65130085638052, 49.96189181304694]","[-313.00317080613246, 175.5439968613826, 41.971836793760374]","[-331.79620921509166, 169.69086343632588, 38.42746992958456]",10000000000.0,0.014901876449584961
2,21.37471628189087,-328.5539245605469,186.1648712158203,50.01236343383789,0.6311231255531312,0.03183747082948681,-1.2318784435603285,23.109703033761456,"array('d', [186.1648712158203, 183.79750197203862, 181.4131996014031, 179.01733620220867, 176.6138634734156, 174.20579016281454, 171.79526658593343, 169.38374806908212, 166.97218889992675, 164.56118277215455, 162.1510633236634, 159.74198193347928, 157.3339699120797, 154.92698772261804, 152.52096195442007, 150.59694072887865])","array('d', [-328.5539245605469, -327.75387270785217, -327.004497777532, -326.2921000636748, -325.6052498712051, -324.93433595882556, -324.2720348918777, -323.613203297194, -322.95441144118155, -322.2935242166317, -321.6293594203877, -320.96140309827774, -320.28957607765307, -319.6140498916564, -318.93511097107626, -318.3891844439216])","array('d', [-50.01236343383789, -49.94071268183547, -49.88282697108306, -49.8355927182958, -49.796711867911284, -49.7644478607469, -49.737461674216384, -49.71470419645631, -49.69534415139461, -49.678718478982624, -49.66429725364094, -49.65165835372455, -49.64046890232777, -49.630471553576164, -49.62147431890533, -49.614969312467025])","array('d', [0.6311231255531312, 0.4963234175969508, 0.37435158695378185, 0.26398690091869975, 0.1641247979492086, 0.08769474147984484, 0.03416121055356683, -0.001525075410216812, -0.023610193789087745, -0.035690549494879605, -0.04078081474227673, -0.04134829441137011, -0.039335048811171766, -0.036174960664253436, -0.03280711758527984, -0.029685110256837503])","array('d', [-0.03183747082948681, -0.02559520740822127, -0.02079757823883213, -0.017054535741072227, -0.014100685781876218, -0.011750448858712445, -0.009870287478352247, -0.008361123604924466, -0.007147316781180776, -0.006169629375501538, -0.00538057802981082, -0.004741250321885887, -0.004219052021029483, -0.0037860712832448414, -0.0034178742585481894, -0.003092621113282543])","array('d', [-1.2318784435603285, -1.25667524714277, -1.2749048274464487, -1.2878470074857775, -1.2963504822246372, -1.3012945097357813, -1.3036712759144429, -1.3043000386873518, -1.3037996089723596, -1.302631815705038, -1.3011290442146157, -1.299516578649567, -1.2979333716246624, -1.2964521954473665, -1.2950993324487363, -1.29356747673664])",174.20579016281454,-324.93433595882556,-49.7644478607469,0.08769474147984484,-0.011750448858712445,-1.3012945097357813,25.00000023185972,-1.0,"[-328.253235365939, 185.4786055113891, 49.9624184731356]","[-312.97809184030973, 175.34988996347147, 41.95747552388251]","[-331.7826778934557, 169.5216761475292, 38.43334909517875]",10000000000.0,0.017720460891723633
3,21.3942129611969,-328.3083190917969,185.28062438964844,50.01493453979492,0.6310195326805115,0.032136447727680276,-1.2405468662593027,23.108362476350873,"array('d', [185.7230987548828, 183.3522653088587, 180.9647204928041, 178.56577578310467, 176.15933273794278, 173.74835842409556, 171.33497248853584, 168.92060892931246, 166.50620778857473, 164.0923538611297, 161.67937580806748, 159.26742277024363, 156.85652559410573, 154.4466452979456, 152.03770949237008, 150.11135092098988])","array('d', [-328.4302062988281, -327.6405190826244, -326.9015763988153, -326.19965621715613, -325.5233124618341, -324.8629204492059, -324.211143452662, -323.5628284475279, -322.91453969493364, -322.2641387513598, -321.61044200834544, -320.9529354387529, -320.2915406400529, -319.62643037185586, -318.95789246217794, -318.4202746461681])","array('d', [-50.013710021972656, -49.94161992701138, -49.88326876650373, -49.83556811711262, -49.79623559477546, -49.763543931710544, -49.73615907126694, -49.71303395226311, -49.69333743148728, -49.67640537587059, -49.661706084758734, -49.648815309054925, -49.63739792757965, -49.62719438566974, -49.61801061496014, -49.611370590498204])","array('d', [0.6310763955116273, 0.4962811345027392, 0.37431332762391656, 0.26395228244032165, 0.16409347372399177, 0.08760673484261214, 0.03403725054127712, -0.0016690967537732818, -0.02376235569969274, -0.03584229972261889, -0.04092644055587521, -0.04148440855002255, -0.039460081280562866, -0.036288660766989715, -0.032910070045663, -0.02977826550370626])","array('d', [-0.03200478479266165, -0.025779234401415208, -0.020985939677033532, -0.017239417170616767, -0.01427732384039777, -0.01191614702664189, -0.010023751477190715, -0.008501995108768472, -0.007275840088462175, -0.0062864139985242115, -0.005486432151370894, -0.004837066910897086, -0.004305733751256958, -0.0038644833833011137, -0.003488816590030547, -0.003156812395078842])","array('d', [-1.2362529476496837, -1.261047300730853, -1.2792749566198587, -1.292215549824424, -1.3007176694691942, -1.3056593021938112, -1.3080318823136265, -1.3086553789015523, -1.3081491341979778, -1.3069753729293507, -1.3054667603331138, -1.3038487607837859, -1.3022604253199026, -1.3007745622161115, -1.2994174469350532, -1.2978807806679027])",173.74835842409556,-324.8629204492059,-49.763543931710544,0.08760673484261214,-0.01191614702664189,-1.3056593021938112,25.00000023138941,-1.0,"[-328.05547719683824, 184.7509156504474, 49.96461529499528]","[-312.87353236873827, 174.53193876046126, 41.8973318266611]","[-331.72627324037694, 168.80921391074315, 38.458642843739746]",10000000000.0,0.015265464782714844
4,21.415977716445923,-328.3083190917969,185.28062438964844,50.01493453979492,0.6310195326805115,0.032136447727680276,-1.2405468662593027,23.108362476350873,"array('d', [185.28062438964844, 182.90643299657654, 180.51574926123882, 178.11382467657668, 175.70451128859946, 173.29073504978814, 170.8745853194409, 168.45747503069552, 166.04033016217664, 163.62372672621427, 161.20798847357818, 158.79326233786486, 156.37957870911498, 153.96689915497473, 151.55515229548544, 149.62653565752385])","array('d', [-328.3083190917969, -327.5288188162681, -326.8001275431879, -326.1085016976724, -325.44247942935147, -324.79242313643067, -324.1509833450096, -323.51299779044376, -322.8750250005803, -322.23492336451187, -321.5915079619592, -320.94426473336506, -320.29311605236063, -319.638235891165, -318.9799134520892, -318.45045612885457])","array('d', [-50.01493453979492, -49.942485286022865, -49.88373328025286, -49.83561859232392, -49.795877065881236, -49.76279271974476, -49.73503804058889, -49.71156927491991, -49.69155641738089, -49.67433506474895, -49.65937237966445, -49.646242488479174, -49.63460841583803, -49.62420869337651, -49.61484738698529, -49.608078850132515])","array('d', [0.6310195326805115, 0.49622968288052144, 0.37426677226612176, 0.26391015740487406, 0.16405535729972867, 0.08751518973488995, 0.0339120117308278, -0.0018128984018678112, -0.023913375894024466, -0.0359924094282088, -0.04107022236472873, -0.04161866585414345, -0.0395833523614517, -0.03640074246872526, -0.03301155496475558, -0.029870092864182483])","array('d', [-0.032136447727680276, -0.025934622607261024, -0.021151151903042016, -0.01740548255866388, -0.014438582995712677, -0.012069198548826009, -0.010166740851082634, -0.008634116357493029, -0.007396979463566044, -0.006396895450691559, -0.005586837684253617, -0.004928112503841092, -0.004388186287578664, -0.003939107222472254, -0.00355634071394671, -0.0032179107544896535])","array('d', [-1.2405468662593027, -1.2653382376683993, -1.283563551956952, -1.2965022142945979, -1.305002685038387, -1.3099417178818136, -1.3123100178061795, -1.3129282279283325, -1.312416195233678, -1.3112365207116148, -1.3097221354782094, -1.3080986746192982, -1.3065052817375653, -1.3050147980252949, -1.303653490999677, -1.3021120827283454])",173.29073504978814,-324.79242313643067,-49.76279271974476,0.08751518973488995,-0.012069198548826009,-1.3099417178818136,25.00000023090145,-1.0,"[-327.99001408780094, 184.50364144220885, 49.96522558908752]","[-312.8398448562387, 174.25484147879527, 41.87606793424127]","[-331.7086672251065, 168.5678094220459, 38.46649189056415]",10000000000.0,0.01644444465637207
5,21.435412645339966,-328.1883544921875,184.83743286132812,50.01600646972656,0.6306337118148805,0.032088872045278514,-1.2447308739039564,23.108059177740063,"array('d', [184.83743286132812, 182.46000752703398, 180.066317823077, 177.66155229758917, 175.24951219845138, 172.83308195128555, 170.4143204838886, 167.9946196176706, 165.57489121973978, 163.15570241916274, 160.73737189245884, 158.32004414888988, 155.9037488703722, 153.48844790754785, 151.07407062621942, 149.1433425916619])","array('d', [-328.1883544921875, -327.4187690372973, -326.7000190927687, -326.01834663001495, -325.36227899374927, -324.7221694011465, -324.09065870963684, -323.4625778386394, -322.8344815341355, -322.20422665205297, -321.570628357806, -320.93317376820556, -320.2917870872238, -319.64664442681703, -318.9980371866949, -318.47633389865166])","array('d', [-50.01600646972656, -49.94360307069669, -49.88478049362621, -49.83652360040149, -49.79659859854633, -49.7633100583579, -49.73534423192253, -49.71166639379792, -49.69145225607525, -49.67404083266289, -49.65890112102254, -49.64560800747936, -49.63382455573228, -49.62328885766157, -49.613804222619, -49.606946368749284])","array('d', [0.6306337118148805, 0.49588057769281346, 0.37395088880036526, 0.26362433419779235, 0.1637967336503274, 0.0872286416719023, 0.03361317535035188, -0.002111929201419825, -0.024203648220316204, -0.03626775457802901, -0.04132686596791261, -0.041854801825310525, -0.03979870004122685, -0.036596105412196905, -0.033188391565173676, -0.030030101251607242])","array('d', [-0.032088872045278514, -0.02594453823958113, -0.0211971070910271, -0.01747295362304358, -0.014517716307486645, -0.012153351152253217, -0.010251506359107593, -0.008716653445423547, -0.007475538118478454, -0.006470480056290561, -0.005654967888007643, -0.004990655225251424, -0.0044452397371167, -0.003990922598044628, -0.003603270465131996, -0.0032603745531842128])","array('d', [-1.2447308739039564, -1.2695020197692224, -1.2877114488691181, -1.3006370115563328, -1.3091262950953018, -1.314054449688192, -1.3164112161811454, -1.3170176919768601, -1.3164940975528912, -1.3153033202818825, -1.3137784879075776, -1.312145348791827, -1.31054308991427, -1.3090445428980413, -1.3076759305305774, -1.306126259561938])",172.83308195128555,-324.7221694011465,-49.7633100583579,0.0872286416719023,-0.012153351152253217,-1.314054449688192,25.00000023040104,-1.0,"[-327.8221517170485, 183.862414816564, 49.966738165014284]","[-312.7536439361753, 173.53721343622735, 41.822397202526375]","[-331.66310491063416, 167.941947294873, 38.48693884379507]",10000000000.0,0.016146183013916016
6,21.480247974395752,-327.8409729003906,183.50665283203125,50.01755142211914,0.6197163462638854,0.030819544568657757,-1.2570263584468027,23.116697069318665,"array('d', [183.9505157470703, 181.56680275663948, 179.16742415022102, 176.75740020301717, 174.34040734319694, 171.91923440935167, 169.49587229355984, 167.07166623441856, 164.64749671955877, 162.22391028816418, 159.8012126139584, 157.37954037469692, 154.95891876093796, 152.53930711341238, 150.12063331165623, 148.18647988833985])","array('d', [-327.9546813964844, -327.2046487787496, -326.50503616053055, -325.84214314223993, -325.20453477772725, -324.58258928086525, -323.96896219269445, -323.3584977394647, -322.7477655375552, -322.13463892541125, -321.51795062602423, -320.89720568094185, -320.2723459248144, -319.6435642898517, -319.01116784372135, -318.5023112491435])","array('d', [-50.01707077026367, -49.94617003225194, -49.888367246184025, -49.84079148661482, -49.80130975387333, -49.768297996564876, -49.74049346890751, -49.716898070619145, -49.69671385081474, -49.67929872009099, -49.66413514123542, -49.650807458594926, -49.638985194197076, -49.628410606794134, -49.61888937490411, -49.61200480964017])","array('d', [0.6256380677223204, 0.4913603315814847, 0.36986080060962406, 0.25992346902328634, 0.16044805193796072, 0.08411943580793381, 0.030733410877707857, -0.004768355927922831, -0.02664298726790764, -0.038498116863513024, -0.0433586176202227, -0.04370026557127074, -0.04147154781628209, -0.03811065830480353, -0.03455892938534215, -0.03127021526641473])","array('d', [-0.03137162700295448, -0.025455347572836844, -0.020867575840999224, -0.017255604782577764, -0.014379091127368543, -0.012069614575092707, -0.010205565232527586, -0.008696214265457976, -0.0074717641455565725, -0.006477047425078218, -0.005667396855431273, -0.0050058360213543415, -0.004461098105421195, -0.00400618590139365, -0.0036173053466728076, -0.003273073840299252])","array('d', [-1.2530864914271493, -1.277596607019859, -1.2956007978853976, -1.308356980527997, -1.316701530649773, -1.3215010351547147, -1.3237399372758778, -1.324237832257812, -1.323614304973824, -1.3223318850170747, -1.3207233618325007, -1.3190140748488592, -1.3173427230420567, -1.3157815958571282, -1.3143563532829157, -1.3127426421781483])",171.91923440935167,-324.58258928086525,-49.768297996564876,0.08411943580793381,-0.012069614575092707,-1.3215010351547147,25.0000002293614,-1.0,"[-327.4863242163696, 182.52628687659725, 49.97002104820339]","[-312.5833421995589, 171.9952075998693, 41.78482121717378]","[-331.57306047253286, 166.58178847271154, 38.60905465352348]",10000000000.0,0.02749919891357422
7,21.506526470184326,-327.729248046875,183.0619659423828,50.01803970336914,0.6109887957572935,0.030030064284801483,-1.2608362873408456,23.121297305774085,"array('d', [183.50665283203125, 181.12008845458018, 178.71825043215082, 176.30604767475617, 173.88708039097338, 171.46408319155057, 169.0390098633011, 166.61318071267712, 164.18745925597577, 161.76238028351113, 159.33824117150598, 156.91517256006853, 154.49319504973676, 152.0722642900177, 149.6523050103296, 147.71715071702997])","array('d', [-327.8409729003906, -327.09994381506954, -326.40874435572636, -325.753773838781, -325.12366481000663, -324.5088435261074, -323.9020007022039, -323.2980092456539, -322.6934645478118, -322.0862641587714, -321.4752637708203, -320.8599900842997, -320.24040512739253, -319.61672044678573, -318.98926010990186, -318.4842219434847])","array('d', [-50.01755142211914, -49.94784772236398, -49.8909341484428, -49.844024999614305, -49.80504715852356, -49.77241945392335, -49.744910321596635, -49.72154460818488, -49.70154139547581, -49.68427130404888, -49.669226294555116, -49.65599777986443, -49.64426047517294, -49.6337603489607, -49.624305582649825, -49.61746898559366])","array('d', [0.6197163462638854, 0.4860021359420165, 0.3650125042634726, 0.25553654867917663, 0.15647860187796925, 0.0805082208953932, 0.02744234001008232, -0.00776662835944612, -0.029371003446393772, -0.040976410256162575, -0.045606840459353114, -0.04573747247942078, -0.04331610637390014, -0.039780038991203616, -0.036069491593348144, -0.03263702859824674])","array('d', [-0.030819544568657757, -0.025047017135708293, -0.020562622310368452, -0.017025917748852464, -0.014204692335086441, -0.01193606303835316, -0.01010228098892479, -0.00861536812235754, -0.007407522897652441, -0.0064250501719231665, -0.005624386952260594, -0.004969400763236953, -0.004429484408701973, -0.003978170095644005, -0.003592101398736757, -0.003250268363083671])","array('d', [-1.2570263584468027, -1.2812290778626976, -1.298991041019985, -1.3115470039379662, -1.319720273795161, -1.3243689124124307, -1.3264720435643156, -1.3268466084446804, -1.3261107822953149, -1.3247261778228974, -1.3230248309641093, -1.3212313655427554, -1.3194837719426158, -1.317853644454293, -1.3163659772787781, -1.3146816769833578])",171.46408319155057,-324.5088435261074,-49.77241945392335,0.0805082208953932,-0.01193606303835316,-1.3243689124124307,25.000000228864156,-1.0,"[-327.36594009504574, 182.02897461033757, 49.971520066948585]","[-312.5211666937468, 171.38173133896913, 41.830948011841684]","[-331.5384365730066, 166.02086104108963, 38.73183265601655]",10000000000.0,0.01920485496520996
8,21.52627420425415,-327.61944580078125,182.61643981933594,50.01861572265625,0.5992803573608397,0.029040334746241556,-1.264534874758448,23.126987645495753,"array('d', [183.0619659423828, 180.6727191210279, 178.26866670618404, 175.85458436863507, 173.43398471421443, 171.00954262463068, 168.5831720828564, 166.1561669961031, 163.7293727783924, 161.303311238998, 158.8782699749136, 156.45437186055648, 154.03163100770655, 151.60999740492446, 149.1893906848865, 147.25376665303702])","array('d', [-327.729248046875, -326.99674187334483, -326.31316813942266, -325.66508105678264, -325.04121882470724, -324.43208377192354, -323.8304237294451, -323.2311577978596, -322.630921888471, -322.0276507256696, -321.4202345735113, -320.8082322265373, -320.19163529115434, -319.5706823626732, -318.9457220916007, -318.4424968766534])","array('d', [-50.01803970336914, -49.95007634427074, -49.894507704250316, -49.84865133360506, -49.810507199707544, -49.778547042072034, -49.75157834763167, -49.72865524419511, -49.70901903689525, -49.692057355316784, -49.677275233327634, -49.66427412041071, -49.65273636953101, -49.64241364231014, -49.63311819272141, -49.62639673861797])","array('d', [0.6109887957572935, 0.4781051209616543, 0.35786698897266833, 0.24907101848997043, 0.15062835285552464, 0.07520818209156574, 0.022628749882278292, -0.012140044713790916, -0.03334203478460102, -0.04457865738402926, -0.04887154607239621, -0.04869411309206915, -0.045992441514858866, -0.04220198626702113, -0.038260996350940095, -0.034619984284230645])","array('d', [-0.030030064284801483, -0.024440635707451117, -0.02009054074343895, -0.01665396000089556, -0.013908342920398173, -0.0116973681399513, -0.009907861115208083, -0.008455114768771591, -0.007273721370739944, -0.006311775576995511, -0.005527081389786916, -0.004884574219832215, -0.004354501949353473, -0.003911100132330924, -0.00353160738627041, -0.0031955311121498555])","array('d', [-1.2608362873408456, -1.284589874625708, -1.3019968862724434, -1.3142588450436155, -1.3221802254569115, -1.3266072116774392, -1.3285114999677181, -1.3287059308464304, -1.3278064419610158, -1.326273164460834, -1.3244369250282249, -1.3225212250919007, -1.320662970785001, -1.3189327145878056, -1.3173544685021217, -1.315567743130531])",171.00954262463068,-324.43208377192354,-49.778547042072034,0.07520818209156574,-0.0116973681399513,-1.3266072116774392,25.000000228364687,-1.0,"[-327.25415930082096, 181.55808044110574, 49.97334688187274]","[-312.46265411445165, 170.77541610946275, 41.914468285397675]","[-331.5049098876733, 165.4561458421753, 38.898202565876645]",10000000000.0,0.01717829704284668
9,21.54437828063965,-327.61944580078125,182.61643981933594,50.01861572265625,0.5992803573608397,0.029040334746241556,-1.264534874758448,23.126987645495753,"array('d', [182.61643981933594, 180.224665630268, 177.81863052346023, 175.4029558818133, 172.98105568745387, 170.55553979885585, 168.1282798730897, 165.7005420691706, 163.27315262540162, 160.8466191425323, 158.42121791647287, 155.9970622525392, 153.5741577745626, 151.1524467244034, 148.73184156779166, 146.79628258493096])","array('d', [-327.61944580078125, -326.8950204519948, -326.21831147759764, -325.57608342326245, -324.95721888642925, -324.3523249257629, -323.7542289650639, -323.1579144192959, -322.5600731568358, -321.9586907692819, -321.3527044247014, -320.7417161473827, -320.12575715883713, -319.5051021326815, -318.8801324231014, -318.3766503073863])","array('d', [-50.01861572265625, -49.95285256450507, -49.89901730679452, -49.85454502634662, -49.81751924994146, -49.78647261862536, -49.76025797913265, -49.73796385878692, -49.7188580178593, -49.70234863229625, -49.68795677810097, -49.67529642799987, -49.664059638615676, -49.65400545562003, -49.64495155647622, -49.63840471962604])","array('d', [0.5992803573608397, 0.4675108868356126, 0.34828092865353033, 0.24039719163903467, 0.1427799463476905, 0.06811064895809348, 0.01619251826265308, -0.017980411033283173, -0.03863991078780092, -0.04938114859819847, -0.053221993312395896, -0.052632959643707004, -0.049557390860313556, -0.045427939169295786, -0.04117998877782156, -0.03726119809419743])","array('d', [-0.029040334746241556, -0.02366597922834687, -0.019475493132601763, -0.016159540634669563, -0.013506431056712785, -0.011367203557391575, -0.009633811255396535, -0.008225220834326639, -0.007078727198907432, -0.006144463004453801, -0.005381806753822012, -0.004756940711561622, -0.004241125913862305, -0.0038094434967833705, -0.003439857104079139, -0.003112512016278626])","array('d', [-1.264534874758448, -1.2876930437813314, -1.3046276013735403, -1.3164971107412762, -1.3240815578076166, -1.3282118829310687, -1.3298502422995544, -1.329803975510284, -1.3286859808938931, -1.3269543526963734, -1.3249382482506478, -1.3228596258575807, -1.3208539122389114, -1.3189902496072787, -1.3172913294978685, -1.3153681580749623])",170.55553979885585,-324.3523249257629,-49.78647261862536,0.06811064895809348,-0.011367203557391575,-1.3282118829310687,25.000000227924787,-1.0,"[-327.1673922332264, 181.1868417681082, 49.97506134300526]","[-312.41687358005623, 170.28136049086183, 42.00683208085999]","[-331.4781809297594, 164.98988612258947, 39.06287876430255]",10000000000.0,0.014968156814575195
10,21.584768772125244,-327.3014831542969,181.2750244140625,50.02126693725586,0.5473502874374387,0.024595092982053646,-1.2754236896845954,23.147881328431314,"array('d', [181.7229461669922, 179.32637652104336, 176.91685066101013, 174.4986276068009, 172.07489486781074, 169.64811772850246, 167.22007623339334, 164.7919772219928, 162.36460543338023, 159.93843642015534, 157.51371938078304, 155.09054316476812, 152.66889052568249, 150.2486820518972, 147.82980974026063, 145.89582322332387])","array('d', [-327.4056091308594, -326.6966470922906, -326.03208265234355, -325.3992432864414, -324.7874023239255, -324.1874529874419, -323.5924424049684, -322.9975325742239, -322.39957095020327, -321.7966843432513, -321.1879397476642, -320.5730584273712, -319.9521805085667, -319.3256795688963, -318.6940264314166, -318.18451829178514])","array('d', [-50.01991271972656, -49.960180620895436, -49.91117978471925, -49.87063309595802, -49.83683052767781, -49.8084567990872, -49.78447944830008, -49.76407520831262, -49.74658070118218, -49.731458420121214, -49.718272517882795, -49.70667112298476, -49.69637317998016, -49.68715854541211, -49.6788604943892, -49.67286017219769])","array('d', [0.5671635866165161, 0.43845042829141956, 0.3219859360008681, 0.21660449623392053, 0.12125142377234015, 0.048650685193472355, -0.0014449116195971632, -0.03397663981259342, -0.05314368447572854, -0.06252395890484086, -0.06512463394288272, -0.06340775407764081, -0.05930859691685181, -0.05425163992118734, -0.04916405133579496, -0.044485477298705556])","array('d', [-0.02634866535663604, -0.02152212392111062, -0.017744103392209224, -0.014744717509475865, -0.012338311099709709, -0.010393604083793825, -0.00881490825284179, -0.007530099124801319, -0.006483087564453585, -0.005629058235414223, -0.004931351724802476, -0.004359339853743468, -0.003886918785739295, -0.003491403541017604, -0.003152699727621254, -0.0028526812539220875])","array('d', [-1.2718428810450693, -1.2934072856971248, -1.309066664263797, -1.3198706202332016, -1.3265362666604223, -1.3298553391382724, -1.3307654775524664, -1.3300597213954009, -1.3283430006865127, -1.3260679707088963, -1.3235592430015761, -1.321034523654101, -1.3186251461075416, -1.3163963524851063, -1.3143671915809534, -1.3120706537668831])",169.64811772850246,-324.1874529874419,-49.8084567990872,0.048650685193472355,-0.010393604083793825,-1.3298553391382724,25.00000022707426,-1.0,"[-326.96398212515584, 180.28997586656172, 49.98039429468736]","[-312.3113773764659, 169.02086317904866, 42.344408875974075]","[-331.41764804887197, 163.78220626736632, 39.60453757344214]",10000000000.0,0.026772737503051758
11,21.607990026474,-327.19915771484375,180.82638549804688,50.023319244384766,0.5253696441650391,0.02274676039814942,-1.2790126045558114,23.153195460893333,"array('d', [181.2750244140625, 178.8761880691028, 176.46512785486883, 174.0459053046369, 171.6215858449928, 169.19455845068376, 166.76655586301678, 164.3387545591962, 161.91191773420078, 159.48650365921077, 157.06274617843525, 154.64071963300896, 152.2203927322154, 149.80167246308193, 147.38443779371087, 145.45188330297438])","array('d', [-327.3014831542969, -326.599887576784, -325.94067157369517, -325.3114944970504, -324.7018628435161, -324.10284226431514, -323.50761320392365, -322.9114470654712, -322.311287348773, -321.7053483892771, -321.0927777573438, -320.47337070588776, -319.847334865808, -319.21510503844195, -318.5772073597795, -318.06228572347874])","array('d', [-50.02126693725586, -49.96548220493699, -49.91967614435371, -49.8817458533941, -49.85010763925527, -49.82354034987808, -49.801083350605836, -49.781969270390064, -49.76557887202721, -49.751409844047025, -49.739054529108685, -49.72818360909873, -49.7185339278718, -49.709899300962164, -49.70212354466879, -49.69650088787412])","array('d', [0.5473502874374387, 0.420522612197961, 0.3057641757095394, 0.20192643921166156, 0.10797016846427934, 0.036638190963777365, -0.012335774607807085, -0.04385531802445507, -0.062100821596581604, -0.0706403088825864, -0.07247474831638141, -0.0700611221307887, -0.06532975376547481, -0.05970002860262051, -0.05409397921417184, -0.04894626091517112])","array('d', [-0.024595092982053646, -0.020111233988978197, -0.01659435235532724, -0.013797707953124336, -0.011551023300325466, -0.009733530402876516, -0.008256944502781513, -0.007054528138605863, -0.006074238090486062, -0.005274388272441175, -0.004620807044763057, -0.004084896459453522, -0.003642251887863308, -0.0032716458137920937, -0.002954263815490225, -0.0026731289994700305])","array('d', [-1.2754236896845954, -1.2960317850140006, -1.3109186948503329, -1.3210727480468512, -1.3271751937518825, -1.3299951121151905, -1.330456013004521, -1.3293428372492901, -1.3272559840130198, -1.32464494884054, -1.3218316246818178, -1.319031119244731, -1.3163722357606975, -1.3139177940895612, -1.3116845782358872, -1.3091573667336411])",169.19455845068376,-324.10284226431514,-49.82354034987808,0.036638190963777365,-0.009733530402876516,-1.3299951121151905,25.000000226669798,-1.0,"[-326.8649706599732, 179.84041783040453, 49.984378017177576]","[-312.2605146468717, 168.36349180621153, 42.56885149530582]","[-331.3886024289778, 163.1472224675198, 39.94077387349408]",10000000000.0,0.018414020538330078
12,21.62845468521118,-327.0985412597656,180.3770751953125,50.02626037597656,0.5014173984527588,0.020785016939043985,-1.2826017578456068,23.159141247358928,"array('d', [180.82638549804688, 178.4253302289839, 176.01282125300267, 173.59271798534775, 171.1679611533052, 168.7408624583271, 166.3131073489046, 163.88584207156768, 161.4598081325363, 159.0354459684785, 156.61297310577743, 154.19244807585534, 151.77382400929082, 149.35699263186558, 146.9418181903553, 145.01105193011776])","array('d', [-327.19915771484375, -326.5048545712253, -325.85072177486853, -325.22477247071447, -324.6167639749146, -324.01794869770464, -323.42165201868494, -322.8232652937353, -322.2198381737466, -321.60968221492936, -320.99203472490296, -320.3667734411325, -319.73418125268677, -319.09476118363915, -318.44910096400076, -317.9275056861445])","array('d', [-50.023319244384766, -49.97170084754775, -49.9292758141151, -49.89412052473561, -49.864781899332044, -49.840136547757616, -49.81929876994336, -49.80155975972, -49.78634671300099, -49.77319447472703, -49.76172524196605, -49.75163364558802, -49.74267557811462, -49.73465973574588, -49.727441184973685, -49.72222143607309])","array('d', [0.5253696441650391, 0.40063370189361974, 0.2877679438353055, 0.18564277375851163, 0.09323609870288142, 0.023300039006522787, -0.0244353324001962, -0.05483415892084238, -0.07205745976462627, -0.07966325441775804, -0.08064623374819341, -0.0774581118476, -0.07202389194832232, -0.06575737936643485, -0.05957492035144919, -0.05390562199126593])","array('d', [-0.02274676039814942, -0.018619767242390197, -0.015376015598216592, -0.012792252787386134, -0.01071386202928735, -0.009030817286068384, -0.007662426632459259, -0.006547500431841197, -0.005638181618854902, -0.00489603811911348, -0.004289498625721061, -0.0037920980512176476, -0.0033812254316250515, -0.0030371984929386787, -0.00274256521495893, -0.0024815761672152487])","array('d', [-1.2790126045558114, -1.2985819062418473, -1.3126235620737827, -1.3220627193765901, -1.327543240727949, -1.3298102433744645, -1.329772340670102, -1.3282061725400187, -1.3257074909651723, -1.3227224889006384, -1.3195701394533896, -1.3164627016494501, -1.3135261726635266, -1.3108206713601016, -1.3083604512655236, -1.3055766523792183])",168.7408624583271,-324.01794869770464,-49.840136547757616,0.023300039006522787,-0.009030817286068384,-1.3298102433744645,25.00000022626939,-1.0,"[-326.7677778248337, 179.39015870283822, 49.989202046090796]","[-312.21178661103585, 167.69363825012448, 42.82578602556749]","[-331.36147721381843, 162.4978032175538, 40.31727090063579]",10000000000.0,0.01725029945373535
13,21.659631729125977,-326.90228271484375,179.47792053222656,50.03564453125,0.44902959465980524,0.016550494357943462,-1.2898883064601085,23.169931686141826,"array('d', [180.3770751953125, 177.9738487882645, 175.55996789466985, 173.13908868301667, 170.71402655650854, 168.28701614687392, 165.85969637394513, 163.43318385750166, 161.00819856744306, 158.58516274798254, 156.16427677875225, 153.74558217849003, 151.32901504041203, 148.9144502292675, 146.50173562545194, 144.57309550511033])","array('d', [-327.0985412597656, -326.41145517016946, -325.76216725420966, -325.1390593033683, -324.5321525461036, -323.9328973442639, -323.3347732353544, -322.733300406337, -322.12564360023975, -321.5102204206553, -320.8863663813222, -320.25404961504137, -319.61363550625805, -318.96570183190204, -318.31090376452704, -317.78149271464594])","array('d', [-50.02626037597656, -49.97906908305159, -49.94024448806418, -49.90804890989465, -49.881165516935475, -49.85857345878931, -49.83946603355488, -49.82319646094402, -49.809241312572816, -49.797175079056956, -49.78665189980538, -49.7773920837005, -49.76917197686141, -49.761816265258915, -49.755192101375464, -49.75040213786557])","array('d', [0.5014173984527588, 0.37896081176666774, 0.2681575001183421, 0.16789850889680855, 0.07718042397684233, 0.008749922133396763, -0.037643715388854075, -0.06682456070694127, -0.08293443105238438, -0.08952170330132238, -0.08957503577438515, -0.08554088696298248, -0.07933872505641393, -0.07237639379024556, -0.06556407877383869, -0.05932483712505922])","array('d', [-0.020785016939043985, -0.01703287490420296, -0.014077364557737271, -0.01171915535668508, -0.00981966386762258, -0.00827991633566399, -0.007027073456905007, -0.006005715247157002, -0.005172363619244565, -0.0044920104210674225, -0.003935835975017517, -0.0034796440403849797, -0.0031027407647972204, -0.002787102466035188, -0.0025167449350341356, -0.0022772455098957626])","array('d', [-1.2826017578456068, -1.301063713511169, -1.314197347949244, -1.3228642189702133, -1.3276701213144202, -1.3293353365938798, -1.3287531107403348, -1.3266918533386072, -1.323742711268337, -1.3203485264058057, -1.3168252081003673, -1.3133819525375339, -1.310141699355566, -1.307161605754535, -1.304453143901823, -1.3013887912523532])",168.28701614687392,-323.9328973442639,-49.85857345878931,0.008749922133396763,-0.00827991633566399,-1.3293353365938798,25.000000225871894,-1.0,"[-326.67230077276184, 178.93924796329918, 49.99508509538931]","[-312.16498469445014, 167.01455371470763, 43.114718296913686]","[-331.33601445462773, 161.8383012362903, 40.73185694675878]",10000000000.0,0.01987457275390625
14,21.685953617095947,-326.8064270019531,179.02810668945312,50.04269027709961,0.4210786521434784,0.014411549083888503,-1.2934536178919933,23.174698165169616,"array('d', [179.47792053222656, 177.0703992046177, 174.6538647389965, 172.2315777461746, 169.80610902655167, 167.37954394364527, 164.95343320557606, 162.52883757699064, 160.10643551664612, 157.68661272624578, 155.26953367047776, 152.85520309951605, 150.44351952558736, 148.03432014530296, 145.6274159783629, 143.7037895847206])","array('d', [-326.90228271484375, -326.22976321172507, -325.5899756284186, -324.972049941758, -324.36655142906153, -323.7653432340491, -323.16222771772004, -322.5529994645855, -321.9350725757508, -321.30709696439396, -320.6686246082023, -320.0198234532005, -319.36124136932295, -318.69362141341685, -318.01776771249047, -317.4704040296072])","array('d', [-50.03564453125, -49.998020309618916, -49.96699093471212, -49.94120876067412, -49.91964563152595, -49.901499920141895, -49.88613516012007, -49.87303912982518, -49.8617960967639, -49.85206738321943, -49.84357729331823, -49.8361026394214, -49.829464799547054, -49.823523632170925, -49.81817279548533, -49.814303487648864])","array('d', [0.44902959465980524, 0.3315583622456374, 0.2252659860250156, 0.1290886581574812, 0.04206380616099151, -0.023137571088755592, -0.06663039941905803, -0.09316201302409324, -0.10683957954927029, -0.11119540606302725, -0.10920827821869303, -0.10331522989832065, -0.0954248075838653, -0.0869324096271035, -0.07873497590703635, -0.07124235876124924])","array('d', [-0.016550494357943462, -0.013599262388912025, -0.011263839854720807, -0.009393469326860198, -0.007882456081448237, -0.006654722310384022, -0.005653859865393488, -0.004836645246533315, -0.004168950088439063, -0.003623145521585452, -0.0031763921834805395, -0.002809460965034195, -0.0025058814572591604, -0.0022513037528899735, -0.0020330104097403532, -0.0018395441659090675])","array('d', [-1.2898883064601085, -1.306008492511537, -1.3171985598905296, -1.3241978068015814, -1.3275374977748857, -1.3278876310282663, -1.3261106560077272, -1.322959915061354, -1.3190181669834795, -1.3147218428691358, -1.3103805885735276, -1.3061970504288951, -1.3022874733044236, -1.2987024577555921, -1.2954472921768438, -1.2917652371849346])",167.37954394364527,-323.7653432340491,-49.901499920141895,-0.023137571088755592,-0.006654722310384022,-1.3278876310282663,25.000000240992335,-1.0,"[-326.48999541835053, 178.05388464429362, 50.01051866102873]","[-312.08034276137505, 165.67139206105367, 43.762656007982656]","[-331.29301805656723, 160.53748347018066, 41.637546462083364]",10000000000.0,0.02156209945678711
15,21.71580958366394,-326.7118225097656,178.5777587890625,50.05124282836914,0.3922106027603148,0.012218429706990684,-1.2970911701533454,23.176371132002973,"array('d', [179.02810668945312, 176.6185481300692, 174.20079735449562, 171.7779293872003, 169.3524002336865, 166.9262261037194, 164.5009181310346, 162.07751225492316, 159.6566678770031, 157.2387529508544, 154.82391357225708, 152.41213500846058, 150.00329542456527, 147.59721136107441, 145.1936734687169, 143.2729467010445])","array('d', [-326.8064270019531, -326.1409719403423, -325.50560626996855, -324.88982986803876, -324.28448139669246, -323.6816338973112, -323.07525448979214, -322.461280392844, -321.8372577129552, -321.2019607587968, -320.5550581374848, -319.8968257401508, -319.2279100692516, -318.5491434483467, -317.86141034628383, -317.30395066189703])","array('d', [-50.04269027709961, -50.00990189830664, -49.98281624008736, -49.96027827241617, -49.9414037974158, -49.9255014610642, -49.9120210667845, -49.90051900071937, -49.89063470441517, -49.88207414095675, -49.87459776930039, -49.868011549579485, -49.86216008619107, -49.856921346382855, -49.85220257575083, -49.84879023359328])","array('d', [0.4210786521434784, 0.30626730129742297, 0.20238168566522013, 0.10838208503157634, 0.023327722290215, -0.04018706636233798, -0.08215156076246828, -0.10727817967758667, -0.11965975394589012, -0.12282288711479791, -0.11974300729700235, -0.11285331210349521, -0.10405720197720379, -0.09474377539464134, -0.08580303531857826, -0.07763780396894607])","array('d', [-0.014411549083888503, -0.011862437152758547, -0.009840250948467775, -0.008217440943787539, -0.00690419107074899, -0.005835590670656263, -0.004963328325966674, -0.004250252619767783, -0.0036669359461435256, -0.0031894929052976415, -0.0027981418325628148, -0.002476210469499443, -0.002209415164167382, -0.0019853181077157792, -0.0017929103626082277, -0.0016222926395932896])","array('d', [-1.2934536178919933, -1.3083643320755267, -1.3185384618420244, -1.3246583369223126, -1.3272198408420584, -1.3268681505858468, -1.3244507262288538, -1.32071446394142, -1.3162385704940425, -1.3114565575739938, -1.3066749608619013, -1.3020930021547745, -1.2978233378476252, -1.2939130154862228, -1.290363959458442, -1.2863499512271228])",166.9262261037194,-323.6816338973112,-49.9255014610642,-0.04018706636233798,-0.005835590670656263,-1.3268681505858468,25.00000024084706,-1.0,"[-326.4303787356062, 177.75769518714773, 50.01714562683977]","[-312.052998063539, 165.22376932746525, 44.001197858245746]","[-331.2790689642881, 160.10399433166603, 41.96500000151424]",10000000000.0,0.024798870086669922
16,21.737799882888794,-326.6183776855469,178.12698364257812,50.06140899658203,0.3626207709312439,0.010204124264419101,-1.3006633957240246,23.178053263093048,"array('d', [178.5777587890625, 176.16614829714155, 173.74716398689975, 171.3237039499448, 168.8981144611564, 166.47234601521393, 164.04787301348588, 161.62570852937054, 159.20649400206463, 156.7905800214195, 154.37809413997826, 151.96900155905877, 149.5631592401489, 147.16036204856763, 144.7603791697412, 142.84271747917484])","array('d', [-326.7118225097656, -326.05359925582707, -325.4227765696923, -324.8092165208809, -324.20402845322457, -323.5994948750443, -322.9897475431669, -322.37086816401757, -321.7405384294345, -321.0976615287989, -320.44202747566567, -319.7740247643533, -319.0944028360359, -318.4040871360198, -317.7040458665688, -317.1361262105676])","array('d', [-50.05124282836914, -50.02341434487943, -50.00037464255415, -49.98116344585007, -49.96504316988794, -49.95143546589872, -49.93987899628689, -49.93000109502343, -49.92149842446759, -49.914123332486916, -49.907673883345744, -49.90198636003162, -49.8969295135071, -49.892400104099465, -49.88831942882882, -49.88536838190627])","array('d', [0.3922106027603148, 0.2801464077793661, 0.1787465218611002, 0.08699610286893733, 0.003976894063897317, -0.05782488033315318, -0.09822668383955445, -0.12190935839934461, -0.13295411059456635, -0.1348839061364979, -0.13067223497263128, -0.12274930862830269, -0.11301378724709472, -0.1028485637204852, -0.09313660309336876, -0.0842734910980081])","array('d', [-0.012218429706990684, -0.010080486070243725, -0.008379907797059003, -0.007012020964750898, -0.005902793835081167, -0.004998508661620587, -0.00425903595898218, -0.0036534087320460075, -0.003157021562601443, -0.00274985295198547, -0.002415293186321665, -0.0021393329318554685, -0.0019099731984678103, -0.0017167791481563146, -0.0015505357701217255, -0.0014029832255676431])","array('d', [-1.2970911701533454, -1.310778365682112, -1.3199165750780029, -1.3251345460647426, -1.326894472533094, -1.3258171385848028, -1.3227354521343704, -1.3183908041475896, -1.3133594124459578, -1.3080721440192622, -1.302832491548506, -1.2978361872469233, -1.2931921631171275, -1.2889437502113812, -1.2850893444933023, -1.2807305257000006])",166.47234601521393,-323.5994948750443,-49.95143546589872,-0.05782488033315318,-0.004998508661620587,-1.3258171385848028,25.000000224221203,-1.0,"[-326.30640199458435, 177.13370258515965, 50.03291563982767]","[-311.9979677637336, 164.28876885998355, 44.53051730298837]","[-331.25205048243816, 159.20333018378128, 42.681568376741986]",10000000000.0,0.014776945114135742
17,21.758047342300415,-326.4342346191406,177.2242889404297,50.086822509765625,0.301972359418869,0.007021256722509858,-1.307916088900294,23.18122055191122,"array('d', [178.12698364257812, 175.71340039500544, 173.29324889978759, 170.86926201953625, 168.44368371549422, 166.01840401273213, 163.59486474172186, 161.17405896508242, 158.7566118262111, 156.34285727598234, 153.93290433114785, 151.5266976235708, 149.12407207306168, 146.72479983595485, 144.32862750186595, 142.4142501215887])","array('d', [-326.6183776855469, -325.9672329697584, -325.34076951056176, -324.729201913187, -324.1239059646898, -323.51737200819457, -322.90389532308086, -322.27970316229164, -321.642615718956, -320.9916689490884, -320.32677847942, -319.6484495104668, -318.9575381876874, -318.25506641184666, -317.5420890128995, -316.9631905153869])","array('d', [-50.06140899658203, -50.03813552304474, -50.01880922593893, -50.00264750487431, -49.98904731002564, -49.977534504429634, -49.96773002761148, -49.95932711175002, -49.95207568669134, -49.94577134243244, -49.94024722499351, -49.935367904008636, -49.931024634968885, -49.92713165551269, -49.923623273591396, -49.921085916258235])","array('d', [0.3626207709312439, 0.2533724183237117, 0.15452041217859308, 0.06507541034860151, -0.01585777305096885, -0.07593347525032172, -0.11474972402451246, -0.13695960785378306, -0.1466357356782855, -0.14729970100920797, -0.1419246009542824, -0.1329385926722015, -0.12223605935543273, -0.1111938291495235, -0.10068777103087381, -0.09110607101638801])","array('d', [-0.010204124264419101, -0.008444283393233045, -0.007040330154168905, -0.005908026410506319, -0.004987538982666185, -0.004235287239197289, -0.003618601914884727, -0.0031121913798950124, -0.002695901338802215, -0.002353294753900771, -0.002070716733451916, -0.001836647252633918, -0.0016412296573838294, -0.0014759129556255626, -0.001333174643094351, -0.0012063067269999044])","array('d', [-1.3006633957240246, -1.3131208077106158, -1.3212096937794509, -1.3255088650143545, -1.3264487340935072, -1.3246262736994936, -1.3208603935465342, -1.3158880217639262, -1.310283010499432, -1.3044738915272012, -1.2987612026343018, -1.2933371361682742, -1.2883067767148568, -1.2837095882460046, -1.279540287256407, -1.2748259780529558])",166.01840401273213,-323.51737200819457,-49.977534504429634,-0.07593347525032172,-0.004235287239197289,-1.3246262736994936,25.00000022379831,-1.0,"[-326.21810920111557, 176.6814557565931, 50.04610307580796]","[-311.95935428319143, 163.62123950361382, 44.93546127501706]","[-331.23305942965845, 158.56135721587827, 43.22611018138187]",10000000000.0,0.015264272689819336
18,21.779673099517822,-326.34320068359375,176.7725067138672,50.10203170776367,0.27130186557769786,0.005899753887206312,-1.3114065368983412,23.18231017003532,"array('d', [177.2242889404297, 174.80678662727183, 172.38428391386165, 169.95921715001904, 167.53364684145845, 165.10935666745857, 162.6877350674001, 160.26974327876843, 157.85597875842214, 155.44674449134718, 153.042112773392, 150.6419860594788, 148.24615323917823, 145.8543385640229, 143.46624066739156, 141.55883364061972])","array('d', [-326.4342346191406, -325.7975486127919, -325.18007122133696, -324.5726856963685, -323.96728178744416, -323.356755381531, -322.7357205999216, -322.1006950709026, -321.4497817126518, -320.7822912143855, -320.0984009551721, -319.39886000221077, -318.684747521621, -317.95728677450893, -317.21771309133527, -316.61624108940686])","array('d', [-50.086822509765625, -50.07073724480415, -50.05725113254583, -50.04586417612003, -50.036188874026784, -50.02791905421159, -50.02080887689295, -50.01465861871121, -50.00930490746284, -50.00461377449133, -50.000475503909314, -49.99680067652435, -49.99351705159526, -49.99056706755192, -49.98790581781709, -49.98598068523674])","array('d', [0.301972359418869, 0.19849546127485765, 0.10486568355627221, 0.020145949833104766, -0.056511637571746196, -0.11315067488710034, -0.148773093967592, -0.1679899190564906, -0.17486710545332487, -0.17293137675697304, -0.16516047379800253, -0.15398183151553813, -0.14128311992091008, -0.12842981060837436, -0.11628367976780929, -0.10521783408757746])","array('d', [-0.007021256722509858, -0.005866311416727642, -0.0049381151652125805, -0.0041840607344360336, -0.0035665024167208306, -0.003057850833544935, -0.002637314070955761, -0.002288712781802588, -0.001999090936169233, -0.0017578421293735016, -0.001556140607080692, -0.0013865514220313302, -0.0012427481796302375, -0.0011192989616890918, -0.0010114995191613137, -0.0009152430123585653])","array('d', [-1.307916088900294, -1.317918995410266, -1.323890158842304, -1.3263197309020336, -1.3255807069416532, -1.3222243490861778, -1.317043402240223, -1.3107693701618444, -1.3039734897142294, -1.297080705948547, -1.2903860097166173, -1.2840744305399798, -1.2782430422248519, -1.2729231696704593, -1.2681017614516443, -1.262651632498131])",165.10935666745857,-323.356755381531,-50.02791905421159,-0.11315067488710034,-0.003057850833544935,-1.3222243490861778,25.000000222878278,-1.0,"[-326.0444498550419, 175.77585636730254, 50.07629071121521]","[-311.8873859312921, 162.3177918171983, 45.78000864132154]","[-331.1998202396542, 157.3153724118392, 44.36378790355351]",10000000000.0,0.019843339920043945
19,21.79715394973755,-326.25262451171875,176.3205108642578,50.11884307861328,0.24047979712486267,0.005077359266579166,-1.3147911270472665,23.182814229689097,"array('d', [176.7725067138672, 174.35317082420477, 171.92958750507256, 169.50406377017276, 167.0785808494019, 164.65487814640397, 162.23432450989566, 159.81787020495312, 157.40610182024488, 154.99930830650044, 152.5975439166676, 150.20068955299135, 147.8085101288158, 145.42070469847553, 143.03694653595244, 141.13328550177403])","array('d', [-326.34320068359375, -325.71344873261864, -325.1001798737551, -324.49459124592573, -323.8888180892494, -323.27595224904485, -322.6507616041609, -322.0099072240093, -321.35163497721084, -320.6753962977121, -319.98150350458303, -319.270831647783, -318.5445750668618, -317.8040608362716, -317.0506171324741, -316.43739133749455])","array('d', [-50.10203170776367, -50.08847189436824, -50.077023030200905, -50.06728735157096, -50.0589558829371, -50.05178398650285, -50.04557482666333, -50.04016815675523, -50.035432617403174, -50.031260252063696, -50.027562422161026, -50.024266640237514, -50.02131403820146, -50.018657300105666, -50.01625895014532, -50.014523728195016])","array('d', [0.27130186557769786, 0.1707436483047825, 0.07975480248770846, -0.0025753170209584734, -0.07707069296611326, -0.1320234191822495, -0.16605925634407037, -0.18377543533251844, -0.18924019452409208, -0.18598697131411868, -0.17699867515528256, -0.16470416474262417, -0.1509887510424586, -0.137212690492979, -0.12423084411823307, -0.11240872641021014])","array('d', [-0.005899753887206312, -0.004963764479625201, -0.004207967204718345, -0.0035908895211345607, -0.0030827741107373996, -0.002661774016559129, -0.00231140381518331, -0.002018816400197693, -0.0017737062477582019, -0.0015676253882673957, -0.0013935436200654561, -0.0012455514647439618, -0.0011186477006421124, -0.0010085793171135927, -0.000911716787250559, -0.0008249558547703465])","array('d', [-1.3114065368983412, -1.3201967896642472, -1.3251106603200047, -1.3265995479711439, -1.3250109168553166, -1.320874241041446, -1.3149701912406424, -1.308029398355753, -1.3006229035038337, -1.2931744316729463, -1.285976403453528, -1.2792102461798014, -1.2729688939435697, -1.2672794266738032, -1.2621247337488344, -1.256298738595528])",164.65487814640397,-323.27595224904485,-50.05178398650285,-0.1320234191822495,-0.002661774016559129,-1.320874241041446,25.00000022241006,-1.0,"[-326.0444498550419, 175.77585636730254, 50.07629071121521]","[-311.8873859312921, 162.3177918171983, 45.78000864132154]","[-331.1998202396542, 157.3153724118392, 44.36378790355351]",10000000000.0,0.01500248908996582
20,21.813051462173462,-326.25262451171875,176.3205108642578,50.11884307861328,0.24047979712486267,0.005077359266579166,-1.3147911270472665,23.182814229689097,"array('d', [176.3205108642578, 173.89942935210698, 171.4748341804428, 169.04891496491348, 166.6235817245289, 164.20053547971034, 161.78113030145917, 159.3663088510248, 156.95664885917571, 154.55242618810286, 152.15367720710103, 149.76026088789055, 147.3719174553735, 144.9883198700829, 142.6091150673759, 140.7093839012436])","array('d', [-326.25262451171875, -325.62957140464874, -325.02028521958067, -324.4162639615418, -323.80988091061073, -323.19441934363886, -322.5647969466346, -321.9178169211507, -321.2518690712775, -320.56654778423706, -319.86230298002374, -319.14013832008516, -318.4013656626495, -317.64741786629713, -316.8797175522995, -316.2544241443992])","array('d', [-50.11884307861328, -50.10712765423189, -50.097152224316225, -50.08859733061609, -50.08121435551018, -50.074806075845395, -50.069213467755944, -50.06430675524281, -50.059979275269505, -50.05614311280152, -50.05272583555657, -50.049667934082294, -50.04692073806329, -50.044444674095665, -50.04220778203017, -50.04058910691857])","array('d', [0.24047979712486267, 0.14285468494164616, 0.054519822599746, -0.02540887314193338, -0.09773135189723384, -0.1510253933499769, -0.18348678778296507, -0.19970398566808206, -0.20375144397026446, -0.1991722386463717, -0.18895645781670928, -0.1755356469000059, -0.16079346929846725, -0.14608530581982598, -0.13225921238351251, -0.11967309508014894])","array('d', [-0.005077359266579166, -0.0043078516046956014, -0.0036829383567719602, -0.0031695542411432184, -0.002743934602330699, -0.002388622045014342, -0.0020904423651929853, -0.001839122653647236, -0.0016264114751451601, -0.001445537025919693, -0.0012908658228400493, -0.0011576777875706534, -0.0010420090358516845, -0.0009405352292325863, -0.0008504809292066514, -0.0007695473541443743])","array('d', [-1.3147911270472665, -1.3223787775829188, -1.3262372553048318, -1.3267825912332283, -1.3243386966589783, -1.3194138638081483, -1.3127773132600251, -1.3051600629615983, -1.2971337234937532, -1.2891211909017213, -1.2814124491866568, -1.274185303139038, -1.2675284506987001, -1.2614646047210363, -1.2559724757161095, -1.2497660845521399])",164.20053547971034,-323.19441934363886,-50.074806075845395,-0.1510253933499769,-0.002388622045014342,-1.3194138638081483,25.00000022194435,-1.0,"[-325.9888569001115, 175.48282691123651, 50.08719520719171]","[-311.86370270977335, 161.90862765542647, 46.059648352996426]","[-331.1879304374494, 156.9248720040191, 44.74192215382601]",10000000000.0,0.014188051223754883
21,21.835745096206665,-326.162353515625,175.8683624267578,50.13713073730469,0.20963121950626368,0.0044393199495971255,-1.318144007525172,23.1835033094437,"array('d', [175.8683624267578, 173.44557222167592, 171.0199837694125, 168.59368013866498, 166.16850742491124, 163.74613355463939, 161.32790224686582, 158.91475170647539, 156.50725270887907, 154.10566895019596, 151.71001911634545, 149.32013995907613, 146.93574642283122, 144.55648461542657, 142.18197429591697, 140.28629835822764])","array('d', [-326.162353515625, -325.5459455764912, -324.9406051364709, -324.3381177803249, -323.73108695018874, -323.1129823259431, -322.4788668333056, -321.8256839475741, -321.15196794342, -320.45745798768405, -319.74274392232957, -319.00896033690873, -318.25753866277256, -317.49001924141265, -316.7079204827698, -316.0704440258256])","array('d', [-50.13713073730469, -50.126839154788385, -50.117987551419695, -50.11032037564717, -50.10363847205797, -50.09778358077383, -50.09262779327641, -50.08806641104883, -50.084013077535126, -50.08039632760477, -50.07715699632603, -50.07424615871917, -50.071623412517184, -50.06925539722751, -50.06711448811007, -50.065565003992226])","array('d', [0.20963121950626368, 0.11494173497178234, 0.029263138545978055, -0.048262068356012454, -0.11840978213301019, -0.17008185858715852, -0.20098884405164297, -0.2157156070519251, -0.21834692893327132, -0.212438589019689, -0.20098997388578116, -0.18643666476052073, -0.17066145848548925, -0.15501525728634657, -0.1403394695906807, -0.1269844148138876])","array('d', [-0.0044393199495971255, -0.0038045584615659825, -0.0032853996422817318, -0.0028555217973210093, -0.00249600487384772, -0.0021929676720466025, -0.0019359527423550868, -0.0017168107614536447, -0.0015289906574454913, -0.0013671107510633284, -0.0012266973499419438, -0.0011040197481657524, -0.0009959798999785161, -0.0009000331815026262, -0.0008141273889739698, -0.0007366531010242338])","array('d', [-1.318144007525172, -1.324541763972968, -1.3273495394704995, -1.3269512044482732, -1.3236490308463247, -1.317930667710828, -1.310554473324649, -1.3022531434339142, -1.2935996466126676, -1.2850164552106709, -1.2767912585267862, -1.269098224354049, -1.2620217238001004, -1.2555799869198265, -1.249747432664919, -1.2431574368723048])",163.74613355463939,-323.1129823259431,-50.09778358077383,-0.17008185858715852,-0.0021929676720466025,-1.317930667710828,25.00000023968067,-1.0,"[-325.87280244369725, 174.86941569401782, 50.111227072436414]","[-311.8130271777702, 161.07188577256812, 46.65422149848562]","[-331.16096278097, 156.12986216924796, 45.54346022860767]",10000000000.0,0.017151355743408203
