,current_time,x_pos,y_pos,z_pos,roll,pitch,yaw,vel,x_traj,y_traj,z_traj,roll_traj,pitch_traj,yaw_traj,x_cmd,y_cmd,z_cmd,roll_cmd,pitch_cmd,yaw_cmd,vel_cmd,effector_dmg,effector_x,effector_y,effector_z,cost,time_solution
0,36.078312397003174,221.1079559326172,-280.06756591796875,49.93136978149414,0.6293336153030391,0.03944636508822451,3.0905926982548575,23.05987427148895,"array('d', [-280.56494140625, -280.5743678084952, -280.5103029566356, -280.37079741501145, -280.15428262195553, -279.8595858289414, -279.26334338941393, -278.589008901765, -277.84009221604674, -277.02212004538154, -276.141505830093, -275.20477648517857, -274.21812455704674, -273.1871900065368, -272.11698465243416, -271.2295847567209])","array('d', [229.4306182861328, 227.9318259013065, 226.4340922145528, 224.94128262737215, 223.45752962777362, 221.9871960980225, 219.55973402910848, 217.15269867829633, 214.76774222392615, 212.405523879726, 210.06589400038987, 207.74812921154833, 205.45114801177363, 203.17368000296102, 200.9143860338964, 199.12210405214086])","array('d', [-49.93751525878906, -49.88193434304062, -49.834810962399025, -49.795256405271864, -49.76236031968598, -49.73524852132168, -49.69824179982983, -49.66789440141438, -49.642816628676535, -49.621874278750596, -49.604154650692664, -49.588934882741476, -49.57565417053214, -49.563890778810936, -49.55334395210842, -49.54572498199584])","array('d', [0.6285494565963743, 0.6434755725460357, 0.6569812819674399, 0.6692017542821088, 0.6802592958240781, 0.690264573740303, 0.6921629745260456, 0.672973036100524, 0.6394138111605341, 0.5972318263313708, 0.5509223986539525, 0.5037692713719665, 0.4580196102029104, 0.41507623717350567, 0.37565677689911187, 0.3399083388513787])","array('d', [-0.04007890447974219, -0.034145050501357396, -0.02878594019687672, -0.02403882499207939, -0.01989529342985741, -0.016315477771471912, -0.013340618013289287, -0.01097732686348665, -0.009116276547365717, -0.007662059903683489, -0.006532603447176009, -0.005657878558102473, -0.004978081657693728, -0.0044416157967808465, -0.00400318450483577, -0.0036222317726392495])","array('d', [-3.111276853080613, -3.1595798453555792, -3.2093336181870953, -3.2604273908572043, -3.312757044358147, -3.3662249570198646, -3.3986923610940147, -3.430582446416254, -3.4607852071843257, -3.4886852311861047, -3.514048111481898, -3.5368848385220737, -3.5573437542358244, -3.575638295160429, -3.592002151851626, -3.610326380693438])",-279.8595858289414,221.9871960980225,-49.73524852132168,0.690264573740303,-0.016315477771471912,-3.3662249570198646,25.00000021939914,-1.0,"[220.5385340252169, -280.0935339219511, 49.873494080541285]","[202.8257054952124, -287.98732133541233, 44.98025121535051]","[203.6672095827388, -271.8118172772414, 56.71246922111453]",10000000000.0,0.02048325538635254
1,36.09790921211243,220.6446075439453,-280.0199890136719,49.93108367919922,0.6293156743049619,0.03952365741133708,3.086248473325048,23.062158698066636,"array('d', [-280.27398681640625, -280.19520904187016, -280.04306789922947, -279.8158514681998, -279.51224373000383, -279.1313370367071, -278.3929446813495, -277.57798708843313, -276.6902023835311, -275.73519949180064, -274.7193698464346, -273.64915579256325, -272.53063408207305, -271.3693180287128, -270.1700939099099, -269.1805963182002])","array('d', [223.419677734375, 221.92283051709975, 220.43138239372465, 218.94931519925876, 217.4808510108783, 216.03041640926176, 213.64229781553678, 211.27912601371264, 208.94227485279197, 206.6320304932306, 204.3478415766604, 202.088594322143, 199.85284809674698, 197.63901224704617, 195.4454670435776, 193.7074591642706])","array('d', [-49.93196487426758, -49.879067860073576, -49.83472920766607, -49.79790846325125, -49.76760071961867, -49.74288107054069, -49.70949664732, -49.682396532261286, -49.66020417407289, -49.641816382747436, -49.62635904773194, -49.61314890196186, -49.60166183848098, -49.59150781368406, -49.58241177869556, -49.57584209081191])","array('d', [0.628971457481384, 0.6438574148113956, 0.6573267872197621, 0.6695143804634622, 0.6805421718359019, 0.6905205308800794, 0.6908993868697739, 0.6707356022530332, 0.6366504625362, 0.5942710179439978, 0.5479815530178961, 0.500976566937536, 0.4554378318833592, 0.4127240169374734, 0.373526383776951, 0.3379806792750456])","array('d', [-0.038354247808456525, -0.03229098757750195, -0.026925408440762043, -0.022251858703616165, -0.018228363918765023, -0.014790035045350383, -0.011965426125900567, -0.00975201881557522, -0.008030816031368754, -0.006701722535070847, -0.0056812482296224025, -0.004899951322226233, -0.004299744494100993, -0.00383131206156328, -0.003451861946720036, -0.003123374243018171])","array('d', [3.113059119382177, 3.064715530786725, 3.0149242348173417, 2.963795830719873, 2.911434260207667, 2.8579369723528942, 2.8255037114366433, 2.793727886795046, 2.763681222206301, 2.735950015302536, 2.7107510253041798, 2.6880646488255797, 2.6677396413885246, 2.6495627793921592, 2.633302028654902, 2.6150910896990527])",-279.1313370367071,216.03041640926176,-49.74288107054069,0.6905205308800794,-0.014790035045350383,2.8579369723528942,25.0000002420436,-1.0,"[220.27160782024416, -280.0640707699875, 49.87312639277869]","[202.53529945450381, -287.92321660527955, 45.00926041035474]","[203.4278251515243, -271.7488848149573, 56.73932388063181]",10000000000.0,0.018590927124023438
2,36.11894369125366,220.1817169189453,-279.97039794921875,49.93075180053711,0.6292016506195067,0.03952013328671467,3.081834272542272,23.064214795796214,"array('d', [-280.2369079589844, -280.15139181550177, -279.9925400744108, -279.7586584556889, -279.448449717719, -279.0610259251218, -278.3119101918907, -277.4863617300384, -276.58813531482, -275.62284473684605, -274.596878130868, -273.51666980905566, -272.38828626130714, -271.21722989957897, -270.0083763679741, -269.0112658986267])","array('d', [222.95819091796875, 221.4617173438085, 219.9709706009329, 218.4899409835797, 217.02285684430348, 215.57414894934755, 213.1893714944038, 210.8298777623963, 208.49701944882742, 206.19105401564818, 203.9113997051165, 201.65691347716069, 199.4261279479923, 197.21742870411552, 195.02917525430414, 193.2955234552172])","array('d', [-49.93186569213867, -49.87886196935663, -49.834470584536945, -49.797634464820085, -49.767336493720016, -49.742643173559884, -49.709319541885264, -49.68228826516277, -49.660166431646964, -49.641847185823366, -49.62645447918306, -49.61330417049973, -49.6018719046593, -49.59176773900618, -49.58271690768123, -49.57617995323945])","array('d', [0.6289514303207396, 0.6438392934853842, 0.6573103903643754, 0.6694995439737227, 0.6805287472233887, 0.6905083837859344, 0.6907655955664208, 0.6705252515452554, 0.6364001484921894, 0.5940073070534346, 0.5477218512992996, 0.5007310013401638, 0.45521124224100296, 0.412517700621576, 0.3733395401188708, 0.33781161612658134])","array('d', [-0.03844702988863001, -0.03234128286132937, -0.026945951026851746, -0.022252160763397297, -0.018215253083527033, -0.014768181799497983, -0.01193872273086289, -0.009723675664114032, -0.008002732884189984, -0.006674946000373506, -0.005656290731159318, -0.004877004934504226, -0.004278818601821403, -0.0038123180826112693, -0.003434662814674274, -0.0031078118233813555])","array('d', [3.108555750050817, 3.060214088604638, 3.010424573862804, 2.959297813691966, 2.9069377582274343, 2.85344186473963, 2.8210134903066004, 2.7892488723079936, 2.75921655481351, 2.7315004732554997, 2.7063159880867955, 2.6836428370261416, 2.663329575629115, 2.645163025790668, 2.628911309066237, 2.610710297396538])",-279.0610259251218,215.57414894934755,-49.742643173559884,0.6905083837859344,-0.014768181799497983,2.85344186473963,25.00000024221025,-1.0,"[219.51302464444055, -279.9797067710398, 49.87213045051987]","[201.71076169974205, -287.7400879138356, 45.091344054292456]","[202.74788492726324, -271.5693298400237, 56.81443915452868]",10000000000.0,0.01886153221130371
3,36.1358802318573,219.71926879882812,-279.91876220703125,49.930389404296875,0.6291466355323792,0.039522994309663814,3.0775277177479605,23.066272309112726,"array('d', [-280.19781494140625, -280.1054267331681, -279.9397238959088, -279.69903090434997, -279.38207047521286, -278.98797561261404, -278.22787699924794, -277.3914772507535, -276.48254881722556, -275.5067111251331, -274.47034951741955, -273.37989055992693, -272.2413906072239, -271.06034119126593, -269.8416072822357, -268.83668475347605])","array('d', [222.4969940185547, 221.00093822510203, 219.51094284535094, 218.0310079516315, 216.56536926894424, 215.11846263627828, 212.7371634319818, 210.38149445208555, 208.0527848304526, 205.75126265503428, 203.47631498580373, 201.22676873405237, 199.0011290222966, 196.7977570034009, 194.61499082538776, 192.8858555294359])","array('d', [-49.93181228637695, -49.87855035712772, -49.83398022601413, -49.79702478230843, -49.76665152250656, -49.74191551790165, -49.708559908963224, -49.68152244050007, -49.65940983867643, -49.64110842410468, -49.62573773954541, -49.61261085846647, -49.601201723954674, -49.591119419474744, -49.58208870754897, -49.57556636887499])","array('d', [0.6289959549903866, 0.6438795810761144, 0.6573468440871914, 0.6695325286690372, 0.6805585930124047, 0.6905353893737054, 0.6906656536698074, 0.6703440334832849, 0.6361749683521036, 0.593765451710537, 0.5474813599888413, 0.5005025071256697, 0.4549999607006647, 0.41232519259811035, 0.37316518512961, 0.33765385319398966])","array('d', [-0.03865013271570216, -0.03248368684703587, -0.027042742717391977, -0.02231508171417645, -0.01825315537758635, -0.014787509885623749, -0.011945193309434134, -0.0097222898603014, -0.007996808764077712, -0.006666644400406198, -0.005646990984325201, -0.004867564682676217, -0.004269747440191968, -0.003803889444357222, -0.003426983330782774, -0.003100863138378135])","array('d', [3.1039647618916373, 3.055618815906131, 3.0058253410506524, 2.9546949260249433, 2.902331502239797, 2.848832508739539, 2.8164066127078455, 2.784651154847308, 2.7546314922925204, 2.726929149519617, 2.701758027276795, 2.6790971487178328, 2.658794825353708, 2.6406378922633853, 2.6243946039759583, 2.6062028539796835])",-278.98797561261404,215.11846263627828,-49.74191551790165,0.6905353893737054,-0.014787509885623749,2.848832508739539,25.000000242374664,-1.0,"[219.04293834127623, -279.92430583344446, 49.87173932236616]","[201.2006865579904, -287.62259532288334, 45.139890821132404]","[202.32616209003382, -271.45314776049315, 56.8566425191878]",10000000000.0,0.015558242797851562
4,36.15932822227478,219.71926879882812,-279.91876220703125,49.930389404296875,0.6291466355323792,0.039522994309663814,3.0775277177479605,23.066272309112726,"array('d', [-280.1566467285156, -280.05752943405895, -279.8851046528692, -279.6377166039077, -279.31410894777315, -278.91343660518174, -278.142497604508, -277.29537922949237, -276.3758722319738, -275.3896026724966, -274.34295419674015, -273.2423466527038, -272.09382715509065, -270.90287710704735, -269.6743514255221, -268.66168501192595])","array('d', [222.03607177734375, 220.54045683572073, 219.05123038620226, 217.5724033937912, 216.10821996841878, 214.66312192932074, 212.2853108348683, 209.93347528352737, 207.6089223194084, 205.31185103221125, 203.04161757287673, 200.7970189939887, 198.57653305348032, 196.37849655653056, 194.20122634530406, 192.47661533384385])","array('d', [-49.93178176879883, -49.87824061453451, -49.83347355133225, -49.796383247699374, -49.76592156772942, -49.74113188140239, -49.70772903525701, -49.68067265848987, -49.65855862418137, -49.64026601828141, -49.624909637116325, -49.61179949639084, -49.60040762244402, -49.590341960482874, -49.58132668182173, -49.57481557415297])","array('d', [0.6291475296020506, 0.6440167314687584, 0.6574709429055386, 0.6696448179334874, 0.6806601965495107, 0.6906273240629293, 0.6906308992378688, 0.6702258862645532, 0.6360092296063551, 0.5935786442458262, 0.5472912894060104, 0.5003198970677736, 0.4548302896619421, 0.4121703587198891, 0.37302492167838475, 0.33752693756344454])","array('d', [-0.038868244737386856, -0.03263915888364166, -0.02715075662397919, -0.022387530014446336, -0.018299068000104394, -0.014813514972971738, -0.01195721473331491, -0.009725542287593677, -0.00799479031186189, -0.006661665123246621, -0.0056405516872091, -0.004860619944517956, -0.004262882255537851, -0.00379743367585342, -0.003421083138908693, -0.0030955244235151332])","array('d', [3.099473194279943, 3.0511126604935552, 3.001305702553119, 2.9501628438766723, 2.897787952101147, 2.8442784041953617, 2.8118506900287548, 2.780100226975298, 2.750089406235327, 2.7223974329724174, 2.6972367496825194, 2.674585621539184, 2.6542920584415017, 2.6361428525920774, 2.6199063430492635, 2.601722038424443])",-278.91343660518174,214.66312192932074,-49.74113188140239,0.6906273240629293,-0.014813514972971738,2.8442784041953617,25.000000242529268,-1.0,"[218.56884558601467, -279.8662127292688, 49.87139437096819]","[200.68627768823853, -287.50088172919095, 45.18891696653213]","[201.90150196929167, -271.33241218977935, 56.898051123243235]",10000000000.0,0.01602625846862793
5,36.18421411514282,218.7956085205078,-279.8089599609375,49.92876052856445,0.6297190785408021,0.03887739032506964,3.0696316520359854,23.076455651728875,"array('d', [-280.06756591796875, -279.9551593411724, -279.7694794001931, -279.50890799024637, -279.17222880447383, -278.7586386946221, -277.9664309409383, -277.09829809964685, -276.1580657243541, -275.1513712924477, -274.0845934258497, -272.9641372214026, -271.7960303002907, -270.58573304338495, -269.3380796873489, -268.3102901736118])","array('d', [221.1079559326172, 219.6133084551746, 218.12569362564855, 216.6491429435125, 215.18791604595336, 213.74646551585312, 211.37565877518762, 209.0315004658249, 206.71525361759862, 204.42706017815232, 202.16621572368132, 199.93145898105766, 197.7212143664071, 195.53377129098916, 193.367405166286, 191.651762069083])","array('d', [-49.93136978149414, -49.87707457863767, -49.8317495787908, -49.79425303440611, -49.76350180843302, -49.73851248037177, -49.704889968577234, -49.677693658868314, -49.655492746700666, -49.637147854388516, -49.62176110750223, -49.60863390962003, -49.5972325278521, -49.58716118912939, -49.578141858720166, -49.57162798211953])","array('d', [0.6293336153030391, 0.6441851087479054, 0.6576232969277149, 0.6697826734890401, 0.6807849332966113, 0.6907401901767319, 0.6904941392436162, 0.6699273438515356, 0.6356209650123918, 0.59315361740851, 0.5468647386514314, 0.499912792830064, 0.45445311339683336, 0.4118264805680762, 0.3727134432628786, 0.33724510020249304])","array('d', [-0.03944636508822451, -0.033069558373873556, -0.02746652476057324, -0.022615057992716767, -0.018458813696582553, -0.014920869506879758, -0.012026248102869964, -0.009768890478413506, -0.008021229276568669, -0.006677237710239725, -0.005649384580597841, -0.004865498930732367, -0.004265644915196734, -0.0037992286111925536, -0.0034225353482985233, -0.00309683864200232])","array('d', [3.0905926982548575, 3.04221425102151, 2.9923907364757585, 2.941232597827117, 2.8888436243643176, 2.835321116817911, 2.8028943288012553, 2.771158054704062, 2.741168610777771, 2.713500546851798, 2.6883634405843657, 2.665734115133512, 2.6454600489449205, 2.627328008875696, 2.6111065506641875, 2.59293880065669])",-278.7586386946221,213.74646551585312,-49.73851248037177,0.6907401901767319,-0.014920869506879758,2.835321116817911,25.000000230175445,-1.0,"[218.22351497788003, -279.8228055196664, 49.87112034601902]","[200.31232630546538, -287.41174377562595, 45.223826887628626]","[201.59174880366294, -271.24454599046294, 56.92787720563928]",10000000000.0,0.01677727699279785
6,36.203298568725586,218.33436584472656,-279.7506103515625,49.927677154541016,0.6307784914970397,0.037939365953207134,3.066447095074926,23.08257271013264,"array('d', [-280.0199890136719, -279.90109197825706, -279.7089551831521, -279.4419777990859, -279.09896182711475, -278.67912327063624, -277.8766449917957, -276.99837695644675, -276.04816040462, -275.03163688131565, -273.95518112080515, -272.82518978053196, -271.6476799509784, -270.42810093886175, -269.17127623990496, -268.13623980682655])","array('d', [220.6446075439453, 219.1504655098761, 217.66367196349978, 216.18826617525963, 214.72851340381618, 213.28886981244491, 210.92151873772224, 208.5811378995623, 206.26896822125863, 203.98512368666516, 201.72887058118542, 199.498919620655, 197.29366971366628, 195.111387673504, 192.95032919749656, 191.239048101305])","array('d', [-49.93108367919922, -49.87670257102656, -49.8313412108398, -49.79384188512362, -49.76310988372266, -49.73815376371523, -49.70460010983344, -49.67747819116028, -49.65535160226475, -49.63707786074897, -49.62175755805537, -49.608691507306396, -49.59734592095784, -49.58732525309115, -49.57835182769795, -49.57187118725282])","array('d', [0.6293156743049619, 0.6441688750599409, 0.6576086080779088, 0.6697693824666143, 0.6807729070804656, 0.6907293084014715, 0.6903629436609402, 0.6697205419490198, 0.6353747347664698, 0.592894169998886, 0.5466092266363173, 0.4996711882901223, 0.4542301796544106, 0.4116234936163749, 0.3725296148331472, 0.3370787653457171])","array('d', [-0.03952365741133708, -0.03310753921964479, -0.0274774979085535, -0.02260809404103759, -0.018440331787819463, -0.01489518802170836, -0.011996899465614405, -0.009738736205501914, -0.007991908678321285, -0.006649607931920481, -0.005623823488404913, -0.004842105482128242, -0.004244366285687225, -0.0037799370791574225, -0.0034050721293718282, -0.003081037266662769])","array('d', [3.086248473325048, 3.03787175337931, 2.9880498352773626, 2.9368931699656846, 2.88450555429117, 2.8309842963419993, 2.7985622651257653, 2.7668369866900386, 2.736861632355383, 2.7092084256764393, 2.684085569581801, 2.6614692398398696, 2.6412067179608023, 2.623084814821529, 2.606872238545317, 2.5887142498163636])",-278.67912327063624,213.28886981244491,-49.73815376371523,0.6907293084014715,-0.01489518802170836,2.8309842963419993,25.000000230534134,-1.0,"[218.00868232213017, -279.7944970073088, 49.87096703550718]","[200.08112610575196, -287.3549592690983, 45.24040135768164]","[201.3972096175594, -271.1905093625746, 56.944182089113404]",10000000000.0,0.017623424530029297
7,36.221720457077026,217.8734893798828,-279.6898193359375,49.92634582519531,0.632388174533844,0.03638879209756865,3.0637491504338126,23.091758715577384,"array('d', [-279.97039794921875, -279.84491486845525, -279.6462406719992, -279.37279095473184, -279.02338512726203, -278.59725741491883, -277.78445626505567, -276.89601196528565, -275.9357806533206, -274.90940676801813, -273.82325989813205, -272.68372709003074, -271.49681388551136, -270.26795766238297, -269.0019704678899, -267.9596974990855])","array('d', [220.1817169189453, 218.68811260839666, 217.20217670626394, 215.72795481083054, 214.2697165071112, 212.83192039169995, 210.4680916304478, 208.13155326162746, 205.82352339927314, 203.54408769966062, 201.2924830425705, 199.06739217274497, 196.86718861494913, 194.69011674663435, 192.53441272554508, 190.8275291018239])","array('d', [-49.93075180053711, -49.87639628817773, -49.831092160659566, -49.79366781410126, -49.763019034695354, -49.73814829546621, -49.704733918378146, -49.677743527745605, -49.65573804425994, -49.63757422237103, -49.62235296919142, -49.60937594807089, -49.59811041771979, -49.58816187587396, -49.57925357971476, -49.57282006098999])","array('d', [0.6292016506195067, 0.644065702153324, 0.6575152533628292, 0.6696849116192944, 0.6806964746894617, 0.6906601495036628, 0.6901722654219793, 0.6694556010842179, 0.6350733586925619, 0.5925834461235859, 0.5463066336493552, 0.49938668149538074, 0.4539683156448904, 0.4113852521362512, 0.37231388350300165, 0.3368835635482894])","array('d', [-0.03952013328671467, -0.03307735881548132, -0.027431595829961304, -0.022554127314662633, -0.018383362667045273, -0.014838298999377391, -0.011942318501253973, -0.009688023998638048, -0.007945658327432189, -0.0066078453677350405, -0.005586274662312541, -0.0048083660866062835, -0.004214003891302537, -0.0037525485850742005, -0.003380313038754273, -0.0030586343130290386])","array('d', [3.081834272542272, 3.03346852932003, 2.983656756506636, 2.9325094542035957, 2.8801304672760173, 2.826617150550895, 2.7942037632054793, 2.7624932921100425, 2.7325355405839615, 2.7049003095509536, 2.6797944186409266, 2.657193431832449, 2.6369444841943843, 2.618834480986948, 2.6026323268728437, 2.5844857920651445])",-278.59725741491883,212.83192039169995,-49.73814829546621,0.6906601495036628,-0.014838298999377391,2.826617150550895,25.000000230884336,-1.0,"[217.2332370660409, -279.69196684276983, 49.87050660702728]","[199.24801005092667, -287.14957197756667, 45.29713423335639]","[200.6941876757824, -270.9968880957645, 57.00180738949083]",10000000000.0,0.017183303833007812
8,36.241310596466064,217.41294860839844,-279.6265869140625,49.9247932434082,0.6346344351768491,0.03427430242300053,3.0614707032826285,23.1008027643996,"array('d', [-279.91876220703125, -279.7868519678358, -279.5817917120099, -279.3020137999671, -278.946355374709, -278.51406918854906, -277.6911544340178, -276.79273649887307, -275.8226865091659, -274.78665224206253, -273.6909987455898, -272.5421040879994, -271.34596285452375, -270.10800101845837, -268.83301963082795, -267.78364216287065])","array('d', [219.71926879882812, 218.2262177890714, 216.741148207848, 215.2681124566853, 213.81138489741318, 212.37542698079423, 210.01509812916098, 207.68237502450953, 205.37845347277087, 203.1033913471276, 200.85639664070126, 198.6361245916755, 196.44092374381322, 194.26901638204393, 192.11861941407213, 190.41609401442372])","array('d', [-49.930389404296875, -49.8760500705869, -49.83079421876818, -49.79343659447747, -49.7628635965631, -49.73807164244684, -49.70478690878516, -49.67791966441709, -49.65602801450994, -49.63796779639969, -49.622840083027214, -49.609947252035944, -49.5987574915091, -49.588877247231544, -49.580030635813564, -49.573641748681794])","array('d', [0.6291466355323792, 0.6440159224393037, 0.6574702108106656, 0.6696441554287023, 0.6806595969591946, 0.6906267811463237, 0.6900191692242071, 0.6692281261115904, 0.6348080060055722, 0.5923065211270637, 0.5460352481885893, 0.499130701350534, 0.45373237493671553, 0.4111704976116867, 0.3721194076693224, 0.33670759452114424])","array('d', [-0.039522994309663814, -0.033053361158965566, -0.027391466030862455, -0.022505409783264475, -0.018331076667711863, -0.014785531759113308, -0.011891332017272537, -0.009640431109363131, -0.007902113296520763, -0.006568436193933621, -0.005550785216326926, -0.004776443029657537, -0.004185257482898881, -0.003726609673629708, -0.003356862337244832, -0.0030374152389236807])","array('d', [3.0775277177479605, 3.029167270035699, 2.9793603916621714, 2.9282176064356817, 2.8758427823804396, 2.8223332968667565, 2.7899261290384993, 2.758228026486124, 2.728285588817562, 2.7006662771169023, 2.6755755479080676, 2.652988338711277, 2.632751609334431, 2.6146523280157026, 2.5984595672060347, 2.580323356340922])",-278.51406918854906,212.37542698079423,-49.73807164244684,0.6906267811463237,-0.014785531759113308,2.8223332968667565,25.000000231213203,-1.0,"[216.73135357549523, -279.6228349230979, 49.871015811282135]","[198.71620601990097, -287.0140748189092, 45.30768026009448]","[200.22928226220327, -270.87994066593586, 57.029468324158714]",10000000000.0,0.01787590980529785
9,36.25983786582947,217.41294860839844,-279.6265869140625,49.9247932434082,0.6346344351768491,0.03427430242300053,3.0614707032826285,23.1008027643996,"array('d', [-279.8089599609375, -279.66521994898477, -279.44831640409717, -279.1567216333201, -278.78931439907217, -278.34539046938306, -277.50328377290697, -276.5858825722912, -275.59709169736374, -274.54257225977574, -273.42868780004176, -272.26180570792224, -271.0479051047579, -269.79239464724316, -268.50005799113273, -267.436954946394])","array('d', [218.7956085205078, 217.30361683794547, 215.82020581246607, 214.3494453116745, 212.89562332720055, 211.46321114957797, 209.10965017349133, 206.78431945314944, 204.48837314931387, 202.22181595283325, 199.9837997771854, 197.77292597817842, 195.587493867113, 193.42568199937458, 191.2856690496748, 189.5916791017963])","array('d', [-49.92876052856445, -49.87534574108025, -49.83092491345003, -49.79430745205031, -49.76438082150594, -49.74014669103953, -49.70765779885409, -49.68146980589947, -49.66015890948632, -49.64259770646965, -49.62790205748364, -49.615386890123496, -49.60453067062134, -49.59494794132649, -49.586368877171644, -49.58017339155285])","array('d', [0.6297190785408021, 0.6445338903397785, 0.6579388875905704, 0.670068231754129, 0.6810433171203885, 0.6909739855320727, 0.6901353875906766, 0.6691862479447747, 0.6346693587643797, 0.5921174231576412, 0.5458275181275158, 0.49892411887938587, 0.45353763190279467, 0.41099197032023793, 0.37195757842451754, 0.33656116535184466])","array('d', [-0.03887739032506964, -0.03246449010268054, -0.026865422384065765, -0.022043202220470792, -0.017930260148971835, -0.014441535257220852, -0.011597758551494038, -0.009389855283128563, -0.00768746942282821, -0.006383364466296951, -0.005389797480836363, -0.004634970390887094, -0.004059630364789301, -0.0036140057455201755, -0.0032552438929902353, -0.002945467059968107])","array('d', [3.0696316520359854, 3.0212160834047697, 2.9713582601142505, 2.9201684589813954, 2.8677503067620824, 2.8142009460067814, 2.7817786070341652, 2.7500781505195353, 2.720141341203232, 2.6925316564610164, 2.667451901125838, 2.6448755152361487, 2.624648752615331, 2.6065583499015497, 2.5903734003276964, 2.572245782183965])",-278.34539046938306,211.46321114957797,-49.74014669103953,0.6909739855320727,-0.014441535257220852,2.8142009460067814,25.00000023178549,-1.0,"[216.25229212906632, -279.55490433965315, 49.87222057695637]","[198.21275596852587, -286.8802089081163, 45.29892328814973]","[199.77954546456274, -270.7715698067784, 57.048685710341815]",10000000000.0,0.016551494598388672
10,36.27698230743408,216.48680114746094,-279.4914245605469,49.91994857788086,0.6402897238731382,0.028539147228002586,3.057772354283605,23.123022158296585,"array('d', [-279.7506103515625, -279.6020381489073, -279.3801846836741, -279.0835496249677, -278.7110397161958, -278.2619792413517, -277.4113019003041, -276.48535235103316, -275.48805693853, -274.42509133869913, -273.3028271749485, -272.12763491740225, -270.9054933771993, -269.64180884987746, -268.3413615492654, -267.2718237964857])","array('d', [218.33436584472656, 216.842801998657, 215.3600908008456, 213.89031598302512, 212.43777758477074, 211.00695698051345, 208.65646822628057, 206.3345201884422, 204.04224972606792, 201.77963745136896, 199.54580878451878, 197.33933897589165, 195.15850309431175, 193.00145791995286, 190.86636292792534, 189.17642817262265])","array('d', [-49.927677154541016, -49.875566265234085, -49.83225758891608, -49.796579382785566, -49.7674388910421, -49.743857121016376, -49.71226526923883, -49.68681841485889, -49.666124362595475, -49.64908172142897, -49.634827423194814, -49.62269317362453, -49.61217051690046, -49.60288388022956, -49.59457054164796, -49.588567058137876])","array('d', [0.6307784914970397, 0.6454924869105981, 0.6588062617152588, 0.6708530643887469, 0.6817534631196307, 0.6916165522654383, 0.6906717694850363, 0.669632752877011, 0.6350435115859188, 0.5924353415873505, 0.5461024522590455, 0.49916605383915497, 0.4537535471964403, 0.4111864206686111, 0.3721334062404749, 0.33672026095319146])","array('d', [-0.037939365953207134, -0.031660660370353706, -0.02618370686851445, -0.021470393472226394, -0.01745308324169984, -0.014047401205637106, -0.011273042646098602, -0.00912070149893386, -0.007462394981641504, -0.006193000376464536, -0.005226621461982056, -0.004493053806942879, -0.003934415657603611, -0.0035021222706046054, -0.0031543621612088305, -0.00285418549255125])","array('d', [3.066447095074926, 3.01792939745362, 2.967977189944542, 2.9167002903856885, 2.8642018772639743, 2.8105786569298488, 2.778117434139882, 2.7463851252164457, 2.71642284860543, 2.688792864565999, 2.6636967266970935, 2.6411068442513046, 2.620868713684965, 2.602768550808707, 2.586575103359527, 2.56843814927208])",-278.2619792413517,211.00695698051345,-49.743857121016376,0.6916165522654383,-0.014047401205637106,2.8105786569298488,25.000000231994033,-1.0,"[215.91863881194456, -279.5066030422959, 49.87339185492652]","[197.86394306879362, -286.78433477036293, 45.28399292733984]","[199.4637280256817, -270.69771166517086, 57.0594438810492]",10000000000.0,0.014934301376342773
11,36.30377388000488,216.0244903564453,-279.4201354980469,49.91751480102539,0.6438385844230651,0.02503058314323429,3.0560932914402823,23.134170053755486,"array('d', [-279.6898193359375, -279.53709863163556, -279.3108991525882, -279.009753492809, -278.6326018401873, -277.9017742431896, -277.0937443026028, -276.20968244703784, -275.2534411124483, -274.23068953220445, -273.14783561230496, -272.01130785153504, -270.82715083451154, -269.6008363178345, -268.33720560411734, -267.2966733794837])","array('d', [217.8734893798828, 216.38227011298738, 214.90015988660016, 213.43126047005308, 211.97988810954763, 209.58949179793206, 207.22397645138815, 204.8857428285748, 202.5760346183821, 200.29495597519065, 198.0417549064801, 195.81511960631423, 193.61342530734646, 191.4349158737826, 189.27782574730332, 187.56987655894156])","array('d', [-49.92634582519531, -49.8764365452203, -49.83511216659037, -49.80124933900708, -49.7738055511281, -49.7370634199062, -49.70757278925188, -49.68375869643729, -49.66435428737472, -49.64835024182564, -49.63495087217818, -49.623536932218634, -49.613635292962776, -49.60489525731498, -49.59707080040834, -49.59142030817565])","array('d', [0.632388174533844, 0.6469489885272175, 0.6601241590507569, 0.6720455473931728, 0.6828324665702935, 0.6925928753009486, 0.692401385992977, 0.6718029404301655, 0.6374076075596758, 0.5948196321504634, 0.5483971509321897, 0.5013105782414379, 0.4557220748990074, 0.41297580423761937, 0.3737535236763986, 0.3381862039738072])","array('d', [-0.03638879209756865, -0.030271355285232518, -0.024924058564636437, -0.020307272122252293, -0.016352484854125666, -0.013096605704972142, -0.010539116260338731, -0.00854570319965163, -0.007003704920207437, -0.005819376551110735, -0.004915253328815818, -0.004227405131467005, -0.0037026804509897506, -0.0032961441278022362, -0.0029688908254158343, -0.0026863638612039994])","array('d', [3.0637491504338126, 3.015075984087618, 2.9649801160650995, 2.913570662115398, 2.8609501152082775, 2.8287087556023103, 2.7961575977869013, 2.7642983722931262, 2.7341949509223498, 2.7064253441116177, 2.681199644357476, 2.6584936516490267, 2.638153264674919, 2.6199636329054075, 2.603691875646206, 2.5854688900734395])",-277.9017742431896,209.58949179793206,-49.7370634199062,0.6925928753009486,-0.013096605704972142,2.8287087556023103,25.00000024271603,-1.0,"[215.69878336948756, -279.4731984795231, 49.87428580368554]","[197.63576050502326, -286.7175709507241, 45.26491789730784]","[199.25305679386526, -270.6488398481366, 57.06238514527402]",10000000000.0,0.025118589401245117
12,36.321622371673584,215.5626678466797,-279.3463134765625,49.91520309448242,0.6476891636848447,0.021052874624729205,3.054423884549413,23.145141679275675,"array('d', [-279.6265869140625, -279.47029508944667, -279.2402363817517, -278.9349835754796, -278.5535173487822, -277.8152714014268, -276.99968916214203, -276.1079692700114, -275.14399375386984, -274.11345941587376, -273.02279651257186, -271.8784500370739, -270.68647596049317, -269.45235351077724, -268.1809286895059, -267.1341760187194])","array('d', [217.41294860839844, 215.92200584247888, 214.4404249056955, 212.97232942751654, 211.52205579158874, 209.13390719664062, 206.77096356823438, 204.4356254841962, 202.12912489182207, 199.85154508460954, 197.60210884751322, 195.37947824976604, 193.18200352622645, 191.00790564364212, 188.85539857101182, 187.15125270287615])","array('d', [-49.9247932434082, -49.877796311755716, -49.83890784477841, -49.80706263838543, -49.78127334805931, -49.746775095192234, -49.71910976835201, -49.696789131448426, -49.67861710193426, -49.66364147136855, -49.651112085942536, -49.64044549060879, -49.63119615523071, -49.62303404042554, -49.61572780754828, -49.61045168995654])","array('d', [0.6346344351768491, 0.6489814893918366, 0.6619632420519165, 0.673709618658339, 0.6843381806539224, 0.6939553018696667, 0.6936714839623958, 0.6729659796027834, 0.6384609932761793, 0.5957688354283822, 0.5492515293316119, 0.502080421892463, 0.45641697539861303, 0.4136039994732991, 0.3743218585059504, 0.33870045464013004])","array('d', [-0.03427430242300053, -0.02849502787315128, -0.02344634961734987, -0.019089825497633682, -0.01535983327049947, -0.012290852325818221, -0.009882049677407533, -0.008005995860875439, -0.006555946618265688, -0.005443192936778332, -0.004594515204991974, -0.003949546382618569, -0.0034581364996208066, -0.003077909859981003, -0.0027721848346876593, -0.002508376904384274])","array('d', [3.0614707032826285, 3.0125799916802842, 2.9622831392289934, 2.9106882723123917, 2.857896918310834, 2.8255612747068617, 2.792922879959223, 2.760984403237503, 2.7308118593540933, 2.702983248931283, 2.6777075146885103, 2.654958970767125, 2.6345821180658526, 2.6163609495386964, 2.6000616840566315, 2.581808498476135])",-277.8152714014268,209.13390719664062,-49.746775095192234,0.6939553018696667,-0.012290852325818221,2.8255612747068617,25.00000024279122,-1.0,"[214.87088147960958, -279.3464464272319, 49.877891401044046]","[196.77710728148878, -286.4624375025272, 45.189820765512216]","[198.45970230996613, -270.4642195352365, 57.07367097666859]",10000000000.0,0.01662921905517578
13,36.347252368927,215.1013641357422,-279.2699890136719,49.91314697265625,0.651662766933441,0.016789378598332516,3.0526399175312853,23.15568621690721,"array('d', [-279.4914245605469, -279.32918007861065, -279.0924224515682, -278.77981830814497, -278.390442481045, -277.6383838629013, -276.80860077882437, -275.9023520606046, -274.9235874712632, -273.87807168886695, -272.7722932155955, -271.6127425109908, -270.40550902960194, -269.15609582882837, -267.86936558531596, -266.81036486759166])","array('d', [216.48680114746094, 214.99626941655504, 213.51558899246922, 212.0489362987341, 210.60069681486857, 208.2167842356963, 205.85873944684522, 203.52896772717247, 201.22868165748042, 198.9579247255077, 196.71586950018755, 194.50112500302734, 192.31199015531587, 190.14663860368017, 188.00324180716265, 186.30667400180658])","array('d', [-49.91994857788086, -49.88083783123984, -49.848520681897156, -49.82209836678029, -49.800739379025416, -49.77222674462524, -49.74941281943707, -49.73104876063325, -49.71613244313584, -49.70386720745445, -49.693626251458426, -49.6849226343612, -49.67738495398313, -49.67073845660033, -49.664790962955124, -49.660496372161504])","array('d', [0.6402897238731382, 0.65409860667772, 0.6665934016642858, 0.6778991607069113, 0.6881290354080376, 0.6973854094136284, 0.6969242240491322, 0.6759837020966901, 0.6412206643182411, 0.5982723635185574, 0.551514752088611, 0.5041247719559873, 0.45826446420583977, 0.4152747878893437, 0.375833519939613, 0.3400682625925802])","array('d', [-0.028539147228002586, -0.02369528256400559, -0.019468134047801604, -0.01582424876689644, -0.01270737162250065, -0.010145965829711386, -0.008138912197808486, -0.006578499119945851, -0.005374707922943855, -0.0044528978662598815, -0.0037515891583678163, -0.003220183504365493, -0.0028167008122534335, -0.0025056915822054826, -0.002256465380931238, -0.002041734603318378])","array('d', [3.057772354283605, 3.0083308444512955, 2.9575253226237197, 2.9054613731626135, 2.8522380448705906, 2.8196640374098756, 2.786803293225351, 2.754659836191427, 2.7243065525200714, 2.6963224639700942, 2.6709142086173605, 2.64805261928361, 2.6275787409417957, 2.6092736174041766, 2.5929011205868377, 2.5745675600034077])",-277.6383838629013,208.2167842356963,-49.77222674462524,0.6973854094136284,-0.010145965829711386,2.8196640374098756,25.000000242915494,-1.0,"[213.95083281763127, -279.19556822674997, 49.8847356561793]","[195.8252762485547, -286.1444646574551, 45.07048208407294]","[197.57514725068296, -270.24715048346405, 57.07936852409454]",10000000000.0,0.02450728416442871
14,36.36552667617798,215.1013641357422,-279.2699890136719,49.91314697265625,0.651662766933441,0.016789378598332516,3.0526399175312853,23.15568621690721,"array('d', [-279.4201354980469, -279.25511325625683, -279.01510132836864, -278.69882309701427, -278.30541032608244, -277.546208700655, -276.70902229208707, -275.7951450247736, -274.8085676430448, -273.755097312596, -272.64125988534136, -271.47357563251967, -270.25815649679566, -269.0005219905189, -267.7055466872968, -266.6399354952161])","array('d', [216.0244903564453, 214.5341467491263, 213.05391008345015, 211.5879913049271, 210.14080776359026, 207.7591206262805, 205.4036684376506, 203.0768617760396, 200.77990458254837, 198.51281943677756, 196.27475154321496, 194.06428057387345, 191.8796768407406, 189.71908748893435, 187.58066009780288, 185.8882325939582])","array('d', [-49.91751480102539, -49.883224795114614, -49.85491669591595, -49.83179607980846, -49.81312865375806, -49.78824417951231, -49.76836423326626, -49.752387906637914, -49.73943253283337, -49.72879697032411, -49.71992996498186, -49.71240355081305, -49.70589152748291, -49.700152785664386, -49.695018921129154, -49.69131205375368])","array('d', [0.6438385844230651, 0.6573097487450921, 0.6694989633701126, 0.6805282218146189, 0.6905079083254705, 0.6995379022450817, 0.6989796860857256, 0.6779004850576474, 0.6429800117232072, 0.599872440383355, 0.5529635577378171, 0.5054346497186324, 0.45944870797484, 0.41634591588359615, 0.37680265187471346, 0.34094516949955483])","array('d', [-0.02503058314323429, -0.020764607982532657, -0.017043856881594006, -0.013838340033338429, -0.011097927480225648, -0.008847525886426578, -0.0070859866295278386, -0.005717983566491609, -0.004663945701463996, -0.003857975313495396, -0.003245855259139147, -0.002783006409525145, -0.002432465839129177, -0.002163026406236039, -0.0019476608090282254, -0.0017623168524652296])","array('d', [3.0560932914402823, 3.006303846409029, 2.9551771505837556, 2.902817154431621, 2.8493213155453745, 2.8165969974325638, 2.783595600344277, 2.751321741885254, 2.720853031022144, 2.6927693961172756, 2.6672761627111568, 2.6443420263520006, 2.6238058641918376, 2.6054468490426457, 2.5890273525049703, 2.5706422208838715])",-277.546208700655,207.7591206262805,-49.78824417951231,0.6995379022450817,-0.008847525886426578,2.8165969974325638,25.000000230607682,-1.0,"[213.6075052372669, -279.13675458207945, 49.88796408790316]","[195.46967894999707, -286.01743252994055, 45.02221352394689]","[197.2461380378961, -270.1606826684092, 57.080724084453344]",10000000000.0,0.01602339744567871
15,36.38922691345215,214.18026733398438,-279.10968017578125,49.91014099121094,0.6599470973014828,0.007808068767190064,3.0489359656956534,23.1756591321991,"array('d', [-279.3463134765625, -279.17850448205735, -278.9351851713859, -278.61514042070945, -278.2175636978452, -277.450966979709, -276.6060990000122, -275.68429149288147, -274.6895796454755, -273.62781694328214, -272.5055700867279, -271.3293920402613, -270.105419480497, -268.8391900801623, -267.53559159533256, -266.46306459230465])","array('d', [215.5626678466797, 214.07252182884224, 212.5927474152614, 211.12759418799408, 209.68151494098305, 207.30215952612662, 204.94942711898176, 202.62573482902513, 200.33227805721086, 198.06905752137502, 195.83518952850866, 193.62922265368076, 191.4493968570449, 189.2938311525938, 187.1606477631273, 185.47259140470933])","array('d', [-49.91520309448242, -49.886376146276476, -49.86260609689422, -49.84321824333001, -49.82758967103397, -49.80679547566788, -49.79021827658023, -49.77692597177367, -49.766171953620315, -49.757363685643455, -49.75003567828243, -49.74382682087844, -49.738462088211904, -49.7337384118212, -49.72951422744279, -49.72646444802281])","array('d', [0.6476891636848447, 0.6607938972581783, 0.6726515516007272, 0.6833808018683671, 0.693089029731346, 0.7018733976965537, 0.7012126014229308, 0.6799844430521199, 0.6448938217656184, 0.6016135835141723, 0.5545404116323079, 0.5068604533139973, 0.4607378231971735, 0.4175119171919762, 0.37785762538098344, 0.3418997490894745])","array('d', [-0.021052874624729205, -0.017445620138096862, -0.014301568120839577, -0.011594785813706309, -0.009282269843113117, -0.007384932002018203, -0.005901669327792996, -0.00475141366543893, -0.0038665882407691943, -0.003191305843113719, -0.002679643988296144, -0.0022938822985084243, -0.002002763544312139, -0.0017798976371454776, -0.0016024122583305242, -0.001449923017298892])","array('d', [3.054423884549413, 3.0042548931925075, 2.9527779766570057, 2.90009527749595, 2.8463024944480675, 2.8134144428630585, 2.780259778380967, 2.7478437200900085, 2.717249107456714, 2.689056896121387, 2.6634709918800383, 2.6404577590716536, 2.619853706547839, 2.6014359620878387, 2.5849652571370356, 2.5665239382621405])",-277.450966979709,207.30215952612662,-49.80679547566788,0.7018733976965537,-0.007384932002018203,2.8134144428630585,25.000000230782607,-1.0,"[213.3721613227573, -279.0943740241992, 49.890642955520526]","[195.2257784657561, -285.92593112759266, 44.98772374853705]","[197.02101691432443, -270.09836199596145, 57.08173773464671]",10000000000.0,0.02226114273071289
16,36.420613527297974,213.26119995117188,-278.93939208984375,49.90953063964844,0.6677057147026061,-0.001287040533497768,3.0443083802845816,23.193402681336437,"array('d', [-279.2699890136719, -279.0992134533925, -278.85238865384713, -278.528363786652, -278.1263969239793, -277.3520147351612, -276.49906728926146, -275.5689263800858, -274.56567387469636, -273.49521150856066, -272.36414826868725, -271.179070771755, -269.94614100802806, -268.6709151228645, -267.35829419248904, -266.27853405966295])","array('d', [215.1013641357422, 213.61145564596296, 212.1321939897209, 210.66787053334542, 209.22297603393866, 206.84610998655637, 204.49627349657226, 202.17589079980846, 199.88614826714152, 197.62702349284567, 195.397602286417, 193.196400470702, 191.02162609129576, 188.87136862121588, 186.74372368264977, 185.0602818595898])","array('d', [-49.91314697265625, -49.89017368690977, -49.87126163372513, -49.85586558017915, -49.84348298503605, -49.82705228951865, -49.81399385450988, -49.803557529132746, -49.79514314093856, -49.788274876412046, -49.78257930091285, -49.77776697649864, -49.77361767908325, -49.769969030367044, -49.76670813590016, -49.7643541491596])","array('d', [0.651662766933441, 0.6643893624879432, 0.6759048633709791, 0.6863245203579276, 0.6957526166116774, 0.7042835110020594, 0.7035135262465152, 0.6821293413032403, 0.6468617884203242, 0.6034028045984712, 0.5561600939100904, 0.5083246087532967, 0.46206145279978017, 0.4187090882259272, 0.3789407944474084, 0.3428798410795512])","array('d', [-0.016789378598332516, -0.013891224732274053, -0.011367620012656598, -0.00919702591176846, -0.007344199818311098, -0.0058257825991326435, -0.004640781606470169, -0.0037236035177206266, -0.003019662953763192, -0.0024838932982521045, -0.002079320117111665, -0.0017756082883530653, -0.0015476342055810617, -0.0013741793524085875, -0.0012368282294936632, -0.0011191288789512315])","array('d', [3.0526399175312853, 3.0020770092240228, 2.9502367602368396, 2.8972194078302373, 2.84311879933118, 2.810061074444289, 2.776747738669446, 2.744184702421419, 2.713460152822823, 2.685156029934402, 2.659474706382357, 2.6363800932040684, 2.615706227162937, 2.597228111517816, 2.580704779569651, 2.56220572761987])",-277.3520147351612,206.84610998655637,-49.82705228951865,0.7042835110020594,-0.0058257825991326435,2.810061074444289,25.00000023096862,-1.0,"[212.5871557183989, -278.951999892178, 49.89979050990248]","[194.41212200112585, -285.61695415752155, 44.87519758938975]","[196.27210695112814, -269.8876048398897, 57.08699622962618]",10000000000.0,0.029411792755126953
17,36.44828701019287,212.80245971679688,-278.8505859375,49.910377502441406,0.6713796854019165,-0.00562422676011903,3.0418072501805167,23.200680822692284,"array('d', [-279.10968017578125, -278.93274635434307, -278.67863185595905, -278.3463215986213, -277.9352104204871, -277.14460739798034, -276.27482516582654, -275.3273211024238, -274.3062762052359, -273.2176940996466, -272.06827265052505, -270.8646688874583, -269.6130975250123, -268.3191529988223, -266.9877638507494, -265.89296136407637])","array('d', [214.18026733398438, 212.69094343655746, 211.2128259750508, 209.750300920281, 208.30794364601977, 205.93638045344628, 203.59269606228406, 201.27933214787342, 198.99745717530746, 196.7470004046068, 194.5269834944062, 192.33585331281017, 190.1717507434801, 188.03270313802702, 185.91675021920594, 184.24304698049974])","array('d', [-49.91014099121094, -49.89949170830069, -49.890791910006094, -49.883773255552995, -49.87819024705453, -49.87088157425318, -49.86516399591813, -49.860673997523485, -49.857121812336494, -49.854278484178586, -49.85196485545121, -49.85004245921198, -49.84840629868133, -49.846979400157664, -49.84570891561876, -49.84479255705032])","array('d', [0.6599470973014828, 0.6718853352679853, 0.6826875006421985, 0.692461704911156, 0.7013057713430084, 0.7093082136696793, 0.7083081665362824, 0.6865964818973266, 0.650958460748887, 0.6071259593613099, 0.5595295590413097, 0.5113700408882029, 0.4648143791876329, 0.42119893723468826, 0.3811935364776304, 0.3449182065461863])","array('d', [-0.007808068767190064, -0.006414345761175301, -0.005205615184218426, -0.004169903147822733, -0.0032888238369637797, -0.0025701123443678552, -0.0020132440006606377, -0.0015858858250332915, -0.001261278365034831, -0.0010174521424128687, -0.0008364702270299367, -0.0007036624009542953, -0.0006068806172698711, -0.0005358236241030528, -0.0004814707531031367, -0.000435653109120871])","array('d', [3.0489359656956534, 2.9975443358500455, 2.944940210791866, 2.891219719878832, 2.8364727267006877, 2.8030589157199293, 2.769412808423629, 2.736541829446421, 2.705545374582206, 2.6770073521266866, 2.6511268113851942, 2.627862437653903, 2.6070430352461753, 2.5884391286578357, 2.5718061819163176, 2.553186912637273])",-277.14460739798034,205.93638045344628,-49.87088157425318,0.7093082136696793,-0.0025701123443678552,2.8030589157199293,25.000000231353383,-1.0,"[211.67486636889478, -278.77483581371825, 49.91296098727603]","[193.46078718049333, -285.2334720795035, 44.76190896803528]","[195.41352216521133, -269.61547337202956, 57.101477131176196]",10000000000.0,0.020715951919555664
18,36.46841621398926,212.80245971679688,-278.8505859375,49.910377502441406,0.6713796854019165,-0.00562422676011903,3.0418072501805167,23.200680822692284,"array('d', [-279.0257873535156, -278.8452455949188, -278.5869857835973, -278.2500603751065, -277.8339324957013, -277.0345149978305, -276.1556388970662, -275.1988062367426, -274.16824790427734, -273.07001705098736, -271.91085363794093, -270.6974472501568, -269.43603636442396, -268.13223218150574, -266.790974871601, -265.6882773126854])","array('d', [213.72047424316406, 212.23155405920846, 210.7541360523882, 209.29265526792108, 207.8517302307815, 205.48311514379282, 203.1428207635765, 200.83329681285807, 198.55570094814829, 196.3099360779348, 194.0949897108717, 191.90927243953993, 189.75089006962918, 187.61783766525454, 185.50812599725205, 183.83961259594642])","array('d', [-49.90948486328125, -49.905174204872594, -49.90171865165881, -49.89899452850684, -49.89689044614105, -49.89423893821311, -49.892260894909526, -49.8907935724086, -49.889707994762375, -49.88890278345199, -49.8882989705997, -49.88783579384359, -49.887467455869924, -49.887160779975254, -49.88689364171247, -49.886701942439394])","array('d', [0.6638922691345215, 0.6754550747263355, 0.6859175348231075, 0.6953843610453729, 0.7039503003725025, 0.7117010832736118, 0.7105755900347974, 0.6886976105798939, 0.6528775455191644, 0.6088650919932581, 0.5611005658479614, 0.5127884619643122, 0.46609592315334963, 0.42235782115333886, 0.38224203621007835, 0.34586692843332245])","array('d', [-0.003185779321938871, -0.0025720121400632447, -0.002044201255736057, -0.001595451056324899, -0.001216317760227569, -0.0009099989749196641, -0.0006763338213404489, -0.0005004581925800181, -0.0003701772887340269, -0.00027557000258704467, -0.000208597513800351, -0.00016270939484532276, -0.00013246551054293222, -0.00011319664649817206, -0.0001007220630984523, -9.113720969050935e-05])","array('d', [3.0467172423985343, 2.994927343350262, 2.941956358523247, 2.887898393440999, 2.8328413532086336, 2.799256838353104, 2.765451824469811, 2.7324347702098875, 2.7013100375596246, 2.672662136769238, 2.646688301620976, 2.6233445963464694, 2.6024572729345326, 2.5837947058589115, 2.567110664930732, 2.5484353699200923])",-277.0345149978305,205.48311514379282,-49.89423893821311,0.7117010832736118,-0.0009099989749196641,2.799256838353104,25.0000002433255,-1.0,"[211.3099449732496, -278.70115846609843, 49.91881379810537]","[193.07968605144225, -285.0770912122753, 44.722166680964115]","[195.0720523367967, -269.5026748370236, 57.11038814957186]",10000000000.0,0.01869058609008789
19,36.494232177734375,211.422607421875,-278.56817626953125,49.919281005859375,0.6813794374465939,-0.017317587509751254,3.033570841946874,23.223586966237256,"array('d', [-278.93939208984375, -278.75497182032547, -278.49231500358064, -278.15054110887996, -277.7291811914923, -276.9206137087731, -276.03232544667065, -275.0658640281804, -274.02551019716503, -272.9173655738648, -271.7482106529118, -270.52476587872906, -269.2532918677456, -267.9394151262244, -266.58808617946596, -265.4773378955981])","array('d', [213.26119995117188, 211.7727525756783, 210.296109158481, 208.83575502548348, 207.39635242151502, 205.0308456441548, 202.6941084200888, 200.38859823739085, 198.11546101144182, 195.87457222834342, 193.66488426917581, 191.48477064022214, 189.3323014238197, 187.20543889037205, 185.10216446313748, 183.43899808556395])","array('d', [-49.90953063964844, -49.91135036631554, -49.91296056351348, -49.914379302274696, -49.91562636779776, -49.91745375672486, -49.919066171028945, -49.92049640263351, -49.92177177652223, -49.92291471117884, -49.92394330344747, -49.92487196264392, -49.92571208455787, -49.926472748276346, -49.92716142309372, -49.92766002625123])","array('d', [0.6677057147026061, 0.6789056232806472, 0.6890397205507495, 0.6982094317739049, 0.706506530308276, 0.7140140559809977, 0.7127578336977243, 0.6907129567716336, 0.6547135859292998, 0.6105259620235631, 0.5625991152205994, 0.514140552530723, 0.4673171496457282, 0.4234620446376328, 0.38324106723551254, 0.3467708891687775])","array('d', [0.001287040533497768, 0.0011416870952524582, 0.0010074817493716407, 0.0008861935623187883, 0.0007783595625749488, 0.0006851073286080065, 0.0006061414991462131, 0.0005391612007278426, 0.0004820900058502719, 0.00043307540362004325, 0.0003905085268126911, 0.00035304382606986246, 0.0003196114302306642, 0.0002894231488254123, 0.0002619746034770266, 0.00023704433523038894])","array('d', [3.0443083802845816, 2.992131252001481, 2.938803732043487, 2.8844179263010776, 2.8290598076204496, 2.795309587872031, 2.76135069608678, 2.728192778544535, 2.696944771247293, 2.668191562311591, 2.6421284896126274, 2.61870900412585, 2.597756854601616, 2.5790383272213977, 2.5623055576121603, 2.543576846519907])",-276.9206137087731,205.0308456441548,-49.91745375672486,0.7140140559809977,0.0006851073286080065,2.795309587872031,25.000000243407754,-1.0,"[211.1325280981095, -278.66374964134513, 49.92212361771222]","[192.89400326190474, -285.00053958003247, 44.706636576975406]","[194.90681052668862, -269.445959679833, 57.11645732681475]",10000000000.0,0.024024248123168945
20,36.519771099090576,211.422607421875,-278.56817626953125,49.919281005859375,0.6813794374465939,-0.017317587509751254,3.033570841946874,23.223586966237256,"array('d', [-278.8505859375, -278.66216314537667, -278.3950045086458, -278.0482954270722, -277.6216339317952, -276.803822125441, -275.9060426317217, -274.9298887885256, -273.87969060052086, -272.76159685555916, -271.58242701085265, -270.3489308125811, -269.0673896092529, -267.7434439979665, -266.38205383293626, -265.26326814117937])","array('d', [212.80245971679688, 211.31453536935737, 209.83871566621747, 208.3795369775683, 206.94170549694573, 204.5793872732667, 202.2462862303989, 199.94486751361293, 197.67626487871132, 195.44032600972272, 193.23596791852057, 191.0615269197975, 188.91503736797742, 186.79442879926378, 184.6976533858212, 183.0398810809606])","array('d', [-49.910377502441406, -49.91813810100273, -49.92465085432788, -49.930073199396375, -49.934553616874446, -49.9406949116767, -49.94575930645143, -49.94997049542003, -49.95350808798571, -49.956514890544554, -49.959103230120405, -49.961360380099954, -49.9633530951929, -49.96513129695472, -49.96673100842877, -49.967887548164036])","array('d', [0.6713796854019165, 0.6822299697040112, 0.6920477138045602, 0.7009311767896383, 0.7089692671063313, 0.7162424320462897, 0.7148539598998233, 0.692644148481506, 0.6564697579929921, 0.6121125205693407, 0.5640294023324388, 0.515430423524241, 0.4684819105186621, 0.4245151320822971, 0.3841938234648178, 0.34763297872292964])","array('d', [0.00562422676011903, 0.004738067491761803, 0.003958633702453437, 0.003282455669224727, 0.0027011408114152864, 0.0022199275693916957, 0.0018379629392232734, 0.001536026707840997, 0.0012980187165910497, 0.001110551222533687, 0.0009625890936332125, 0.0008450912182565403, 0.0007506563723865911, 0.0006731973164042707, 0.0006076651480252223, 0.0005498379097230705])","array('d', [3.0418072501805167, 2.989254928120162, 2.9355821021052133, 2.88087890986925, 2.8252294251888914, 2.791318903701373, 2.7572114155327165, 2.7239178795508674, 2.6925514929094607, 2.6636973660442895, 2.6375489075223255, 2.6140569899470227, 2.593042920939972, 2.5742709645984796, 2.55749168228814, 2.5387119981921313])",-276.803822125441,204.5793872732667,-49.9406949116767,0.7162424320462897,0.0022199275693916957,2.791318903701373,25.000000232055203,-1.0,"[210.27869917707093, -278.4827061419028, 49.938214607170345]","[192.00063743557024, -284.63046598343385, 44.635620156833134]","[194.1132305493166, -269.17224353127176, 57.148825539756594]",10000000000.0,0.020854473114013672
21,36.54389786720276,210.50611877441406,-278.36865234375,49.9294548034668,0.687528908252716,-0.024019975215196606,3.027234391370092,23.233938223260452,"array('d', [-278.66461181640625, -278.46771395343404, -278.1911612157761, -277.83426582522003, -277.39675502513126, -276.56013118472134, -275.6431066892856, -274.6473658459794, -273.5773339632274, -272.4392483980684, -271.2399999714785, -269.9863907426964, -268.68473797233435, -267.3407057330493, -265.9592686147434, -264.82448829009826])","array('d', [211.8818817138672, 210.39515812609656, 208.92114231028327, 207.46447202383823, 206.02993952034828, 203.67425417975602, 201.34867450831075, 199.05567921449347, 196.79637561613134, 194.57055437979554, 192.3770611587811, 190.2141578731667, 188.07980779449252, 185.97187557216316, 183.8882555502219, 182.2413894072995])","array('d', [-49.91545867919922, -49.934215360843545, -49.94978144351416, -49.96257876743946, -49.972999001462064, -49.98704115603135, -49.99840792995096, -50.00768075358212, -50.015323660427825, -50.02170362456569, -50.027107953815566, -50.03175889493222, -50.0358255176884, -50.03943305424796, -50.04267002152563, -50.04500886619874])","array('d', [0.6781731843948363, 0.6883769823494763, 0.6976097613597392, 0.7059639259952203, 0.7135230873175439, 0.7203628993530652, 0.7187048905935024, 0.6961739355930646, 0.6596672109613559, 0.6149931966620489, 0.5666216778007447, 0.5177657973438636, 0.4705897414516505, 0.4264205647231179, 0.3859176803847522, 0.3491927891086191])","array('d', [0.01366067491471753, 0.011386823747661977, 0.009401449299858656, 0.007690402192530862, 0.00622775613729655, 0.0050260736215173105, 0.004083107649451747, 0.0033474407527118106, 0.0027764200369526514, 0.002334921875700531, 0.001994228319150575, 0.0017309192170296725, 0.0015258021598796778, 0.001362944851812083, 0.0012288663726709214, 0.001111924072252941])","array('d', [3.036454872288976, 2.983203192453262, 2.9288871118419744, 2.8735930167350956, 2.817401368869442, 2.7831927161521053, 2.74880986368178, 2.7152665828228253, 2.6836833236226165, 2.654645058747506, 2.628341259490826, 2.604717827551371, 2.5835914684436663, 2.564722686172496, 2.5478591439990232, 2.528987130258178])",-276.56013118472134,203.67425417975602,-49.98704115603135,0.7203628993530652,0.0050260736215173105,2.7831927161521053,25.00000023250959,-1.0,"[209.8450542757207, -278.3869799734055, 49.94709577743323]","[191.54564562595613, -284.43998231129643, 44.60923049565545]","[193.7130859268281, -269.0293073884895, 57.171606901643486]",10000000000.0,0.019214630126953125
22,36.56254243850708,210.50611877441406,-278.36865234375,49.9294548034668,0.687528908252716,-0.024019975215196606,3.027234391370092,23.233938223260452,"array('d', [-278.56817626953125, -278.3667506411456, -278.0852391199052, -277.72301629931854, -277.2798730803288, -276.7560234564013, -275.7761986028239, -274.7184407862381, -273.5873339792406, -272.3891786420252, -271.13086085669346, -269.8191376307779, -268.46026128098794, -267.0598240748833, -265.6227294219895, -264.44403345190096])","array('d', [211.422607421875, 209.93656482691185, 208.46354043839727, 207.00822254844505, 205.57544577220608, 204.1701520523416, 201.87034485798515, 199.60530122345577, 197.37595493124468, 195.18188998296125, 193.02174392310206, 190.89358543728272, 188.7952056900128, 186.7243192691239, 184.67869098852734, 183.0629648676418])","array('d', [-49.919281005859375, -49.94306194682506, -49.96281326254416, -49.979084650653405, -49.99238663261697, -50.00317385355908, -50.01767704456592, -50.0294199123396, -50.039032253378785, -50.04700731210939, -50.05372801716212, -50.059488432623844, -50.06451080902306, -50.06895870910515, -50.07294682622382, -50.075827947636874])","array('d', [0.6813794374465939, 0.6912781203447489, 0.7002348198121255, 0.7083391773318503, 0.7156723038507077, 0.7223075913627544, 0.7194701531707909, 0.6961271751743292, 0.6591194413424842, 0.6141793396900356, 0.5657028009838005, 0.5168419106409907, 0.4697150624561577, 0.42561768182442933, 0.38518976705358354, 0.3485341458297083])","array('d', [0.017317587509751254, 0.014439682698794525, 0.011937907738271499, 0.009793479615736452, 0.007973098992579338, 0.006435635713886672, 0.005187799218621096, 0.004222630755610525, 0.0034796554365133644, 0.002909906935456157, 0.002473936431803595, 0.0021399711999481943, 0.0018822321975813915, 0.0016794721633847079, 0.001513786829605003, 0.0013697307719902363])","array('d', [3.033570841946874, 2.979986532665645, 2.925364688039091, 2.8697898712756773, 2.8133407925070393, 2.756090554883081, 2.7216142569200708, 2.6880468477150017, 2.6564829184257004, 2.627486033447619, 2.6012315091827847, 2.5776573230676565, 2.556576459158472, 2.5377481762553153, 2.520920190446059, 2.502087194122603])",-276.7560234564013,204.1701520523416,-50.00317385355908,0.7223075913627544,0.006435635713886672,2.756090554883081,25.000000234542682,-1.0,"[209.35562192428284, -278.2759700605106, 49.95769708962844]","[191.0307042018064, -284.2218986802685, 44.58709904907354]","[193.26433326518838, -268.8644132690342, 57.20290433652707]",10000000000.0,0.016924619674682617
