,current_time,x_pos,y_pos,z_pos,roll,pitch,yaw,vel,x_traj,y_traj,z_traj,roll_traj,pitch_traj,yaw_traj,x_cmd,y_cmd,z_cmd,roll_cmd,pitch_cmd,yaw_cmd,vel_cmd,effector_dmg,effector_x,effector_y,effector_z,cost,time_solution
0,2.8286514282226562,-308.3951110839844,296.19818115234375,49.994956970214844,0.63518226146698,0.03415745124220847,-1.5739090323408664,23.103284979635635,"array('d', [299.44158935546875, 296.94303955283505, 294.4439319549284, 291.94516526810304, 289.44698960388706, 286.94931787356114, 284.4519468040939, 281.95468132420206, 279.457376708405, 276.9599433535303, 274.46233720809687, 271.9645461104379, 269.46657707457524, 266.9684464908173, 264.47017356883885, 262.47146667337717])","array('d', [-308.22052001953125, -308.18497077510483, -308.20314908840646, -308.2603094297335, -308.34432273190833, -308.4450774019274, -308.5548606268006, -308.6682624008121, -308.78168158828646, -308.8928775035009, -309.0006090512848, -309.10433605515084, -309.2039747785951, -309.29970509664406, -309.39182802844795, -309.462585782148])","array('d', [-49.99582290649414, -49.92072256079424, -49.85793661167159, -49.805018505368984, -49.76012213278921, -49.72181336272098, -49.68894997283735, -49.660604608936545, -49.63601476212952, -49.614549321556964, -49.59568537122171, -49.578991517029245, -49.56411554913369, -49.550775120833585, -49.538750626081665, -49.5300540117704])","array('d', [0.6337248086929322, 0.49867751806059757, 0.3764816653231489, 0.26591427567744114, 0.16586875771828016, 0.08844727300873927, 0.034234725824810616, -0.0018927048293639385, -0.024239723425689592, -0.036451139200557016, -0.041581887907783735, -0.04213213315736818, -0.04006970558826049, -0.0368473950642356, -0.03341654487100813, -0.0302365429184686])","array('d', [-0.03284052386879924, -0.027340617481011586, -0.02296643333871897, -0.01943022642684033, -0.016537078247441713, -0.01415094971017715, -0.012173511118461149, -0.010530674048870389, -0.009164315564700116, -0.008027217751340613, -0.007079889503959169, -0.0062884953925342706, -0.005623443693235708, -0.0050583761510645765, -0.004569413725939165, -0.004134577205019786])","array('d', [-1.5434796055171154, -1.5684130605980442, -1.5867498971778924, -1.5997804847292196, -1.6083594347740702, -1.6133529890004943, -1.6157458177398039, -1.6163686651670697, -1.615848580849629, -1.6146534451274872, -1.6131199745572233, -1.6114763651408832, -1.6098633318983826, -1.6083545288349235, -1.606976505818908, -1.6054161704707235])",286.94931787356114,-308.4450774019274,-49.72181336272098,0.08844727300873927,-0.01415094971017715,-1.6133529890004943,25.00000021673069,-1.0,"[-308.3782649623715, 294.97142132048657, 49.94439649688073]","[-298.3943446088301, 281.22617227526683, 39.390275829623356]","[-318.38268161689336, 280.8305942523786, 39.946963964845814]",10000000000.0,0.017308712005615234
1,2.8522279262542725,-308.46380615234375,295.2691345214844,49.99257278442383,0.6355713605880738,0.03403775766491893,-1.582690227027756,23.10715004807398,"array('d', [298.0533752441406, 295.55465404927065, 293.05607731476493, 290.55835160357793, 288.0615682431034, 285.5655071679956, 283.0698631382305, 280.57436945659396, 278.0788337933376, 275.5831370488672, 273.08721899053523, 270.59106060566506, 268.09466811691436, 265.59806060072304, 263.1012615246166, 261.10369583175174])","array('d', [-308.2828674316406, -308.2804745397055, -308.33191671444416, -308.42241776960276, -308.5398330646928, -308.6740421641358, -308.81732201118496, -308.964254663699, -309.11123335677655, -309.256013123423, -309.39734949423934, -309.53469959122634, -309.66797749214123, -309.7973612761883, -309.9231504514276, -310.02085107142057])","array('d', [-49.99708557128906, -49.91936525080694, -49.853954789123236, -49.7984763729836, -49.751130097825566, -49.7105112036643, -49.67549409408801, -49.64515845943409, -49.61874182460519, -49.59560819861392, -49.57522654985845, -49.55715544234289, -49.541031690104724, -49.52656176659814, -49.51351520748158, -49.50407877448843])","array('d', [0.6346397995948793, 0.49950543614024867, 0.3772307966474158, 0.2665921177887627, 0.16648209458927918, 0.08891468917195214, 0.034594555010194795, -0.0016116593232270774, -0.024015662902649934, -0.036267777574985276, -0.04142740503771481, -0.04199832004505708, -0.039951195648298035, -0.036740940000804925, -0.03332031980754325, -0.03014947487260855])","array('d', [-0.033879697322845466, -0.02839810030672894, -0.024009493648308934, -0.020436510616137684, -0.017491909301134572, -0.015045455468226604, -0.013003221466141445, -0.011294391306769765, -0.009863186837579993, -0.008663984148757003, -0.0076582929988930045, -0.006812823377586479, -0.006098189570286198, -0.005487993313461671, -0.004958140533294874, -0.004486311797198136])","array('d', [-1.5567237575862067, -1.581705375256526, -1.600079986889571, -1.613141695188619, -1.6217472038168563, -1.6267622794503775, -1.629171370564052, -1.629806771074232, -1.6292965802969526, -1.6281094322305032, -1.6265825907576688, -1.6249446408165686, -1.6233365614831967, -1.6218321747991988, -1.6204581299119722, -1.6189022890430618])",285.5655071679956,-308.6740421641358,-49.7105112036643,0.08891468917195214,-0.015045455468226604,-1.6267622794503775,25.000000211154056,-1.0,"[-308.4179918855482, 294.4868031142414, 49.94319114989824]","[-298.51237880710767, 280.70517705650565, 39.36275577393343]","[-318.50045290879683, 280.38213797225256, 39.97311587701102]",10000000000.0,0.018427133560180664
2,2.877272605895996,-308.5012512207031,294.80511474609375,49.99136734008789,0.6357761621475219,0.0339788906276226,-1.5871505618055883,23.109958839241077,"array('d', [297.5909118652344, 295.0922144615033, 292.5938935051704, 290.0965916930556, 287.60034795278256, 285.1048985668319, 282.60990489544486, 280.115076800145, 277.62020637071913, 275.1251648402314, 272.6298866512485, 270.1343505077985, 267.63856232565644, 265.1425420112035, 262.6463143796916, 260.6491935692116])","array('d', [-308.30767822265625, -308.31599302402157, -308.3781715234124, -308.4794288415692, -308.60761624889784, -308.7526112615634, -308.9066883555469, -309.0644276819083, -309.22222112120824, -309.3778226458007, -309.5299869141352, -309.67817031812353, -309.82228632049424, -309.9625124786171, -310.0991478519962, -310.2055283702245])","array('d', [-49.99720001220703, -49.91912421581709, -49.85327081269945, -49.797301486537776, -49.749444512395605, -49.708315032273724, -49.67280116207949, -49.6419916370937, -49.61512952462034, -49.5915817842659, -49.57081845597052, -49.55239784859544, -49.53595561570862, -49.521196480732264, -49.50788787287121, -49.498261702709804])","array('d', [0.6348978281021118, 0.4997389100094857, 0.3774420525592326, 0.2667832700588784, 0.16665505630537875, 0.08904636342273133, 0.034695834387600724, -0.001532609865582853, -0.023952675517451828, -0.03621625091392759, -0.04138400358786471, -0.04196072987522, -0.039917905664508826, -0.036711036524690106, -0.03329328998640671, -0.030125017276826573])","array('d', [-0.03399939835071556, -0.028562176970804553, -0.024199460194180004, -0.020639158175765563, -0.017697840349952414, -0.01524810269705105, -0.013198151127766945, -0.011478778220141515, -0.010035405331195906, -0.008823287089105335, -0.007804561503769015, -0.006946374385627756, -0.006219630525189141, -0.0055981143445225, -0.005057835362620784, -0.004576519417232852])","array('d', [-1.5610019405696052, -1.585997149910452, -1.6043824192414589, -1.617452906323196, -1.6260659058754863, -1.6310870483428008, -1.633500719092576, -1.6341396517853561, -1.6336322430681969, -1.632447340065494, -1.630922361228161, -1.6292860012018462, -1.627679313462798, -1.6261761673479678, -1.6248032399201136, -1.623248661597871])",285.1048985668319,-308.7526112615634,-49.708315032273724,0.08904636342273133,-0.01524810269705105,-1.6310870483428008,25.000000208917545,-1.0,"[-308.4561531399881, 294.05191423814813, 49.94214718794888]","[-298.6219153265457, 280.2378209330024, 39.33749760461103]","[-318.60943390477917, 279.98135806098793, 39.995774051136515]",10000000000.0,0.020416736602783203
3,2.895740270614624,-308.5012512207031,294.80511474609375,49.99136734008789,0.6357761621475219,0.0339788906276226,-1.5871505618055883,23.109958839241077,"array('d', [297.1285705566406, 294.62994355839163, 292.13192561311604, 289.63509492921105, 287.13943773348666, 284.64464653648264, 282.15034927831897, 279.65623241215405, 277.16207250337436, 274.6677311790998, 272.173137614234, 269.67826827800235, 267.1831288181468, 264.6877400010937, 262.1921280125103, 260.1954873921175])","array('d', [-308.33453369140625, -308.35359321412096, -308.42652953675747, -308.53855221185586, -308.67751054066565, -308.8332815435837, -308.9981385020184, -309.16666064481166, -309.33523927391616, -309.50162794040284, -309.66458097150115, -309.82355449415553, -309.9784617607706, -310.12948016283116, -310.276908627692, -310.3919241390514])","array('d', [-49.9971809387207, -49.918735990027756, -49.852425443226345, -49.795950738099286, -49.74756860159377, -49.70591433300189, -49.669889979243166, -49.63859349246347, -49.611273604836505, -49.587300302044056, -49.56614472966529, -49.547364941312416, -49.53059540344579, -49.51553904376047, -49.50196112715287, -49.49213996346769])","array('d', [0.6350309848785402, 0.49985939525405615, 0.3775510721261759, 0.26688191504687403, 0.16674431348826046, 0.08910439284017475, 0.034731832338413156, -0.0015117345921648571, -0.023941738231897224, -0.03621144747197182, -0.04138265720464497, -0.041961075170216085, -0.0399188896334832, -0.0367121295686532, -0.033294304928264684, -0.030125935634330307])","array('d', [-0.03412444144487378, -0.028731855017494198, -0.024395190110624625, -0.020847621333055, -0.01790953120500917, -0.015456357619932323, -0.013398457572068406, -0.011668252066935962, -0.010212381665033132, -0.00898699744030494, -0.007954880878720521, -0.007083625782022755, -0.006344436537020437, -0.005711286443510976, -0.005160292192007125, -0.004669226184642317])","array('d', [-1.5652984817835947, -1.5903007068502322, -1.6086914770113871, -1.6217664948880786, -1.6303833603919948, -1.6354074331680648, -1.6378229494311694, -1.6384629935045436, -1.637956205808496, -1.636771609899905, -1.6352467507666413, -1.6336104098605513, -1.6320036957880704, -1.6305005088260551, -1.629127540013304, -1.6275729138374746])",284.64464653648264,-308.8332815435837,-49.70591433300189,0.08910439284017475,-0.015456357619932323,-1.6354074331680648,25.000000206626616,-1.0,"[-308.5154684485823, 293.414445759769, 49.94066965447487]","[-298.7874880885573, 279.55252431717776, 39.3004848800268]","[-318.77359069080325, 279.39540298154236, 40.02919309213044]",10000000000.0,0.016821622848510742
4,2.914968252182007,-308.5823669433594,293.87799072265625,49.989078521728516,0.6354576349258424,0.033892132341861815,-1.596039283271653,23.11812082582496,"array('d', [296.19818115234375, 293.6998185094223, 291.2025353483565, 288.7067788726779, 286.21242867515537, 283.7190889672853, 281.2263203790679, 278.7337622601317, 276.24115995264765, 273.74835576502727, 271.25526827074674, 268.7618694279479, 266.2681643220169, 263.77417542313185, 261.2799316499334, 259.28436078012095])","array('d', [-308.3951110839844, -308.4356944636039, -308.53016461883885, -308.6637232736527, -308.82421815943917, -309.0015271708606, -309.18792293916033, -309.37798419705115, -309.5681020847895, -309.7560300579014, -309.94052234654635, -310.12103497977915, -310.29748112541347, -310.4700381124434, -310.6390048284379, -310.7712503335369])","array('d', [-49.994956970214844, -49.91627197814041, -49.84946708001052, -49.792337893516944, -49.7432094106653, -49.70076627733499, -49.66394572574889, -49.631870157060575, -49.6038046058545, -49.5791292252239, -49.557320767318394, -49.53793955810006, -49.52061994754808, -49.5050630769952, -49.491031295804405, -49.48088145512663])","array('d', [0.63518226146698, 0.4999962759839333, 0.37767492694317767, 0.26699398352863984, 0.16684571723314395, 0.08915603575257544, 0.034749349577263194, -0.001516607542705253, -0.023960238031345556, -0.03623720784941767, -0.04141127508921987, -0.04198973351277131, -0.03994600632687062, -0.03673702322182984, -0.03331687530888797, -0.030146358161106713])","array('d', [-0.03415745124220847, -0.028888902371396543, -0.02463242512627921, -0.02113329812412899, -0.01822062109654663, -0.015776301206145024, -0.013715586935869693, -0.011974617978403511, -0.010502848551954574, -0.009258535271707845, -0.008206011257591926, -0.007313992543061917, -0.006554477278525368, -0.005901984621952545, -0.005332991541010148, -0.004825491031687635])","array('d', [-1.5739090323408664, -1.598919229215727, -1.6173162494782354, -1.6303964150791606, -1.639017672816061, -1.644044785958657, -1.6464616541746602, -1.6471019391807027, -1.6465946883287437, -1.6454092208355353, -1.6438832922443485, -1.6422458256080492, -1.6406380158952676, -1.639133807714435, -1.637759907268984, -1.6362042257581009])",283.7190889672853,-309.0015271708606,-49.70076627733499,0.08915603575257544,-0.015776301206145024,-1.644044785958657,25.00000020060321,-1.0,"[-308.52576732017684, 293.3061810620339, 49.94040881128983]","[-298.81596362572355, 279.4361780009016, 39.29415466725581]","[-318.80174607985526, 279.2959390329183, 40.034987123333295]",10000000000.0,0.017630577087402344
5,2.93591046333313,-308.6260986328125,293.41485595703125,49.987918853759766,0.6340232491493223,0.03361438587307935,-1.6004137873610083,23.123412082619826,"array('d', [295.7334899902344, 293.2353311318771, 290.738491644237, 288.2433522846184, 285.7497384354719, 283.25720934244345, 280.7652913043472, 278.2735996087541, 275.7818636170266, 273.28991572187067, 270.7976690285672, 268.3050931394867, 265.8121928064222, 263.3189913301038, 260.82551899237524, 258.8305527461543])","array('d', [-308.4284362792969, -308.47994515639397, -308.585356267382, -308.7298654319384, -308.9013183779842, -309.08959268902964, -309.2869602774739, -309.4879993195818, -309.6891005518306, -309.8880170297049, -310.0835025591314, -310.27501273460456, -310.46246030034445, -310.64602218884346, -310.82599692657504, -310.967051203148])","array('d', [-49.993770599365234, -49.91500825921785, -49.847987260740545, -49.79055262287867, -49.74106544061731, -49.69823670537286, -49.661022646545995, -49.62855905164737, -49.60012004929938, -49.5750916239578, -49.55295390755531, -49.533268791008666, -49.515670869142696, -49.49986058746989, -49.48559894677953, -49.47528263764428])","array('d', [0.635361909866333, 0.50015882859237, 0.3778220106388058, 0.2671270703715054, 0.1669661391902018, 0.08924692679339495, 0.03481864169140597, -0.0014630064583238717, -0.02391788956841185, -0.036202817407863686, -0.04138246661533313, -0.04196486850700779, -0.039924023218397234, -0.03671728761052808, -0.03329903767554884, -0.030130218001550864])","array('d', [-0.03415425866842273, -0.02895288175730975, -0.024740649174164454, -0.021269040042142612, -0.018371639645798857, -0.015933702613226172, -0.01387302527868334, -0.01212769921252312, -0.010648668497306734, -0.00939531589040591, -0.008332814097848381, -0.007430494851776717, -0.006660799306374129, -0.005998558134341454, -0.005420460499828427, -0.0049046362256322555])","array('d', [-1.5782773375471657, -1.603297003259499, -1.621701446826841, -1.6347877261342358, -1.6434142001344145, -1.6484455216583807, -1.6508655387756315, -1.651508230781381, -1.6510028591474213, -1.6498188960360238, -1.6482942074458606, -1.6466577944210359, -1.6450509044659567, -1.6435475152720997, -1.6421743522930077, -1.6406195038681854])",283.25720934244345,-309.08959268902964,-49.69823670537286,0.08924692679339495,-0.015933702613226172,-1.6484455216583807,25.000000196861507,-1.0,"[-308.56160704476497, 292.95442601331393, 49.93958906144218]","[-298.910784624568, 279.05546620502497, 39.277481255694184]","[-318.8953728363183, 278.97000775707187, 40.05782147665225]",10000000000.0,0.01833367347717285
6,2.959768295288086,-308.6719970703125,292.95196533203125,49.98677062988281,0.6306620836257935,0.03314329311251633,-1.604746568199021,23.1298051822739,"array('d', [295.2691345214844, 292.7712218765477, 290.27487360243225, 287.78040264947464, 285.2875791486203, 282.7959165612672, 280.30490623512253, 277.8141389477843, 275.32332776321806, 272.8322949401887, 270.34094797109174, 267.84925401161485, 265.35721742678226, 262.86486231964517, 260.3722203225589, 258.3779056849731])","array('d', [-308.46380615234375, -308.52635314246345, -308.64282022437203, -308.7983968325546, -308.98092646100514, -309.1802863067372, -309.3887476287041, -309.6008880996673, -309.8130980525762, -310.023130096473, -310.2297375310471, -310.43237541094265, -310.6309559395472, -310.8256555328615, -311.0167722401182, -311.16674337707803])","array('d', [-49.99257278442383, -49.91399280790938, -49.846973800906646, -49.789417836431305, -49.73972808264119, -49.69664666577867, -49.659152737093734, -49.62639873142375, -49.597670598792945, -49.572362437244735, -49.54995965960815, -49.530027290772544, -49.51220144641669, -49.49618289111088, -49.48173205699273, -49.47127868738259])","array('d', [0.6355713605880738, 0.5003483474596928, 0.37799349441671737, 0.2672822353238585, 0.16710653824940122, 0.0893574020405738, 0.03490683342798074, -0.001391431817804014, -0.023858669972607965, -0.036152766546203245, -0.04133925373439826, -0.04192684723148617, -0.03989008300513294, -0.03668671678582291, -0.03327139389593447, -0.030105204873115042])","array('d', [-0.03403775766491893, -0.028921988959153006, -0.024768959480822698, -0.02133715224894655, -0.018465191972524622, -0.01604207809450904, -0.013988453041415855, -0.012244595367370607, -0.010763132302028088, -0.009504736558524584, -0.008435562176666718, -0.007525680992659467, -0.006748087517110548, -0.0060780227533680405, -0.0054924774154685935, -0.00496979983147199])","array('d', [-1.582690227027756, -1.6077209350240615, -1.626134034740989, -1.6392274427007871, -1.6478599986740485, -1.6528963179760514, -1.6553202419391568, -1.6559660643777623, -1.6554632553907167, -1.6542814351144004, -1.6527585768706041, -1.6511237587245082, -1.6495182816820744, -1.6480161589475926, -1.6466441385754482, -1.6450905814961487])",282.7959165612672,-309.1802863067372,-49.69664666577867,0.0893574020405738,-0.01604207809450904,-1.6528963179760514,25.00000019246404,-1.0,"[-308.67049323573934, 291.91636079820415, 49.93750676986372]","[-299.1931502292339, 277.91841489767825, 39.249313278773094]","[-319.17308568026175, 277.9975642009705, 40.1414538285461]",10000000000.0,0.0222318172454834
7,2.9867050647735596,-308.7200622558594,292.48931884765625,49.98567581176758,0.6248453855514526,0.032472830265760456,-1.609007585044724,23.137061152263378,"array('d', [294.80511474609375, 292.30750481267097, 289.8117058720383, 287.31796263733236, 284.8259895982361, 282.33525408684585, 279.84521223361605, 277.35543012410255, 274.86560440870664, 272.37554714510145, 269.8851601814097, 267.3944082200269, 264.90329524828417, 262.4118461892558, 259.9200940492874, 257.92647849322094])","array('d', [-308.5012512207031, -308.57495321506764, -308.7025913874433, -308.8693492279131, -309.0630683461568, -309.2736258677476, -309.4932927472595, -309.71664641940106, -309.94007698599285, -310.1613367127259, -310.37917844546485, -310.5930567161843, -310.80288318207994, -311.00883372473004, -311.21120589272977, -311.3701848790418])","array('d', [-49.99136734008789, -49.912835275066676, -49.845700753461365, -49.78791983175081, -49.737935561055956, -49.694519571682406, -49.6566726620775, -49.62356286999767, -49.59448707743614, -49.568846717961065, -49.5461317943215, -49.52590984876658, -49.50781796959473, -49.491556758398865, -49.47688566272044, -49.46627275074178])","array('d', [0.6357761621475219, 0.500533659590342, 0.37816117178117253, 0.26743395609202597, 0.16724382130111115, 0.08946675535657779, 0.03499526923024054, -0.0013187310374432005, -0.023797809622009225, -0.036100829693015084, -0.04129409636794458, -0.041886941734268164, -0.0398543839721043, -0.03665453815782107, -0.03324229322223474, -0.030078873492221804])","array('d', [-0.0339788906276226, -0.028941203185270686, -0.02484130299484594, -0.02144424240759471, -0.018593409597733646, -0.016181373723887834, -0.014131511473321002, -0.012386214813554309, -0.010899742991833588, -0.00963402027816894, -0.008556150516520354, -0.007636917531651209, -0.0068498425123933475, -0.0061705504585481625, -0.005576307062157135, -0.005045652053164731])","array('d', [-1.5871505618055883, -1.612192069728462, -1.6306136348864353, -1.643714014022702, -1.6523525173629854, -1.6573937505739067, -1.6598215645566976, -1.6604705446157573, -1.6599703527380572, -1.6587907446281884, -1.6572697920094563, -1.655636643965074, -1.6540326513844825, -1.6525318612044864, -1.6511610435856108, -1.6496088459268783])",282.33525408684585,-309.2736258677476,-49.694519571682406,0.08946675535657779,-0.016181373723887834,-1.6573937505739067,25.00000018671047,-1.0,"[-308.69169357721927, 291.72912487278114, 49.937325295560605]","[-299.2451642347142, 277.7015962097526, 39.26064402331577]","[-319.2241575957895, 277.8124797914686, 40.17033029308919]",10000000000.0,0.020856380462646484
8,3.0342535972595215,-308.87872314453125,291.0950927734375,49.98358154296875,0.5899449586868284,0.028623599559068732,-1.621629941459519,23.164338652775978,"array('d', [293.87799072265625, 291.38113273994287, 288.8865711720811, 286.3944136575923, 283.9042639509652, 281.41549824628964, 278.9275035210884, 276.4397976591714, 273.9520454878636, 271.4640394719417, 268.97567079205663, 266.4868996997572, 263.9977297497531, 261.50818773052777, 259.01830955857787, 257.0261672335576])","array('d', [-308.5823669433594, -308.67824437579367, -308.82800228689166, -309.016829976947, -309.23257709213686, -309.4651290546755, -309.70676284412474, -309.95206054111134, -310.1974159095447, -310.44058402710647, -310.68031988471995, -310.9160796696749, -311.14777635259406, -311.3755868989303, -311.59980978956276, -311.7762614481743])","array('d', [-49.989078521728516, -49.910569833935455, -49.84314027484719, -49.78485180319951, -49.734225964173554, -49.69009262946527, -49.65149542921734, -49.617633313510886, -49.587824817703925, -49.56148586687787, -49.53811546690256, -49.51728600836946, -49.49863632631878, -49.4818664892913, -49.466733766671446, -49.45578649380116])","array('d', [0.6354576349258424, 0.5002454442150615, 0.3779003837007603, 0.2671979852546939, 0.16703030598674745, 0.08925163303119178, 0.03478418662565633, -0.0015215485196800945, -0.023989400832326868, -0.036279349197957625, -0.04145864770201976, -0.04203739401435933, -0.039991182138328675, -0.03677851655398286, -0.03335449874595574, -0.030180401257782607])","array('d', [-0.033892132341861815, -0.029006706435194783, -0.025010188900582566, -0.021680383265075293, -0.018869953134852756, -0.016478451890360308, -0.01443463522115046, -0.012685075205390771, -0.01118727495742046, -0.009905656885082749, -0.008809226988564426, -0.007870198165417983, -0.007063149537989294, -0.006364476419248322, -0.005751993701266212, -0.0052046199123116])","array('d', [-1.596039283271653, -1.6210639952763644, -1.6394723947724164, -1.652561931984635, -1.661191185582322, -1.6662238655248436, -1.6686432846133623, -1.66928414353661, -1.6687762154513643, -1.6675893433853612, -1.6660616541361009, -1.6644223195921766, -1.6628126861654, -1.6613067762134122, -1.65993132281033, -1.6583738816140356])",281.41549824628964,-309.4651290546755,-49.69009262946527,0.08925163303119178,-0.016478451890360308,-1.6662238655248436,25.000000172568647,-1.0,"[-308.83384961112955, 290.5391278197045, 49.93771757028732]","[-299.57954594354067, 276.2267811386538, 39.47279539621129]","[-319.55181340383564, 276.55535461106075, 40.4730813391658]",10000000000.0,0.0455470085144043
9,3.0774412155151367,-308.9951477050781,290.1673278808594,49.98482131958008,0.552716612815857,0.024881279096007364,-1.6301729559858862,23.18342200925576,"array('d', [293.41485595703125, 290.91841911369545, 288.4245103882131, 285.9331669109488, 283.4439374321178, 280.9561541358768, 278.46917137104657, 275.98248476931855, 273.49574484513647, 271.0087355733246, 268.52134381403266, 266.0335283430953, 263.5452930340925, 261.05666598582104, 258.56768484771936, 256.5762458313679])","array('d', [-308.6260986328125, -308.7327997513561, -308.8932042811149, -309.09253400706024, -309.3186621884898, -309.56149219691326, -309.813314457916, -310.06872145011266, -310.3241154373417, -310.5772587294216, -310.8269126188386, -311.0725388595226, -311.3140553805352, -311.5516435894611, -311.78560596403435, -311.9698180830999])","array('d', [-49.987918853759766, -49.90996776941865, -49.842865481134666, -49.78473870717187, -49.73415715107987, -49.689986850220016, -49.651298649877305, -49.61731187751422, -49.5873601506293, -49.56087035237603, -49.537349232323216, -49.51637442318667, -49.49758805865424, -49.48069199690302, -49.46544412400285, -49.45441335489564])","array('d', [0.6340232491493223, 0.4989475581749436, 0.37672600774061543, 0.2661353658454014, 0.16606880806241434, 0.08837718850493743, 0.03398745198377693, -0.0022472806384007875, -0.024649646180552164, -0.036879114713324605, -0.042002711546887145, -0.042530380356611504, -0.04043754353469177, -0.037182485090493836, -0.033720035062191935, -0.03051115222430759])","array('d', [-0.03361438587307935, -0.028836356834529075, -0.024917332738174387, -0.021642921346243817, -0.018871333110503867, -0.01650620924844278, -0.014479402806530314, -0.01273987476787201, -0.011246986528045243, -0.009966609339639146, -0.008868877672144612, -0.007926881591619257, -0.007115881156963777, -0.0064128004863406125, -0.005795865994946351, -0.0052443172088037365])","array('d', [-1.6004137873610083, -1.6253629455933833, -1.6437121000858725, -1.6567528365848108, -1.6653404483450762, -1.6703365232031098, -1.6727230464166583, -1.673334046622409, -1.6727989412731366, -1.6715873443511133, -1.6700371969307222, -1.6683774962553202, -1.6667494167032055, -1.6652268122683174, -1.6638362549521477, -1.6622617336856735])",280.9561541358768,-309.56149219691326,-49.689986850220016,0.08837718850493743,-0.01650620924844278,-1.6703365232031098,25.000000163188773,-1.0,"[-308.9813400149835, 289.4047463785464, 49.94188592577307]","[-299.9094607369286, 274.662662582422, 39.92330460342788]","[-319.8740362014667, 275.2345111303632, 40.96672003314911]",10000000000.0,0.029446125030517578
10,3.1047756671905518,-308.9951477050781,290.1673278808594,49.98482131958008,0.552716612815857,0.024881279096007364,-1.6301729559858862,23.18342200925576,"array('d', [292.48931884765625, 289.99377982520707, 287.5011681279734, 285.01137282831974, 282.5238357158773, 280.03780914470155, 277.5525920393221, 275.0676448646666, 272.58259767813985, 270.09722426798726, 267.61140824471283, 265.12510954199945, 262.63833571483735, 260.15111971912427, 257.66350434718055, 255.67312137663444])","array('d', [-308.7200622558594, -308.8475905655161, -309.02774034032575, -309.24594108000946, -309.49020785582456, -309.7505463598739, -310.0193235158216, -310.2911910746882, -310.56260038789355, -310.831356552145, -311.0962591179665, -311.3568043969875, -311.6129416171607, -311.86488053099254, -312.11294927004803, -312.30824807280203])","array('d', [-49.98567581176758, -49.91021846610572, -49.844994896249524, -49.78828554664474, -49.738773720430274, -49.69541093828992, -49.657333151385586, -49.62380959162935, -49.59421217858014, -49.56799709624817, -49.54469333066039, -49.52389515498703, -49.505256870182066, -49.48848888887081, -49.47335469732299, -49.46240587006511])","array('d', [0.6248453855514526, 0.49064308302368975, 0.3692118072089944, 0.25933623542691125, 0.15991669957129787, 0.08282256947926558, 0.028955567674344037, -0.00681039965585296, -0.0287873740457485, -0.04062919238512273, -0.045399485254597804, -0.045605666878895966, -0.04322087655041153, -0.03970114251948337, -0.03599903362932297, -0.032573275590276514])","array('d', [-0.032472830265760456, -0.027977261234352103, -0.02426939985225807, -0.02115396113291476, -0.018502335334473312, -0.016227584681333444, -0.014268508782234169, -0.012579324906205329, -0.011123447774678547, -0.009869915407735824, -0.008791360654369976, -0.007862861945283269, -0.007061276882779914, -0.006364827791372261, -0.005752810485428778, -0.005205358955425423])","array('d', [-1.609007585044724, -1.6334764261514572, -1.6514481263221805, -1.6641774725691394, -1.6724990773837056, -1.6772619552111077, -1.6794401775287444, -1.6798630222880966, -1.6791572965788202, -1.6777908998495172, -1.6761004079728978, -1.6743135859045992, -1.6725704435239162, -1.670943732857514, -1.6694589973123382, -1.6677779799338193])",280.03780914470155,-309.7505463598739,-49.69541093828992,0.08282256947926558,-0.016227584681333444,-1.6772619552111077,25.000000139982824,-1.0,"[-309.05005666795876, 288.91088159615435, 49.94548867499162]","[-300.0588378077939, 273.928768800706, 40.214390093994766]","[-320.0194909055266, 274.6191415813964, 41.26115336028621]",10000000000.0,0.018765687942504883
11,3.1287100315093994,-309.1192626953125,289.2408752441406,49.98980712890625,0.5070741176605223,0.02074117399752147,-1.6388478159864968,23.202717201478716,"array('d', [291.5594787597656, 289.0648597528536, 286.5734401519566, 284.08495335894685, 281.59874202131925, 279.1139944369524, 276.6299722424912, 274.14611783643045, 271.66205581682925, 269.1775623236877, 266.69252773087555, 264.2069208283993, 261.72075861884645, 259.2340832042303, 256.74694583116985, 254.74880653460858])","array('d', [-308.8236999511719, -308.9707452809483, -309.1680758624535, -309.40156657254863, -309.659533366937, -309.9321966410907, -310.2120836643926, -310.49397114142835, -310.77441502468827, -311.0513127361292, -311.32354731731647, -311.59069116067417, -311.8527628230687, -312.1100350804978, -312.36289321080477, -312.5623977381267])","array('d', [-49.983917236328125, -49.91353117505677, -49.852485202820105, -49.799255097264975, -49.75266758626111, -49.71178250038161, -49.675819587668414, -49.64411418520823, -49.61609110212904, -49.59124922141291, -49.569152146117396, -49.54942219302072, -49.5317362340131, -49.51582259445425, -49.50145862282893, -49.49102463338782])","array('d', [0.6045039892196654, 0.4722374248202383, 0.3525576774515909, 0.2442669542803405, 0.14628144899995138, 0.07051932340682529, 0.01781662381830899, -0.01690660745693606, -0.03793868765425854, -0.04892064857923941, -0.052908243229428366, -0.052402929432208895, -0.04937247294563122, -0.04526765252833485, -0.04103585648000147, -0.037130781786147184])","array('d', [-0.030238041654229192, -0.026146542380563024, -0.02275174501775665, -0.019883421307980043, -0.017429687171335563, -0.015315120766322318, -0.013486707238433069, -0.011904688626498797, -0.010537064078129972, -0.009356464007412118, -0.0083384109735874, -0.007460364098645259, -0.006701186782226002, -0.006040828124799255, -0.0054601021566944834, -0.004940505497152591])","array('d', [-1.6173725008925026, -1.6407953210286144, -1.6579401405624548, -1.669984463730231, -1.6777190937577209, -1.6819664511322054, -1.6836838509258032, -1.6836903422432685, -1.6826070788268157, -1.680898207908295, -1.678897285617023, -1.6768293343974428, -1.674831768358613, -1.6729748856481732, -1.6712819437992457, -1.6693732598635365])",279.1139944369524,-309.9321966410907,-49.71178250038161,0.07051932340682529,-0.015315120766322318,-1.6819664511322054,25.000000098625513,-1.0,"[-309.08413277230665, 288.6704347585495, 49.9475032516803]","[-300.1323563406061, 273.56680407315235, 40.369087994656795]","[-320.0909313047375, 274.316154221455, 41.41491769225766]",10000000000.0,0.01836419105529785
12,3.1514620780944824,-309.1843566894531,288.7781066894531,49.994083404541016,0.48158201575279236,0.018565634265542096,-1.6429493308027812,23.21044013570269,"array('d', [291.0950927734375, 288.6009570694326, 286.1101097472811, 283.6222035978096, 281.1365340956574, 278.6522627623393, 276.16863886285773, 273.6851019193509, 271.2012794029125, 268.71695345507686, 266.23202176364134, 263.74646065280655, 261.26029424174664, 258.77357101508306, 256.2863478072089, 254.29852128943392])","array('d', [-308.87872314453125, -309.0354402380579, -309.24080290623954, -309.4809920313951, -309.7445310675649, -310.02178870643803, -310.3054030634297, -310.5902378356107, -310.8729224776626, -311.1514198159893, -311.42467240627315, -311.69230710089437, -311.95439221314905, -312.21124581710643, -312.4632942956449, -312.6607851220574])","array('d', [-49.98358154296875, -49.91690120261008, -49.85898341861307, -49.808420711777835, -49.764125677788456, -49.72522344046051, -49.69098492617594, -49.66078661807497, -49.634087037798786, -49.610413036390646, -49.589351569400556, -49.57054446697669, -49.553684822654276, -49.538514286336216, -49.52482092292092, -49.5149258780327])","array('d', [0.5899449586868284, 0.45906386803138033, 0.34063774926081763, 0.23348135625286678, 0.1365222353614566, 0.06170668271524101, 0.009833872342387752, -0.024144455882716194, -0.044500462356870586, -0.054866548502473654, -0.05829317067557908, -0.057277730068241675, -0.05378426052791366, -0.04925983802050307, -0.04464816210158284, -0.04039933137387768])","array('d', [-0.028623599559068732, -0.024790967862859503, -0.021600645295554985, -0.018897386155005254, -0.01657917541071535, -0.014577271328938195, -0.012843325462996262, -0.011340973208479679, -0.01004078880711505, -0.00891743712349132, -0.007948107850559561, -0.007111670827622555, -0.006388216733042962, -0.005758788237289113, -0.005205194579794232, -0.004709855562793551])","array('d', [-1.621629941459519, -1.644319021644065, -1.660879851018444, -1.6724380190122499, -1.679754602128142, -1.6836337572728013, -1.685021298761901, -1.6847293714156824, -1.6833753117739716, -1.6814207063608038, -1.6791970129951197, -1.676927317804907, -1.674747183498384, -1.67272514856984, -1.6708828274323078, -1.6687950518291015])",278.6522627623393,-310.02178870643803,-49.72522344046051,0.06170668271524101,-0.014577271328938195,-1.6836337572728013,25.000000068715693,-1.0,"[-309.2841416252288, 287.33638031510463, 49.96534618797037]","[-300.5517657592398, 271.4920862859664, 41.43868456378782]","[-320.49687856225063, 272.58456103547735, 42.43817153061301]",10000000000.0,0.0211184024810791
13,3.172443389892578,-309.31964111328125,287.8534851074219,50.006935119628906,0.4270480275154113,0.014138627797365202,-1.651128995414597,23.225096120676568,"array('d', [290.63104248046875, 288.1374080630946, 285.64711289687114, 283.159730371133, 280.6745121695974, 278.19059765806765, 275.7072286237092, 273.2238463196672, 270.74008521583085, 268.2557369396813, 265.7707091982459, 263.28498803168645, 260.7986063444384, 258.3116202234381, 255.82409296821356, 253.83503722169297])","array('d', [-308.9358825683594, -309.1020992035616, -309.31503303666864, -309.561217335191, -309.8294157550272, -310.1101692075384, -310.39624467548816, -310.6826076608679, -310.965974332939, -311.2443851867504, -311.51685379256236, -311.7830721706127, -312.0431682757789, -312.29751453050307, -312.5465866555827, -312.7414135433326])","array('d', [-49.983829498291016, -49.92137832835931, -49.86706111419136, -49.8195928753572, -49.7779764691861, -49.741405933893304, -49.7092065780378, -49.68079900856193, -49.655678294400936, -49.6334019661077, -49.6135829071698, -49.59588487660936, -49.58001941533553, -49.5657435064741, -49.552857699927614, -49.54354174783337])","array('d', [0.5725470185279847, 0.4433215593536384, 0.3263935180321908, 0.22059264167324777, 0.12486004296647259, 0.05116663623011644, 0.0002807916755323235, -0.03280947391050747, -0.05235803879804378, -0.061987675937563956, -0.06474296496569147, -0.06311674605716147, -0.059068762598961565, -0.05404175527503688, -0.04897505409296789, -0.044314465505978465])","array('d', [-0.026788702234625806, -0.02323671150168024, -0.02026998583873595, -0.01774895296308834, -0.015581867376732818, -0.013706886894960354, -0.01208044514549909, -0.01066963680883644, -0.009447660152825842, -0.008391264058909982, -0.007479363820046699, -0.006692310129563994, -0.006011502592173018, -0.005419169173775173, -0.004898214425238469, -0.004432088407503477])","array('d', [-1.6258847594221655, -1.647712442905938, -1.6635835271448434, -1.6745650191877777, -1.6813841501753184, -1.6848240183382222, -1.6858171924288168, -1.6851680314764532, -1.683489570522582, -1.6812404800785103, -1.6787497843761072, -1.6762382873044057, -1.6738393470252122, -1.6716193952119094, -1.669598073957834, -1.6673087882460256])",278.19059765806765,-310.1101692075384,-49.741405933893304,0.05116663623011644,-0.013706886894960354,-1.6848240183382222,25.00000002615516,-1.0,"[-309.32363307695306, 287.0850048030416, 49.97003244184655]","[-300.63125386087466, 271.0973481549312, 41.67320301934916]","[-320.57354846228526, 272.2544655269032, 42.65603841657002]",10000000000.0,0.01869797706604004
14,3.1940181255340576,-309.31964111328125,287.8534851074219,50.006935119628906,0.4270480275154113,0.014138627797365202,-1.651128995414597,23.225096120676568,"array('d', [290.1673278808594, 287.67423041830386, 285.1844873768493, 282.69759539621606, 280.2127660195765, 277.7291207688827, 275.24589832687775, 272.7625457737496, 270.2787082014226, 267.79418984052637, 265.3089110907712, 262.8228698310328, 260.3361092134103, 257.84869396876536, 255.36069448740452, 253.36985343704023])","array('d', [-308.9951477050781, -309.17081571240476, -309.3910405211188, -309.6427403463294, -309.91494305262916, -310.19837984166435, -310.485960282306, -310.7727634022, -311.0556029737078, -311.3326075357912, -311.60287153424395, -311.86616142928597, -312.1226734349177, -312.3728422259874, -312.6172000622395, -312.80795634164696])","array('d', [-49.98482131958008, -49.92677648183874, -49.87622779267232, -49.83201164809975, -49.793220520573236, -49.75911709679694, -49.729081119977515, -49.70257763402295, -49.679138769356534, -49.65835339329172, -49.6398610632725, -49.62334825213454, -49.60854573022688, -49.59522656102968, -49.58320446478661, -49.57450695931212])","array('d', [0.552716612815857, 0.4253782645308983, 0.3101577518513609, 0.205901911302616, 0.11156731789199248, 0.03914042809008019, -0.01062712707350408, -0.04270814484321491, -0.061337069838237855, -0.07012664904699757, -0.0721153964579624, -0.06979135738305989, -0.06510962575337227, -0.059508130251143265, -0.05392127732176944, -0.04878999376793109])","array('d', [-0.024881279096007364, -0.021613300853472222, -0.018874113814800093, -0.016539598373067683, -0.014528109638910465, -0.01278456465783361, -0.011270061988019926, -0.009955062329993417, -0.0088153189439595, -0.007829618882255637, -0.0069785781283520955, -0.006244021303346154, -0.005608664848970901, -0.005055941820776795, -0.004569881245141403, -0.004135000029588389])","array('d', [-1.6301729559858862, -1.651038138297904, -1.6661332490500464, -1.6764627931900782, -1.682717524467103, -1.6856574879839188, -1.6862007804489008, -1.6851434963706016, -1.683094112326974, -1.680508166653418, -1.6777120074623648, -1.6749238784369578, -1.6722746343536026, -1.6698282989041593, -1.6676022532519235, -1.6650831146543388])",277.7291207688827,-310.19837984166435,-49.75911709679694,0.03914042809008019,-0.01278456465783361,-1.6856574879839188,25.000000155605413,-1.0,"[-309.39046141094855, 286.66529721799213, 49.978696402585236]","[-300.7647936143719, 270.4410542082089, 42.08111488527243]","[-320.70212719252663, 271.7061933555441, 43.030932094668024]",10000000000.0,0.017199277877807617
15,3.216801881790161,-309.4614562988281,286.926025390625,50.02747344970703,0.3689075112342834,0.00996178761124612,-1.6587951064070288,23.238489220773605,"array('d', [289.2408752441406, 286.7489645327105, 284.2603430799368, 281.7743656421279, 279.29017501645563, 276.8068650968938, 274.3236579525055, 271.8399854544316, 270.34910510327643, 267.8629956807572, 265.3758659522959, 262.8877614541361, 260.3987647604097, 257.9089724121442, 255.41848028099966, 253.4255565136979])","array('d', [-309.1192626953125, -309.3137952870251, -309.5480489715697, -309.8097656237915, -310.0885455614588, -310.3755018278499, -310.6636666764732, -310.9480338299891, -311.11273981202555, -311.37530690921926, -311.6281549199628, -311.8713273459483, -312.10527531353927, -312.3306663084452, -312.54824403203116, -312.71595301459485])","array('d', [-49.98980712890625, -49.94134994680275, -49.89903537940504, -49.86193994057665, -49.82933461607351, -49.800620058509246, -49.7752865040735, -49.75288996418975, -49.74098798145372, -49.723392983946574, -49.707746838481896, -49.693781147982655, -49.681265496823485, -49.670005923784025, -49.65984358340315, -49.652491639521486])","array('d', [0.5070741176605223, 0.38407922343070083, 0.272788830925606, 0.17208911065032637, 0.08097222941719492, 0.009370853415833233, -0.04128564752945027, -0.07591618209989068, -0.0946771970444363, -0.10036087201417922, -0.0995086313638147, -0.09459455614694681, -0.08755877389521337, -0.07982260136057964, -0.07230275505517789, -0.06542224412454646])","array('d', [-0.02074117399752147, -0.018071545371279567, -0.015819303830987144, -0.01389031997918124, -0.012222504484771616, -0.010773815623908143, -0.009514386106286075, -0.008421322326836338, -0.007464123051711305, -0.0066259744012765855, -0.005903083611056248, -0.005279922880612587, -0.004741620148634716, -0.00427387201177429, -0.0038628793262370565, -0.0034952783858558287])","array('d', [-1.6388478159864968, -1.6575690763945947, -1.6709159821726955, -1.6797646401046238, -1.68472959475588, -1.6864806123277123, -1.6858376719744244, -1.6835239304287826, -1.677921483916439, -1.67408077144987, -1.6701465063752479, -1.6663278155220884, -1.6627463596070429, -1.6594571813978023, -1.6564691736373744, -1.6530889038804792])",276.8068650968938,-310.3755018278499,-49.800620058509246,0.009370853415833233,-0.010773815623908143,-1.6864806123277123,24.99999976776329,-1.0,"[-309.4399985237913, 286.35847194797685, 49.98572788450653]","[-300.8630117946299, 269.96415325308897, 42.3922034604832]","[-320.7965205872302, 271.30820579297927, 43.313479741162375]",10000000000.0,0.019639253616333008
16,3.240671396255493,-309.5341796875,286.4628601074219,50.04023742675781,0.339083969593048,0.007965541444718826,-1.662394511695725,23.244254170970407,"array('d', [288.7781066894531, 286.2867954061573, 283.7986835083084, 281.3130656327043, 278.8290595252382, 276.34574718864997, 273.862315716903, 272.37165060752847, 270.8799232781552, 268.39214894088695, 265.9032160927852, 263.41320609403624, 260.922229599718, 258.43040453685455, 255.93784286156614, 253.9432400600136])","array('d', [-309.1843566894531, -309.387621936899, -309.6279830328741, -309.89360712751585, -310.17439410414113, -310.4616016981861, -310.7480328229585, -310.9146580174169, -311.071577760281, -311.31797984467676, -311.55250407114363, -311.7753947376705, -311.9872884212621, -312.1890221672752, -312.3814936195487, -312.52794345749015])","array('d', [-49.994083404541016, -49.95067459857726, -49.91270988091974, -49.87938097915642, -49.850045476965825, -49.82417183052142, -49.80130526780306, -49.789159423949165, -49.77840098175171, -49.7625072382227, -49.7483821335826, -49.73577965677009, -49.72448901634152, -49.714333207765755, -49.70516770443145, -49.698537014330924])","array('d', [0.48158201575279236, 0.3610130136800103, 0.25191765937096755, 0.153204091956095, 0.0638843556867075, -0.01064903719801417, -0.06601463978990174, -0.10228613883284729, -0.11865426005060471, -0.12211705511795545, -0.11922664909110633, -0.1124508454386175, -0.10372124071099499, -0.09444840527545609, -0.08553688449785055, -0.07739698072357244])","array('d', [-0.018565634265542096, -0.016202583905585936, -0.014203707725091122, -0.012488814448185413, -0.011004882835518974, -0.00971590789734527, -0.008596276237460117, -0.007614733909946387, -0.006744496367363528, -0.005983283134148679, -0.005327795808891118, -0.004763639759747376, -0.004277021175314237, -0.0038546933997064014, -0.003483911184767528, -0.003152373807006365])","array('d', [-1.6429493308027812, -1.660512322957705, -1.6729035684897766, -1.6809357714037387, -1.6851851638524804, -1.6862059613367004, -1.684682547832881, -1.679145546045232, -1.6718820579952085, -1.6671340159787527, -1.6623766903446635, -1.6578129666116967, -1.6535579396133864, -1.6496601134170987, -1.646122154714976, -1.642120636644565])",276.34574718864997,-310.4616016981861,-49.82417183052142,-0.01064903719801417,-0.00971590789734527,-1.6862059613367004,24.999999614072745,-1.0,"[-309.5136428015491, 285.91356472355295, 49.998514092499114]","[-301.00354181640523, 269.27761031071356, 42.8694747465155]","[-320.9314691537726, 270.73015283472404, 43.745735125940236]",10000000000.0,0.018085002899169922
17,3.2806026935577393,-309.6822814941406,285.53765869140625,50.07084274291992,0.2793426811695099,0.004734686575829996,-1.6692120909651345,23.251663679370896,"array('d', [288.3156433105469, 285.8249677567604, 283.3373750344463, 280.85210567623375, 278.368256956668, 275.8849115213397, 273.40127019588357, 271.910357315564, 270.4182596462618, 267.92974632391696, 265.4400106603173, 262.94915270193644, 260.4572977123337, 257.9645746728943, 255.47110376776152, 253.47585135061155])","array('d', [-309.2511901855469, -309.4631355741043, -309.70947703172317, -309.97880323830253, -310.26131397476865, -310.54848751993154, -310.8332887207572, -310.99777231999855, -311.15120376876195, -311.39013594233876, -311.6160683985452, -311.82934996224856, -312.03071391854513, -312.22108575586424, -312.401443369426, -312.53758723635224])","array('d', [-49.99974822998047, -49.961415810071486, -49.92784778314465, -49.898352126614306, -49.872375052501596, -49.849455336033394, -49.82919605961356, -49.818434846556336, -49.808903379823455, -49.79482344119353, -49.782311365898885, -49.77114884146402, -49.76114877857995, -49.75215410153391, -49.74403660927621, -49.73816434991661])","array('d', [0.4548695385456085, 0.33684256258779083, 0.23004732883374526, 0.1334149967523112, 0.04597844015928321, -0.026987569435997855, -0.08094238195915611, -0.11591121708650236, -0.1310541897340624, -0.13337371686044466, -0.1294314372063655, -0.12169332216490387, -0.11208743477825965, -0.10201929202474189, -0.09238739948482061, -0.0835955835779022])","array('d', [-0.01638276875019082, -0.014318805101524648, -0.012565672393164837, -0.011056577069468073, -0.009747298923263065, -0.0086077421647842, -0.007616395092864019, -0.006746523700271492, -0.005975054091399859, -0.005300214385676844, -0.0047191806400642446, -0.00421920922563484, -0.0037880550187036417, -0.003413943163012326, -0.0030855406114636006, -0.002791913167291075])","array('d', [-1.6470446467360083, -1.663420856114582, -1.6748249311537438, -1.6820087560640322, -1.6855113539565094, -1.6858602476579692, -1.6837223744551342, -1.6772444644489801, -1.6691188514111084, -1.6638995578153295, -1.6587147432600833, -1.6537641656914848, -1.6491595334144262, -1.6449459350992786, -1.6411227696255353, -1.6367989984631628])",275.8849115213397,-310.54848751993154,-49.849455336033394,-0.026987569435997855,-0.0086077421647842,-1.6858602476579692,24.99999931205777,-1.0,"[-309.70035592323234, 284.7994347357864, 50.034564555923026]","[-301.35020015785454, 267.6151743498348, 44.12050557061174]","[-321.26345092471826, 269.3242720658281, 44.85632408980514]",10000000000.0,0.0383450984954834
18,3.309816598892212,-309.83282470703125,284.6137390136719,50.108707427978516,0.2212691754102707,0.002943307626992459,-1.6755921721418923,23.25769794832703,"array('d', [287.8534851074219, 285.36347940878744, 282.8764150104026, 280.39148452234855, 277.9077693745814, 275.42434530419524, 273.93381310325054, 272.4421736613856, 270.9491740031446, 268.45900359910706, 265.9675450296847, 263.4749305814682, 260.9813094111068, 258.4868274635751, 255.99161660246557, 253.99491086010883])","array('d', [-309.31964111328125, -309.5402099628793, -309.79241369713986, -310.0652557578022, -310.34923405043935, -310.63594798861425, -310.80386396639096, -310.96169627114773, -311.1061450296917, -311.3272362306406, -311.5333835016914, -311.72511744618134, -311.9033397492108, -312.06912988552733, -312.22360535356887, -312.337996647698])","array('d', [-50.006935119628906, -49.97381888066821, -49.9447577701768, -49.91917155422789, -49.89659254634085, -49.87662857836613, -49.86602269475058, -49.85662959532787, -49.84831296627401, -49.83603196087032, -49.82512162673889, -49.81538999362324, -49.80667283544698, -49.798832534395245, -49.791756982871895, -49.7866382694774])","array('d', [0.4270480275154113, 0.31166861610617896, 0.20726899803187804, 0.11280430880552708, 0.027329116111880998, -0.05001203434176702, -0.10660932400946925, -0.13936348794722428, -0.15240976819453292, -0.15276525981975378, -0.14701306327538646, -0.137617748799465, -0.12650225190217376, -0.11506383247666277, -0.10419074859202473, -0.09427569647534619])","array('d', [-0.014138627797365202, -0.012384405308113213, -0.01088993934623789, -0.009600895837305844, -0.008481235060634435, -0.0075063723619077025, -0.006649222932228018, -0.005887695574314931, -0.005212464364920857, -0.004622226021899115, -0.004114538347803774, -0.0036780690599740105, -0.003301946153091487, -0.0029757466960272597, -0.002689477747158513, -0.0024335406216931172])","array('d', [-1.651128995414597, -1.666295874749171, -1.676685856688368, -1.6829929987976369, -1.6857205043010923, -1.6852499054832908, -1.6800854423077078, -1.6719824533329901, -1.6623657897394182, -1.6563312304430169, -1.650407041894427, -1.6447876712943592, -1.6395789480481198, -1.634819984582737, -1.6305044518785634, -1.6256250500543508])",275.42434530419524,-310.63594798861425,-49.87662857836613,-0.05001203434176702,-0.0075063723619077025,-1.6852499054832908,15.000000089108584,-1.0,"[-309.82966529831845, 284.0449338085779, 50.06374073959082]","[-301.58000765978846, 266.54267385267394, 45.00270870224852]","[-321.48300609749924, 268.40565545801604, 45.63512686030584]",10000000000.0,0.02528095245361328
19,3.3331398963928223,-309.9085693359375,284.15216064453125,50.12965774536133,0.19307540357112882,0.0025116982869803914,-1.6785926699598854,23.26165149154896,"array('d', [286.926025390625, 284.4373664573595, 281.951282552122, 279.46689504522845, 276.9832723433248, 274.4995157556937, 273.0084946627499, 271.51610212365546, 269.02676908786617, 266.53595373802705, 264.0437730132786, 261.55038656365036, 259.0559649680514, 256.5606703119713, 254.06464631261596, 252.06729434033758])","array('d', [-309.4614562988281, -309.6979778021249, -309.96051131466623, -310.23885493952076, -310.5240866433472, -310.8082464441641, -310.9719176673209, -311.12258685961046, -311.35302109899425, -311.5668857986747, -311.76424783017774, -311.94578387004054, -312.1125311433893, -312.26569308142894, -312.4064994873912, -312.5091133238733])","array('d', [-50.02747344970703, -50.00408756321896, -49.98347833557961, -49.965274602010595, -49.94917308238779, -49.934915936697195, -49.92733695078162, -49.92062431221665, -49.91071624948337, -49.90192600816681, -49.894103101501905, -49.88711594668535, -49.880851315198015, -49.87521373001721, -49.87012481896611, -49.86644310962725])","array('d', [0.3689075112342834, 0.2590608967003715, 0.15966756071112553, 0.06973274323474635, -0.011643651673597948, -0.08527605695845682, -0.13648344473064827, -0.16164466631932742, -0.16945614364129682, -0.16825535588209137, -0.16106354951510485, -0.15034683149750958, -0.13802582013877265, -0.1254923018898758, -0.11362698716416181, -0.10281395899400976])","array('d', [-0.00996178761124612, -0.008767124738392248, -0.00773761891721676, -0.006840463353102754, -0.006053962092930627, -0.005363337739148126, -0.004752214743762154, -0.004207093726827111, -0.0037273801272802135, -0.003311760888868025, -0.0029525667863741236, -0.0026423395863553437, -0.0023738498219203694, -0.002140121242029045, -0.0019344416395325695, -0.001750355638356072])","array('d', [-1.6587951064070288, -1.6715118735026195, -1.679822721713808, -1.6843166757102208, -1.6854306795221088, -1.6835026011810703, -1.6761913020206085, -1.6663550914977503, -1.6597962260270538, -1.653107030232431, -1.6465891489017226, -1.6404329508579139, -1.6347395858893423, -1.6295433366208958, -1.6248332164144055, -1.6195085837261485])",274.4995157556937,-310.8082464441641,-49.934915936697195,-0.08527605695845682,-0.005363337739148126,-1.6835026011810703,14.999999963144015,-1.0,"[-309.9345015016672, 283.44053306931227, 50.09023308532311]","[-301.7612126929393, 265.722796964381, 45.6994270812804]","[-321.6558967322064, 267.6948230416399, 46.25858728045645]",10000000000.0,0.022336244583129883
20,3.37601637840271,-310.0603332519531,283.2296447753906,50.17491912841797,0.13908718526363376,0.0018881261348724437,-1.6842195868452614,23.26469121169071,"array('d', [286.4628601074219, 283.9748728161381, 281.4892449012444, 279.0050735835891, 276.5214292445104, 274.03743293198755, 272.54611771844645, 271.0532638668186, 269.5587667282148, 267.06589057967193, 264.57166822926837, 262.0762947538297, 259.5799647206447, 257.08285511357406, 254.58511791168516, 252.58649146090207])","array('d', [-309.5341796875, -309.7780992215933, -310.04521297704844, -310.3256928048268, -310.6108938534995, -310.8930696173719, -311.05408744501176, -311.2001472744969, -311.3283081572428, -311.51668576835186, -311.6863480154123, -311.8381809259174, -311.97341604566316, -312.0934342846153, -312.1996259123796, -312.2733585145026])","array('d', [-50.04023742675781, -50.021501717103, -50.004926283682224, -49.990232840012524, -49.97719257482513, -49.96560962329883, -49.959433439712775, -49.95394584336687, -49.94907215279055, -49.94185416738678, -49.93542530686042, -49.9296793490392, -49.92452490310478, -49.91988485525426, -49.91569575992613, -49.912664938995206])","array('d', [0.339083969593048, 0.23207543785034848, 0.1352501056035479, 0.04763891422284912, -0.031634976634947305, -0.10336495480828273, -0.15566106134419946, -0.18430502878052907, -0.19339707874123357, -0.190012528486049, -0.18079856021927, -0.16822520082190642, -0.15421053041349392, -0.14013876159853111, -0.12687985910503405, -0.11480565450819283])","array('d', [-0.007965541444718826, -0.007038629721764818, -0.006235216939563747, -0.00553134777212295, -0.004911256187044301, -0.004364263530872298, -0.003878770293808929, -0.0034452728449368636, -0.0030594293863676924, -0.002720619008578149, -0.0024273671056640714, -0.0021736359307100122, -0.0019535944566743822, -0.0017616479939287625, -0.0015924523557177923, -0.001440910924127362])","array('d', [-1.662394511695725, -1.673889553010102, -1.6811517641979774, -1.6847234990320636, -1.6850117194970147, -1.682334256887271, -1.6737854320839836, -1.6625433379709702, -1.650038293172614, -1.6424234110483078, -1.6350666392628548, -1.6281525688109753, -1.6217755961219358, -1.6159630097332325, -1.6106970923962811, -1.6047456464886491])",274.03743293198755,-310.8930696173719,-49.96560962329883,-0.10336495480828273,-0.004364263530872298,-1.682334256887271,14.999999952485991,-1.0,"[-310.09132032207634, 282.53798743457105, 50.13194842141537]","[-302.0267824348913, 264.55443682736563, 46.73266375780764]","[-321.9089942327374, 266.6752132380151, 47.17983424165213]",10000000000.0,0.04132723808288574
21,3.402437925338745,-310.0603332519531,283.2296447753906,50.17491912841797,0.13908718526363376,0.0018881261348724437,-1.6842195868452614,23.26469121169071,"array('d', [285.53765869140625, 283.0510243483431, 280.5662736502384, 278.08247590909116, 275.59871995740576, 274.10779033881363, 272.6154434000807, 271.12138236558724, 268.6290152222463, 266.13510447127237, 263.63985255889475, 261.14348245130014, 258.646208297553, 256.14821985771425, 253.64967675405828, 251.651646895711])","array('d', [-309.6822814941406, -309.94011609899, -310.21561049578554, -310.4996252474912, -310.78403433708115, -310.94865525351116, -311.0998610169204, -311.2330422870189, -311.42808648020997, -311.6023021140012, -311.7561424551358, -311.8906515558574, -312.007207769126, -312.1073260022904, -312.1925175090383, -312.2485245279057])","array('d', [-50.07084274291992, -50.059625573429784, -50.049557085403, -50.040513071801534, -50.03239082089756, -50.02801736417113, -50.02409643017022, -50.020584358882466, -50.01534265622179, -50.01064511735846, -50.00642891915838, -50.00263800507156, -49.99922301648431, -49.99614110584803, -49.99335565173677, -49.99134104856909])","array('d', [0.2793426811695099, 0.17801927977370172, 0.08633806663289453, 0.0033814670499846353, -0.07168077492735266, -0.13959990478593987, -0.18651978640553324, -0.20747729269104112, -0.21123552754333877, -0.20623523331168486, -0.19551943166415492, -0.18156391651447917, -0.16628670696024217, -0.15106747021895392, -0.1367687528509313, -0.12375349640265136])","array('d', [-0.004734686575829996, -0.004247211195639395, -0.0038148142408697245, -0.0034268838756313087, -0.0030767689516920937, -0.0027598026250094617, -0.0024729014627258477, -0.002214180555081783, -0.001983040527253461, -0.001778406467340084, -0.0015975703790285828, -0.001437826870727249, -0.0012965220702525271, -0.0011710993364215541, -0.0010591322019227445, -0.0009583428565343904])","array('d', [-1.6692120909651345, -1.6783186244416377, -1.6835089357653492, -1.6852442252572177, -1.6838784408551302, -1.6769035693709007, -1.6661155999393382, -1.653050214663686, -1.6447116073416441, -1.6364014537856857, -1.6284148371918241, -1.620932138909345, -1.6140426653745, -1.6077683709368034, -1.6020863872513265, -1.5956622248467232])",274.10779033881363,-310.94865525351116,-50.02801736417113,-0.13959990478593987,-0.0027598026250094617,-1.6769035693709007,14.999999925163007,-1.0,"[-310.17757333105914, 282.0417598711354, 50.156690169742696]","[-302.1687560960054, 263.9418545747912, 47.28401288907311]","[-322.04429920665814, 266.1357370200308, 47.670879627178145]",10000000000.0,0.024024486541748047
